Time, Motor A Speed, Motor A Dir, Motor B Speed, Motor B Dir, Servo Rail Current Sensor, Servo Pos - Arm L, Servo Pos - Arm R, Servo Pos - End, Servo Pos - Hopper, Servo Pos - Lid, Servo Pos - Extra, Servo Current, LED - Front L, LED - Front R, LED - Back L, LED - Back R, IMU Pitch, IMU Roll, IMU Yaw, Compass Heading, GPS Sats, GPS Latitude, GPS Longitude, GPS Altitude, GPS Speed, GPS Angle, GPS HDOP, GPS VDOP, GPS PDOP, Battery, Wind, Comm Xbee Latency, Comm Arduino Latency, Pressure, Humidity, Temperature, uRADMonitor
15:18:18,0,0,0,0,0,0,0,0,0,0,0,514,0,0,0,0,0.0000000,0.0000000,0.0000000,0.0000000,3.00,0.0000000,0.0000000,0.0000000,0.1,359.0,0.0,0.0,0.0,896,164,0,0,856.71,10.82,27.88,0
15:18:19,0,0,0,0,0,0,0,0,0,0,0,515,0,0,0,0,0.0000000,0.0000000,0.0000000,0.0000000,3.00,0.0000000,0.0000000,0.0000000,0.1,132.3,0.0,0.0,0.0,896,156,0,0,856.75,10.82,27.86,0
15:18:20,0,0,0,0,0,0,0,0,0,0,0,515,0,0,0,0,0.0000000,0.0000000,0.0000000,0.0000000,3.00,0.0000000,0.0000000,0.0000000,0.0,84.2,0.0,0.0,0.0,896,152,0,0,856.75,10.82,27.86,0
15:18:21,0,0,0,0,0,0,0,0,0,0,0,515,0,0,0,0,0.0000000,0.0000000,0.0000000,0.0000000,3.00,0.0000000,0.0000000,0.0000000,0.1,140.0,0.0,0.0,0.0,896,159,0,0,856.71,10.80,27.83,0
15:18:22,0,0,0,0,0,0,0,0,0,0,0,515,0,0,0,0,0.0000000,0.0000000,0.0000000,0.0000000,3.00,0.0000000,0.0000000,0.0000000,0.1,125.9,0.0,0.0,0.0,897,159,0,0,856.67,10.86,27.76,0
15:18:23,0,0,0,0,0,0,0,0,0,0,0,515,0,0,0,0,0.0000000,0.0000000,0.0000000,0.0000000,3.00,0.0000000,0.0000000,0.0000000,0.2,330.3,0.0,0.0,0.0,896,163,0,0,856.65,10.88,27.67,0
15:18:24,0,0,0,0,0,0,0,0,0,0,0,515,0,0,0,0,0.0000000,0.0000000,0.0000000,0.0000000,3.00,0.0000000,0.0000000,0.0000000,0.3,333.1,0.0,0.0,0.0,896,158,0,0,856.72,10.93,27.68,0
15:18:25,0,0,0,0,0,0,0,0,0,0,0,515,0,0,0,0,0.0000000,0.0000000,0.0000000,0.0000000,3.00,0.0000000,0.0000000,0.0000000,0.2,334.0,0.0,0.0,0.0,897,156,0,0,856.73,10.93,27.72,0
15:18:26,0,0,0,0,0,0,0,0,0,0,0,515,0,0,0,0,0.0000000,0.0000000,0.0000000,0.0000000,3.00,0.0000000,0.0000000,0.0000000,0.1,330.5,0.0,0.0,0.0,896,152,0,0,856.66,10.90,27.76,0
15:18:27,0,0,0,0,0,0,0,0,0,0,0,516,0,0,0,0,0.0000000,0.0000000,0.0000000,0.0000000,3.00,0.0000000,0.0000000,0.0000000,0.1,135.2,0.0,0.0,0.0,896,145,0,0,856.73,10.90,27.78,0
15:18:28,0,0,0,0,0,0,0,0,0,0,0,514,0,0,0,0,0.0000000,0.0000000,0.0000000,0.0000000,3.00,0.0000000,0.0000000,0.0000000,0.1,151.4,0.0,0.0,0.0,896,141,0,0,856.63,10.88,27.78,0
15:18:29,0,0,0,0,0,0,0,0,0,0,0,514,0,0,0,0,0.0000000,0.0000000,0.0000000,0.0000000,3.00,0.0000000,0.0000000,0.0000000,0.2,321.3,0.0,0.0,0.0,896,141,0,0,856.69,10.88,27.80,0
15:18:30,0,0,0,0,0,0,0,0,0,0,0,514,0,0,0,0,0.0000000,0.0000000,0.0000000,0.0000000,3.00,0.0000000,0.0000000,0.0000000,0.2,329.9,0.0,0.0,0.0,897,144,0,0,856.68,10.85,27.81,0
15:18:31,0,0,0,0,0,0,0,0,0,0,0,515,0,0,0,0,0.0000000,0.0000000,0.0000000,0.0000000,3.00,0.0000000,0.0000000,0.0000000,0.4,324.7,0.0,0.0,0.0,896,143,0,0,856.74,10.86,27.83,0
15:18:32,0,0,0,0,0,0,0,0,0,0,0,514,0,0,0,0,0.0000000,0.0000000,0.0000000,0.0000000,3.00,0.0000000,0.0000000,0.0000000,0.3,324.9,0.0,0.0,0.0,896,136,0,0,856.70,10.85,27.83,0
15:18:33,0,0,0,0,0,0,0,0,0,0,0,515,0,0,0,0,0.0000000,0.0000000,0.0000000,0.0000000,3.00,0.0000000,0.0000000,0.0000000,0.2,327.4,0.0,0.0,0.0,896,131,0,0,856.68,10.86,27.81,0
15:18:34,0,0,0,0,0,0,0,0,0,0,0,515,0,0,0,0,0.0000000,0.0000000,0.0000000,0.0000000,3.00,0.0000000,0.0000000,0.0000000,0.1,312.5,0.0,0.0,0.0,896,144,0,0,856.69,10.85,27.81,0
15:18:35,0,0,0,0,0,0,0,0,0,0,0,515,0,0,0,0,0.0000000,0.0000000,0.0000000,0.0000000,3.00,0.0000000,0.0000000,0.0000000,0.5,327.4,0.0,0.0,0.0,896,140,0,0,856.69,10.83,27.81,0
15:18:36,0,0,0,0,0,0,0,0,0,0,0,515,0,0,0,0,0.0000000,0.0000000,0.0000000,0.0000000,3.00,0.0000000,0.0000000,0.0000000,0.2,16.4,0.0,0.0,0.0,896,142,0,0,856.67,10.85,27.81,0
15:18:37,0,0,0,0,0,0,0,0,0,0,0,515,0,0,0,0,0.0000000,0.0000000,0.0000000,0.0000000,3.00,0.0000000,0.0000000,0.0000000,0.1,64.1,0.0,0.0,0.0,897,151,0,0,856.64,10.86,27.73,0
15:18:38,0,0,0,0,0,0,0,0,0,0,0,515,0,0,0,0,0.0000000,0.0000000,0.0000000,0.0000000,3.00,0.0000000,0.0000000,0.0000000,0.2,118.2,0.0,0.0,0.0,897,164,0,0,856.68,10.90,27.68,0
15:18:39,0,0,0,0,0,0,0,0,0,0,0,514,0,0,0,0,0.0000000,0.0000000,0.0000000,0.0000000,3.00,0.0000000,0.0000000,0.0000000,0.1,58.5,0.0,0.0,0.0,896,159,0,0,856.63,10.90,27.72,0
15:18:40,0,0,0,0,0,0,0,0,0,0,0,515,0,0,0,0,0.0000000,0.0000000,0.0000000,0.0000000,3.00,0.0000000,0.0000000,0.0000000,0.1,132.2,0.0,0.0,0.0,897,156,0,0,856.64,10.93,27.76,0
15:18:41,0,0,0,0,0,0,0,0,0,0,0,514,0,0,0,0,0.0000000,0.0000000,0.0000000,0.0000000,3.00,0.0000000,0.0000000,0.0000000,0.1,341.9,0.0,0.0,0.0,896,144,0,0,856.70,10.94,27.86,0
15:18:42,0,0,0,0,0,0,0,0,0,0,0,515,0,0,0,0,0.0000000,0.0000000,0.0000000,0.0000000,3.00,0.0000000,0.0000000,0.0000000,0.2,131.8,0.0,0.0,0.0,896,147,0,0,856.65,10.90,27.80,0
15:18:43,0,0,0,0,0,0,0,0,0,0,0,515,0,0,0,0,0.0000000,0.0000000,0.0000000,0.0000000,3.00,0.0000000,0.0000000,0.0000000,0.2,123.2,0.0,0.0,0.0,896,150,0,0,856.73,10.91,27.79,0
15:18:44,0,0,0,0,0,0,0,0,0,0,0,514,0,0,0,0,0.0000000,0.0000000,0.0000000,0.0000000,3.00,0.0000000,0.0000000,0.0000000,0.2,130.6,0.0,0.0,0.0,896,146,0,0,856.70,10.90,27.81,0
15:18:45,0,0,0,0,0,0,0,0,0,0,0,514,0,0,0,0,0.0000000,0.0000000,0.0000000,0.0000000,3.00,0.0000000,0.0000000,0.0000000,0.1,132.6,0.0,0.0,0.0,896,141,0,0,856.74,10.90,27.82,0
15:18:46,0,0,0,0,0,0,0,0,0,0,0,515,0,0,0,0,0.0000000,0.0000000,0.0000000,0.0000000,3.00,0.0000000,0.0000000,0.0000000,0.1,63.0,0.0,0.0,0.0,896,140,0,0,856.70,10.86,27.82,0
15:18:47,0,0,0,0,0,0,0,0,0,0,0,515,0,0,0,0,0.0000000,0.0000000,0.0000000,0.0000000,3.00,0.0000000,0.0000000,0.0000000,0.2,125.6,0.0,0.0,0.0,896,154,0,0,856.67,10.88,27.76,0
15:18:48,0,0,0,0,0,0,0,0,0,0,0,515,0,0,0,0,0.0000000,0.0000000,0.0000000,0.0000000,3.00,0.0000000,0.0000000,0.0000000,0.4,336.6,0.0,0.0,0.0,896,157,0,0,856.74,10.86,27.75,0
15:18:49,0,0,0,0,0,0,0,0,0,0,0,515,0,0,0,0,0.0000000,0.0000000,0.0000000,0.0000000,3.00,0.0000000,0.0000000,0.0000000,0.1,133.1,0.0,0.0,0.0,896,153,0,0,856.74,10.85,27.76,0
15:18:50,0,0,0,0,0,0,0,0,0,0,0,514,0,0,0,0,0.0000000,0.0000000,0.0000000,0.0000000,3.00,0.0000000,0.0000000,0.0000000,0.0,144.8,0.0,0.0,0.0,896,156,0,0,856.70,10.88,27.77,0
15:18:51,0,0,0,0,0,0,0,0,0,0,0,514,0,0,0,0,0.0000000,0.0000000,0.0000000,0.0000000,3.00,0.0000000,0.0000000,0.0000000,0.2,337.6,0.0,0.0,0.0,897,149,0,0,856.74,10.86,27.78,0
15:18:52,0,0,0,0,0,0,0,0,0,0,0,514,0,0,0,0,0.0000000,0.0000000,0.0000000,0.0000000,3.00,0.0000000,0.0000000,0.0000000,0.0,85.0,0.0,0.0,0.0,896,151,0,0,856.71,10.90,27.78,0
15:18:53,0,0,0,0,0,0,0,0,0,0,0,515,0,0,0,0,0.0000000,0.0000000,0.0000000,0.0000000,3.00,0.0000000,0.0000000,0.0000000,0.2,46.4,0.0,0.0,0.0,896,160,0,0,856.73,10.83,27.80,0
15:18:54,0,0,0,0,0,0,0,0,0,0,0,515,0,0,0,0,0.0000000,0.0000000,0.0000000,0.0000000,3.00,0.0000000,0.0000000,0.0000000,0.3,149.2,0.0,0.0,0.0,896,161,0,0,856.74,10.86,27.77,0
15:18:55,0,0,0,0,0,0,0,0,0,0,0,515,0,0,0,0,0.0000000,0.0000000,0.0000000,0.0000000,3.00,0.0000000,0.0000000,0.0000000,0.2,329.1,0.0,0.0,0.0,896,162,0,0,856.67,10.88,27.75,0
15:18:56,0,0,0,0,0,0,0,0,0,0,0,515,0,0,0,0,0.0000000,0.0000000,0.0000000,0.0000000,3.00,0.0000000,0.0000000,0.0000000,0.1,110.6,0.0,0.0,0.0,896,163,0,0,856.63,10.91,27.69,0
15:18:57,0,0,0,0,0,0,0,0,0,0,0,515,0,0,0,0,0.0000000,0.0000000,0.0000000,0.0000000,3.00,0.0000000,0.0000000,0.0000000,0.2,128.3,0.0,0.0,0.0,896,163,0,0,856.63,10.94,27.66,0
15:18:58,0,0,0,0,0,0,0,0,0,0,0,515,0,0,0,0,0.0000000,0.0000000,0.0000000,0.0000000,3.00,0.0000000,0.0000000,0.0000000,0.2,349.1,0.0,0.0,0.0,896,160,0,0,856.66,10.94,27.67,0
15:18:59,0,0,0,0,0,0,0,0,0,0,0,515,0,0,0,0,0.0000000,0.0000000,0.0000000,0.0000000,3.00,0.0000000,0.0000000,0.0000000,0.3,144.8,0.0,0.0,0.0,896,162,0,0,856.63,10.94,27.67,0
15:19:00,0,0,0,0,0,0,0,0,0,0,0,514,0,0,0,0,0.0000000,0.0000000,0.0000000,0.0000000,3.00,0.0000000,0.0000000,0.0000000,0.1,118.3,0.0,0.0,0.0,896,159,0,0,856.60,10.96,27.65,0
15:19:01,0,0,0,0,0,0,0,0,0,0,0,514,0,0,0,0,0.0000000,0.0000000,0.0000000,0.0000000,3.00,0.0000000,0.0000000,0.0000000,0.1,57.7,0.0,0.0,0.0,896,164,0,0,856.64,10.99,27.64,0
15:19:02,0,0,0,0,0,0,0,0,0,0,0,515,0,0,0,0,0.0000000,0.0000000,0.0000000,0.0000000,3.00,0.0000000,0.0000000,0.0000000,0.1,350.9,0.0,0.0,0.0,896,163,0,0,856.77,10.99,27.65,0
15:19:03,0,0,0,0,0,0,0,0,0,0,0,514,0,0,0,0,0.0000000,0.0000000,0.0000000,0.0000000,3.00,0.0000000,0.0000000,0.0000000,0.4,337.6,0.0,0.0,0.0,896,154,0,0,856.68,10.94,27.65,0
15:19:04,0,0,0,0,0,0,0,0,0,0,0,514,0,0,0,0,0.0000000,0.0000000,0.0000000,0.0000000,3.00,0.0000000,0.0000000,0.0000000,0.2,3.8,0.0,0.0,0.0,896,153,0,0,856.69,10.97,27.67,0
15:19:05,0,0,0,0,0,0,0,0,0,0,0,514,0,0,0,0,0.0000000,0.0000000,0.0000000,0.0000000,3.00,0.0000000,0.0000000,0.0000000,0.0,39.5,0.0,0.0,0.0,896,157,0,0,856.70,10.99,27.77,0
15:19:06,0,0,0,0,0,0,0,0,0,0,0,515,0,0,0,0,0.0000000,0.0000000,0.0000000,0.0000000,3.00,0.0000000,0.0000000,0.0000000,0.1,156.2,0.0,0.0,0.0,896,147,0,0,856.69,10.97,27.70,0
15:19:07,0,0,0,0,0,0,0,0,0,0,0,515,0,0,0,0,0.0000000,0.0000000,0.0000000,0.0000000,3.00,0.0000000,0.0000000,0.0000000,0.3,327.7,0.0,0.0,0.0,896,143,0,0,856.66,10.96,27.71,0
15:19:08,0,0,0,0,0,0,0,0,0,0,0,515,0,0,0,0,0.0000000,0.0000000,0.0000000,0.0000000,3.00,0.0000000,0.0000000,0.0000000,0.1,321.5,0.0,0.0,0.0,896,144,0,0,856.65,10.97,27.73,0
15:19:09,0,0,0,0,0,0,0,0,0,0,0,515,0,0,0,0,0.0000000,0.0000000,0.0000000,0.0000000,3.00,0.0000000,0.0000000,0.0000000,0.1,332.4,0.0,0.0,0.0,896,141,0,0,856.69,10.99,27.73,0
15:19:10,0,0,0,0,0,0,0,0,0,0,0,514,0,0,0,0,0.0000000,0.0000000,0.0000000,0.0000000,3.00,0.0000000,0.0000000,0.0000000,0.3,334.1,0.0,0.0,0.0,896,142,0,0,856.73,10.96,27.73,0
15:19:11,0,0,0,0,0,0,0,0,0,0,0,515,0,0,0,0,0.0000000,0.0000000,0.0000000,0.0000000,3.00,0.0000000,0.0000000,0.0000000,0.1,347.5,0.0,0.0,0.0,896,139,0,0,856.68,10.97,27.74,0
15:19:12,0,0,0,0,0,0,0,0,0,0,0,515,0,0,0,0,0.0000000,0.0000000,0.0000000,0.0000000,3.00,0.0000000,0.0000000,0.0000000,0.0,99.8,0.0,0.0,0.0,896,137,0,0,856.73,10.93,27.72,0
15:19:13,0,0,0,0,0,0,0,0,0,0,0,516,0,0,0,0,0.0000000,0.0000000,0.0000000,0.0000000,3.00,0.0000000,0.0000000,0.0000000,0.1,350.1,0.0,0.0,0.0,896,135,0,0,856.67,10.93,27.72,0
15:19:14,0,0,0,0,0,0,0,0,0,0,0,515,0,0,0,0,0.0000000,0.0000000,0.0000000,0.0000000,3.00,0.0000000,0.0000000,0.0000000,0.1,343.0,0.0,0.0,0.0,896,140,0,0,856.69,10.93,27.72,0
15:19:15,0,0,0,0,0,0,0,0,0,0,0,515,0,0,0,0,0.0000000,0.0000000,0.0000000,0.0000000,3.00,0.0000000,0.0000000,0.0000000,0.1,110.5,0.0,0.0,0.0,896,143,0,0,856.68,10.94,27.70,0
15:19:16,0,0,0,0,0,0,0,0,0,0,0,515,0,0,0,0,0.0000000,0.0000000,0.0000000,0.0000000,3.00,0.0000000,0.0000000,0.0000000,0.0,72.9,0.0,0.0,0.0,896,149,0,0,856.70,10.91,27.70,0
15:19:17,0,0,0,0,0,0,0,0,0,0,0,515,0,0,0,0,0.0000000,0.0000000,0.0000000,0.0000000,3.00,0.0000000,0.0000000,0.0000000,0.1,347.0,0.0,0.0,0.0,896,145,0,0,856.65,10.93,27.70,0
15:19:18,0,0,0,0,0,0,0,0,0,0,0,515,0,0,0,0,0.0000000,0.0000000,0.0000000,0.0000000,3.00,0.0000000,0.0000000,0.0000000,0.1,85.7,0.0,0.0,0.0,896,143,0,0,856.68,10.94,27.69,0
15:19:19,0,0,0,0,0,0,0,0,0,0,0,515,0,0,0,0,0.0000000,0.0000000,0.0000000,0.0000000,3.00,0.0000000,0.0000000,0.0000000,0.3,142.6,0.0,0.0,0.0,896,143,0,0,856.67,10.96,27.68,0
15:19:20,0,0,0,0,0,0,0,0,0,0,0,516,0,0,0,0,0.0000000,0.0000000,0.0000000,0.0000000,3.00,0.0000000,0.0000000,0.0000000,0.2,137.6,0.0,0.0,0.0,896,139,0,0,856.69,10.96,27.69,0
15:19:21,0,0,0,0,0,0,0,0,0,0,0,514,0,0,0,0,0.0000000,0.0000000,0.0000000,0.0000000,3.00,0.0000000,0.0000000,0.0000000,0.2,340.4,0.0,0.0,0.0,896,135,0,0,856.69,10.97,27.70,0
15:19:22,0,0,0,0,0,0,0,0,0,0,0,514,0,0,0,0,0.0000000,0.0000000,0.0000000,0.0000000,3.00,0.0000000,0.0000000,0.0000000,0.1,336.3,0.0,0.0,0.0,897,138,0,0,856.68,10.96,27.71,0
15:19:23,0,0,0,0,0,0,0,0,0,0,0,515,0,0,0,0,0.0000000,0.0000000,0.0000000,0.0000000,3.00,0.0000000,0.0000000,0.0000000,0.4,333.9,0.0,0.0,0.0,896,140,0,0,856.68,10.99,27.72,0
15:19:24,0,0,0,0,0,0,0,0,0,0,0,515,0,0,0,0,0.0000000,0.0000000,0.0000000,0.0000000,3.00,0.0000000,0.0000000,0.0000000,0.1,336.2,0.0,0.0,0.0,896,139,0,0,856.64,10.97,27.72,0
15:19:25,0,0,0,0,0,0,0,0,0,0,0,515,0,0,0,0,0.0000000,0.0000000,0.0000000,0.0000000,3.00,0.0000000,0.0000000,0.0000000,0.0,183.9,0.0,0.0,0.0,896,145,0,0,856.62,10.93,27.63,0
15:19:26,0,0,0,0,0,0,0,0,0,0,0,515,0,0,0,0,0.0000000,0.0000000,0.0000000,0.0000000,3.00,0.0000000,0.0000000,0.0000000,0.0,183.9,0.0,0.0,0.0,896,137,0,0,856.58,10.94,27.68,0
15:19:27,0,0,0,0,0,0,0,0,0,0,0,515,0,0,0,0,0.0000000,0.0000000,0.0000000,0.0000000,3.00,0.0000000,0.0000000,0.0000000,0.1,43.6,0.0,0.0,0.0,896,139,0,0,856.61,10.96,27.75,0
15:19:28,0,0,0,0,0,0,0,0,0,0,0,515,0,0,0,0,0.0000000,0.0000000,0.0000000,0.0000000,3.00,0.0000000,0.0000000,0.0000000,0.1,338.8,0.0,0.0,0.0,896,138,0,0,856.67,10.97,27.76,0
15:19:29,0,0,0,0,0,0,0,0,0,0,0,515,0,0,0,0,0.0000000,0.0000000,0.0000000,0.0000000,3.00,0.0000000,0.0000000,0.0000000,0.2,327.7,0.0,0.0,0.0,896,131,0,0,856.67,10.93,27.77,0
15:19:31,0,0,0,0,0,0,0,0,0,0,0,515,0,0,0,0,0.0000000,0.0000000,0.0000000,0.0000000,3.00,0.0000000,0.0000000,0.0000000,0.0,241.7,0.0,0.0,0.0,896,136,0,0,856.66,10.93,27.77,0
15:19:32,0,0,0,0,0,0,0,0,0,0,0,514,0,0,0,0,0.0000000,0.0000000,0.0000000,0.0000000,3.00,0.0000000,0.0000000,0.0000000,0.1,150.6,0.0,0.0,0.0,896,138,0,0,856.68,10.93,27.77,0
15:19:33,0,0,0,0,0,0,0,0,0,0,0,515,0,0,0,0,0.0000000,0.0000000,0.0000000,0.0000000,3.00,0.0000000,0.0000000,0.0000000,0.0,339.8,0.0,0.0,0.0,896,155,0,0,856.66,10.93,27.77,0
15:19:34,0,0,0,0,0,0,0,0,0,0,0,515,0,0,0,0,0.0000000,0.0000000,0.0000000,0.0000000,3.00,0.0000000,0.0000000,0.0000000,0.1,142.5,0.0,0.0,0.0,896,141,0,0,856.62,10.91,27.78,0
15:19:35,0,0,0,0,0,0,0,0,0,0,0,515,0,0,0,0,0.0000000,0.0000000,0.0000000,0.0000000,3.00,0.0000000,0.0000000,0.0000000,0.0,345.1,0.0,0.0,0.0,896,146,0,0,856.70,10.91,27.79,0
15:19:36,0,0,0,0,0,0,0,0,0,0,0,515,0,0,0,0,0.0000000,0.0000000,0.0000000,0.0000000,3.00,0.0000000,0.0000000,0.0000000,0.1,156.4,0.0,0.0,0.0,896,145,0,0,856.67,10.91,27.78,0
15:19:37,0,0,0,0,0,0,0,0,0,0,0,515,0,0,0,0,0.0000000,0.0000000,0.0000000,0.0000000,3.00,0.0000000,0.0000000,0.0000000,0.2,320.3,0.0,0.0,0.0,896,143,0,0,856.64,10.90,27.78,0
15:19:38,0,0,0,0,0,0,0,0,0,0,0,515,0,0,0,0,0.0000000,0.0000000,0.0000000,0.0000000,3.00,0.0000000,0.0000000,0.0000000,0.2,324.3,0.0,0.0,0.0,896,140,0,0,856.59,10.86,27.79,0
15:19:39,0,0,0,0,0,0,0,0,0,0,0,515,0,0,0,0,0.0000000,0.0000000,0.0000000,0.0000000,3.00,0.0000000,0.0000000,0.0000000,0.2,331.6,0.0,0.0,0.0,896,136,0,0,856.70,10.93,27.77,0
15:19:40,0,0,0,0,0,0,0,0,0,0,0,514,0,0,0,0,0.0000000,0.0000000,0.0000000,0.0000000,3.00,0.0000000,0.0000000,0.0000000,0.3,139.6,0.0,0.0,0.0,896,141,0,0,856.62,10.96,27.77,0
15:19:41,0,0,0,0,0,0,0,0,0,0,0,514,0,0,0,0,0.0000000,0.0000000,0.0000000,0.0000000,3.00,0.0000000,0.0000000,0.0000000,0.0,89.9,0.0,0.0,0.0,896,144,0,0,856.63,10.94,27.79,0
15:19:42,0,0,0,0,0,0,0,0,0,0,0,514,0,0,0,0,0.0000000,0.0000000,0.0000000,0.0000000,3.00,0.0000000,0.0000000,0.0000000,0.0,22.4,0.0,0.0,0.0,896,162,0,0,856.62,10.97,27.79,0
15:19:43,0,0,0,0,0,0,0,0,0,0,0,514,0,0,0,0,0.0000000,0.0000000,0.0000000,0.0000000,3.00,0.0000000,0.0000000,0.0000000,0.2,131.2,0.0,0.0,0.0,896,160,0,0,856.64,10.97,27.79,0
15:19:44,0,0,0,0,0,0,0,0,0,0,0,516,0,0,0,0,0.0000000,0.0000000,0.0000000,0.0000000,3.00,0.0000000,0.0000000,0.0000000,0.0,43.3,0.0,0.0,0.0,896,157,0,0,856.69,10.97,27.78,0
15:19:45,0,0,0,0,0,0,0,0,0,0,0,514,0,0,0,0,0.0000000,0.0000000,0.0000000,0.0000000,3.00,0.0000000,0.0000000,0.0000000,0.4,139.5,0.0,0.0,0.0,896,153,0,0,856.66,10.94,27.79,0
15:19:46,0,0,0,0,0,0,0,0,0,0,0,515,0,0,0,0,0.0000000,0.0000000,0.0000000,0.0000000,3.00,0.0000000,0.0000000,0.0000000,0.0,355.3,0.0,0.0,0.0,897,151,0,0,856.63,10.94,27.79,0
15:19:47,0,0,0,0,0,0,0,0,0,0,0,516,0,0,0,0,0.0000000,0.0000000,0.0000000,0.0000000,3.00,0.0000000,0.0000000,0.0000000,0.2,331.5,0.0,0.0,0.0,896,150,0,0,856.63,10.97,27.80,0
15:19:48,0,0,0,0,0,0,0,0,0,0,0,515,0,0,0,0,0.0000000,0.0000000,0.0000000,0.0000000,3.00,0.0000000,0.0000000,0.0000000,0.0,178.3,0.0,0.0,0.0,897,148,0,0,856.69,10.90,27.79,0
15:19:49,0,0,0,0,0,0,0,0,0,0,0,515,0,0,0,0,0.0000000,0.0000000,0.0000000,0.0000000,3.00,0.0000000,0.0000000,0.0000000,0.1,103.9,0.0,0.0,0.0,896,149,0,0,856.66,10.91,27.77,0
15:19:50,0,0,0,0,0,0,0,0,0,0,0,514,0,0,0,0,0.0000000,0.0000000,0.0000000,0.0000000,3.00,0.0000000,0.0000000,0.0000000,0.3,125.9,0.0,0.0,0.0,896,146,0,0,856.67,10.91,27.78,0
15:19:51,0,0,0,0,0,0,0,0,0,0,0,514,0,0,0,0,0.0000000,0.0000000,0.0000000,0.0000000,3.00,0.0000000,0.0000000,0.0000000,0.0,331.2,0.0,0.0,0.0,896,145,0,0,856.60,10.94,27.78,0
15:19:52,0,0,0,0,0,0,0,0,0,0,0,514,0,0,0,0,0.0000000,0.0000000,0.0000000,0.0000000,3.00,0.0000000,0.0000000,0.0000000,0.1,331.6,0.0,0.0,0.0,896,142,0,0,856.65,10.93,27.78,0
15:19:53,0,0,0,0,0,0,0,0,0,0,0,515,0,0,0,0,0.0000000,0.0000000,0.0000000,0.0000000,3.00,0.0000000,0.0000000,0.0000000,0.0,98.6,0.0,0.0,0.0,896,143,0,0,856.63,10.94,27.80,0
15:19:54,0,0,0,0,0,0,0,0,0,0,0,515,0,0,0,0,0.0000000,0.0000000,0.0000000,0.0000000,3.00,0.0000000,0.0000000,0.0000000,0.1,129.7,0.0,0.0,0.0,896,137,0,0,856.64,10.91,27.81,0
15:19:55,0,0,0,0,0,0,0,0,0,0,0,516,0,0,0,0,0.0000000,0.0000000,0.0000000,0.0000000,3.00,0.0000000,0.0000000,0.0000000,0.2,342.9,0.0,0.0,0.0,896,137,0,0,856.68,10.93,27.83,0
15:19:56,0,0,0,0,0,0,0,0,0,0,0,515,0,0,0,0,0.0000000,0.0000000,0.0000000,0.0000000,3.00,0.0000000,0.0000000,0.0000000,0.1,339.8,0.0,0.0,0.0,896,136,0,0,856.62,10.86,27.85,0
15:19:57,0,0,0,0,0,0,0,0,0,0,0,514,0,0,0,0,0.0000000,0.0000000,0.0000000,0.0000000,3.00,0.0000000,0.0000000,0.0000000,0.2,329.6,0.0,0.0,0.0,895,145,0,0,856.70,10.88,27.82,0
15:19:58,0,0,0,0,0,0,0,0,0,0,0,515,0,0,0,0,0.0000000,0.0000000,0.0000000,0.0000000,3.00,0.0000000,0.0000000,0.0000000,0.3,334.4,0.0,0.0,0.0,896,149,0,0,856.73,10.90,27.77,0
15:19:59,0,0,0,0,0,0,0,0,0,0,0,515,0,0,0,0,0.0000000,0.0000000,0.0000000,0.0000000,3.00,0.0000000,0.0000000,0.0000000,0.0,30.1,0.0,0.0,0.0,896,163,0,0,856.67,10.91,27.76,0
15:20:00,0,0,0,0,0,0,0,0,0,0,0,515,0,0,0,0,0.0000000,0.0000000,0.0000000,0.0000000,3.00,0.0000000,0.0000000,0.0000000,0.2,332.0,0.0,0.0,0.0,896,155,0,0,856.64,10.90,27.76,0
15:20:01,0,0,0,0,0,0,0,0,0,0,0,515,0,0,0,0,0.0000000,0.0000000,0.0000000,0.0000000,3.00,0.0000000,0.0000000,0.0000000,0.0,335.1,0.0,0.0,0.0,896,158,0,0,856.59,10.88,27.75,0
15:20:02,0,0,0,0,0,0,0,0,0,0,0,514,0,0,0,0,0.0000000,0.0000000,0.0000000,0.0000000,3.00,0.0000000,0.0000000,0.0000000,0.2,326.9,0.0,0.0,0.0,896,154,0,0,856.69,10.90,27.76,0
15:20:03,0,0,0,0,0,0,0,0,0,0,0,514,0,0,0,0,0.0000000,0.0000000,0.0000000,0.0000000,3.00,0.0000000,0.0000000,0.0000000,0.1,321.0,0.0,0.0,0.0,896,152,0,0,856.59,10.90,27.79,0
15:20:04,0,0,0,0,0,0,0,0,0,0,0,515,0,0,0,0,0.0000000,0.0000000,0.0000000,0.0000000,3.00,0.0000000,0.0000000,0.0000000,0.3,326.8,0.0,0.0,0.0,896,152,0,0,856.69,10.90,27.80,0
15:20:05,0,0,0,0,0,0,0,0,0,0,0,515,0,0,0,0,0.0000000,0.0000000,0.0000000,0.0000000,3.00,0.0000000,0.0000000,0.0000000,0.3,330.3,0.0,0.0,0.0,896,155,0,0,856.69,10.86,27.78,0
15:20:06,0,0,0,0,0,0,0,0,0,0,0,514,0,0,0,0,0.0000000,0.0000000,0.0000000,0.0000000,3.00,0.0000000,0.0000000,0.0000000,0.1,343.5,0.0,0.0,0.0,896,154,0,0,856.72,10.88,27.75,0
15:20:07,0,0,0,0,0,0,0,0,0,0,0,513,0,0,0,0,0.0000000,0.0000000,0.0000000,0.0000000,3.00,0.0000000,0.0000000,0.0000000,0.3,338.2,0.0,0.0,0.0,896,156,0,0,856.63,10.88,27.74,0
15:20:08,0,0,0,0,0,0,0,0,0,0,0,515,0,0,0,0,0.0000000,0.0000000,0.0000000,0.0000000,3.00,0.0000000,0.0000000,0.0000000,0.1,134.2,0.0,0.0,0.0,896,150,0,0,856.66,10.88,27.73,0
15:20:09,0,0,0,0,0,0,0,0,0,0,0,515,0,0,0,0,0.0000000,0.0000000,0.0000000,0.0000000,3.00,0.0000000,0.0000000,0.0000000,0.1,137.4,0.0,0.0,0.0,896,148,0,0,856.61,10.86,27.72,0
15:20:10,0,0,0,0,0,0,0,0,0,0,0,515,0,0,0,0,0.0000000,0.0000000,0.0000000,0.0000000,3.00,0.0000000,0.0000000,0.0000000,0.1,145.9,0.0,0.0,0.0,896,152,0,0,856.68,10.91,27.72,0
15:20:11,0,0,0,0,0,0,0,0,0,0,0,515,0,0,0,0,0.0000000,0.0000000,0.0000000,0.0000000,3.00,0.0000000,0.0000000,0.0000000,0.0,307.3,0.0,0.0,0.0,896,154,0,0,856.67,10.90,27.71,0
15:20:12,0,0,0,0,0,0,0,0,0,0,0,514,0,0,0,0,0.0000000,0.0000000,0.0000000,0.0000000,3.00,0.0000000,0.0000000,0.0000000,0.1,315.8,0.0,0.0,0.0,896,147,0,0,856.61,10.91,27.70,0
15:20:13,0,0,0,0,0,0,0,0,0,0,0,515,0,0,0,0,0.0000000,0.0000000,0.0000000,0.0000000,3.00,0.0000000,0.0000000,0.0000000,0.0,140.5,0.0,0.0,0.0,896,154,0,0,856.66,10.94,27.67,0
15:20:14,0,0,0,0,0,0,0,0,0,0,0,514,0,0,0,0,0.0000000,0.0000000,0.0000000,0.0000000,3.00,0.0000000,0.0000000,0.0000000,0.1,146.5,0.0,0.0,0.0,896,152,0,0,856.66,10.94,27.68,0
15:20:15,0,0,0,0,0,0,0,0,0,0,0,514,0,0,0,0,0.0000000,0.0000000,0.0000000,0.0000000,3.00,0.0000000,0.0000000,0.0000000,0.1,135.7,0.0,0.0,0.0,896,141,0,0,856.64,10.94,27.67,0
15:20:16,0,0,0,0,0,0,0,0,0,0,0,515,0,0,0,0,0.0000000,0.0000000,0.0000000,0.0000000,3.00,0.0000000,0.0000000,0.0000000,0.1,128.7,0.0,0.0,0.0,896,144,0,0,856.65,10.94,27.66,0
15:20:17,0,0,0,0,0,0,0,0,0,0,0,515,0,0,0,0,0.0000000,0.0000000,0.0000000,0.0000000,3.00,0.0000000,0.0000000,0.0000000,0.1,341.6,0.0,0.0,0.0,896,146,0,0,856.64,10.97,27.66,0
15:20:18,0,0,0,0,0,0,0,0,0,0,0,515,0,0,0,0,0.0000000,0.0000000,0.0000000,0.0000000,3.00,0.0000000,0.0000000,0.0000000,0.0,9.3,0.0,0.0,0.0,896,147,0,0,856.69,10.93,27.65,0
15:20:19,0,0,0,0,0,0,0,0,0,0,0,514,0,0,0,0,0.0000000,0.0000000,0.0000000,0.0000000,3.00,0.0000000,0.0000000,0.0000000,0.0,134.3,0.0,0.0,0.0,896,149,0,0,856.67,10.94,27.67,0
15:20:20,0,0,0,0,0,0,0,0,0,0,0,515,0,0,0,0,0.0000000,0.0000000,0.0000000,0.0000000,3.00,0.0000000,0.0000000,0.0000000,0.1,146.4,0.0,0.0,0.0,896,141,0,0,856.71,10.97,27.67,0
15:20:21,0,0,0,0,0,0,0,0,0,0,0,514,0,0,0,0,0.0000000,0.0000000,0.0000000,0.0000000,3.00,0.0000000,0.0000000,0.0000000,0.2,323.2,0.0,0.0,0.0,896,145,0,0,856.67,10.96,27.66,0
15:20:22,0,0,0,0,0,0,0,0,0,0,0,515,0,0,0,0,0.0000000,0.0000000,0.0000000,0.0000000,3.00,0.0000000,0.0000000,0.0000000,0.0,291.8,0.0,0.0,0.0,896,138,0,0,856.65,10.99,27.64,0
15:20:23,0,0,0,0,0,0,0,0,0,0,0,515,0,0,0,0,0.0000000,0.0000000,0.0000000,0.0000000,3.00,0.0000000,0.0000000,0.0000000,0.1,326.3,0.0,0.0,0.0,896,143,0,0,856.68,10.99,27.60,0
15:20:24,0,0,0,0,0,0,0,0,0,0,0,514,0,0,0,0,0.0000000,0.0000000,0.0000000,0.0000000,3.00,0.0000000,0.0000000,0.0000000,0.1,319.5,0.0,0.0,0.0,896,143,0,0,856.65,10.99,27.59,0
15:20:25,0,0,0,0,0,0,0,0,0,0,0,515,0,0,0,0,0.0000000,0.0000000,0.0000000,0.0000000,3.00,0.0000000,0.0000000,0.0000000,0.0,212.0,0.0,0.0,0.0,896,144,0,0,856.64,11.00,27.55,0
15:20:26,0,0,0,0,0,0,0,0,0,0,0,515,0,0,0,0,0.0000000,0.0000000,0.0000000,0.0000000,3.00,0.0000000,0.0000000,0.0000000,0.1,291.3,0.0,0.0,0.0,896,144,0,0,856.67,11.02,27.54,0
15:20:27,0,0,0,0,0,0,0,0,0,0,0,514,0,0,0,0,0.0000000,0.0000000,0.0000000,0.0000000,3.00,0.0000000,0.0000000,0.0000000,0.1,157.5,0.0,0.0,0.0,896,145,0,0,856.65,11.02,27.58,0
15:20:28,0,0,0,0,0,0,0,0,0,0,0,516,0,0,0,0,0.0000000,0.0000000,0.0000000,0.0000000,3.00,0.0000000,0.0000000,0.0000000,0.3,150.7,0.0,0.0,0.0,896,145,0,0,856.61,11.05,27.62,0
15:20:29,0,0,0,0,0,0,0,0,0,0,0,515,0,0,0,0,0.0000000,0.0000000,0.0000000,0.0000000,3.00,0.0000000,0.0000000,0.0000000,0.5,147.3,0.0,0.0,0.0,896,145,0,0,856.65,11.02,27.65,0
15:20:30,0,0,0,0,0,0,0,0,0,0,0,514,0,0,0,0,0.0000000,0.0000000,0.0000000,0.0000000,3.00,0.0000000,0.0000000,0.0000000,0.6,146.1,0.0,0.0,0.0,896,140,0,0,856.67,11.05,27.68,0
15:20:31,0,0,0,0,0,0,0,0,0,0,0,515,0,0,0,0,0.0000000,0.0000000,0.0000000,0.0000000,3.00,0.0000000,0.0000000,0.0000000,0.6,148.8,0.0,0.0,0.0,896,143,0,0,856.65,11.03,27.70,0
15:20:32,0,0,0,0,0,0,0,0,0,0,0,515,0,0,0,0,0.0000000,0.0000000,0.0000000,0.0000000,3.00,0.0000000,0.0000000,0.0000000,0.6,148.2,0.0,0.0,0.0,896,141,0,0,856.61,10.99,27.72,0
15:20:33,0,0,0,0,0,0,0,0,0,0,0,515,0,0,0,0,0.0000000,0.0000000,0.0000000,0.0000000,3.00,0.0000000,0.0000000,0.0000000,0.6,147.1,0.0,0.0,0.0,896,143,0,0,856.58,10.97,27.75,0
15:20:34,0,0,0,0,0,0,0,0,0,0,0,514,0,0,0,0,0.0000000,0.0000000,0.0000000,0.0000000,3.00,0.0000000,0.0000000,0.0000000,0.6,145.9,0.0,0.0,0.0,896,141,0,0,856.60,10.97,27.77,0
15:20:35,0,0,0,0,0,0,0,0,0,0,0,515,0,0,0,0,0.0000000,0.0000000,0.0000000,0.0000000,3.00,0.0000000,0.0000000,0.0000000,0.4,148.6,0.0,0.0,0.0,896,143,0,0,856.63,10.96,27.78,0
15:20:36,0,0,0,0,0,0,0,0,0,0,0,515,0,0,0,0,0.0000000,0.0000000,0.0000000,0.0000000,3.00,0.0000000,0.0000000,0.0000000,0.4,147.2,0.0,0.0,0.0,897,144,0,0,856.57,10.97,27.80,0
15:20:37,0,0,0,0,0,0,0,0,0,0,0,514,0,0,0,0,0.0000000,0.0000000,0.0000000,0.0000000,3.00,0.0000000,0.0000000,0.0000000,0.1,150.0,0.0,0.0,0.0,896,140,0,0,856.60,10.94,27.82,0
15:20:38,0,0,0,0,0,0,0,0,0,0,0,514,0,0,0,0,0.0000000,0.0000000,0.0000000,0.0000000,3.00,0.0000000,0.0000000,0.0000000,0.1,149.6,0.0,0.0,0.0,896,143,0,0,856.66,10.91,27.84,0
15:20:39,0,0,0,0,0,0,0,0,0,0,0,514,0,0,0,0,0.0000000,0.0000000,0.0000000,0.0000000,3.00,0.0000000,0.0000000,0.0000000,0.1,138.0,0.0,0.0,0.0,896,141,0,0,856.61,10.90,27.86,0
15:20:40,0,0,0,0,0,0,0,0,0,0,0,515,0,0,0,0,0.0000000,0.0000000,0.0000000,0.0000000,3.00,0.0000000,0.0000000,0.0000000,0.2,138.6,0.0,0.0,0.0,896,141,0,0,856.60,10.90,27.89,0
15:20:41,0,0,0,0,0,0,0,0,0,0,0,514,0,0,0,0,0.0000000,0.0000000,0.0000000,0.0000000,3.00,0.0000000,0.0000000,0.0000000,0.0,161.7,0.0,0.0,0.0,896,141,0,0,856.63,10.93,27.90,0
15:20:42,0,0,0,0,0,0,0,0,0,0,0,515,0,0,0,0,0.0000000,0.0000000,0.0000000,0.0000000,0.00,0.0000000,0.0000000,0.0000000,0.0,0.0,0.0,0.0,0.0,896,140,0,0,856.62,10.90,27.92,0
15:20:43,0,0,0,0,0,0,0,0,0,0,0,515,0,0,0,0,0.0000000,0.0000000,0.0000000,0.0000000,0.00,0.0000000,0.0000000,0.0000000,0.0,0.0,0.0,0.0,0.0,896,137,0,0,856.55,10.88,27.93,0
15:20:44,0,0,0,0,0,0,0,0,0,0,0,515,0,0,0,0,0.0000000,0.0000000,0.0000000,0.0000000,0.00,0.0000000,0.0000000,0.0000000,0.0,0.0,0.0,0.0,0.0,896,144,0,0,856.55,10.90,27.95,0
15:20:45,0,0,0,0,0,0,0,0,0,0,0,514,0,0,0,0,0.0000000,0.0000000,0.0000000,0.0000000,0.00,0.0000000,0.0000000,0.0000000,0.0,0.0,0.0,0.0,0.0,897,137,0,0,856.62,10.88,27.97,0
15:20:46,0,0,0,0,0,0,0,0,0,0,0,515,0,0,0,0,0.0000000,0.0000000,0.0000000,0.0000000,0.00,0.0000000,0.0000000,0.0000000,0.0,0.0,0.0,0.0,0.0,896,136,0,0,856.62,10.90,27.98,0
15:20:47,0,0,0,0,0,0,0,0,0,0,0,514,0,0,0,0,0.0000000,0.0000000,0.0000000,0.0000000,0.00,0.0000000,0.0000000,0.0000000,0.0,0.0,0.0,0.0,0.0,896,141,0,0,856.59,10.83,28.00,0
15:20:48,0,0,0,0,0,0,0,0,0,0,0,515,0,0,0,0,0.0000000,0.0000000,0.0000000,0.0000000,0.00,0.0000000,0.0000000,0.0000000,0.0,0.0,0.0,0.0,0.0,896,137,0,0,856.64,10.83,28.02,0
15:20:49,0,0,0,0,0,0,0,0,0,0,0,514,0,0,0,0,0.0000000,0.0000000,0.0000000,0.0000000,0.00,0.0000000,0.0000000,0.0000000,0.0,0.0,0.0,0.0,0.0,896,138,0,0,856.56,10.83,28.03,0
15:20:50,0,0,0,0,0,0,0,0,0,0,0,515,0,0,0,0,0.0000000,0.0000000,0.0000000,0.0000000,0.00,0.0000000,0.0000000,0.0000000,0.0,0.0,0.0,0.0,0.0,896,141,0,0,856.58,10.79,28.05,0
15:20:51,0,0,0,0,0,0,0,0,0,0,0,515,0,0,0,0,0.0000000,0.0000000,0.0000000,0.0000000,0.00,0.0000000,0.0000000,0.0000000,0.0,0.0,0.0,0.0,0.0,896,138,0,0,856.53,10.77,28.07,0
15:20:52,0,0,0,0,0,0,0,0,0,0,0,515,0,0,0,0,0.0000000,0.0000000,0.0000000,0.0000000,0.00,0.0000000,0.0000000,0.0000000,0.0,0.0,0.0,0.0,0.0,896,138,0,0,856.57,10.73,28.10,0
15:20:53,0,0,0,0,0,0,0,0,0,0,0,515,0,0,0,0,0.0000000,0.0000000,0.0000000,0.0000000,0.00,0.0000000,0.0000000,0.0000000,0.0,0.0,0.0,0.0,0.0,897,137,0,0,856.60,10.76,28.11,0
15:20:54,0,0,0,0,0,0,0,0,0,0,0,514,0,0,0,0,0.0000000,0.0000000,0.0000000,0.0000000,0.00,0.0000000,0.0000000,0.0000000,0.0,0.0,0.0,0.0,0.0,896,135,0,0,856.62,10.71,28.13,0
15:20:55,0,0,0,0,0,0,0,0,0,0,0,514,0,0,0,0,0.0000000,0.0000000,0.0000000,0.0000000,0.00,0.0000000,0.0000000,0.0000000,0.0,0.0,0.0,0.0,0.0,896,140,0,0,856.57,10.74,28.14,0
15:20:56,0,0,0,0,0,0,0,0,0,0,0,515,0,0,0,0,0.0000000,0.0000000,0.0000000,0.0000000,0.00,0.0000000,0.0000000,0.0000000,0.0,0.0,0.0,0.0,0.0,896,135,0,0,856.60,10.71,28.16,0
15:20:57,0,0,0,0,0,0,0,0,0,0,0,514,0,0,0,0,0.0000000,0.0000000,0.0000000,0.0000000,0.00,0.0000000,0.0000000,0.0000000,0.0,0.0,0.0,0.0,0.0,896,136,0,0,856.60,10.68,28.17,0
15:20:58,0,0,0,0,0,0,0,0,0,0,0,515,0,0,0,0,0.0000000,0.0000000,0.0000000,0.0000000,0.00,0.0000000,0.0000000,0.0000000,0.0,0.0,0.0,0.0,0.0,896,137,0,0,856.52,10.68,28.10,0
15:20:59,0,0,0,0,0,0,0,0,0,0,0,515,0,0,0,0,0.0000000,0.0000000,0.0000000,0.0000000,0.00,0.0000000,0.0000000,0.0000000,0.0,0.0,0.0,0.0,0.0,896,134,0,0,856.57,10.68,28.11,0
15:21:00,0,0,0,0,0,0,0,0,0,0,0,514,0,0,0,0,0.0000000,0.0000000,0.0000000,0.0000000,0.00,0.0000000,0.0000000,0.0000000,0.0,0.0,0.0,0.0,0.0,896,134,0,0,856.59,10.64,28.19,0
15:21:01,0,0,0,0,0,0,0,0,0,0,0,514,0,0,0,0,0.0000000,0.0000000,0.0000000,0.0000000,0.00,0.0000000,0.0000000,0.0000000,0.0,0.0,0.0,0.0,0.0,896,139,0,0,856.61,10.67,28.20,0
15:21:02,0,0,0,0,0,0,0,0,0,0,0,514,0,0,0,0,0.0000000,0.0000000,0.0000000,0.0000000,0.00,0.0000000,0.0000000,0.0000000,0.0,0.0,0.0,0.0,0.0,896,137,0,0,856.58,10.64,28.22,0
15:21:03,0,0,0,0,0,0,0,0,0,0,0,515,0,0,0,0,0.0000000,0.0000000,0.0000000,0.0000000,0.00,0.0000000,0.0000000,0.0000000,0.0,0.0,0.0,0.0,0.0,896,136,0,0,856.62,10.67,28.28,0
15:21:04,0,0,0,0,0,0,0,0,0,0,0,514,0,0,0,0,0.0000000,0.0000000,0.0000000,0.0000000,0.00,0.0000000,0.0000000,0.0000000,0.0,0.0,0.0,0.0,0.0,896,139,0,0,856.59,10.62,28.29,0
15:21:05,0,0,0,0,0,0,0,0,0,0,0,515,0,0,0,0,0.0000000,0.0000000,0.0000000,0.0000000,0.00,0.0000000,0.0000000,0.0000000,0.0,0.0,0.0,0.0,0.0,896,136,0,0,856.61,10.64,28.31,0
15:21:06,0,0,0,0,0,0,0,0,0,0,0,515,0,0,0,0,0.0000000,0.0000000,0.0000000,0.0000000,0.00,0.0000000,0.0000000,0.0000000,0.0,0.0,0.0,0.0,0.0,896,137,0,0,856.57,10.65,28.32,0
15:21:08,0,0,0,0,0,0,0,0,0,0,0,514,0,0,0,0,0.0000000,0.0000000,0.0000000,0.0000000,0.00,0.0000000,0.0000000,0.0000000,0.0,0.0,0.0,0.0,0.0,896,133,0,0,856.60,10.59,28.33,0
15:21:09,0,0,0,0,0,0,0,0,0,0,0,515,0,0,0,0,0.0000000,0.0000000,0.0000000,0.0000000,0.00,0.0000000,0.0000000,0.0000000,0.0,0.0,0.0,0.0,0.0,897,136,0,0,856.63,10.59,28.34,0
15:21:10,0,0,0,0,0,0,0,0,0,0,0,515,0,0,0,0,0.0000000,0.0000000,0.0000000,0.0000000,0.00,0.0000000,0.0000000,0.0000000,0.0,0.0,0.0,0.0,0.0,896,136,0,0,856.65,10.59,28.36,0
15:21:11,0,0,0,0,0,0,0,0,0,0,0,515,0,0,0,0,0.0000000,0.0000000,0.0000000,0.0000000,0.00,0.0000000,0.0000000,0.0000000,0.0,0.0,0.0,0.0,0.0,896,146,0,0,856.64,10.56,28.35,0
15:21:12,0,0,0,0,0,0,0,0,0,0,0,515,0,0,0,0,0.0000000,0.0000000,0.0000000,0.0000000,0.00,0.0000000,0.0000000,0.0000000,0.0,0.0,0.0,0.0,0.0,896,143,0,0,856.58,10.54,28.33,0
15:21:13,0,0,0,0,0,0,0,0,0,0,0,515,0,0,0,0,0.0000000,0.0000000,0.0000000,0.0000000,0.00,0.0000000,0.0000000,0.0000000,0.0,0.0,0.0,0.0,0.0,896,146,0,0,856.65,10.57,28.34,0
15:21:14,0,0,0,0,0,0,0,0,0,0,0,516,0,0,0,0,0.0000000,0.0000000,0.0000000,0.0000000,0.00,0.0000000,0.0000000,0.0000000,0.0,0.0,0.0,0.0,0.0,896,141,0,0,856.66,10.54,28.34,0
15:21:15,0,0,0,0,0,0,0,0,0,0,0,514,0,0,0,0,0.0000000,0.0000000,0.0000000,0.0000000,0.00,0.0000000,0.0000000,0.0000000,0.0,0.0,0.0,0.0,0.0,896,140,0,0,856.68,10.54,28.37,0
15:21:16,0,0,0,0,0,0,0,0,0,0,0,514,0,0,0,0,0.0000000,0.0000000,0.0000000,0.0000000,0.00,0.0000000,0.0000000,0.0000000,0.0,0.0,0.0,0.0,0.0,896,140,0,0,856.62,10.59,28.40,0
15:21:17,0,0,0,0,0,0,0,0,0,0,0,515,0,0,0,0,0.0000000,0.0000000,0.0000000,0.0000000,0.00,0.0000000,0.0000000,0.0000000,0.0,0.0,0.0,0.0,0.0,896,135,0,0,856.63,10.57,28.43,0
15:21:18,0,0,0,0,0,0,0,0,0,0,0,515,0,0,0,0,0.0000000,0.0000000,0.0000000,0.0000000,0.00,0.0000000,0.0000000,0.0000000,0.0,0.0,0.0,0.0,0.0,895,138,0,0,856.66,10.56,28.44,0
15:21:19,0,0,0,0,0,0,0,0,0,0,0,514,0,0,0,0,0.0000000,0.0000000,0.0000000,0.0000000,0.00,0.0000000,0.0000000,0.0000000,0.0,0.0,0.0,0.0,0.0,896,136,0,0,856.69,10.53,28.45,0
15:21:20,0,0,0,0,0,0,0,0,0,0,0,515,0,0,0,0,0.0000000,0.0000000,0.0000000,0.0000000,0.00,0.0000000,0.0000000,0.0000000,0.0,0.0,0.0,0.0,0.0,896,137,0,0,856.62,10.51,28.45,0
15:21:21,0,0,0,0,0,0,0,0,0,0,0,515,0,0,0,0,0.0000000,0.0000000,0.0000000,0.0000000,0.00,0.0000000,0.0000000,0.0000000,0.0,0.0,0.0,0.0,0.0,896,134,0,0,856.67,10.48,28.48,0
15:21:22,0,0,0,0,0,0,0,0,0,0,0,515,0,0,0,0,0.0000000,0.0000000,0.0000000,0.0000000,0.00,0.0000000,0.0000000,0.0000000,0.0,0.0,0.0,0.0,0.0,896,129,0,0,856.70,10.47,28.48,0
15:21:23,0,0,0,0,0,0,0,0,0,0,0,515,0,0,0,0,0.0000000,0.0000000,0.0000000,0.0000000,0.00,0.0000000,0.0000000,0.0000000,0.0,0.0,0.0,0.0,0.0,897,132,0,0,856.66,10.42,28.57,0
15:21:24,0,0,0,0,0,0,0,0,0,0,0,515,0,0,0,0,0.0000000,0.0000000,0.0000000,0.0000000,0.00,0.0000000,0.0000000,0.0000000,0.0,0.0,0.0,0.0,0.0,896,133,0,0,856.66,10.44,28.51,0
15:21:25,0,0,0,0,0,0,0,0,0,0,0,515,0,0,0,0,0.0000000,0.0000000,0.0000000,0.0000000,0.00,0.0000000,0.0000000,0.0000000,0.0,0.0,0.0,0.0,0.0,896,134,0,0,856.64,10.44,28.52,0
15:21:26,0,0,0,0,0,0,0,0,0,0,0,514,0,0,0,0,0.0000000,0.0000000,0.0000000,0.0000000,0.00,0.0000000,0.0000000,0.0000000,0.0,0.0,0.0,0.0,0.0,896,134,0,0,856.60,10.41,28.53,0
15:21:27,0,0,0,0,0,0,0,0,0,0,0,515,0,0,0,0,0.0000000,0.0000000,0.0000000,0.0000000,0.00,0.0000000,0.0000000,0.0000000,0.0,0.0,0.0,0.0,0.0,896,133,0,0,856.66,10.36,28.52,0
15:21:28,0,0,0,0,0,0,0,0,0,0,0,514,0,0,0,0,0.0000000,0.0000000,0.0000000,0.0000000,0.00,0.0000000,0.0000000,0.0000000,0.0,0.0,0.0,0.0,0.0,896,137,0,0,856.66,10.38,28.50,0
15:21:29,0,0,0,0,0,0,0,0,0,0,0,515,0,0,0,0,0.0000000,0.0000000,0.0000000,0.0000000,0.00,0.0000000,0.0000000,0.0000000,0.0,0.0,0.0,0.0,0.0,896,147,0,0,856.69,10.33,28.58,0
15:21:30,0,0,0,0,0,0,0,0,0,0,0,515,0,0,0,0,0.0000000,0.0000000,0.0000000,0.0000000,0.00,0.0000000,0.0000000,0.0000000,0.0,0.0,0.0,0.0,0.0,896,151,0,0,856.63,10.35,28.50,0
15:21:31,0,0,0,0,0,0,0,0,0,0,0,515,0,0,0,0,0.0000000,0.0000000,0.0000000,0.0000000,0.00,0.0000000,0.0000000,0.0000000,0.0,0.0,0.0,0.0,0.0,896,152,0,0,856.64,10.33,28.48,0
15:21:32,0,0,0,0,0,0,0,0,0,0,0,515,0,0,0,0,0.0000000,0.0000000,0.0000000,0.0000000,0.00,0.0000000,0.0000000,0.0000000,0.0,0.0,0.0,0.0,0.0,897,159,0,0,856.64,10.32,28.43,0
15:21:33,0,0,0,0,0,0,0,0,0,0,0,516,0,0,0,0,0.0000000,0.0000000,0.0000000,0.0000000,0.00,0.0000000,0.0000000,0.0000000,0.0,0.0,0.0,0.0,0.0,896,158,0,0,856.64,10.35,28.41,0
15:21:34,0,0,0,0,0,0,0,0,0,0,0,514,0,0,0,0,0.0000000,0.0000000,0.0000000,0.0000000,0.00,0.0000000,0.0000000,0.0000000,0.0,0.0,0.0,0.0,0.0,896,158,0,0,856.62,10.35,28.37,0
15:21:35,0,0,0,0,0,0,0,0,0,0,0,515,0,0,0,0,0.0000000,0.0000000,0.0000000,0.0000000,0.00,0.0000000,0.0000000,0.0000000,0.0,0.0,0.0,0.0,0.0,896,157,0,0,856.66,10.38,28.41,0
15:21:36,0,0,0,0,0,0,0,0,0,0,0,515,0,0,0,0,0.0000000,0.0000000,0.0000000,0.0000000,0.00,0.0000000,0.0000000,0.0000000,0.0,0.0,0.0,0.0,0.0,896,153,0,0,856.68,10.36,28.34,0
15:21:37,0,0,0,0,0,0,0,0,0,0,0,515,0,0,0,0,0.0000000,0.0000000,0.0000000,0.0000000,0.00,0.0000000,0.0000000,0.0000000,0.0,0.0,0.0,0.0,0.0,896,149,0,0,856.62,10.39,28.34,0
15:21:38,0,0,0,0,0,0,0,0,0,0,0,515,0,0,0,0,0.0000000,0.0000000,0.0000000,0.0000000,0.00,0.0000000,0.0000000,0.0000000,0.0,0.0,0.0,0.0,0.0,896,156,0,0,856.62,10.42,28.34,0
15:21:39,0,0,0,0,0,0,0,0,0,0,0,515,0,0,0,0,0.0000000,0.0000000,0.0000000,0.0000000,0.00,0.0000000,0.0000000,0.0000000,0.0,0.0,0.0,0.0,0.0,896,147,0,0,856.64,10.42,28.35,0
15:21:40,0,0,0,0,0,0,0,0,0,0,0,515,0,0,0,0,0.0000000,0.0000000,0.0000000,0.0000000,0.00,0.0000000,0.0000000,0.0000000,0.0,0.0,0.0,0.0,0.0,897,142,0,0,856.68,10.42,28.37,0
15:21:41,0,0,0,0,0,0,0,0,0,0,0,514,0,0,0,0,0.0000000,0.0000000,0.0000000,0.0000000,0.00,0.0000000,0.0000000,0.0000000,0.0,0.0,0.0,0.0,0.0,896,144,0,0,856.61,10.47,28.37,0
15:21:42,0,0,0,0,0,0,0,0,0,0,0,514,0,0,0,0,0.0000000,0.0000000,0.0000000,0.0000000,0.00,0.0000000,0.0000000,0.0000000,0.0,0.0,0.0,0.0,0.0,896,151,0,0,856.63,10.42,28.36,0
15:21:43,0,0,0,0,0,0,0,0,0,0,0,515,0,0,0,0,0.0000000,0.0000000,0.0000000,0.0000000,0.00,0.0000000,0.0000000,0.0000000,0.0,0.0,0.0,0.0,0.0,896,146,0,0,856.63,10.47,28.38,0
15:21:44,0,0,0,0,0,0,0,0,0,0,0,515,0,0,0,0,0.0000000,0.0000000,0.0000000,0.0000000,0.00,0.0000000,0.0000000,0.0000000,0.0,0.0,0.0,0.0,0.0,897,150,0,0,856.64,10.44,28.38,0
15:21:45,0,0,0,0,0,0,0,0,0,0,0,515,0,0,0,0,0.0000000,0.0000000,0.0000000,0.0000000,0.00,0.0000000,0.0000000,0.0000000,0.0,0.0,0.0,0.0,0.0,896,149,0,0,856.62,10.42,28.38,0
15:21:46,0,0,0,0,0,0,0,0,0,0,0,515,0,0,0,0,0.0000000,0.0000000,0.0000000,0.0000000,0.00,0.0000000,0.0000000,0.0000000,0.0,0.0,0.0,0.0,0.0,896,148,0,0,856.64,10.42,28.37,0
15:21:47,0,0,0,0,0,0,0,0,0,0,0,514,0,0,0,0,0.0000000,0.0000000,0.0000000,0.0000000,0.00,0.0000000,0.0000000,0.0000000,0.0,0.0,0.0,0.0,0.0,896,152,0,0,856.65,10.44,28.35,0
15:21:48,0,0,0,0,0,0,0,0,0,0,0,514,0,0,0,0,0.0000000,0.0000000,0.0000000,0.0000000,0.00,0.0000000,0.0000000,0.0000000,0.0,0.0,0.0,0.0,0.0,896,148,0,0,856.63,10.44,28.35,0
15:21:49,0,0,0,0,0,0,0,0,0,0,0,515,0,0,0,0,0.0000000,0.0000000,0.0000000,0.0000000,0.00,0.0000000,0.0000000,0.0000000,0.0,0.0,0.0,0.0,0.0,896,143,0,0,856.62,10.44,28.35,0
15:21:50,0,0,0,0,0,0,0,0,0,0,0,515,0,0,0,0,0.0000000,0.0000000,0.0000000,0.0000000,0.00,0.0000000,0.0000000,0.0000000,0.0,0.0,0.0,0.0,0.0,896,143,0,0,856.61,10.42,28.33,0
15:21:51,0,0,0,0,0,0,0,0,0,0,0,514,0,0,0,0,0.0000000,0.0000000,0.0000000,0.0000000,0.00,0.0000000,0.0000000,0.0000000,0.0,0.0,0.0,0.0,0.0,896,144,0,0,856.59,10.42,28.33,0
15:21:52,0,0,0,0,0,0,0,0,0,0,0,514,0,0,0,0,0.0000000,0.0000000,0.0000000,0.0000000,0.00,0.0000000,0.0000000,0.0000000,0.0,0.0,0.0,0.0,0.0,896,149,0,0,856.64,10.42,28.34,0
15:21:53,0,0,0,0,0,0,0,0,0,0,0,515,0,0,0,0,0.0000000,0.0000000,0.0000000,0.0000000,0.00,0.0000000,0.0000000,0.0000000,0.0,0.0,0.0,0.0,0.0,896,149,0,0,856.62,10.41,28.34,0
15:21:54,0,0,0,0,0,0,0,0,0,0,0,515,0,0,0,0,0.0000000,0.0000000,0.0000000,0.0000000,0.00,0.0000000,0.0000000,0.0000000,0.0,0.0,0.0,0.0,0.0,896,147,0,0,856.66,10.45,28.33,0
15:21:55,0,0,0,0,0,0,0,0,0,0,0,515,0,0,0,0,0.0000000,0.0000000,0.0000000,0.0000000,0.00,0.0000000,0.0000000,0.0000000,0.0,0.0,0.0,0.0,0.0,896,144,0,0,856.66,10.45,28.33,0
15:21:56,0,0,0,0,0,0,0,0,0,0,0,514,0,0,0,0,0.0000000,0.0000000,0.0000000,0.0000000,0.00,0.0000000,0.0000000,0.0000000,0.0,0.0,0.0,0.0,0.0,896,142,0,0,856.63,10.47,28.34,0
15:21:57,0,0,0,0,0,0,0,0,0,0,0,515,0,0,0,0,0.0000000,0.0000000,0.0000000,0.0000000,0.00,0.0000000,0.0000000,0.0000000,0.0,0.0,0.0,0.0,0.0,895,139,0,0,856.60,10.45,28.34,0
15:21:58,0,0,0,0,0,0,0,0,0,0,0,515,0,0,0,0,0.0000000,0.0000000,0.0000000,0.0000000,0.00,0.0000000,0.0000000,0.0000000,0.0,0.0,0.0,0.0,0.0,896,143,0,0,856.62,10.47,28.35,0
15:21:59,0,0,0,0,0,0,0,0,0,0,0,515,0,0,0,0,0.0000000,0.0000000,0.0000000,0.0000000,0.00,0.0000000,0.0000000,0.0000000,0.0,0.0,0.0,0.0,0.0,896,138,0,0,856.65,10.47,28.36,0
15:22:00,0,0,0,0,0,0,0,0,0,0,0,514,0,0,0,0,0.0000000,0.0000000,0.0000000,0.0000000,0.00,0.0000000,0.0000000,0.0000000,0.0,0.0,0.0,0.0,0.0,896,144,0,0,856.66,10.45,28.35,0
15:22:01,0,0,0,0,0,0,0,0,0,0,0,515,0,0,0,0,0.0000000,0.0000000,0.0000000,0.0000000,0.00,0.0000000,0.0000000,0.0000000,0.0,0.0,0.0,0.0,0.0,896,142,0,0,856.65,10.42,28.35,0
15:22:02,0,0,0,0,0,0,0,0,0,0,0,515,0,0,0,0,0.0000000,0.0000000,0.0000000,0.0000000,0.00,0.0000000,0.0000000,0.0000000,0.0,0.0,0.0,0.0,0.0,896,142,0,0,856.66,10.48,28.33,0
15:22:03,0,0,0,0,0,0,0,0,0,0,0,514,0,0,0,0,0.0000000,0.0000000,0.0000000,0.0000000,0.00,0.0000000,0.0000000,0.0000000,0.0,0.0,0.0,0.0,0.0,896,140,0,0,856.62,10.47,28.32,0
15:22:04,0,0,0,0,0,0,0,0,0,0,0,514,0,0,0,0,0.0000000,0.0000000,0.0000000,0.0000000,0.00,0.0000000,0.0000000,0.0000000,0.0,0.0,0.0,0.0,0.0,896,145,0,0,856.57,10.48,28.32,0
15:22:05,0,0,0,0,0,0,0,0,0,0,0,515,0,0,0,0,0.0000000,0.0000000,0.0000000,0.0000000,0.00,0.0000000,0.0000000,0.0000000,0.0,0.0,0.0,0.0,0.0,896,144,0,0,856.57,10.50,28.32,0
15:22:06,0,0,0,0,0,0,0,0,0,0,0,515,0,0,0,0,0.0000000,0.0000000,0.0000000,0.0000000,0.00,0.0000000,0.0000000,0.0000000,0.0,0.0,0.0,0.0,0.0,896,147,0,0,856.61,10.44,28.30,0
15:22:07,0,0,0,0,0,0,0,0,0,0,0,515,0,0,0,0,0.0000000,0.0000000,0.0000000,0.0000000,0.00,0.0000000,0.0000000,0.0000000,0.0,0.0,0.0,0.0,0.0,896,139,0,0,856.62,10.45,28.29,0
15:22:08,0,0,0,0,0,0,0,0,0,0,0,514,0,0,0,0,0.0000000,0.0000000,0.0000000,0.0000000,0.00,0.0000000,0.0000000,0.0000000,0.0,0.0,0.0,0.0,0.0,896,145,0,0,856.58,10.44,28.25,0
15:22:09,0,0,0,0,0,0,0,0,0,0,0,514,0,0,0,0,0.0000000,0.0000000,0.0000000,0.0000000,0.00,0.0000000,0.0000000,0.0000000,0.0,0.0,0.0,0.0,0.0,896,148,0,0,856.57,10.50,28.18,0
15:22:10,0,0,0,0,0,0,0,0,0,0,0,515,0,0,0,0,0.0000000,0.0000000,0.0000000,0.0000000,0.00,0.0000000,0.0000000,0.0000000,0.0,0.0,0.0,0.0,0.0,896,148,0,0,856.59,10.47,28.19,0
15:22:11,0,0,0,0,0,0,0,0,0,0,0,516,0,0,0,0,0.0000000,0.0000000,0.0000000,0.0000000,0.00,0.0000000,0.0000000,0.0000000,0.0,0.0,0.0,0.0,0.0,896,143,0,0,856.55,10.51,28.22,0
15:22:12,0,0,0,0,0,0,0,0,0,0,0,514,0,0,0,0,0.0000000,0.0000000,0.0000000,0.0000000,0.00,0.0000000,0.0000000,0.0000000,0.0,0.0,0.0,0.0,0.0,896,146,0,0,856.59,10.48,28.24,0
15:22:13,0,0,0,0,0,0,0,0,0,0,0,514,0,0,0,0,0.0000000,0.0000000,0.0000000,0.0000000,0.00,0.0000000,0.0000000,0.0000000,0.0,0.0,0.0,0.0,0.0,895,147,0,0,856.56,10.50,28.26,0
15:22:14,0,0,0,0,0,0,0,0,0,0,0,515,0,0,0,0,0.0000000,0.0000000,0.0000000,0.0000000,0.00,0.0000000,0.0000000,0.0000000,0.0,0.0,0.0,0.0,0.0,896,140,0,0,856.56,10.50,28.29,0
15:22:15,0,0,0,0,0,0,0,0,0,0,0,514,0,0,0,0,0.0000000,0.0000000,0.0000000,0.0000000,0.00,0.0000000,0.0000000,0.0000000,0.0,0.0,0.0,0.0,0.0,896,140,0,0,856.55,10.45,28.30,0
15:22:16,0,0,0,0,0,0,0,0,0,0,0,515,0,0,0,0,0.0000000,0.0000000,0.0000000,0.0000000,0.00,0.0000000,0.0000000,0.0000000,0.0,0.0,0.0,0.0,0.0,896,140,0,0,856.56,10.47,28.27,0
15:22:17,0,0,0,0,0,0,0,0,0,0,0,514,0,0,0,0,0.0000000,0.0000000,0.0000000,0.0000000,0.00,0.0000000,0.0000000,0.0000000,0.0,0.0,0.0,0.0,0.0,896,134,0,0,856.62,10.51,28.19,0
15:22:18,0,0,0,0,0,0,0,0,0,0,0,515,0,0,0,0,0.0000000,0.0000000,0.0000000,0.0000000,0.00,0.0000000,0.0000000,0.0000000,0.0,0.0,0.0,0.0,0.0,895,142,0,0,856.57,10.57,28.19,0
15:22:19,0,0,0,0,0,0,0,0,0,0,0,514,0,0,0,0,0.0000000,0.0000000,0.0000000,0.0000000,0.00,0.0000000,0.0000000,0.0000000,0.0,0.0,0.0,0.0,0.0,896,143,0,0,856.57,10.57,28.17,0
15:22:20,0,0,0,0,0,0,0,0,0,0,0,515,0,0,0,0,0.0000000,0.0000000,0.0000000,0.0000000,0.00,0.0000000,0.0000000,0.0000000,0.0,0.0,0.0,0.0,0.0,896,142,0,0,856.60,10.56,28.18,0
15:22:21,0,0,0,0,0,0,0,0,0,0,0,515,0,0,0,0,0.0000000,0.0000000,0.0000000,0.0000000,0.00,0.0000000,0.0000000,0.0000000,0.0,0.0,0.0,0.0,0.0,896,142,0,0,856.57,10.56,28.19,0
15:22:22,0,0,0,0,0,0,0,0,0,0,0,514,0,0,0,0,0.0000000,0.0000000,0.0000000,0.0000000,0.00,0.0000000,0.0000000,0.0000000,0.0,0.0,0.0,0.0,0.0,897,147,0,0,856.56,10.56,28.17,0
15:22:23,0,0,0,0,0,0,0,0,0,0,0,515,0,0,0,0,0.0000000,0.0000000,0.0000000,0.0000000,0.00,0.0000000,0.0000000,0.0000000,0.0,0.0,0.0,0.0,0.0,896,145,0,0,856.58,10.54,28.15,0
15:22:24,0,0,0,0,0,0,0,0,0,0,0,515,0,0,0,0,0.0000000,0.0000000,0.0000000,0.0000000,0.00,0.0000000,0.0000000,0.0000000,0.0,0.0,0.0,0.0,0.0,896,149,0,0,856.56,10.57,28.11,0
15:22:25,0,0,0,0,0,0,0,0,0,0,0,515,0,0,0,0,0.0000000,0.0000000,0.0000000,0.0000000,0.00,0.0000000,0.0000000,0.0000000,0.0,0.0,0.0,0.0,0.0,896,147,0,0,856.61,10.56,28.10,0
15:22:26,0,0,0,0,0,0,0,0,0,0,0,515,0,0,0,0,0.0000000,0.0000000,0.0000000,0.0000000,0.00,0.0000000,0.0000000,0.0000000,0.0,0.0,0.0,0.0,0.0,896,145,0,0,856.58,10.61,28.14,0
15:22:27,0,0,0,0,0,0,0,0,0,0,0,515,0,0,0,0,0.0000000,0.0000000,0.0000000,0.0000000,0.00,0.0000000,0.0000000,0.0000000,0.0,0.0,0.0,0.0,0.0,896,144,0,0,856.55,10.62,28.10,0
15:22:28,0,0,0,0,0,0,0,0,0,0,0,515,0,0,0,0,0.0000000,0.0000000,0.0000000,0.0000000,0.00,0.0000000,0.0000000,0.0000000,0.0,0.0,0.0,0.0,0.0,896,136,0,0,856.55,10.57,28.10,0
15:22:29,0,0,0,0,0,0,0,0,0,0,0,515,0,0,0,0,0.0000000,0.0000000,0.0000000,0.0000000,0.00,0.0000000,0.0000000,0.0000000,0.0,0.0,0.0,0.0,0.0,896,138,0,0,856.56,10.51,28.07,0
15:22:30,0,0,0,0,0,0,0,0,0,0,0,514,0,0,0,0,0.0000000,0.0000000,0.0000000,0.0000000,0.00,0.0000000,0.0000000,0.0000000,0.0,0.0,0.0,0.0,0.0,896,140,0,0,856.58,10.56,28.09,0
15:22:31,0,0,0,0,0,0,0,0,0,0,0,514,0,0,0,0,0.0000000,0.0000000,0.0000000,0.0000000,0.00,0.0000000,0.0000000,0.0000000,0.0,0.0,0.0,0.0,0.0,896,140,0,0,856.58,10.56,28.09,0
15:22:32,0,0,0,0,0,0,0,0,0,0,0,515,0,0,0,0,0.0000000,0.0000000,0.0000000,0.0000000,0.00,0.0000000,0.0000000,0.0000000,0.0,0.0,0.0,0.0,0.0,896,141,0,0,856.57,10.59,28.08,0
15:22:33,0,0,0,0,0,0,0,0,0,0,0,514,0,0,0,0,0.0000000,0.0000000,0.0000000,0.0000000,0.00,0.0000000,0.0000000,0.0000000,0.0,0.0,0.0,0.0,0.0,896,144,0,0,856.58,10.65,28.08,0
15:22:34,0,0,0,0,0,0,0,0,0,0,0,515,0,0,0,0,0.0000000,0.0000000,0.0000000,0.0000000,0.00,0.0000000,0.0000000,0.0000000,0.0,0.0,0.0,0.0,0.0,896,143,0,0,856.60,10.62,28.11,0
15:22:35,0,0,0,0,0,0,0,0,0,0,0,514,0,0,0,0,0.0000000,0.0000000,0.0000000,0.0000000,0.00,0.0000000,0.0000000,0.0000000,0.0,0.0,0.0,0.0,0.0,896,140,0,0,856.55,10.61,28.13,0
15:22:36,0,0,0,0,0,0,0,0,0,0,0,515,0,0,0,0,0.0000000,0.0000000,0.0000000,0.0000000,0.00,0.0000000,0.0000000,0.0000000,0.0,0.0,0.0,0.0,0.0,896,140,0,0,856.55,10.59,28.15,0
15:22:37,0,0,0,0,0,0,0,0,0,0,0,515,0,0,0,0,0.0000000,0.0000000,0.0000000,0.0000000,0.00,0.0000000,0.0000000,0.0000000,0.0,0.0,0.0,0.0,0.0,896,141,0,0,856.57,10.59,28.18,0
15:22:39,0,0,0,0,0,0,0,0,0,0,0,514,0,0,0,0,0.0000000,0.0000000,0.0000000,0.0000000,0.00,0.0000000,0.0000000,0.0000000,0.0,0.0,0.0,0.0,0.0,896,138,0,0,856.53,10.57,28.21,0
15:22:40,0,0,0,0,0,0,0,0,0,0,0,514,0,0,0,0,0.0000000,0.0000000,0.0000000,0.0000000,0.00,0.0000000,0.0000000,0.0000000,0.0,0.0,0.0,0.0,0.0,896,136,0,0,856.61,10.61,28.25,0
15:22:41,0,0,0,0,0,0,0,0,0,0,0,515,0,0,0,0,0.0000000,0.0000000,0.0000000,0.0000000,0.00,0.0000000,0.0000000,0.0000000,0.0,0.0,0.0,0.0,0.0,896,136,0,0,856.57,10.59,28.28,0
15:22:42,0,0,0,0,0,0,0,0,0,0,0,515,0,0,0,0,0.0000000,0.0000000,0.0000000,0.0000000,0.00,0.0000000,0.0000000,0.0000000,0.0,0.0,0.0,0.0,0.0,896,134,0,0,856.58,10.56,28.30,0
15:22:43,0,0,0,0,0,0,0,0,0,0,0,515,0,0,0,0,0.0000000,0.0000000,0.0000000,0.0000000,0.00,0.0000000,0.0000000,0.0000000,0.0,0.0,0.0,0.0,0.0,896,134,0,0,856.53,10.54,28.31,0
15:22:44,0,0,0,0,0,0,0,0,0,0,0,515,0,0,0,0,0.0000000,0.0000000,0.0000000,0.0000000,0.00,0.0000000,0.0000000,0.0000000,0.0,0.0,0.0,0.0,0.0,896,135,0,0,856.57,10.56,28.33,0
15:22:45,0,0,0,0,0,0,0,0,0,0,0,515,0,0,0,0,0.0000000,0.0000000,0.0000000,0.0000000,0.00,0.0000000,0.0000000,0.0000000,0.0,0.0,0.0,0.0,0.0,896,132,0,0,856.59,10.51,28.35,0
15:22:46,0,0,0,0,0,0,0,0,0,0,0,515,0,0,0,0,0.0000000,0.0000000,0.0000000,0.0000000,0.00,0.0000000,0.0000000,0.0000000,0.0,0.0,0.0,0.0,0.0,896,132,0,0,856.55,10.53,28.34,0
15:22:47,0,0,0,0,0,0,0,0,0,0,0,515,0,0,0,0,0.0000000,0.0000000,0.0000000,0.0000000,0.00,0.0000000,0.0000000,0.0000000,0.0,0.0,0.0,0.0,0.0,896,131,0,0,856.58,10.56,28.35,0
15:22:48,0,0,0,0,0,0,0,0,0,0,0,515,0,0,0,0,0.0000000,0.0000000,0.0000000,0.0000000,0.00,0.0000000,0.0000000,0.0000000,0.0,0.0,0.0,0.0,0.0,896,133,0,0,856.57,10.56,28.38,0
15:22:49,0,0,0,0,0,0,0,0,0,0,0,515,0,0,0,0,0.0000000,0.0000000,0.0000000,0.0000000,0.00,0.0000000,0.0000000,0.0000000,0.0,0.0,0.0,0.0,0.0,897,129,0,0,856.55,10.51,28.39,0
15:22:50,0,0,0,0,0,0,0,0,0,0,0,515,0,0,0,0,0.0000000,0.0000000,0.0000000,0.0000000,0.00,0.0000000,0.0000000,0.0000000,0.0,0.0,0.0,0.0,0.0,896,134,0,0,856.56,10.50,28.39,0
15:22:51,0,0,0,0,0,0,0,0,0,0,0,514,0,0,0,0,0.0000000,0.0000000,0.0000000,0.0000000,0.00,0.0000000,0.0000000,0.0000000,0.0,0.0,0.0,0.0,0.0,896,128,0,0,856.57,10.48,28.41,0
15:22:52,0,0,0,0,0,0,0,0,0,0,0,514,0,0,0,0,0.0000000,0.0000000,0.0000000,0.0000000,0.00,0.0000000,0.0000000,0.0000000,0.0,0.0,0.0,0.0,0.0,896,132,0,0,856.50,10.47,28.43,0
15:22:53,0,0,0,0,0,0,0,0,0,0,0,515,0,0,0,0,0.0000000,0.0000000,0.0000000,0.0000000,0.00,0.0000000,0.0000000,0.0000000,0.0,0.0,0.0,0.0,0.0,895,134,0,0,856.52,10.45,28.45,0
15:22:54,0,0,0,0,0,0,0,0,0,0,0,515,0,0,0,0,0.0000000,0.0000000,0.0000000,0.0000000,0.00,0.0000000,0.0000000,0.0000000,0.0,0.0,0.0,0.0,0.0,896,134,0,0,856.56,10.41,28.46,0
15:22:55,0,0,0,0,0,0,0,0,0,0,0,515,0,0,0,0,0.0000000,0.0000000,0.0000000,0.0000000,0.00,0.0000000,0.0000000,0.0000000,0.0,0.0,0.0,0.0,0.0,896,131,0,0,856.53,10.41,28.48,0
15:22:56,0,0,0,0,0,0,0,0,0,0,0,515,0,0,0,0,0.0000000,0.0000000,0.0000000,0.0000000,0.00,0.0000000,0.0000000,0.0000000,0.0,0.0,0.0,0.0,0.0,896,129,0,0,856.48,10.38,28.49,0
15:22:57,0,0,0,0,0,0,0,0,0,0,0,514,0,0,0,0,0.0000000,0.0000000,0.0000000,0.0000000,0.00,0.0000000,0.0000000,0.0000000,0.0,0.0,0.0,0.0,0.0,896,134,0,0,856.52,10.38,28.50,0
15:22:58,0,0,0,0,0,0,0,0,0,0,0,514,0,0,0,0,0.0000000,0.0000000,0.0000000,0.0000000,0.00,0.0000000,0.0000000,0.0000000,0.0,0.0,0.0,0.0,0.0,896,135,0,0,856.50,10.41,28.51,0
15:22:59,0,0,0,0,0,0,0,0,0,0,0,515,0,0,0,0,0.0000000,0.0000000,0.0000000,0.0000000,0.00,0.0000000,0.0000000,0.0000000,0.0,0.0,0.0,0.0,0.0,896,128,0,0,856.52,10.42,28.53,0
15:23:00,0,0,0,0,0,0,0,0,0,0,0,514,0,0,0,0,0.0000000,0.0000000,0.0000000,0.0000000,0.00,0.0000000,0.0000000,0.0000000,0.0,0.0,0.0,0.0,0.0,896,128,0,0,856.52,10.38,28.54,0
15:23:01,0,0,0,0,0,0,0,0,0,0,0,515,0,0,0,0,0.0000000,0.0000000,0.0000000,0.0000000,0.00,0.0000000,0.0000000,0.0000000,0.0,0.0,0.0,0.0,0.0,896,131,0,0,856.53,10.39,28.55,0
15:23:02,0,0,0,0,0,0,0,0,0,0,0,514,0,0,0,0,0.0000000,0.0000000,0.0000000,0.0000000,0.00,0.0000000,0.0000000,0.0000000,0.0,0.0,0.0,0.0,0.0,896,134,0,0,856.51,10.35,28.57,0
15:23:03,0,0,0,0,0,0,0,0,0,0,0,515,0,0,0,0,0.0000000,0.0000000,0.0000000,0.0000000,0.00,0.0000000,0.0000000,0.0000000,0.0,0.0,0.0,0.0,0.0,896,134,0,0,856.48,10.35,28.59,0
15:23:04,0,0,0,0,0,0,0,0,0,0,0,515,0,0,0,0,0.0000000,0.0000000,0.0000000,0.0000000,0.00,0.0000000,0.0000000,0.0000000,0.0,0.0,0.0,0.0,0.0,896,130,0,0,856.45,10.35,28.61,0
15:23:05,0,0,0,0,0,0,0,0,0,0,0,515,0,0,0,0,0.0000000,0.0000000,0.0000000,0.0000000,0.00,0.0000000,0.0000000,0.0000000,0.0,0.0,0.0,0.0,0.0,896,131,0,0,856.49,10.32,28.64,0
15:23:06,0,0,0,0,0,0,0,0,0,0,0,515,0,0,0,0,0.0000000,0.0000000,0.0000000,0.0000000,0.00,0.0000000,0.0000000,0.0000000,0.0,0.0,0.0,0.0,0.0,896,132,0,0,856.50,10.33,28.66,0
15:23:07,0,0,0,0,0,0,0,0,0,0,0,515,0,0,0,0,0.0000000,0.0000000,0.0000000,0.0000000,0.00,0.0000000,0.0000000,0.0000000,0.0,0.0,0.0,0.0,0.0,896,133,0,0,856.47,10.28,28.68,0
15:23:08,0,0,0,0,0,0,0,0,0,0,0,514,0,0,0,0,0.0000000,0.0000000,0.0000000,0.0000000,0.00,0.0000000,0.0000000,0.0000000,0.0,0.0,0.0,0.0,0.0,896,132,0,0,856.47,10.28,28.70,0
15:23:09,0,0,0,0,0,0,0,0,0,0,0,515,0,0,0,0,0.0000000,0.0000000,0.0000000,0.0000000,0.00,0.0000000,0.0000000,0.0000000,0.0,0.0,0.0,0.0,0.0,896,132,0,0,856.51,10.30,28.71,0
15:23:10,0,0,0,0,0,0,0,0,0,0,0,515,0,0,0,0,0.0000000,0.0000000,0.0000000,0.0000000,0.00,0.0000000,0.0000000,0.0000000,0.0,0.0,0.0,0.0,0.0,896,132,0,0,856.52,10.27,28.73,0
15:23:11,0,0,0,0,0,0,0,0,0,0,0,515,0,0,0,0,0.0000000,0.0000000,0.0000000,0.0000000,0.00,0.0000000,0.0000000,0.0000000,0.0,0.0,0.0,0.0,0.0,896,131,0,0,856.51,10.24,28.75,0
15:23:12,0,0,0,0,0,0,0,0,0,0,0,515,0,0,0,0,0.0000000,0.0000000,0.0000000,0.0000000,0.00,0.0000000,0.0000000,0.0000000,0.0,0.0,0.0,0.0,0.0,896,136,0,0,856.47,10.22,28.77,0
15:23:13,0,0,0,0,0,0,0,0,0,0,0,515,0,0,0,0,0.0000000,0.0000000,0.0000000,0.0000000,0.00,0.0000000,0.0000000,0.0000000,0.0,0.0,0.0,0.0,0.0,896,133,0,0,856.50,10.24,28.79,0
15:23:14,0,0,0,0,0,0,0,0,0,0,0,515,0,0,0,0,0.0000000,0.0000000,0.0000000,0.0000000,0.00,0.0000000,0.0000000,0.0000000,0.0,0.0,0.0,0.0,0.0,896,130,0,0,856.51,10.21,28.80,0
15:23:15,0,0,0,0,0,0,0,0,0,0,0,515,0,0,0,0,0.0000000,0.0000000,0.0000000,0.0000000,0.00,0.0000000,0.0000000,0.0000000,0.0,0.0,0.0,0.0,0.0,896,138,0,0,856.48,10.18,28.81,0
15:23:16,0,0,0,0,0,0,0,0,0,0,0,515,0,0,0,0,0.0000000,0.0000000,0.0000000,0.0000000,0.00,0.0000000,0.0000000,0.0000000,0.0,0.0,0.0,0.0,0.0,896,131,0,0,856.51,10.19,28.83,0
15:23:17,0,0,0,0,0,0,0,0,0,0,0,515,0,0,0,0,0.0000000,0.0000000,0.0000000,0.0000000,0.00,0.0000000,0.0000000,0.0000000,0.0,0.0,0.0,0.0,0.0,896,136,0,0,856.56,10.19,28.93,0
15:23:18,0,0,0,0,0,0,0,0,0,0,0,515,0,0,0,0,0.0000000,0.0000000,0.0000000,0.0000000,0.00,0.0000000,0.0000000,0.0000000,0.0,0.0,0.0,0.0,0.0,896,132,0,0,856.51,10.24,28.86,0
15:23:19,0,0,0,0,0,0,0,0,0,0,0,515,0,0,0,0,0.0000000,0.0000000,0.0000000,0.0000000,0.00,0.0000000,0.0000000,0.0000000,0.0,0.0,0.0,0.0,0.0,896,132,0,0,856.51,10.22,28.84,0
15:23:20,0,0,0,0,0,0,0,0,0,0,0,515,0,0,0,0,0.0000000,0.0000000,0.0000000,0.0000000,0.00,0.0000000,0.0000000,0.0000000,0.0,0.0,0.0,0.0,0.0,897,137,0,0,856.49,10.25,28.82,0
15:23:21,0,0,0,0,0,0,0,0,0,0,0,515,0,0,0,0,0.0000000,0.0000000,0.0000000,0.0000000,0.00,0.0000000,0.0000000,0.0000000,0.0,0.0,0.0,0.0,0.0,896,134,0,0,856.52,10.28,28.81,0
15:23:22,0,0,0,0,0,0,0,0,0,0,0,514,0,0,0,0,0.0000000,0.0000000,0.0000000,0.0000000,0.00,0.0000000,0.0000000,0.0000000,0.0,0.0,0.0,0.0,0.0,896,136,0,0,856.54,10.25,28.82,0
15:23:23,0,0,0,0,0,0,0,0,0,0,0,514,0,0,0,0,0.0000000,0.0000000,0.0000000,0.0000000,0.00,0.0000000,0.0000000,0.0000000,0.0,0.0,0.0,0.0,0.0,896,134,0,0,856.53,10.25,28.85,0
15:23:24,0,0,0,0,0,0,0,0,0,0,0,515,0,0,0,0,0.0000000,0.0000000,0.0000000,0.0000000,0.00,0.0000000,0.0000000,0.0000000,0.0,0.0,0.0,0.0,0.0,896,136,0,0,856.51,10.24,28.87,0
15:23:25,0,0,0,0,0,0,0,0,0,0,0,515,0,0,0,0,0.0000000,0.0000000,0.0000000,0.0000000,0.00,0.0000000,0.0000000,0.0000000,0.0,0.0,0.0,0.0,0.0,896,138,0,0,856.53,10.19,28.88,0
15:23:26,0,0,0,0,0,0,0,0,0,0,0,515,0,0,0,0,0.0000000,0.0000000,0.0000000,0.0000000,0.00,0.0000000,0.0000000,0.0000000,0.0,0.0,0.0,0.0,0.0,896,137,0,0,856.51,10.18,28.88,0
15:23:27,0,0,0,0,0,0,0,0,0,0,0,514,0,0,0,0,0.0000000,0.0000000,0.0000000,0.0000000,0.00,0.0000000,0.0000000,0.0000000,0.0,0.0,0.0,0.0,0.0,896,136,0,0,856.50,10.18,28.89,0
15:23:28,0,0,0,0,0,0,0,0,0,0,0,515,0,0,0,0,0.0000000,0.0000000,0.0000000,0.0000000,0.00,0.0000000,0.0000000,0.0000000,0.0,0.0,0.0,0.0,0.0,896,138,0,0,856.55,10.16,28.92,0
15:23:29,0,0,0,0,0,0,0,0,0,0,0,514,0,0,0,0,0.0000000,0.0000000,0.0000000,0.0000000,0.00,0.0000000,0.0000000,0.0000000,0.0,0.0,0.0,0.0,0.0,896,136,0,0,856.55,10.16,28.93,0
15:23:30,0,0,0,0,0,0,0,0,0,0,0,514,0,0,0,0,0.0000000,0.0000000,0.0000000,0.0000000,0.00,0.0000000,0.0000000,0.0000000,0.0,0.0,0.0,0.0,0.0,896,137,0,0,856.53,10.07,28.92,0
15:23:31,0,0,0,0,0,0,0,0,0,0,0,515,0,0,0,0,0.0000000,0.0000000,0.0000000,0.0000000,0.00,0.0000000,0.0000000,0.0000000,0.0,0.0,0.0,0.0,0.0,896,133,0,0,856.57,10.09,28.92,0
15:23:32,0,0,0,0,0,0,0,0,0,0,0,514,0,0,0,0,0.0000000,0.0000000,0.0000000,0.0000000,0.00,0.0000000,0.0000000,0.0000000,0.0,0.0,0.0,0.0,0.0,896,133,0,0,856.52,10.07,28.93,0
15:23:33,0,0,0,0,0,0,0,0,0,0,0,515,0,0,0,0,0.0000000,0.0000000,0.0000000,0.0000000,0.00,0.0000000,0.0000000,0.0000000,0.0,0.0,0.0,0.0,0.0,896,132,0,0,856.53,10.04,28.91,0
15:23:34,0,0,0,0,0,0,0,0,0,0,0,514,0,0,0,0,0.0000000,0.0000000,0.0000000,0.0000000,0.00,0.0000000,0.0000000,0.0000000,0.0,0.0,0.0,0.0,0.0,896,131,0,0,856.53,10.04,28.90,0
15:23:35,0,0,0,0,0,0,0,0,0,0,0,515,0,0,0,0,0.0000000,0.0000000,0.0000000,0.0000000,0.00,0.0000000,0.0000000,0.0000000,0.0,0.0,0.0,0.0,0.0,896,139,0,0,856.55,10.04,28.91,0
15:23:36,0,0,0,0,0,0,0,0,0,0,0,514,0,0,0,0,0.0000000,0.0000000,0.0000000,0.0000000,0.00,0.0000000,0.0000000,0.0000000,0.0,0.0,0.0,0.0,0.0,895,134,0,0,856.51,10.04,28.91,0
15:23:37,0,0,0,0,0,0,0,0,0,0,0,515,0,0,0,0,0.0000000,0.0000000,0.0000000,0.0000000,0.00,0.0000000,0.0000000,0.0000000,0.0,0.0,0.0,0.0,0.0,896,139,0,0,856.54,10.07,28.89,0
15:23:38,0,0,0,0,0,0,0,0,0,0,0,514,0,0,0,0,0.0000000,0.0000000,0.0000000,0.0000000,0.00,0.0000000,0.0000000,0.0000000,0.0,0.0,0.0,0.0,0.0,896,141,0,0,856.55,10.06,28.90,0
15:23:39,0,0,0,0,0,0,0,0,0,0,0,516,0,0,0,0,0.0000000,0.0000000,0.0000000,0.0000000,0.00,0.0000000,0.0000000,0.0000000,0.0,0.0,0.0,0.0,0.0,896,138,0,0,856.54,10.04,28.90,0
15:23:40,0,0,0,0,0,0,0,0,0,0,0,515,0,0,0,0,0.0000000,0.0000000,0.0000000,0.0000000,0.00,0.0000000,0.0000000,0.0000000,0.0,0.0,0.0,0.0,0.0,896,143,0,0,856.56,10.06,28.92,0
15:23:41,0,0,0,0,0,0,0,0,0,0,0,515,0,0,0,0,0.0000000,0.0000000,0.0000000,0.0000000,0.00,0.0000000,0.0000000,0.0000000,0.0,0.0,0.0,0.0,0.0,896,144,0,0,856.57,10.04,28.93,0
15:23:42,0,0,0,0,0,0,0,0,0,0,0,515,0,0,0,0,0.0000000,0.0000000,0.0000000,0.0000000,0.00,0.0000000,0.0000000,0.0000000,0.0,0.0,0.0,0.0,0.0,896,145,0,0,856.56,10.04,28.93,0
15:23:43,0,0,0,0,0,0,0,0,0,0,0,515,0,0,0,0,0.0000000,0.0000000,0.0000000,0.0000000,0.00,0.0000000,0.0000000,0.0000000,0.0,0.0,0.0,0.0,0.0,896,138,0,0,856.56,10.09,28.93,0
15:23:44,0,0,0,0,0,0,0,0,0,0,0,514,0,0,0,0,0.0000000,0.0000000,0.0000000,0.0000000,0.00,0.0000000,0.0000000,0.0000000,0.0,0.0,0.0,0.0,0.0,896,143,0,0,856.55,10.09,28.91,0
15:23:45,0,0,0,0,0,0,0,0,0,0,0,515,0,0,0,0,0.0000000,0.0000000,0.0000000,0.0000000,0.00,0.0000000,0.0000000,0.0000000,0.0,0.0,0.0,0.0,0.0,896,143,0,0,856.59,10.09,28.91,0
15:23:46,0,0,0,0,0,0,0,0,0,0,0,515,0,0,0,0,0.0000000,0.0000000,0.0000000,0.0000000,0.00,0.0000000,0.0000000,0.0000000,0.0,0.0,0.0,0.0,0.0,896,142,0,0,856.53,10.09,28.92,0
15:23:47,0,0,0,0,0,0,0,0,0,0,0,515,0,0,0,0,0.0000000,0.0000000,0.0000000,0.0000000,0.00,0.0000000,0.0000000,0.0000000,0.0,0.0,0.0,0.0,0.0,896,141,0,0,856.58,10.06,28.93,0
15:23:48,0,0,0,0,0,0,0,0,0,0,0,515,0,0,0,0,0.0000000,0.0000000,0.0000000,0.0000000,0.00,0.0000000,0.0000000,0.0000000,0.0,0.0,0.0,0.0,0.0,896,138,0,0,856.59,10.06,28.92,0
15:23:49,0,0,0,0,0,0,0,0,0,0,0,514,0,0,0,0,0.0000000,0.0000000,0.0000000,0.0000000,0.00,0.0000000,0.0000000,0.0000000,0.0,0.0,0.0,0.0,0.0,896,140,0,0,856.56,10.03,28.91,0
15:23:50,0,0,0,0,0,0,0,0,0,0,0,515,0,0,0,0,0.0000000,0.0000000,0.0000000,0.0000000,0.00,0.0000000,0.0000000,0.0000000,0.0,0.0,0.0,0.0,0.0,896,140,0,0,856.53,10.03,28.92,0
15:23:51,0,0,0,0,0,0,0,0,0,0,0,515,0,0,0,0,0.0000000,0.0000000,0.0000000,0.0000000,0.00,0.0000000,0.0000000,0.0000000,0.0,0.0,0.0,0.0,0.0,896,141,0,0,856.55,10.00,28.93,0
15:23:52,0,0,0,0,0,0,0,0,0,0,0,515,0,0,0,0,0.0000000,0.0000000,0.0000000,0.0000000,0.00,0.0000000,0.0000000,0.0000000,0.0,0.0,0.0,0.0,0.0,896,140,0,0,856.55,10.01,28.95,0
15:23:53,0,0,0,0,0,0,0,0,0,0,0,514,0,0,0,0,0.0000000,0.0000000,0.0000000,0.0000000,0.00,0.0000000,0.0000000,0.0000000,0.0,0.0,0.0,0.0,0.0,896,139,0,0,856.53,10.00,28.95,0
15:23:54,0,0,0,0,0,0,0,0,0,0,0,515,0,0,0,0,0.0000000,0.0000000,0.0000000,0.0000000,0.00,0.0000000,0.0000000,0.0000000,0.0,0.0,0.0,0.0,0.0,896,135,0,0,856.54,10.00,28.93,0
15:23:55,0,0,0,0,0,0,0,0,0,0,0,514,0,0,0,0,0.0000000,0.0000000,0.0000000,0.0000000,0.00,0.0000000,0.0000000,0.0000000,0.0,0.0,0.0,0.0,0.0,896,140,0,0,856.52,10.00,28.93,0
15:23:56,0,0,0,0,0,0,0,0,0,0,0,515,0,0,0,0,0.0000000,0.0000000,0.0000000,0.0000000,0.00,0.0000000,0.0000000,0.0000000,0.0,0.0,0.0,0.0,0.0,896,137,0,0,856.55,10.03,28.94,0
15:23:57,0,0,0,0,0,0,0,0,0,0,0,514,0,0,0,0,0.0000000,0.0000000,0.0000000,0.0000000,0.00,0.0000000,0.0000000,0.0000000,0.0,0.0,0.0,0.0,0.0,896,135,0,0,856.52,10.04,28.95,0
15:23:58,0,0,0,0,0,0,0,0,0,0,0,516,0,0,0,0,0.0000000,0.0000000,0.0000000,0.0000000,0.00,0.0000000,0.0000000,0.0000000,0.0,0.0,0.0,0.0,0.0,896,138,0,0,856.53,10.07,28.95,0
15:23:59,0,0,0,0,0,0,0,0,0,0,0,515,0,0,0,0,0.0000000,0.0000000,0.0000000,0.0000000,0.00,0.0000000,0.0000000,0.0000000,0.0,0.0,0.0,0.0,0.0,896,138,0,0,856.53,10.03,28.96,0
15:24:00,0,0,0,0,0,0,0,0,0,0,0,516,0,0,0,0,0.0000000,0.0000000,0.0000000,0.0000000,0.00,0.0000000,0.0000000,0.0000000,0.0,0.0,0.0,0.0,0.0,896,142,0,0,856.57,10.07,28.96,0
15:24:01,0,0,0,0,0,0,0,0,0,0,0,515,0,0,0,0,0.0000000,0.0000000,0.0000000,0.0000000,0.00,0.0000000,0.0000000,0.0000000,0.0,0.0,0.0,0.0,0.0,896,139,0,0,856.53,10.07,28.97,0
15:24:02,0,0,0,0,0,0,0,0,0,0,0,514,0,0,0,0,0.0000000,0.0000000,0.0000000,0.0000000,0.00,0.0000000,0.0000000,0.0000000,0.0,0.0,0.0,0.0,0.0,896,134,0,0,856.58,10.04,29.00,0
15:24:03,0,0,0,0,0,0,0,0,0,0,0,515,0,0,0,0,0.0000000,0.0000000,0.0000000,0.0000000,0.00,0.0000000,0.0000000,0.0000000,0.0,0.0,0.0,0.0,0.0,896,136,0,0,856.56,10.04,29.02,0
15:24:04,0,0,0,0,0,0,0,0,0,0,0,515,0,0,0,0,0.0000000,0.0000000,0.0000000,0.0000000,0.00,0.0000000,0.0000000,0.0000000,0.0,0.0,0.0,0.0,0.0,896,141,0,0,856.61,10.07,29.04,0
