Time, Motor A Speed, Motor A Dir, Motor B Speed, Motor B Dir, Servo Rail Current Sensor, Servo Pos - Arm L, Servo Pos - Arm R, Servo Pos - End, Servo Pos - Hopper, Servo Pos - Lid, Servo Pos - Extra, Servo Current, LED - Front L, LED - Front R, LED - Back L, LED - Back R, IMU Pitch, IMU Roll, IMU Yaw, Compass Heading, GPS Sats, GPS Latitude, GPS Longitude, GPS Altitude, GPS Speed, GPS Angle, GPS HDOP, GPS VDOP, GPS PDOP, Battery, Wind, Comm Xbee Latency, Comm Arduino Latency, Pressure, Humidity, Temperature, uRADMonitor
16:27:26,0,0,0,0,0,0,0,0,0,0,0,0,0,0,0,0,0.0000000,0.0000000,0.0000000,0.0000000,0.00,0.0000000,0.0000000,0.0000000,0.0,0.0,0.0,0.0,0.0,0,0,0,0,0.00,0.00,0.00,0
16:27:27,0,0,0,0,0,0,0,0,0,0,0,515,0,0,0,0,0.0000000,0.0000000,0.0000000,0.0000000,0.00,0.0000000,0.0000000,0.0000000,0.0,0.0,0.0,0.0,0.0,890,143,0,0,855.55,12.24,27.56,0
16:27:28,0,0,0,0,0,0,0,0,0,0,0,514,0,0,0,0,0.0000000,0.0000000,0.0000000,0.0000000,0.00,0.0000000,0.0000000,0.0000000,0.0,0.0,0.0,0.0,0.0,890,147,0,0,855.56,12.74,27.61,0
16:27:29,0,0,0,0,0,0,0,0,0,0,0,515,0,0,0,0,0.0000000,0.0000000,0.0000000,0.0000000,0.00,0.0000000,0.0000000,0.0000000,0.0,0.0,0.0,0.0,0.0,889,146,0,0,855.53,12.48,27.61,0
16:27:30,0,0,0,0,0,0,0,0,0,0,0,514,0,0,0,0,0.0000000,0.0000000,0.0000000,0.0000000,0.00,0.0000000,0.0000000,0.0000000,0.0,0.0,0.0,0.0,0.0,890,146,0,0,855.55,12.31,27.63,0
16:27:31,0,0,0,0,0,0,0,0,0,0,0,514,0,0,0,0,0.0000000,0.0000000,0.0000000,0.0000000,0.00,0.0000000,0.0000000,0.0000000,0.0,0.0,0.0,0.0,0.0,890,147,0,0,855.52,12.13,27.63,0
16:27:32,0,0,0,0,0,0,0,0,0,0,0,515,0,0,0,0,0.0000000,0.0000000,0.0000000,0.0000000,0.00,0.0000000,0.0000000,0.0000000,0.0,0.0,0.0,0.0,0.0,890,140,0,0,855.54,12.04,27.62,0
16:27:33,0,0,0,0,0,0,0,0,0,0,0,515,0,0,0,0,0.0000000,0.0000000,0.0000000,0.0000000,0.00,0.0000000,0.0000000,0.0000000,0.0,0.0,0.0,0.0,0.0,890,141,0,0,855.46,12.01,27.60,0
16:27:34,0,0,0,0,0,0,0,0,0,0,0,514,0,0,0,0,0.0000000,0.0000000,0.0000000,0.0000000,0.00,0.0000000,0.0000000,0.0000000,0.0,0.0,0.0,0.0,0.0,890,139,0,0,855.50,11.96,27.61,0
16:27:35,0,0,0,0,0,0,0,0,0,0,0,515,0,0,0,0,0.0000000,0.0000000,0.0000000,0.0000000,0.00,0.0000000,0.0000000,0.0000000,0.0,0.0,0.0,0.0,0.0,889,141,0,0,855.54,11.90,27.68,0
16:27:36,0,0,0,0,0,0,0,0,0,0,0,514,0,0,0,0,0.0000000,0.0000000,0.0000000,0.0000000,0.00,0.0000000,0.0000000,0.0000000,0.0,0.0,0.0,0.0,0.0,890,142,0,0,855.59,11.86,27.62,0
16:27:37,0,0,0,0,0,0,0,0,0,0,0,514,0,0,0,0,0.0000000,0.0000000,0.0000000,0.0000000,0.00,0.0000000,0.0000000,0.0000000,0.0,0.0,0.0,0.0,0.0,890,144,0,0,855.55,11.86,27.60,0
16:27:38,0,0,0,0,0,0,0,0,0,0,0,514,0,0,0,0,0.0000000,0.0000000,0.0000000,0.0000000,0.00,0.0000000,0.0000000,0.0000000,0.0,0.0,0.0,0.0,0.0,889,142,0,0,855.56,11.86,27.60,0
16:27:39,0,0,0,0,0,0,0,0,0,0,0,515,0,0,0,0,0.0000000,0.0000000,0.0000000,0.0000000,0.00,0.0000000,0.0000000,0.0000000,0.0,0.0,0.0,0.0,0.0,890,144,0,0,855.52,11.89,27.60,0
16:27:40,0,0,0,0,0,0,0,0,0,0,0,514,0,0,0,0,0.0000000,0.0000000,0.0000000,0.0000000,0.00,0.0000000,0.0000000,0.0000000,0.0,0.0,0.0,0.0,0.0,890,143,0,0,855.49,11.84,27.61,0
16:27:41,0,0,0,0,0,0,0,0,0,0,0,515,0,0,0,0,0.0000000,0.0000000,0.0000000,0.0000000,0.00,0.0000000,0.0000000,0.0000000,0.0,0.0,0.0,0.0,0.0,890,142,0,0,855.53,11.84,27.62,0
16:27:42,0,0,0,0,0,0,0,0,0,0,0,514,0,0,0,0,0.0000000,0.0000000,0.0000000,0.0000000,0.00,0.0000000,0.0000000,0.0000000,0.0,0.0,0.0,0.0,0.0,890,149,0,0,855.55,11.83,27.61,0
16:27:43,0,0,0,0,0,0,0,0,0,0,0,515,0,0,0,0,0.0000000,0.0000000,0.0000000,0.0000000,0.00,0.0000000,0.0000000,0.0000000,0.0,0.0,0.0,0.0,0.0,890,146,0,0,855.54,11.83,27.60,0
16:27:44,0,0,0,0,0,0,0,0,0,0,0,514,0,0,0,0,0.0000000,0.0000000,0.0000000,0.0000000,0.00,0.0000000,0.0000000,0.0000000,0.0,0.0,0.0,0.0,0.0,890,151,0,0,855.57,11.81,27.61,0
16:27:45,0,0,0,0,0,0,0,0,0,0,0,514,0,0,0,0,0.0000000,0.0000000,0.0000000,0.0000000,0.00,0.0000000,0.0000000,0.0000000,0.0,0.0,0.0,0.0,0.0,890,144,0,0,855.55,11.84,27.63,0
16:27:46,0,0,0,0,0,0,0,0,0,0,0,514,0,0,0,0,0.0000000,0.0000000,0.0000000,0.0000000,0.00,0.0000000,0.0000000,0.0000000,0.0,0.0,0.0,0.0,0.0,890,144,0,0,855.56,11.84,27.63,0
16:27:47,0,0,0,0,0,0,0,0,0,0,0,515,0,0,0,0,0.0000000,0.0000000,0.0000000,0.0000000,0.00,0.0000000,0.0000000,0.0000000,0.0,0.0,0.0,0.0,0.0,890,142,0,0,855.55,11.84,27.72,0
16:27:48,0,0,0,0,0,0,0,0,0,0,0,515,0,0,0,0,0.0000000,0.0000000,0.0000000,0.0000000,0.00,0.0000000,0.0000000,0.0000000,0.0,0.0,0.0,0.0,0.0,890,144,0,0,855.48,11.83,27.66,0
16:27:49,0,0,0,0,0,0,0,0,0,0,0,514,0,0,0,0,0.0000000,0.0000000,0.0000000,0.0000000,0.00,0.0000000,0.0000000,0.0000000,0.0,0.0,0.0,0.0,0.0,890,147,0,0,855.45,11.81,27.65,0
16:27:50,0,0,0,0,0,0,0,0,0,0,0,514,0,0,0,0,0.0000000,0.0000000,0.0000000,0.0000000,0.00,0.0000000,0.0000000,0.0000000,0.0,0.0,0.0,0.0,0.0,890,141,0,0,855.46,11.83,27.66,0
16:27:51,0,0,0,0,0,0,0,0,0,0,0,514,0,0,0,0,0.0000000,0.0000000,0.0000000,0.0000000,0.00,0.0000000,0.0000000,0.0000000,0.0,0.0,0.0,0.0,0.0,889,141,0,0,855.46,11.86,27.67,0
16:27:52,0,0,0,0,0,0,0,0,0,0,0,515,0,0,0,0,0.0000000,0.0000000,0.0000000,0.0000000,0.00,0.0000000,0.0000000,0.0000000,0.0,0.0,0.0,0.0,0.0,890,144,0,0,855.42,11.80,27.61,0
16:27:53,0,0,0,0,0,0,0,0,0,0,0,515,0,0,0,0,0.0000000,0.0000000,0.0000000,0.0000000,0.00,0.0000000,0.0000000,0.0000000,0.0,0.0,0.0,0.0,0.0,889,146,0,0,855.46,11.78,27.67,0
16:27:54,0,0,0,0,0,0,0,0,0,0,0,514,0,0,0,0,0.0000000,0.0000000,0.0000000,0.0000000,0.00,0.0000000,0.0000000,0.0000000,0.0,0.0,0.0,0.0,0.0,890,142,0,0,855.52,11.78,27.69,0
16:27:55,0,0,0,0,0,0,0,0,0,0,0,514,0,0,0,0,0.0000000,0.0000000,0.0000000,0.0000000,0.00,0.0000000,0.0000000,0.0000000,0.0,0.0,0.0,0.0,0.0,890,140,0,0,855.54,11.77,27.71,0
16:27:56,0,0,0,0,0,0,0,0,0,0,0,515,0,0,0,0,0.0000000,0.0000000,0.0000000,0.0000000,0.00,0.0000000,0.0000000,0.0000000,0.0,0.0,0.0,0.0,0.0,890,142,0,0,855.52,11.78,27.70,0
16:27:57,0,0,0,0,0,0,0,0,0,0,0,515,0,0,0,0,0.0000000,0.0000000,0.0000000,0.0000000,0.00,0.0000000,0.0000000,0.0000000,0.0,0.0,0.0,0.0,0.0,890,140,0,0,855.52,11.80,27.69,0
16:27:58,0,0,0,0,0,0,0,0,0,0,0,515,0,0,0,0,0.0000000,0.0000000,0.0000000,0.0000000,0.00,0.0000000,0.0000000,0.0000000,0.0,0.0,0.0,0.0,0.0,890,140,0,0,855.52,11.80,27.69,0
16:27:59,0,0,0,0,0,0,0,0,0,0,0,514,0,0,0,0,0.0000000,0.0000000,0.0000000,0.0000000,4.00,0.0000000,0.0000000,0.0000000,0.6,142.4,0.0,0.0,0.0,890,143,0,0,855.50,11.78,27.73,0
16:28:00,0,0,0,0,0,0,0,0,0,0,0,514,0,0,0,0,0.0000000,0.0000000,0.0000000,0.0000000,4.00,0.0000000,0.0000000,0.0000000,0.6,142.4,0.0,0.0,0.0,890,143,0,0,855.50,11.78,27.73,0
16:28:01,0,0,0,0,0,0,0,0,0,0,0,514,0,0,0,0,0.0000000,0.0000000,0.0000000,0.0000000,4.00,0.0000000,0.0000000,0.0000000,0.2,181.8,0.0,0.0,0.0,890,140,0,0,855.48,11.80,27.71,0
16:28:02,0,0,0,0,0,0,0,0,0,0,0,514,0,0,0,0,0.0000000,0.0000000,0.0000000,0.0000000,4.00,38.4064713,-110.7921829,1384.0999756,0.2,288.2,3.8,0.0,0.0,890,150,0,0,855.49,11.84,27.70,0
16:28:03,0,0,0,0,0,0,0,0,0,0,0,515,0,0,0,0,0.0000000,0.0000000,0.0000000,0.0000000,4.00,38.4064751,-110.7921829,1384.8000488,0.3,58.7,3.8,0.0,0.0,889,149,0,0,855.56,11.86,27.70,0
16:28:04,0,0,0,0,0,0,0,0,0,0,0,515,0,0,0,0,0.0000000,0.0000000,0.0000000,0.0000000,4.00,38.4064636,-110.7921829,1383.5999756,0.2,77.0,3.8,0.0,0.0,890,143,0,0,855.55,11.87,27.71,0
16:28:05,0,0,0,0,0,0,0,0,0,0,0,515,0,0,0,0,0.0000000,0.0000000,0.0000000,0.0000000,4.00,38.4064598,-110.7921829,1383.3000488,0.1,166.0,3.8,0.0,0.0,890,147,0,0,855.50,11.87,27.71,0
16:28:06,0,0,0,0,0,0,0,0,0,0,0,515,0,0,0,0,0.0000000,0.0000000,0.0000000,0.0000000,4.00,38.4064560,-110.7921829,1382.4000244,0.2,39.9,3.8,0.0,0.0,890,153,0,0,855.43,11.89,27.72,0
16:28:07,0,0,0,0,0,0,0,0,0,0,0,514,0,0,0,0,0.0000000,0.0000000,0.0000000,0.0000000,4.00,38.4064445,-110.7921906,1381.4000244,0.1,89.1,3.8,0.0,0.0,890,148,0,0,855.47,11.90,27.76,0
16:28:08,0,0,0,0,0,0,0,0,0,0,0,515,0,0,0,0,0.0000000,0.0000000,0.0000000,0.0000000,4.00,38.4064369,-110.7921906,1380.5999756,0.2,46.5,3.8,0.0,0.0,890,146,0,0,855.45,11.95,27.81,0
16:28:09,0,0,0,0,0,0,0,0,0,0,0,514,0,0,0,0,0.0000000,0.0000000,0.0000000,0.0000000,4.00,38.4064331,-110.7921906,1380.1999512,0.1,353.2,3.8,0.0,0.0,890,151,0,0,855.47,11.95,27.80,0
16:28:10,0,0,0,0,0,0,0,0,0,0,0,514,0,0,0,0,0.0000000,0.0000000,0.0000000,0.0000000,4.00,38.4064369,-110.7921829,1380.1999512,0.1,331.7,6.3,0.0,0.0,890,153,0,0,855.42,11.93,27.77,0
16:28:11,0,0,0,0,0,0,0,0,0,0,0,514,0,0,0,0,0.0000000,0.0000000,0.0000000,0.0000000,4.00,38.4064369,-110.7921829,1380.3000488,0.2,288.1,3.8,0.0,0.0,889,150,0,0,855.47,11.92,27.80,0
16:28:12,0,0,0,0,0,0,0,0,0,0,0,515,0,0,0,0,0.0000000,0.0000000,0.0000000,0.0000000,4.00,38.4064331,-110.7921829,1380.1999512,0.1,291.9,3.8,0.0,0.0,890,150,0,0,855.51,11.90,27.84,0
16:28:13,0,0,0,0,0,0,0,0,0,0,0,515,0,0,0,0,0.0000000,0.0000000,0.0000000,0.0000000,4.00,38.4064331,-110.7921829,1380.4000244,0.3,38.7,3.8,0.0,0.0,890,144,0,0,855.46,11.86,27.86,0
16:28:14,0,0,0,0,0,0,0,0,0,0,0,514,0,0,0,0,0.0000000,0.0000000,0.0000000,0.0000000,4.00,38.4064255,-110.7921829,1380.4000244,0.3,200.0,3.8,0.0,0.0,890,145,0,0,855.50,11.84,27.88,0
16:28:15,0,0,0,0,0,0,0,0,0,0,0,515,0,0,0,0,0.0000000,0.0000000,0.0000000,0.0000000,4.00,38.4064293,-110.7921677,1380.5999756,0.2,243.1,3.8,0.0,0.0,890,142,0,0,855.46,11.80,27.91,0
16:28:16,0,0,0,0,0,0,0,0,0,0,0,515,0,0,0,0,0.0000000,0.0000000,0.0000000,0.0000000,4.00,38.4064255,-110.7921677,1380.9000244,0.4,212.8,3.8,0.0,0.0,890,140,0,0,855.47,11.77,27.95,0
16:28:17,0,0,0,0,0,0,0,0,0,0,0,514,0,0,0,0,0.0000000,0.0000000,0.0000000,0.0000000,4.00,38.4064293,-110.7921677,1381.0999756,0.4,219.9,3.8,0.0,0.0,890,136,0,0,855.51,11.70,27.97,0
16:28:18,0,0,0,0,0,0,0,0,0,0,0,515,0,0,0,0,0.0000000,0.0000000,0.0000000,0.0000000,4.00,38.4064331,-110.7921677,1381.5000000,0.3,205.8,3.8,0.0,0.0,889,144,0,0,855.49,11.72,27.96,0
16:28:19,0,0,0,0,0,0,0,0,0,0,0,515,0,0,0,0,0.0000000,0.0000000,0.0000000,0.0000000,4.00,38.4064369,-110.7921677,1382.0999756,0.3,220.5,3.8,0.0,0.0,891,140,0,0,855.49,11.72,27.96,0
16:28:20,0,0,0,0,0,0,0,0,0,0,0,515,0,0,0,0,0.0000000,0.0000000,0.0000000,0.0000000,4.00,38.4064369,-110.7921524,1382.3000488,0.3,216.0,3.8,0.0,0.0,889,142,0,0,855.50,11.67,27.98,0
16:28:21,0,0,0,0,0,0,0,0,0,0,0,515,0,0,0,0,0.0000000,0.0000000,0.0000000,0.0000000,4.00,38.4064369,-110.7921524,1382.4000244,0.3,178.2,3.8,0.0,0.0,890,140,0,0,855.50,11.67,28.02,0
16:28:22,0,0,0,0,0,0,0,0,0,0,0,514,0,0,0,0,0.0000000,0.0000000,0.0000000,0.0000000,4.00,38.4064369,-110.7921524,1382.3000488,0.4,167.1,3.8,0.0,0.0,890,138,0,0,855.49,11.67,28.04,0
16:28:23,0,0,0,0,0,0,0,0,0,0,0,515,0,0,0,0,0.0000000,0.0000000,0.0000000,0.0000000,4.00,38.4064369,-110.7921524,1382.4000244,0.3,192.0,3.8,0.0,0.0,890,135,0,0,855.56,11.63,28.04,0
16:28:24,0,0,0,0,0,0,0,0,0,0,0,515,0,0,0,0,0.0000000,0.0000000,0.0000000,0.0000000,4.00,38.4064369,-110.7921524,1382.5999756,0.3,217.0,3.8,0.0,0.0,890,142,0,0,855.51,11.61,28.04,0
16:28:25,0,0,0,0,0,0,0,0,0,0,0,514,0,0,0,0,0.0000000,0.0000000,0.0000000,0.0000000,4.00,38.4064369,-110.7921371,1382.6999512,0.1,141.5,3.8,0.0,0.0,890,141,0,0,855.53,11.60,28.06,0
16:28:26,0,0,0,0,0,0,0,0,0,0,0,515,0,0,0,0,0.0000000,0.0000000,0.0000000,0.0000000,4.00,38.4064293,-110.7921371,1382.5999756,0.3,182.6,3.8,0.0,0.0,889,138,0,0,855.52,11.58,28.09,0
16:28:27,0,0,0,0,0,0,0,0,0,0,0,514,0,0,0,0,0.0000000,0.0000000,0.0000000,0.0000000,4.00,38.4064255,-110.7921371,1382.5999756,0.5,178.2,3.8,0.0,0.0,890,139,0,0,855.55,11.57,28.12,0
16:28:28,0,0,0,0,0,0,0,0,0,0,0,515,0,0,0,0,0.0000000,0.0000000,0.0000000,0.0000000,4.00,38.4064255,-110.7921371,1382.5999756,0.3,200.6,3.8,0.0,0.0,889,139,0,0,855.51,11.57,28.09,0
16:28:29,0,0,0,0,0,0,0,0,0,0,0,515,0,0,0,0,0.0000000,0.0000000,0.0000000,0.0000000,5.00,38.4063950,-110.7921677,1378.0000000,0.4,201.2,3.4,0.0,0.0,890,141,0,0,855.45,11.57,28.06,0
16:28:30,0,0,0,0,0,0,0,0,0,0,0,515,0,0,0,0,0.0000000,0.0000000,0.0000000,0.0000000,5.00,38.4063873,-110.7921829,1376.6999512,0.3,180.1,3.4,0.0,0.0,890,138,0,0,855.56,11.57,28.04,0
16:28:32,0,0,0,0,0,0,0,0,0,0,0,514,0,0,0,0,0.0000000,0.0000000,0.0000000,0.0000000,5.00,38.4063835,-110.7921829,1376.3000488,0.2,177.2,3.4,0.0,0.0,890,142,0,0,855.57,11.57,28.06,0
16:28:33,0,0,0,0,0,0,0,0,0,0,0,514,0,0,0,0,0.0000000,0.0000000,0.0000000,0.0000000,5.00,38.4063797,-110.7921829,1376.0000000,0.3,189.8,3.4,0.0,0.0,890,142,0,0,855.52,11.57,28.05,0
16:28:34,0,0,0,0,0,0,0,0,0,0,0,515,0,0,0,0,0.0000000,0.0000000,0.0000000,0.0000000,5.00,38.4063759,-110.7921829,1375.9000244,0.3,174.1,3.4,0.0,0.0,889,139,0,0,855.52,11.58,28.05,0
16:28:35,0,0,0,0,0,0,0,0,0,0,0,514,0,0,0,0,0.0000000,0.0000000,0.0000000,0.0000000,5.00,38.4063759,-110.7921829,1375.8000488,0.3,177.6,3.4,0.0,0.0,889,139,0,0,855.52,11.60,28.03,0
16:28:36,0,0,0,0,0,0,0,0,0,0,0,515,0,0,0,0,0.0000000,0.0000000,0.0000000,0.0000000,5.00,38.4063759,-110.7921829,1375.9000244,0.2,36.4,3.4,0.0,0.0,890,140,0,0,855.51,11.57,28.04,0
16:28:37,0,0,0,0,0,0,0,0,0,0,0,515,0,0,0,0,0.0000000,0.0000000,0.0000000,0.0000000,5.00,38.4063759,-110.7921829,1375.9000244,0.1,181.3,3.4,0.0,0.0,889,139,0,0,855.50,11.61,28.04,0
16:28:38,0,0,0,0,0,0,0,0,0,0,0,514,0,0,0,0,0.0000000,0.0000000,0.0000000,0.0000000,5.00,38.4063721,-110.7921829,1375.8000488,0.2,217.4,3.4,0.0,0.0,890,137,0,0,855.53,11.63,28.04,0
16:28:39,0,0,0,0,0,0,0,0,0,0,0,515,0,0,0,0,0.0000000,0.0000000,0.0000000,0.0000000,5.00,38.4063683,-110.7921829,1375.8000488,0.3,205.1,3.4,0.0,0.0,889,137,0,0,855.55,11.61,28.05,0
16:28:40,0,0,0,0,0,0,0,0,0,0,0,514,0,0,0,0,0.0000000,0.0000000,0.0000000,0.0000000,5.00,38.4063644,-110.7921677,1375.8000488,0.3,190.0,3.5,0.0,0.0,890,141,0,0,855.51,11.60,28.05,0
16:28:41,0,0,0,0,0,0,0,0,0,0,0,515,0,0,0,0,0.0000000,0.0000000,0.0000000,0.0000000,5.00,38.4063606,-110.7921677,1375.9000244,0.3,184.3,3.5,0.0,0.0,889,136,0,0,855.52,11.60,28.05,0
16:28:42,0,0,0,0,0,0,0,0,0,0,0,515,0,0,0,0,0.0000000,0.0000000,0.0000000,0.0000000,5.00,38.4063530,-110.7921677,1375.9000244,0.6,185.0,3.5,0.0,0.0,890,133,0,0,855.50,11.58,28.06,0
16:28:43,0,0,0,0,0,0,0,0,0,0,0,514,0,0,0,0,0.0000000,0.0000000,0.0000000,0.0000000,5.00,38.4063454,-110.7921677,1375.9000244,0.6,172.0,3.5,0.0,0.0,890,133,0,0,855.51,11.61,28.04,0
16:28:44,0,0,0,0,0,0,0,0,0,0,0,515,0,0,0,0,0.0000000,0.0000000,0.0000000,0.0000000,5.00,38.4063454,-110.7921677,1376.0000000,0.6,164.7,3.5,0.0,0.0,889,136,0,0,855.58,11.61,28.06,0
16:28:45,0,0,0,0,0,0,0,0,0,0,0,515,0,0,0,0,0.0000000,0.0000000,0.0000000,0.0000000,5.00,38.4063416,-110.7921677,1376.1999512,0.5,154.8,3.5,0.0,0.0,890,136,0,0,855.53,11.61,28.06,0
16:28:46,0,0,0,0,0,0,0,0,0,0,0,515,0,0,0,0,0.0000000,0.0000000,0.0000000,0.0000000,5.00,38.4063416,-110.7921677,1376.3000488,0.3,179.6,3.5,0.0,0.0,890,138,0,0,855.53,11.61,28.06,0
16:28:47,0,0,0,0,0,0,0,0,0,0,0,515,0,0,0,0,0.0000000,0.0000000,0.0000000,0.0000000,5.00,38.4063377,-110.7921524,1376.3000488,0.3,181.2,3.5,0.0,0.0,889,135,0,0,855.53,11.60,28.07,0
16:28:48,0,0,0,0,0,0,0,0,0,0,0,515,0,0,0,0,0.0000000,0.0000000,0.0000000,0.0000000,5.00,38.4063377,-110.7921524,1376.3000488,0.3,197.4,3.5,0.0,0.0,890,137,0,0,855.45,11.60,28.08,0
16:28:49,0,0,0,0,0,0,0,0,0,0,0,514,0,0,0,0,0.0000000,0.0000000,0.0000000,0.0000000,5.00,38.4063377,-110.7921677,1376.3000488,0.2,179.1,3.5,0.0,0.0,890,139,0,0,855.49,11.60,28.08,0
16:28:50,0,0,0,0,0,0,0,0,0,0,0,515,0,0,0,0,0.0000000,0.0000000,0.0000000,0.0000000,5.00,38.4063377,-110.7921524,1376.3000488,0.2,72.1,3.5,0.0,0.0,890,136,0,0,855.51,11.58,28.11,0
16:28:51,0,0,0,0,0,0,0,0,0,0,0,515,0,0,0,0,0.0000000,0.0000000,0.0000000,0.0000000,5.00,38.4063377,-110.7921524,1376.3000488,0.3,116.6,3.5,0.0,0.0,890,134,0,0,855.49,11.55,28.14,0
16:28:52,0,0,0,0,0,0,0,0,0,0,0,515,0,0,0,0,0.0000000,0.0000000,0.0000000,0.0000000,5.00,38.4063377,-110.7921524,1376.3000488,0.1,213.6,3.5,0.0,0.0,889,135,0,0,855.53,11.57,28.16,0
16:28:53,0,0,0,0,0,0,0,0,0,0,0,515,0,0,0,0,0.0000000,0.0000000,0.0000000,0.0000000,5.00,38.4063377,-110.7921524,1376.3000488,0.1,221.6,3.5,0.0,0.0,889,134,0,0,855.52,11.54,28.14,0
16:28:54,0,0,0,0,0,0,0,0,0,0,0,515,0,0,0,0,0.0000000,0.0000000,0.0000000,0.0000000,5.00,38.4063377,-110.7921524,1376.3000488,0.1,151.5,3.5,0.0,0.0,889,135,0,0,855.50,11.54,28.13,0
16:28:55,0,0,0,0,0,0,0,0,0,0,0,515,0,0,0,0,0.0000000,0.0000000,0.0000000,0.0000000,5.00,38.4063377,-110.7921524,1376.4000244,0.5,162.1,3.5,0.0,0.0,890,134,0,0,855.53,11.54,28.13,0
16:28:56,0,0,0,0,0,0,0,0,0,0,0,514,0,0,0,0,0.0000000,0.0000000,0.0000000,0.0000000,5.00,38.4063339,-110.7921524,1376.4000244,0.4,160.4,3.5,0.0,0.0,889,131,0,0,855.57,11.54,28.13,0
16:28:57,0,0,0,0,0,0,0,0,0,0,0,515,0,0,0,0,0.0000000,0.0000000,0.0000000,0.0000000,5.00,38.4063339,-110.7921524,1376.4000244,0.1,201.0,3.5,0.0,0.0,890,136,0,0,855.54,11.54,28.12,0
16:28:58,0,0,0,0,0,0,0,0,0,0,0,515,0,0,0,0,0.0000000,0.0000000,0.0000000,0.0000000,5.00,38.4063339,-110.7921524,1376.4000244,0.2,186.1,3.5,0.0,0.0,889,141,0,0,855.56,11.55,28.09,0
16:28:59,0,0,0,0,0,0,0,0,0,0,0,515,0,0,0,0,0.0000000,0.0000000,0.0000000,0.0000000,5.00,38.4063301,-110.7921524,1376.4000244,0.0,104.9,3.5,0.0,0.0,890,138,0,0,855.52,11.57,28.07,0
16:29:00,0,0,0,0,0,0,0,0,0,0,0,514,0,0,0,0,0.0000000,0.0000000,0.0000000,0.0000000,6.00,38.4063301,-110.7921524,1376.4000244,0.2,125.1,1.3,0.0,0.0,890,139,0,0,855.54,11.58,28.06,0
16:29:01,0,0,0,0,0,0,0,0,0,0,0,515,0,0,0,0,0.0000000,0.0000000,0.0000000,0.0000000,6.00,38.4063377,-110.7921524,1376.5999756,0.1,180.1,1.3,0.0,0.0,890,135,0,0,855.51,11.57,28.09,0
16:29:02,0,0,0,0,0,0,0,0,0,0,0,515,0,0,0,0,0.0000000,0.0000000,0.0000000,0.0000000,6.00,38.4063377,-110.7921524,1376.5999756,0.1,164.5,1.3,0.0,0.0,889,137,0,0,855.52,11.55,28.12,0
16:29:03,0,0,0,0,0,0,0,0,0,0,0,514,0,0,0,0,0.0000000,0.0000000,0.0000000,0.0000000,6.00,38.4063339,-110.7921524,1376.5999756,0.1,164.1,1.3,0.0,0.0,889,138,0,0,855.52,11.51,28.14,0
16:29:04,0,0,0,0,0,0,0,0,0,0,0,514,0,0,0,0,0.0000000,0.0000000,0.0000000,0.0000000,6.00,38.4063339,-110.7921524,1376.5999756,0.0,31.5,1.3,0.0,0.0,889,136,0,0,855.55,11.52,28.16,0
16:29:05,0,0,0,0,0,0,0,0,0,0,0,515,0,0,0,0,0.0000000,0.0000000,0.0000000,0.0000000,6.00,38.4063339,-110.7921524,1376.5999756,0.1,144.3,1.2,0.0,0.0,889,137,0,0,855.57,11.52,28.18,0
16:29:06,0,0,0,0,0,0,0,0,0,0,0,515,0,0,0,0,0.0000000,0.0000000,0.0000000,0.0000000,6.00,38.4063339,-110.7921524,1376.5999756,0.0,315.3,1.3,0.0,0.0,889,140,0,0,855.56,11.49,28.18,0
16:29:07,0,0,0,0,0,0,0,0,0,0,0,515,0,0,0,0,0.0000000,0.0000000,0.0000000,0.0000000,6.00,38.4063339,-110.7921524,1376.6999512,0.0,108.9,1.3,0.0,0.0,890,136,0,0,855.56,11.46,28.16,0
16:29:08,0,0,0,0,0,0,0,0,0,0,0,516,0,0,0,0,0.0000000,0.0000000,0.0000000,0.0000000,6.00,38.4063339,-110.7921524,1376.6999512,0.0,186.5,1.3,0.0,0.0,889,135,0,0,855.54,11.49,28.17,0
16:29:09,0,0,0,0,0,0,0,0,0,0,0,515,0,0,0,0,0.0000000,0.0000000,0.0000000,0.0000000,6.00,38.4063339,-110.7921524,1376.6999512,0.0,275.6,1.2,0.0,0.0,889,139,0,0,855.55,11.48,28.19,0
16:29:10,0,0,0,0,0,0,0,0,0,0,0,514,0,0,0,0,0.0000000,0.0000000,0.0000000,0.0000000,6.00,38.4063339,-110.7921524,1376.6999512,0.0,42.4,1.3,0.0,0.0,889,135,0,0,855.57,11.46,28.23,0
16:29:11,0,0,0,0,0,0,0,0,0,0,0,514,0,0,0,0,0.0000000,0.0000000,0.0000000,0.0000000,6.00,38.4063339,-110.7921524,1376.6999512,0.0,188.6,1.3,0.0,0.0,890,131,0,0,855.57,11.46,28.21,0
16:29:12,0,0,0,0,0,0,0,0,0,0,0,514,0,0,0,0,0.0000000,0.0000000,0.0000000,0.0000000,6.00,38.4063377,-110.7921524,1376.6999512,0.0,154.6,1.3,0.0,0.0,889,142,0,0,855.55,11.46,28.16,0
16:29:13,0,0,0,0,0,0,0,0,0,0,0,514,0,0,0,0,0.0000000,0.0000000,0.0000000,0.0000000,6.00,38.4063339,-110.7921524,1376.6999512,0.0,285.8,1.2,0.0,0.0,890,141,0,0,855.57,11.46,28.17,0
16:29:14,0,0,0,0,0,0,0,0,0,0,0,515,0,0,0,0,0.0000000,0.0000000,0.0000000,0.0000000,6.00,38.4063377,-110.7921524,1376.5999756,0.0,148.7,1.2,0.0,0.0,889,141,0,0,855.53,11.46,28.18,0
16:29:15,0,0,0,0,0,0,0,0,0,0,0,515,0,0,0,0,0.0000000,0.0000000,0.0000000,0.0000000,6.00,38.4063339,-110.7921524,1376.6999512,0.0,139.7,1.3,0.0,0.0,890,143,0,0,855.47,11.43,28.13,0
16:29:16,0,0,0,0,0,0,0,0,0,0,0,515,0,0,0,0,0.0000000,0.0000000,0.0000000,0.0000000,6.00,38.4063339,-110.7921524,1376.6999512,0.1,147.6,1.3,0.0,0.0,889,150,0,0,855.54,11.44,28.09,0
16:29:17,0,0,0,0,0,0,0,0,0,0,0,515,0,0,0,0,0.0000000,0.0000000,0.0000000,0.0000000,6.00,38.4063339,-110.7921524,1376.6999512,0.0,127.6,1.3,0.0,0.0,889,150,0,0,855.52,11.46,28.04,0
16:29:18,0,0,0,0,0,0,0,0,0,0,0,515,0,0,0,0,0.0000000,0.0000000,0.0000000,0.0000000,6.00,38.4063377,-110.7921524,1376.6999512,0.0,306.3,1.3,0.0,0.0,890,150,0,0,855.52,11.51,28.08,0
16:29:19,0,0,0,0,0,0,0,0,0,0,0,515,0,0,0,0,0.0000000,0.0000000,0.0000000,0.0000000,6.00,38.4063377,-110.7921524,1376.6999512,0.0,158.5,1.3,0.0,0.0,889,147,0,0,855.52,11.52,28.10,0
16:29:20,0,0,0,0,0,0,0,0,0,0,0,515,0,0,0,0,0.0000000,0.0000000,0.0000000,0.0000000,6.00,38.4063377,-110.7921524,1376.6999512,0.0,158.5,1.3,0.0,0.0,889,151,0,0,855.52,11.54,28.06,0
16:29:21,0,0,0,0,0,0,0,0,0,0,0,515,0,0,0,0,0.0000000,0.0000000,0.0000000,0.0000000,6.00,38.4063377,-110.7921524,1376.6999512,0.0,110.0,1.3,0.0,0.0,890,149,0,0,855.55,11.55,28.12,0
16:29:22,0,0,0,0,0,0,0,0,0,0,0,515,0,0,0,0,0.0000000,0.0000000,0.0000000,0.0000000,6.00,38.4063377,-110.7921524,1376.6999512,0.0,113.5,1.3,0.0,0.0,889,153,0,0,855.52,11.55,28.12,0
16:29:23,0,0,0,0,0,0,0,0,0,0,0,514,0,0,0,0,0.0000000,0.0000000,0.0000000,0.0000000,7.00,38.4063377,-110.7921524,1376.6999512,0.0,5.1,1.2,0.0,0.0,889,150,0,0,855.56,11.57,28.07,0
16:29:24,0,0,0,0,0,0,0,0,0,0,0,514,0,0,0,0,0.0000000,0.0000000,0.0000000,0.0000000,7.00,38.4063377,-110.7921524,1376.6999512,0.0,18.2,1.2,0.0,0.0,890,149,0,0,855.45,11.64,28.05,0
16:29:25,0,0,0,0,0,0,0,0,0,0,0,514,0,0,0,0,0.0000000,0.0000000,0.0000000,0.0000000,7.00,38.4063377,-110.7921524,1376.6999512,0.0,153.4,1.2,0.0,0.0,889,144,0,0,855.55,11.66,28.07,0
16:29:26,0,0,0,0,0,0,0,0,0,0,0,515,0,0,0,0,0.0000000,0.0000000,0.0000000,0.0000000,7.00,38.4063377,-110.7921524,1376.6999512,0.0,333.6,1.2,0.0,0.0,889,143,0,0,855.53,11.64,28.08,0
16:29:27,0,0,0,0,0,0,0,0,0,0,0,514,0,0,0,0,0.0000000,0.0000000,0.0000000,0.0000000,7.00,38.4063377,-110.7921524,1376.6999512,0.0,83.4,1.2,0.0,0.0,890,148,0,0,855.56,11.63,28.13,0
16:29:28,0,0,0,0,0,0,0,0,0,0,0,515,0,0,0,0,0.0000000,0.0000000,0.0000000,0.0000000,7.00,38.4063377,-110.7921524,1376.6999512,0.0,119.6,1.2,0.0,0.0,889,151,0,0,855.56,11.55,28.16,0
16:29:29,0,0,0,0,0,0,0,0,0,0,0,515,0,0,0,0,0.0000000,0.0000000,0.0000000,0.0000000,7.00,38.4063377,-110.7921524,1376.6999512,0.0,34.5,1.2,0.0,0.0,889,148,0,0,855.54,11.54,28.14,0
16:29:30,0,0,0,0,0,0,0,0,0,0,0,514,0,0,0,0,0.0000000,0.0000000,0.0000000,0.0000000,7.00,38.4063377,-110.7921524,1376.6999512,0.0,220.4,1.2,0.0,0.0,889,148,0,0,855.56,11.52,28.17,0
16:29:31,0,0,0,0,0,0,0,0,0,0,0,514,0,0,0,0,0.0000000,0.0000000,0.0000000,0.0000000,7.00,38.4063377,-110.7921524,1376.6999512,0.0,59.6,1.2,0.0,0.0,889,140,0,0,855.56,11.49,28.18,0
16:29:32,0,0,0,0,0,0,0,0,0,0,0,515,0,0,0,0,0.0000000,0.0000000,0.0000000,0.0000000,7.00,38.4063377,-110.7921524,1376.6999512,0.0,25.9,1.2,0.0,0.0,889,142,0,0,855.57,11.46,28.20,0
16:29:33,0,0,0,0,0,0,0,0,0,0,0,514,0,0,0,0,0.0000000,0.0000000,0.0000000,0.0000000,7.00,38.4063377,-110.7921524,1376.6999512,0.0,68.0,1.2,0.0,0.0,890,142,0,0,855.51,11.46,28.20,0
16:29:34,0,0,0,0,0,0,0,0,0,0,0,515,0,0,0,0,0.0000000,0.0000000,0.0000000,0.0000000,7.00,38.4063377,-110.7921524,1376.6999512,0.0,122.8,1.2,0.0,0.0,889,143,0,0,855.58,11.41,28.18,0
16:29:35,0,0,0,0,0,0,0,0,0,0,0,516,0,0,0,0,0.0000000,0.0000000,0.0000000,0.0000000,7.00,38.4063377,-110.7921524,1376.6999512,0.0,162.6,1.2,0.0,0.0,889,141,0,0,855.52,11.43,28.19,0
16:29:36,0,0,0,0,0,0,0,0,0,0,0,515,0,0,0,0,0.0000000,0.0000000,0.0000000,0.0000000,7.00,38.4063377,-110.7921524,1376.6999512,0.0,169.2,1.2,0.0,0.0,889,139,0,0,855.54,11.41,28.20,0
16:29:37,0,0,0,0,0,0,0,0,0,0,0,515,0,0,0,0,0.0000000,0.0000000,0.0000000,0.0000000,7.00,38.4063377,-110.7921524,1376.6999512,0.0,86.8,1.2,0.0,0.0,890,144,0,0,855.55,11.40,28.18,0
16:29:38,0,0,0,0,0,0,0,0,0,0,0,515,0,0,0,0,0.0000000,0.0000000,0.0000000,0.0000000,7.00,38.4063377,-110.7921524,1376.6999512,0.0,125.0,1.2,0.0,0.0,890,142,0,0,855.54,11.41,28.17,0
16:29:39,0,0,0,0,0,0,0,0,0,0,0,515,0,0,0,0,0.0000000,0.0000000,0.0000000,0.0000000,7.00,38.4063377,-110.7921524,1376.6999512,0.0,159.5,1.2,0.0,0.0,890,139,0,0,855.58,11.43,28.17,0
16:29:40,0,0,0,0,0,0,0,0,0,0,0,515,0,0,0,0,0.0000000,0.0000000,0.0000000,0.0000000,7.00,38.4063377,-110.7921524,1376.6999512,0.0,77.8,1.2,0.0,0.0,890,140,0,0,855.60,11.44,28.17,0
16:29:41,0,0,0,0,0,0,0,0,0,0,0,515,0,0,0,0,0.0000000,0.0000000,0.0000000,0.0000000,7.00,38.4063377,-110.7921524,1376.6999512,0.0,103.0,1.2,0.0,0.0,889,140,0,0,855.61,11.51,28.17,0
16:29:42,0,0,0,0,0,0,0,0,0,0,0,515,0,0,0,0,0.0000000,0.0000000,0.0000000,0.0000000,7.00,38.4063377,-110.7921524,1376.6999512,0.0,54.3,1.2,0.0,0.0,890,136,0,0,855.53,11.61,28.16,0
16:29:43,0,0,0,0,0,0,0,0,0,0,0,514,0,0,0,0,0.0000000,0.0000000,0.0000000,0.0000000,7.00,38.4063377,-110.7921524,1376.6999512,0.0,194.4,1.2,0.0,0.0,889,140,0,0,855.50,11.77,28.14,0
16:29:44,0,0,0,0,0,0,0,0,0,0,0,514,0,0,0,0,0.0000000,0.0000000,0.0000000,0.0000000,7.00,38.4063377,-110.7921524,1376.6999512,0.0,64.2,1.2,0.0,0.0,889,136,0,0,855.47,11.84,28.16,0
16:29:45,0,0,0,0,0,0,0,0,0,0,0,515,0,0,0,0,0.0000000,0.0000000,0.0000000,0.0000000,7.00,38.4063377,-110.7921524,1376.6999512,0.0,271.1,1.2,0.0,0.0,890,138,0,0,855.49,11.93,28.18,0
16:29:46,0,0,0,0,0,0,0,0,0,0,0,514,0,0,0,0,0.0000000,0.0000000,0.0000000,0.0000000,7.00,38.4063377,-110.7921524,1376.6999512,0.0,123.9,1.2,0.0,0.0,890,135,0,0,855.42,11.99,28.19,0
16:29:47,0,0,0,0,0,0,0,0,0,0,0,515,0,0,0,0,0.0000000,0.0000000,0.0000000,0.0000000,7.00,38.4063377,-110.7921524,1376.6999512,0.0,47.5,1.2,0.0,0.0,889,136,0,0,855.49,12.04,28.21,0
16:29:48,0,0,0,0,0,0,0,0,0,0,0,514,0,0,0,0,0.0000000,0.0000000,0.0000000,0.0000000,7.00,38.4063377,-110.7921524,1376.6999512,0.0,5.3,1.2,0.0,0.0,889,139,0,0,855.44,12.10,28.21,0
16:29:49,0,0,0,0,0,0,0,0,0,0,0,514,0,0,0,0,0.0000000,0.0000000,0.0000000,0.0000000,7.00,38.4063377,-110.7921524,1376.6999512,0.0,122.2,1.2,0.0,0.0,889,142,0,0,855.37,12.10,28.24,0
16:29:50,0,0,0,0,0,0,0,0,0,0,0,514,0,0,0,0,0.0000000,0.0000000,0.0000000,0.0000000,7.00,38.4063377,-110.7921524,1376.6999512,0.0,51.1,1.2,0.0,0.0,890,139,0,0,855.44,12.12,28.30,0
16:29:51,0,0,0,0,0,0,0,0,0,0,0,514,0,0,0,0,0.0000000,0.0000000,0.0000000,0.0000000,7.00,38.4063377,-110.7921524,1376.6999512,0.0,35.7,1.2,0.0,0.0,889,139,0,0,855.40,12.10,28.33,0
16:29:52,0,0,0,0,0,0,0,0,0,0,0,515,0,0,0,0,0.0000000,0.0000000,0.0000000,0.0000000,7.00,38.4063377,-110.7921524,1376.6999512,0.0,26.9,1.2,0.0,0.0,890,138,0,0,855.39,12.13,28.40,0
16:29:53,0,0,0,0,0,0,0,0,0,0,0,514,0,0,0,0,0.0000000,0.0000000,0.0000000,0.0000000,7.00,38.4063377,-110.7921524,1376.6999512,0.0,202.2,1.2,0.0,0.0,889,142,0,0,855.42,12.13,28.45,0
16:29:54,0,0,0,0,0,0,0,0,0,0,0,515,0,0,0,0,0.0000000,0.0000000,0.0000000,0.0000000,7.00,38.4063377,-110.7921524,1376.6999512,0.0,102.0,1.2,0.0,0.0,889,139,0,0,855.41,12.09,28.48,0
16:29:55,0,0,0,0,0,0,0,0,0,0,0,514,0,0,0,0,0.0000000,0.0000000,0.0000000,0.0000000,7.00,38.4063377,-110.7921524,1376.6999512,0.0,342.4,1.2,0.0,0.0,890,137,0,0,855.42,12.04,28.53,0
16:29:56,0,0,0,0,0,0,0,0,0,0,0,514,0,0,0,0,0.0000000,0.0000000,0.0000000,0.0000000,7.00,38.4063377,-110.7921524,1376.6999512,0.0,337.6,1.2,0.0,0.0,889,135,0,0,855.45,11.99,28.59,0
16:29:57,0,0,0,0,0,0,0,0,0,0,0,514,0,0,0,0,0.0000000,0.0000000,0.0000000,0.0000000,7.00,38.4063377,-110.7921524,1376.6999512,0.0,85.9,1.2,0.0,0.0,890,133,0,0,855.40,11.98,28.62,0
16:29:58,0,0,0,0,0,0,0,0,0,0,0,514,0,0,0,0,0.0000000,0.0000000,0.0000000,0.0000000,7.00,38.4063377,-110.7921524,1376.6999512,0.0,302.7,1.2,0.0,0.0,889,140,0,0,855.45,11.96,28.63,0
16:29:59,0,0,0,0,0,0,0,0,0,0,0,514,0,0,0,0,0.0000000,0.0000000,0.0000000,0.0000000,7.00,38.4063377,-110.7921524,1376.6999512,0.0,156.0,1.2,0.0,0.0,889,144,0,0,855.40,11.93,28.67,0
16:30:00,0,0,0,0,0,0,0,0,0,0,0,515,0,0,0,0,0.0000000,0.0000000,0.0000000,0.0000000,7.00,38.4063377,-110.7921524,1376.6999512,0.0,80.2,1.2,0.0,0.0,889,146,0,0,855.38,11.90,28.67,0
16:30:02,0,0,0,0,0,0,0,0,0,0,0,515,0,0,0,0,0.0000000,0.0000000,0.0000000,0.0000000,7.00,38.4063377,-110.7921524,1376.6999512,0.0,159.1,1.2,0.0,0.0,889,140,0,0,855.44,11.89,28.70,0
16:30:03,0,0,0,0,0,0,0,0,0,0,0,515,0,0,0,0,0.0000000,0.0000000,0.0000000,0.0000000,7.00,38.4063377,-110.7921524,1376.6999512,0.0,30.0,1.2,0.0,0.0,890,141,0,0,855.43,11.86,28.73,0
16:30:04,0,0,0,0,0,0,0,0,0,0,0,515,0,0,0,0,0.0000000,0.0000000,0.0000000,0.0000000,7.00,38.4063377,-110.7921524,1376.6999512,0.0,197.6,1.2,0.0,0.0,889,141,0,0,855.44,11.81,28.77,0
16:30:05,0,0,0,0,0,0,0,0,0,0,0,514,0,0,0,0,0.0000000,0.0000000,0.0000000,0.0000000,7.00,38.4063377,-110.7921524,1376.6999512,0.0,298.3,1.2,0.0,0.0,889,140,0,0,855.48,11.70,28.83,0
16:30:06,0,0,0,0,0,0,0,0,0,0,0,514,0,0,0,0,0.0000000,0.0000000,0.0000000,0.0000000,7.00,38.4063377,-110.7921524,1376.6999512,0.0,124.7,1.2,0.0,0.0,890,139,0,0,855.45,11.61,28.88,0
16:30:07,0,0,0,0,0,0,0,0,0,0,0,515,0,0,0,0,0.0000000,0.0000000,0.0000000,0.0000000,7.00,38.4063377,-110.7921524,1376.6999512,0.0,306.5,1.2,0.0,0.0,889,140,0,0,855.49,11.51,28.91,0
16:30:08,0,0,0,0,0,0,0,0,0,0,0,514,0,0,0,0,0.0000000,0.0000000,0.0000000,0.0000000,7.00,38.4063377,-110.7921524,1376.6999512,0.0,103.5,1.2,0.0,0.0,890,135,0,0,855.44,11.40,28.91,0
16:30:09,0,0,0,0,0,0,0,0,0,0,0,515,0,0,0,0,0.0000000,0.0000000,0.0000000,0.0000000,7.00,38.4063377,-110.7921524,1376.6999512,0.0,314.9,1.2,0.0,0.0,889,135,0,0,855.51,11.25,28.97,0
16:30:10,0,0,0,0,0,0,0,0,0,0,0,515,0,0,0,0,0.0000000,0.0000000,0.0000000,0.0000000,7.00,38.4063377,-110.7921524,1376.6999512,0.0,259.5,1.2,0.0,0.0,889,135,0,0,855.56,11.17,29.01,0
16:30:11,0,0,0,0,0,0,0,0,0,0,0,515,0,0,0,0,0.0000000,0.0000000,0.0000000,0.0000000,7.00,38.4063377,-110.7921524,1376.6999512,0.0,34.5,1.2,0.0,0.0,889,135,0,0,855.49,11.15,29.04,0
16:30:12,0,0,0,0,0,0,0,0,0,0,0,514,0,0,0,0,0.0000000,0.0000000,0.0000000,0.0000000,7.00,38.4063377,-110.7921524,1376.6999512,0.0,129.8,1.2,0.0,0.0,890,135,0,0,855.51,11.17,29.06,0
16:30:13,0,0,0,0,0,0,0,0,0,0,0,515,0,0,0,0,0.0000000,0.0000000,0.0000000,0.0000000,7.00,38.4063377,-110.7921524,1376.6999512,0.0,296.4,1.2,0.0,0.0,889,140,0,0,855.53,11.26,29.06,0
16:30:14,0,0,0,0,0,0,0,0,0,0,0,515,0,0,0,0,0.0000000,0.0000000,0.0000000,0.0000000,7.00,38.4063377,-110.7921524,1376.6999512,0.0,32.3,1.2,0.0,0.0,889,133,0,0,855.47,11.29,29.08,0
16:30:15,0,0,0,0,0,0,0,0,0,0,0,515,0,0,0,0,0.0000000,0.0000000,0.0000000,0.0000000,7.00,38.4063377,-110.7921524,1376.6999512,0.0,110.6,1.2,0.0,0.0,889,138,0,0,855.45,11.34,29.11,0
16:30:16,0,0,0,0,0,0,0,0,0,0,0,515,0,0,0,0,0.0000000,0.0000000,0.0000000,0.0000000,7.00,38.4063377,-110.7921524,1376.6999512,0.0,74.0,1.2,0.0,0.0,889,137,0,0,855.43,11.35,29.13,0
16:30:17,0,0,0,0,0,0,0,0,0,0,0,514,0,0,0,0,0.0000000,0.0000000,0.0000000,0.0000000,7.00,38.4063377,-110.7921524,1376.6999512,0.0,7.3,1.2,0.0,0.0,889,142,0,0,855.44,11.29,29.19,0
16:30:18,0,0,0,0,0,0,0,0,0,0,0,515,0,0,0,0,0.0000000,0.0000000,0.0000000,0.0000000,7.00,38.4063377,-110.7921524,1376.6999512,0.0,55.4,1.2,0.0,0.0,889,138,0,0,855.48,11.22,29.25,0
16:30:19,0,0,0,0,0,0,0,0,0,0,0,515,0,0,0,0,0.0000000,0.0000000,0.0000000,0.0000000,7.00,38.4063377,-110.7921524,1376.6999512,0.0,317.9,1.2,0.0,0.0,889,139,0,0,855.49,11.09,29.29,0
16:30:20,0,0,0,0,0,0,0,0,0,0,0,514,0,0,0,0,0.0000000,0.0000000,0.0000000,0.0000000,7.00,38.4063377,-110.7921524,1376.6999512,0.0,0.0,1.2,0.0,0.0,890,134,0,0,855.52,10.97,29.30,0
16:30:21,0,0,0,0,0,0,0,0,0,0,0,514,0,0,0,0,0.0000000,0.0000000,0.0000000,0.0000000,7.00,38.4063377,-110.7921524,1376.6999512,0.0,356.1,1.2,0.0,0.0,889,135,0,0,855.46,10.83,29.30,0
16:30:22,0,0,0,0,0,0,0,0,0,0,0,515,0,0,0,0,0.0000000,0.0000000,0.0000000,0.0000000,7.00,38.4063377,-110.7921524,1376.6999512,0.0,205.6,1.2,0.0,0.0,889,131,0,0,855.55,10.71,29.31,0
16:30:23,0,0,0,0,0,0,0,0,0,0,0,515,0,0,0,0,0.0000000,0.0000000,0.0000000,0.0000000,7.00,38.4063377,-110.7921524,1376.6999512,0.0,52.6,1.2,0.0,0.0,889,134,0,0,855.52,10.67,29.32,0
16:30:24,0,0,0,0,0,0,0,0,0,0,0,515,0,0,0,0,0.0000000,0.0000000,0.0000000,0.0000000,7.00,38.4063377,-110.7921524,1376.6999512,0.0,253.4,1.2,0.0,0.0,889,133,0,0,855.53,10.64,29.37,0
16:30:25,0,0,0,0,0,0,0,0,0,0,0,515,0,0,0,0,0.0000000,0.0000000,0.0000000,0.0000000,7.00,38.4063377,-110.7921524,1376.6999512,0.0,19.1,1.2,0.0,0.0,890,134,0,0,855.59,10.62,29.38,0
16:30:26,0,0,0,0,0,0,0,0,0,0,0,514,0,0,0,0,0.0000000,0.0000000,0.0000000,0.0000000,7.00,38.4063377,-110.7921524,1376.6999512,0.0,1.4,1.2,0.0,0.0,889,142,0,0,855.62,10.62,29.36,0
16:30:27,0,0,0,0,0,0,0,0,0,0,0,515,0,0,0,0,0.0000000,0.0000000,0.0000000,0.0000000,7.00,38.4063377,-110.7921524,1376.6999512,0.0,319.2,1.2,0.0,0.0,889,137,0,0,855.56,10.65,29.33,0
16:30:28,0,0,0,0,0,0,0,0,0,0,0,514,0,0,0,0,0.0000000,0.0000000,0.0000000,0.0000000,7.00,38.4063377,-110.7921524,1376.6999512,0.0,168.2,1.2,0.0,0.0,889,143,0,0,855.58,10.62,29.33,0
16:30:29,0,0,0,0,0,0,0,0,0,0,0,514,0,0,0,0,0.0000000,0.0000000,0.0000000,0.0000000,7.00,38.4063377,-110.7921524,1376.6999512,0.0,18.7,1.2,0.0,0.0,890,135,0,0,855.57,10.62,29.33,0
16:30:30,0,0,0,0,0,0,0,0,0,0,0,515,0,0,0,0,0.0000000,0.0000000,0.0000000,0.0000000,7.00,38.4063377,-110.7921524,1376.6999512,0.0,103.3,1.2,0.0,0.0,890,138,0,0,855.55,10.62,29.35,0
16:30:31,0,0,0,0,0,0,0,0,0,0,0,514,0,0,0,0,0.0000000,0.0000000,0.0000000,0.0000000,7.00,38.4063377,-110.7921524,1376.6999512,0.0,0.9,1.2,0.0,0.0,890,138,0,0,855.57,10.57,29.39,0
16:30:32,0,0,0,0,0,0,0,0,0,0,0,514,0,0,0,0,0.0000000,0.0000000,0.0000000,0.0000000,7.00,38.4063377,-110.7921524,1376.6999512,0.0,33.6,1.2,0.0,0.0,889,138,0,0,855.57,10.59,29.38,0
16:30:33,0,0,0,0,0,0,0,0,0,0,0,516,0,0,0,0,0.0000000,0.0000000,0.0000000,0.0000000,7.00,38.4063377,-110.7921524,1376.6999512,0.0,355.8,1.2,0.0,0.0,889,136,0,0,855.51,10.56,29.40,0
16:30:34,0,0,0,0,0,0,0,0,0,0,0,515,0,0,0,0,0.0000000,0.0000000,0.0000000,0.0000000,7.00,38.4063377,-110.7921524,1376.6999512,0.0,128.5,1.2,0.0,0.0,890,138,0,0,855.58,10.57,29.44,0
16:30:35,0,0,0,0,0,0,0,0,0,0,0,514,0,0,0,0,0.0000000,0.0000000,0.0000000,0.0000000,7.00,38.4063377,-110.7921524,1376.6999512,0.0,327.3,1.2,0.0,0.0,889,136,0,0,855.55,10.54,29.41,0
16:30:36,0,0,0,0,0,0,0,0,0,0,0,514,0,0,0,0,0.0000000,0.0000000,0.0000000,0.0000000,7.00,38.4063377,-110.7921524,1376.6999512,0.0,87.5,1.2,0.0,0.0,889,137,0,0,855.58,10.54,29.37,0
16:30:37,0,0,0,0,0,0,0,0,0,0,0,515,0,0,0,0,0.0000000,0.0000000,0.0000000,0.0000000,7.00,38.4063377,-110.7921524,1376.6999512,0.0,309.1,1.2,0.0,0.0,889,138,0,0,855.55,10.54,29.41,0
16:30:38,0,0,0,0,0,0,0,0,0,0,0,514,0,0,0,0,0.0000000,0.0000000,0.0000000,0.0000000,7.00,38.4063377,-110.7921524,1376.6999512,0.0,116.2,1.2,0.0,0.0,889,136,0,0,855.56,10.54,29.39,0
16:30:39,0,0,0,0,0,0,0,0,0,0,0,514,0,0,0,0,0.0000000,0.0000000,0.0000000,0.0000000,7.00,38.4063377,-110.7921524,1376.8000488,0.0,124.7,1.1,0.0,0.0,889,141,0,0,855.59,10.59,29.38,0
16:30:40,0,0,0,0,0,0,0,0,0,0,0,515,0,0,0,0,0.0000000,0.0000000,0.0000000,0.0000000,7.00,38.4063377,-110.7921524,1376.8000488,0.0,47.4,1.1,0.0,0.0,889,145,0,0,855.54,10.57,29.26,0
16:30:41,0,0,0,0,0,0,0,0,0,0,0,515,0,0,0,0,0.0000000,0.0000000,0.0000000,0.0000000,7.00,38.4063377,-110.7921524,1376.9000244,0.0,58.1,1.1,0.0,0.0,889,154,0,0,855.55,10.65,29.16,0
16:30:42,0,0,0,0,0,0,0,0,0,0,0,515,0,0,0,0,0.0000000,0.0000000,0.0000000,0.0000000,7.00,38.4063377,-110.7921524,1376.9000244,0.0,242.3,1.1,0.0,0.0,889,158,0,0,855.52,10.67,29.10,0
16:30:43,0,0,0,0,0,0,0,0,0,0,0,515,0,0,0,0,0.0000000,0.0000000,0.0000000,0.0000000,7.00,38.4063416,-110.7921524,1377.0000000,0.0,85.4,1.1,0.0,0.0,889,156,0,0,855.54,10.67,29.09,0
16:30:44,0,0,0,0,0,0,0,0,0,0,0,515,0,0,0,0,0.0000000,0.0000000,0.0000000,0.0000000,7.00,38.4063416,-110.7921524,1377.0999756,0.0,103.9,1.1,0.0,0.0,889,149,0,0,855.58,10.68,29.13,0
16:30:45,0,0,0,0,0,0,0,0,0,0,0,515,0,0,0,0,0.0000000,0.0000000,0.0000000,0.0000000,7.00,38.4063416,-110.7921524,1377.0999756,0.0,190.8,1.1,0.0,0.0,889,150,0,0,855.53,10.68,29.15,0
16:30:46,0,0,0,0,0,0,0,0,0,0,0,515,0,0,0,0,0.0000000,0.0000000,0.0000000,0.0000000,7.00,38.4063454,-110.7921524,1377.1999512,0.0,177.7,1.1,0.0,0.0,890,149,0,0,855.57,10.68,29.10,0
16:30:47,0,0,0,0,0,0,0,0,0,0,0,515,0,0,0,0,0.0000000,0.0000000,0.0000000,0.0000000,7.00,38.4063454,-110.7921524,1377.1999512,0.0,178.8,1.1,0.0,0.0,889,149,0,0,855.58,10.71,29.05,0
16:30:48,0,0,0,0,0,0,0,0,0,0,0,513,0,0,0,0,0.0000000,0.0000000,0.0000000,0.0000000,8.00,38.4063454,-110.7921524,1377.1999512,0.0,152.7,1.0,0.0,0.0,890,146,0,0,855.52,10.77,28.94,0
16:30:49,0,0,0,0,0,0,0,0,0,0,0,514,0,0,0,0,0.0000000,0.0000000,0.0000000,0.0000000,8.00,38.4063454,-110.7921524,1377.1999512,0.0,36.8,1.0,0.0,0.0,889,144,0,0,855.51,10.79,28.96,0
16:30:50,0,0,0,0,0,0,0,0,0,0,0,515,0,0,0,0,0.0000000,0.0000000,0.0000000,0.0000000,8.00,38.4063492,-110.7921524,1377.3000488,0.0,39.4,1.0,0.0,0.0,890,142,0,0,855.53,10.76,28.97,0
16:30:51,0,0,0,0,0,0,0,0,0,0,0,515,0,0,0,0,0.0000000,0.0000000,0.0000000,0.0000000,8.00,38.4063530,-110.7921524,1377.4000244,0.0,11.5,1.0,0.0,0.0,889,140,0,0,855.49,10.74,29.06,0
16:30:52,0,0,0,0,0,0,0,0,0,0,0,515,0,0,0,0,0.0000000,0.0000000,0.0000000,0.0000000,8.00,38.4063530,-110.7921524,1377.4000244,0.0,19.9,1.0,0.0,0.0,889,142,0,0,855.46,10.73,29.04,0
16:30:53,0,0,0,0,0,0,0,0,0,0,0,515,0,0,0,0,0.0000000,0.0000000,0.0000000,0.0000000,8.00,38.4063530,-110.7921524,1377.4000244,0.0,12.9,1.0,0.0,0.0,889,142,0,0,855.50,10.71,29.00,0
16:30:54,0,0,0,0,0,0,0,0,0,0,0,515,0,0,0,0,0.0000000,0.0000000,0.0000000,0.0000000,8.00,38.4063568,-110.7921524,1377.4000244,0.0,12.2,1.0,0.0,0.0,889,143,0,0,855.51,10.73,28.97,0
16:30:55,0,0,0,0,0,0,0,0,0,0,0,515,0,0,0,0,0.0000000,0.0000000,0.0000000,0.0000000,8.00,38.4063568,-110.7921524,1377.5000000,0.0,1.4,1.0,0.0,0.0,889,150,0,0,855.51,10.74,28.97,0
16:30:56,0,0,0,0,0,0,0,0,0,0,0,515,0,0,0,0,0.0000000,0.0000000,0.0000000,0.0000000,8.00,38.4063568,-110.7921524,1377.5000000,0.0,30.1,1.0,0.0,0.0,889,146,0,0,855.48,10.79,28.99,0
16:30:57,0,0,0,0,0,0,0,0,0,0,0,514,0,0,0,0,0.0000000,0.0000000,0.0000000,0.0000000,8.00,38.4063568,-110.7921524,1377.5999756,0.0,324.9,1.0,0.0,0.0,889,145,0,0,855.49,10.79,29.00,0
16:30:58,0,0,0,0,0,0,0,0,0,0,0,514,0,0,0,0,0.0000000,0.0000000,0.0000000,0.0000000,8.00,38.4063606,-110.7921524,1377.5999756,0.0,344.2,1.0,0.0,0.0,889,150,0,0,855.56,10.77,28.95,0
16:30:59,0,0,0,0,0,0,0,0,0,0,0,514,0,0,0,0,0.0000000,0.0000000,0.0000000,0.0000000,8.00,38.4063606,-110.7921524,1377.5999756,0.0,352.8,1.0,0.0,0.0,889,140,0,0,855.51,10.79,28.95,0
16:31:00,0,0,0,0,0,0,0,0,0,0,0,514,0,0,0,0,0.0000000,0.0000000,0.0000000,0.0000000,8.00,38.4063644,-110.7921524,1377.6999512,0.0,342.4,1.0,0.0,0.0,889,149,0,0,855.53,10.85,28.92,0
16:31:01,0,0,0,0,0,0,0,0,0,0,0,514,0,0,0,0,0.0000000,0.0000000,0.0000000,0.0000000,8.00,38.4063644,-110.7921524,1377.6999512,0.0,348.1,1.0,0.0,0.0,889,143,0,0,855.50,10.86,28.90,0
16:31:02,0,0,0,0,0,0,0,0,0,0,0,514,0,0,0,0,0.0000000,0.0000000,0.0000000,0.0000000,8.00,38.4063644,-110.7921524,1377.6999512,0.0,354.9,1.0,0.0,0.0,889,146,0,0,855.52,10.86,28.91,0
16:31:03,0,0,0,0,0,0,0,0,0,0,0,515,0,0,0,0,0.0000000,0.0000000,0.0000000,0.0000000,8.00,38.4063683,-110.7921524,1377.6999512,0.0,352.5,1.0,0.0,0.0,890,142,0,0,855.46,10.85,28.88,0
16:31:04,0,0,0,0,0,0,0,0,0,0,0,514,0,0,0,0,0.0000000,0.0000000,0.0000000,0.0000000,8.00,38.4063683,-110.7921524,1377.6999512,0.0,1.8,1.0,0.0,0.0,889,143,0,0,855.51,10.85,28.88,0
16:31:05,0,0,0,0,0,0,0,0,0,0,0,515,0,0,0,0,0.0000000,0.0000000,0.0000000,0.0000000,8.00,38.4063721,-110.7921524,1377.8000488,0.0,358.8,1.0,0.0,0.0,889,143,0,0,855.53,10.86,28.86,0
16:31:06,0,0,0,0,0,0,0,0,0,0,0,515,0,0,0,0,0.0000000,0.0000000,0.0000000,0.0000000,8.00,38.4063721,-110.7921524,1377.8000488,0.0,36.2,1.1,0.0,0.0,889,148,0,0,855.49,10.94,28.88,0
16:31:07,0,0,0,0,0,0,0,0,0,0,0,515,0,0,0,0,0.0000000,0.0000000,0.0000000,0.0000000,8.00,38.4063759,-110.7921524,1377.8000488,0.0,75.1,1.1,0.0,0.0,889,148,0,0,855.45,10.94,28.87,0
16:31:08,0,0,0,0,0,0,0,0,0,0,0,515,0,0,0,0,0.0000000,0.0000000,0.0000000,0.0000000,8.00,38.4063759,-110.7921524,1377.8000488,0.0,75.1,1.1,0.0,0.0,889,149,0,0,855.36,11.03,28.77,0
16:31:09,0,0,0,0,0,0,0,0,0,0,0,514,0,0,0,0,0.0000000,0.0000000,0.0000000,0.0000000,8.00,38.4063759,-110.7921524,1377.8000488,0.0,10.2,1.1,0.0,0.0,889,148,0,0,855.45,11.09,28.82,0
16:31:10,0,0,0,0,0,0,0,0,0,0,0,514,0,0,0,0,0.0000000,0.0000000,0.0000000,0.0000000,8.00,38.4063759,-110.7921524,1377.8000488,0.0,64.0,1.1,0.0,0.0,889,147,0,0,855.37,11.15,28.85,0
16:31:11,0,0,0,0,0,0,0,0,0,0,0,515,0,0,0,0,0.0000000,0.0000000,0.0000000,0.0000000,8.00,38.4063759,-110.7921524,1377.8000488,0.0,148.2,1.1,0.0,0.0,890,142,0,0,855.33,11.25,28.83,0
16:31:12,0,0,0,0,0,0,0,0,0,0,0,514,0,0,0,0,0.0000000,0.0000000,0.0000000,0.0000000,8.00,38.4063797,-110.7921524,1377.9000244,0.0,351.5,1.1,0.0,0.0,889,144,0,0,855.36,11.37,28.84,0
16:31:13,0,0,0,0,0,0,0,0,0,0,0,515,0,0,0,0,0.0000000,0.0000000,0.0000000,0.0000000,8.00,38.4063797,-110.7921524,1378.0000000,0.0,145.1,1.1,0.0,0.0,890,146,0,0,855.35,11.49,28.85,0
16:31:14,0,0,0,0,0,0,0,0,0,0,0,515,0,0,0,0,0.0000000,0.0000000,0.0000000,0.0000000,8.00,38.4063797,-110.7921524,1378.0000000,0.0,124.7,1.1,0.0,0.0,889,145,0,0,855.35,11.58,28.84,0
16:31:15,0,0,0,0,0,0,0,0,0,0,0,515,0,0,0,0,0.0000000,0.0000000,0.0000000,0.0000000,8.00,38.4063797,-110.7921524,1378.0999756,0.0,109.0,1.1,0.0,0.0,889,141,0,0,855.35,11.63,28.86,0
16:31:16,0,0,0,0,0,0,0,0,0,0,0,515,0,0,0,0,0.0000000,0.0000000,0.0000000,0.0000000,8.00,38.4063797,-110.7921524,1378.0999756,0.0,171.3,1.1,0.0,0.0,889,142,0,0,855.30,11.67,28.91,0
16:31:17,0,0,0,0,0,0,0,0,0,0,0,515,0,0,0,0,0.0000000,0.0000000,0.0000000,0.0000000,8.00,38.4063797,-110.7921524,1378.0999756,0.0,135.3,1.1,0.0,0.0,889,142,0,0,855.30,11.66,29.01,0
16:31:18,0,0,0,0,0,0,0,0,0,0,0,514,0,0,0,0,0.0000000,0.0000000,0.0000000,0.0000000,8.00,38.4063797,-110.7921524,1378.0999756,0.0,341.4,1.1,0.0,0.0,889,140,0,0,855.33,11.63,29.09,0
16:31:19,0,0,0,0,0,0,0,0,0,0,0,514,0,0,0,0,0.0000000,0.0000000,0.0000000,0.0000000,8.00,38.4063835,-110.7921524,1378.1999512,0.0,338.8,1.1,0.0,0.0,889,136,0,0,855.34,11.63,29.14,0
16:31:21,0,0,0,0,0,0,0,0,0,0,0,514,0,0,0,0,0.0000000,0.0000000,0.0000000,0.0000000,8.00,38.4063835,-110.7921524,1378.1999512,0.0,324.6,1.1,0.0,0.0,889,139,0,0,855.31,11.60,29.17,0
16:31:22,0,0,0,0,0,0,0,0,0,0,0,515,0,0,0,0,0.0000000,0.0000000,0.0000000,0.0000000,8.00,38.4063835,-110.7921524,1378.1999512,0.0,313.1,1.1,0.0,0.0,889,136,0,0,855.30,11.66,29.19,0
16:31:23,0,0,0,0,0,0,0,0,0,0,0,515,0,0,0,0,0.0000000,0.0000000,0.0000000,0.0000000,8.00,38.4063835,-110.7921524,1378.1999512,0.0,101.1,1.1,0.0,0.0,889,135,0,0,855.28,11.75,29.22,0
16:31:24,0,0,0,0,0,0,0,0,0,0,0,515,0,0,0,0,0.0000000,0.0000000,0.0000000,0.0000000,8.00,38.4063835,-110.7921524,1378.1999512,0.0,175.8,1.1,0.0,0.0,889,139,0,0,855.28,11.80,29.30,0
16:31:25,0,0,0,0,0,0,0,0,0,0,0,515,0,0,0,0,0.0000000,0.0000000,0.0000000,0.0000000,8.00,38.4063835,-110.7921524,1378.1999512,0.0,92.3,1.1,0.0,0.0,889,133,0,0,855.26,11.84,29.35,0
16:31:26,0,0,0,0,0,0,0,0,0,0,0,514,0,0,0,0,0.0000000,0.0000000,0.0000000,0.0000000,8.00,38.4063835,-110.7921524,1378.1999512,0.0,183.9,1.1,0.0,0.0,889,136,0,0,855.22,11.86,29.43,0
16:31:27,0,0,0,0,0,0,0,0,0,0,0,515,0,0,0,0,0.0000000,0.0000000,0.0000000,0.0000000,8.00,38.4063835,-110.7921524,1378.1999512,0.0,114.6,1.1,0.0,0.0,889,131,0,0,855.28,11.87,29.42,0
16:31:28,0,0,0,0,0,0,0,0,0,0,0,515,0,0,0,0,0.0000000,0.0000000,0.0000000,0.0000000,8.00,38.4063835,-110.7921524,1378.1999512,0.0,121.4,1.1,0.0,0.0,889,131,0,0,855.24,11.84,29.47,0
16:31:29,0,0,0,0,0,0,0,0,0,0,0,514,0,0,0,0,0.0000000,0.0000000,0.0000000,0.0000000,8.00,38.4063835,-110.7921524,1378.1999512,0.0,132.2,1.1,0.0,0.0,889,131,0,0,855.21,11.81,29.53,0
16:31:30,0,0,0,0,0,0,0,0,0,0,0,514,0,0,0,0,0.0000000,0.0000000,0.0000000,0.0000000,8.00,38.4063835,-110.7921524,1378.1999512,0.0,102.0,1.1,0.0,0.0,889,130,0,0,855.24,11.80,29.62,0
16:31:31,0,0,0,0,0,0,0,0,0,0,0,515,0,0,0,0,0.0000000,0.0000000,0.0000000,0.0000000,8.00,38.4063835,-110.7921524,1378.1999512,0.0,149.7,1.1,0.0,0.0,889,130,0,0,855.21,11.73,29.71,0
16:31:32,0,0,0,0,0,0,0,0,0,0,0,514,0,0,0,0,0.0000000,0.0000000,0.0000000,0.0000000,8.00,38.4063835,-110.7921524,1378.1999512,0.0,124.6,1.1,0.0,0.0,889,133,0,0,855.26,11.69,29.78,0
16:31:33,0,0,0,0,0,0,0,0,0,0,0,515,0,0,0,0,0.0000000,0.0000000,0.0000000,0.0000000,8.00,38.4063835,-110.7921524,1378.1999512,0.0,175.8,1.1,0.0,0.0,889,132,0,0,855.24,11.63,29.86,0
16:31:34,0,0,0,0,0,0,0,0,0,0,0,515,0,0,0,0,0.0000000,0.0000000,0.0000000,0.0000000,8.00,38.4063835,-110.7921524,1378.1999512,0.0,162.8,1.1,0.0,0.0,889,130,0,0,855.23,11.55,29.94,0
16:31:35,0,0,0,0,0,0,0,0,0,0,0,515,0,0,0,0,0.0000000,0.0000000,0.0000000,0.0000000,8.00,38.4063835,-110.7921524,1378.1999512,0.0,283.1,1.1,0.0,0.0,890,135,0,0,855.24,11.51,30.01,0
16:31:36,0,0,0,0,0,0,0,0,0,0,0,515,0,0,0,0,0.0000000,0.0000000,0.0000000,0.0000000,8.00,38.4063835,-110.7921524,1378.1999512,0.0,193.4,1.1,0.0,0.0,890,133,0,0,855.23,11.43,30.07,0
16:31:37,0,0,0,0,0,0,0,0,0,0,0,514,0,0,0,0,0.0000000,0.0000000,0.0000000,0.0000000,8.00,38.4063835,-110.7921524,1378.1999512,0.0,170.7,1.1,0.0,0.0,889,129,0,0,855.24,11.40,30.15,0
16:31:38,0,0,0,0,0,0,0,0,0,0,0,515,0,0,0,0,0.0000000,0.0000000,0.0000000,0.0000000,8.00,38.4063835,-110.7921524,1378.1999512,0.0,164.5,1.1,0.0,0.0,889,130,0,0,855.27,11.32,30.18,0
16:31:39,0,0,0,0,0,0,0,0,0,0,0,515,0,0,0,0,0.0000000,0.0000000,0.0000000,0.0000000,8.00,38.4063835,-110.7921524,1378.1999512,0.0,165.4,1.1,0.0,0.0,889,127,0,0,855.21,11.26,30.27,0
16:31:40,0,0,0,0,0,0,0,0,0,0,0,513,0,0,0,0,0.0000000,0.0000000,0.0000000,0.0000000,8.00,38.4063835,-110.7921524,1378.1999512,0.0,96.4,1.1,0.0,0.0,889,133,0,0,855.22,11.22,30.37,0
16:31:41,0,0,0,0,0,0,0,0,0,0,0,514,0,0,0,0,0.0000000,0.0000000,0.0000000,0.0000000,8.00,38.4063835,-110.7921524,1378.1999512,0.0,177.6,1.1,0.0,0.0,889,131,0,0,855.27,11.17,30.42,0
16:31:42,0,0,0,0,0,0,0,0,0,0,0,514,0,0,0,0,0.0000000,0.0000000,0.0000000,0.0000000,8.00,38.4063835,-110.7921524,1378.1999512,0.0,159.9,1.1,0.0,0.0,889,130,0,0,855.23,11.12,30.49,0
16:31:43,0,0,0,0,0,0,0,0,0,0,0,515,0,0,0,0,0.0000000,0.0000000,0.0000000,0.0000000,8.00,38.4063835,-110.7921524,1378.1999512,0.0,203.6,1.1,0.0,0.0,889,130,0,0,855.25,11.06,30.58,0
16:31:44,0,0,0,0,0,0,0,0,0,0,0,515,0,0,0,0,0.0000000,0.0000000,0.0000000,0.0000000,8.00,38.4063835,-110.7921524,1378.1999512,0.0,224.7,1.1,0.0,0.0,890,130,0,0,855.22,10.99,30.66,0
16:31:45,0,0,0,0,0,0,0,0,0,0,0,515,0,0,0,0,0.0000000,0.0000000,0.0000000,0.0000000,8.00,38.4063835,-110.7921524,1378.1999512,0.0,229.7,1.1,0.0,0.0,889,126,0,0,855.17,10.93,30.73,0
16:31:46,0,0,0,0,0,0,0,0,0,0,0,514,0,0,0,0,0.0000000,0.0000000,0.0000000,0.0000000,8.00,38.4063835,-110.7921524,1378.1999512,0.0,190.4,1.1,0.0,0.0,889,128,0,0,855.21,10.86,30.77,0
16:31:47,0,0,0,0,0,0,0,0,0,0,0,515,0,0,0,0,0.0000000,0.0000000,0.0000000,0.0000000,8.00,38.4063835,-110.7921524,1378.1999512,0.0,329.2,1.1,0.0,0.0,889,128,0,0,855.17,10.85,30.81,0
16:31:48,0,0,0,0,0,0,0,0,0,0,0,515,0,0,0,0,0.0000000,0.0000000,0.0000000,0.0000000,8.00,38.4063835,-110.7921524,1378.1999512,0.0,357.5,1.1,0.0,0.0,889,129,0,0,855.21,10.79,30.86,0
16:31:49,0,0,0,0,0,0,0,0,0,0,0,515,0,0,0,0,0.0000000,0.0000000,0.0000000,0.0000000,8.00,38.4063835,-110.7921524,1378.1999512,0.0,245.6,1.1,0.0,0.0,889,124,0,0,855.20,10.80,30.92,0
16:31:50,0,0,0,0,0,0,0,0,0,0,0,514,0,0,0,0,0.0000000,0.0000000,0.0000000,0.0000000,8.00,38.4063835,-110.7921524,1378.1999512,0.0,1.2,1.1,0.0,0.0,889,127,0,0,855.14,10.76,31.00,0
16:31:51,0,0,0,0,0,0,0,0,0,0,0,515,0,0,0,0,0.0000000,0.0000000,0.0000000,0.0000000,8.00,38.4063835,-110.7921524,1378.1999512,0.0,187.2,1.1,0.0,0.0,889,129,0,0,855.20,10.67,31.08,0
16:31:52,0,0,0,0,0,0,0,0,0,0,0,515,0,0,0,0,0.0000000,0.0000000,0.0000000,0.0000000,8.00,38.4063835,-110.7921524,1378.1999512,0.0,162.8,1.1,0.0,0.0,890,131,0,0,855.21,10.64,31.16,0
16:31:53,0,0,0,0,0,0,0,0,0,0,0,516,0,0,0,0,0.0000000,0.0000000,0.0000000,0.0000000,8.00,38.4063835,-110.7921524,1378.1999512,0.0,196.9,1.1,0.0,0.0,889,127,0,0,855.25,10.61,31.25,0
16:31:54,0,0,0,0,0,0,0,0,0,0,0,515,0,0,0,0,0.0000000,0.0000000,0.0000000,0.0000000,8.00,38.4063835,-110.7921524,1378.1999512,0.0,206.1,1.1,0.0,0.0,889,131,0,0,855.19,10.57,31.33,0
16:31:55,0,0,0,0,0,0,0,0,0,0,0,515,0,0,0,0,0.0000000,0.0000000,0.0000000,0.0000000,8.00,38.4063835,-110.7921524,1378.1999512,0.0,223.5,1.1,0.0,0.0,889,125,0,0,855.21,10.57,31.36,0
16:31:56,0,0,0,0,0,0,0,0,0,0,0,514,0,0,0,0,0.0000000,0.0000000,0.0000000,0.0000000,8.00,38.4063835,-110.7921524,1378.1999512,0.0,246.6,1.1,0.0,0.0,889,128,0,0,855.22,10.50,31.44,0
16:31:57,0,0,0,0,0,0,0,0,0,0,0,515,0,0,0,0,0.0000000,0.0000000,0.0000000,0.0000000,8.00,38.4063835,-110.7921524,1378.1999512,0.0,237.5,1.1,0.0,0.0,890,128,0,0,855.20,10.39,31.51,0
16:31:58,0,0,0,0,0,0,0,0,0,0,0,515,0,0,0,0,0.0000000,0.0000000,0.0000000,0.0000000,8.00,38.4063797,-110.7921524,1378.1999512,0.0,126.4,1.1,0.0,0.0,889,132,0,0,855.21,10.36,31.58,0
16:31:59,0,0,0,0,0,0,0,0,0,0,0,515,0,0,0,0,0.0000000,0.0000000,0.0000000,0.0000000,8.00,38.4063797,-110.7921524,1378.0999756,0.0,259.2,1.1,0.0,0.0,889,132,0,0,855.17,10.33,31.67,0
16:32:00,0,0,0,0,0,0,0,0,0,0,0,515,0,0,0,0,0.0000000,0.0000000,0.0000000,0.0000000,8.00,38.4063759,-110.7921524,1378.0000000,0.0,10.8,1.1,0.0,0.0,889,128,0,0,855.25,10.25,31.72,0
16:32:01,0,0,0,0,0,0,0,0,0,0,0,515,0,0,0,0,0.0000000,0.0000000,0.0000000,0.0000000,8.00,38.4063759,-110.7921524,1378.0000000,0.0,20.2,1.1,0.0,0.0,889,129,0,0,855.24,10.22,31.80,0
16:32:02,0,0,0,0,0,0,0,0,0,0,0,515,0,0,0,0,0.0000000,0.0000000,0.0000000,0.0000000,8.00,38.4063759,-110.7921524,1378.0000000,0.0,232.3,1.1,0.0,0.0,889,132,0,0,855.26,10.22,31.89,0
16:32:03,0,0,0,0,0,0,0,0,0,0,0,515,0,0,0,0,0.0000000,0.0000000,0.0000000,0.0000000,8.00,38.4063759,-110.7921524,1378.0000000,0.0,160.9,1.1,0.0,0.0,889,129,0,0,855.22,10.15,31.97,0
16:32:04,0,0,0,0,0,0,0,0,0,0,0,515,0,0,0,0,0.0000000,0.0000000,0.0000000,0.0000000,8.00,38.4063759,-110.7921524,1378.0000000,0.0,223.7,1.1,0.0,0.0,889,129,0,0,855.31,10.12,32.06,0
16:32:05,0,0,0,0,0,0,0,0,0,0,0,515,0,0,0,0,0.0000000,0.0000000,0.0000000,0.0000000,8.00,38.4063759,-110.7921524,1378.0000000,0.0,245.1,1.1,0.0,0.0,889,133,0,0,855.25,10.04,32.14,0
16:32:06,0,0,0,0,0,0,0,0,0,0,0,515,0,0,0,0,0.0000000,0.0000000,0.0000000,0.0000000,8.00,38.4063759,-110.7921524,1378.0000000,0.0,306.6,1.1,0.0,0.0,889,134,0,0,855.24,9.98,32.19,0
16:32:07,0,0,0,0,0,0,0,0,0,0,0,514,0,0,0,0,0.0000000,0.0000000,0.0000000,0.0000000,8.00,38.4063759,-110.7921524,1378.0000000,0.0,62.4,1.1,0.0,0.0,889,131,0,0,855.27,9.93,32.23,0
16:32:08,0,0,0,0,0,0,0,0,0,0,0,515,0,0,0,0,0.0000000,0.0000000,0.0000000,0.0000000,8.00,38.4063759,-110.7921524,1378.0000000,0.0,220.3,1.1,0.0,0.0,889,130,0,0,855.29,9.89,32.31,0
16:32:09,0,0,0,0,0,0,0,0,0,0,0,516,0,0,0,0,0.0000000,0.0000000,0.0000000,0.0000000,8.00,38.4063759,-110.7921524,1378.0000000,0.0,213.2,1.1,0.0,0.0,890,126,0,0,855.27,9.83,32.33,0
16:32:10,0,0,0,0,0,0,0,0,0,0,0,515,0,0,0,0,0.0000000,0.0000000,0.0000000,0.0000000,8.00,38.4063759,-110.7921524,1378.0000000,0.0,177.0,1.1,0.0,0.0,890,128,0,0,855.27,9.83,32.39,0
16:32:11,0,0,0,0,0,0,0,0,0,0,0,514,0,0,0,0,0.0000000,0.0000000,0.0000000,0.0000000,8.00,38.4063759,-110.7921524,1377.9000244,0.0,279.2,1.1,0.0,0.0,889,129,0,0,855.30,9.77,32.48,0
16:32:12,0,0,0,0,0,0,0,0,0,0,0,515,0,0,0,0,0.0000000,0.0000000,0.0000000,0.0000000,8.00,38.4063759,-110.7921524,1377.9000244,0.0,37.4,1.1,0.0,0.0,889,126,0,0,855.28,9.67,32.54,0
16:32:13,0,0,0,0,0,0,0,0,0,0,0,514,0,0,0,0,0.0000000,0.0000000,0.0000000,0.0000000,8.00,38.4063759,-110.7921524,1377.9000244,0.0,203.3,1.1,0.0,0.0,889,130,0,0,855.33,9.54,32.62,0
16:32:14,0,0,0,0,0,0,0,0,0,0,0,515,0,0,0,0,0.0000000,0.0000000,0.0000000,0.0000000,8.00,38.4063759,-110.7921524,1377.9000244,0.0,246.5,1.1,0.0,0.0,890,129,0,0,855.29,9.52,32.67,0
16:32:15,0,0,0,0,0,0,0,0,0,0,0,514,0,0,0,0,0.0000000,0.0000000,0.0000000,0.0000000,8.00,38.4063759,-110.7921524,1377.9000244,0.0,81.8,1.1,0.0,0.0,889,131,0,0,855.35,9.49,32.75,0
16:32:16,0,0,0,0,0,0,0,0,0,0,0,515,0,0,0,0,0.0000000,0.0000000,0.0000000,0.0000000,8.00,38.4063759,-110.7921524,1377.9000244,0.0,155.0,1.1,0.0,0.0,889,129,0,0,855.39,9.48,32.82,0
16:32:17,0,0,0,0,0,0,0,0,0,0,0,514,0,0,0,0,0.0000000,0.0000000,0.0000000,0.0000000,8.00,38.4063759,-110.7921524,1377.9000244,0.0,187.2,1.1,0.0,0.0,889,127,0,0,855.35,9.40,32.85,0
16:32:18,0,0,0,0,0,0,0,0,0,0,0,514,0,0,0,0,0.0000000,0.0000000,0.0000000,0.0000000,8.00,38.4063759,-110.7921524,1377.9000244,0.0,201.2,1.1,0.0,0.0,890,129,0,0,855.28,9.37,32.92,0
16:32:19,0,0,0,0,0,0,0,0,0,0,0,515,0,0,0,0,0.0000000,0.0000000,0.0000000,0.0000000,8.00,38.4063759,-110.7921524,1377.9000244,0.0,142.0,1.1,0.0,0.0,889,134,0,0,855.33,9.38,32.91,0
16:32:20,0,0,0,0,0,0,0,0,0,0,0,514,0,0,0,0,0.0000000,0.0000000,0.0000000,0.0000000,8.00,38.4063759,-110.7921524,1377.9000244,0.0,222.6,1.1,0.0,0.0,890,125,0,0,855.30,9.34,33.00,0
16:32:21,0,0,0,0,0,0,0,0,0,0,0,515,0,0,0,0,0.0000000,0.0000000,0.0000000,0.0000000,8.00,38.4063759,-110.7921524,1377.9000244,0.0,207.9,1.1,0.0,0.0,890,134,0,0,855.37,9.26,33.00,0
16:32:22,0,0,0,0,0,0,0,0,0,0,0,515,0,0,0,0,0.0000000,0.0000000,0.0000000,0.0000000,8.00,38.4063759,-110.7921524,1377.9000244,0.0,226.7,1.1,0.0,0.0,888,130,0,0,855.31,9.20,33.00,0
16:32:23,0,0,0,0,0,0,0,0,0,0,0,515,0,0,0,0,0.0000000,0.0000000,0.0000000,0.0000000,8.00,38.4063759,-110.7921524,1377.9000244,0.0,344.9,1.1,0.0,0.0,889,129,0,0,855.33,9.19,33.06,0
16:32:24,0,0,0,0,0,0,0,0,0,0,0,514,0,0,0,0,0.0000000,0.0000000,0.0000000,0.0000000,8.00,38.4063759,-110.7921524,1377.9000244,0.0,81.5,1.1,0.0,0.0,890,127,0,0,855.36,9.14,33.12,0
16:32:25,0,0,0,0,0,0,0,0,0,0,0,515,0,0,0,0,0.0000000,0.0000000,0.0000000,0.0000000,8.00,38.4063759,-110.7921524,1377.9000244,0.0,2.0,1.1,0.0,0.0,889,128,0,0,855.35,9.05,33.21,0
16:32:26,0,0,0,0,0,0,0,0,0,0,0,515,0,0,0,0,0.0000000,0.0000000,0.0000000,0.0000000,8.00,38.4063759,-110.7921524,1377.9000244,0.0,326.0,1.1,0.0,0.0,889,132,0,0,855.40,8.93,33.24,0
16:32:27,0,0,0,0,0,0,0,0,0,0,0,516,0,0,0,0,0.0000000,0.0000000,0.0000000,0.0000000,8.00,38.4063759,-110.7921524,1377.9000244,0.0,353.2,1.1,0.0,0.0,889,136,0,0,855.37,8.88,33.26,0
16:32:28,0,0,0,0,0,0,0,0,0,0,0,514,0,0,0,0,0.0000000,0.0000000,0.0000000,0.0000000,8.00,38.4063759,-110.7921524,1377.9000244,0.0,86.2,1.1,0.0,0.0,889,130,0,0,855.40,8.77,33.26,0
16:32:29,0,0,0,0,0,0,0,0,0,0,0,515,0,0,0,0,0.0000000,0.0000000,0.0000000,0.0000000,8.00,38.4063759,-110.7921524,1377.9000244,0.0,97.3,1.1,0.0,0.0,889,129,0,0,855.39,8.74,33.34,0
16:32:30,0,0,0,0,0,0,0,0,0,0,0,515,0,0,0,0,0.0000000,0.0000000,0.0000000,0.0000000,8.00,38.4063759,-110.7921524,1377.9000244,0.0,77.2,1.1,0.0,0.0,890,130,0,0,855.45,8.67,33.30,0
16:32:31,0,0,0,0,0,0,0,0,0,0,0,515,0,0,0,0,0.0000000,0.0000000,0.0000000,0.0000000,8.00,38.4063759,-110.7921524,1377.9000244,0.0,78.5,1.1,0.0,0.0,889,133,0,0,855.47,8.64,33.22,0
16:32:32,0,0,0,0,0,0,0,0,0,0,0,515,0,0,0,0,0.0000000,0.0000000,0.0000000,0.0000000,8.00,38.4063759,-110.7921524,1377.9000244,0.0,69.4,1.1,0.0,0.0,889,130,0,0,855.43,8.59,33.13,0
16:32:33,0,0,0,0,0,0,0,0,0,0,0,514,0,0,0,0,0.0000000,0.0000000,0.0000000,0.0000000,8.00,38.4063759,-110.7921524,1377.9000244,0.0,79.8,1.1,0.0,0.0,889,136,0,0,855.39,8.65,33.14,0
16:32:34,0,0,0,0,0,0,0,0,0,0,0,515,0,0,0,0,0.0000000,0.0000000,0.0000000,0.0000000,8.00,38.4063759,-110.7921524,1377.9000244,0.0,5.5,1.1,0.0,0.0,889,133,0,0,855.42,8.65,33.16,0
16:32:35,0,0,0,0,0,0,0,0,0,0,0,514,0,0,0,0,0.0000000,0.0000000,0.0000000,0.0000000,8.00,38.4063759,-110.7921524,1377.9000244,0.0,10.3,1.1,0.0,0.0,889,133,0,0,855.43,8.65,33.23,0
16:32:36,0,0,0,0,0,0,0,0,0,0,0,515,0,0,0,0,0.0000000,0.0000000,0.0000000,0.0000000,8.00,38.4063759,-110.7921524,1377.9000244,0.0,30.0,1.1,0.0,0.0,889,134,0,0,855.39,8.64,33.28,0
16:32:37,0,0,0,0,0,0,0,0,0,0,0,514,0,0,0,0,0.0000000,0.0000000,0.0000000,0.0000000,8.00,38.4063759,-110.7921524,1377.9000244,0.0,8.4,1.1,0.0,0.0,890,133,0,0,855.41,8.62,33.22,0
16:32:38,0,0,0,0,0,0,0,0,0,0,0,514,0,0,0,0,0.0000000,0.0000000,0.0000000,0.0000000,8.00,38.4063759,-110.7921524,1377.9000244,0.0,8.4,1.1,0.0,0.0,889,128,0,0,855.37,8.65,33.25,0
16:32:39,0,0,0,0,0,0,0,0,0,0,0,515,0,0,0,0,0.0000000,0.0000000,0.0000000,0.0000000,8.00,38.4063759,-110.7921524,1377.9000244,0.0,17.7,1.1,0.0,0.0,889,129,0,0,855.38,8.70,33.25,0
16:32:40,0,0,0,0,0,0,0,0,0,0,0,514,0,0,0,0,0.0000000,0.0000000,0.0000000,0.0000000,8.00,38.4063759,-110.7921524,1377.9000244,0.0,22.1,1.1,0.0,0.0,889,129,0,0,855.40,8.68,33.28,0
16:32:41,0,0,0,0,0,0,0,0,0,0,0,514,0,0,0,0,0.0000000,0.0000000,0.0000000,0.0000000,8.00,38.4063759,-110.7921524,1377.8000488,0.0,146.1,1.1,0.0,0.0,889,128,0,0,855.39,8.67,33.30,0
16:32:42,0,0,0,0,0,0,0,0,0,0,0,515,0,0,0,0,0.0000000,0.0000000,0.0000000,0.0000000,8.00,38.4063759,-110.7921524,1377.8000488,0.0,340.3,1.1,0.0,0.0,889,132,0,0,855.35,8.65,33.40,0
16:32:43,0,0,0,0,0,0,0,0,0,0,0,515,0,0,0,0,0.0000000,0.0000000,0.0000000,0.0000000,8.00,38.4063759,-110.7921524,1377.8000488,0.0,161.6,1.1,0.0,0.0,889,132,0,0,855.36,8.53,33.48,0
16:32:44,0,0,0,0,0,0,0,0,0,0,0,514,0,0,0,0,0.0000000,0.0000000,0.0000000,0.0000000,8.00,38.4063759,-110.7921524,1377.8000488,0.0,158.3,1.1,0.0,0.0,889,132,0,0,855.45,8.47,33.57,0
16:32:45,0,0,0,0,0,0,0,0,0,0,0,514,0,0,0,0,0.0000000,0.0000000,0.0000000,0.0000000,8.00,38.4063759,-110.7921524,1377.8000488,0.0,208.7,1.1,0.0,0.0,889,133,0,0,855.42,8.47,33.60,0
16:32:46,0,0,0,0,0,0,0,0,0,0,0,515,0,0,0,0,0.0000000,0.0000000,0.0000000,0.0000000,8.00,38.4063759,-110.7921524,1377.8000488,0.0,298.0,1.1,0.0,0.0,889,132,0,0,855.42,8.41,33.65,0
16:32:47,0,0,0,0,0,0,0,0,0,0,0,515,0,0,0,0,0.0000000,0.0000000,0.0000000,0.0000000,8.00,38.4063759,-110.7921524,1377.8000488,0.0,44.0,1.1,0.0,0.0,890,136,0,0,855.42,8.42,33.64,0
16:32:48,0,0,0,0,0,0,0,0,0,0,0,515,0,0,0,0,0.0000000,0.0000000,0.0000000,0.0000000,8.00,38.4063759,-110.7921524,1377.8000488,0.0,312.0,1.1,0.0,0.0,890,130,0,0,855.40,8.48,33.66,0
16:32:49,0,0,0,0,0,0,0,0,0,0,0,515,0,0,0,0,0.0000000,0.0000000,0.0000000,0.0000000,8.00,38.4063759,-110.7921524,1377.8000488,0.0,284.2,1.1,0.0,0.0,890,139,0,0,855.36,8.47,33.69,0
16:32:50,0,0,0,0,0,0,0,0,0,0,0,515,0,0,0,0,0.0000000,0.0000000,0.0000000,0.0000000,8.00,38.4063759,-110.7921524,1377.8000488,0.0,286.8,1.1,0.0,0.0,889,136,0,0,855.37,8.48,33.74,0
16:32:51,0,0,0,0,0,0,0,0,0,0,0,515,0,0,0,0,0.0000000,0.0000000,0.0000000,0.0000000,8.00,38.4063759,-110.7921524,1377.8000488,0.0,54.9,1.1,0.0,0.0,889,140,0,0,855.42,8.51,33.74,0
16:32:52,0,0,0,0,0,0,0,0,0,0,0,514,0,0,0,0,0.0000000,0.0000000,0.0000000,0.0000000,8.00,38.4063759,-110.7921524,1377.8000488,0.0,153.6,1.1,0.0,0.0,889,141,0,0,855.39,8.56,33.75,0
16:32:54,0,0,0,0,0,0,0,0,0,0,0,515,0,0,0,0,0.0000000,0.0000000,0.0000000,0.0000000,8.00,38.4063759,-110.7921524,1377.8000488,0.0,184.5,1.1,0.0,0.0,889,144,0,0,855.36,8.61,33.81,0
16:32:55,0,0,0,0,0,0,0,0,0,0,0,515,0,0,0,0,0.0000000,0.0000000,0.0000000,0.0000000,8.00,38.4063759,-110.7921524,1377.8000488,0.0,108.6,1.1,0.0,0.0,889,141,0,0,855.40,8.62,33.85,0
16:32:56,0,0,0,0,0,0,0,0,0,0,0,515,0,0,0,0,0.0000000,0.0000000,0.0000000,0.0000000,8.00,38.4063759,-110.7921524,1377.8000488,0.0,140.3,1.1,0.0,0.0,889,145,0,0,855.39,8.59,33.88,0
16:32:57,0,0,0,0,0,0,0,0,0,0,0,515,0,0,0,0,0.0000000,0.0000000,0.0000000,0.0000000,8.00,38.4063759,-110.7921524,1377.8000488,0.0,143.2,1.1,0.0,0.0,889,144,0,0,855.44,8.61,33.90,0
16:32:58,0,0,0,0,0,0,0,0,0,0,0,514,0,0,0,0,0.0000000,0.0000000,0.0000000,0.0000000,8.00,38.4063759,-110.7921524,1377.8000488,0.0,197.4,1.1,0.0,0.0,889,138,0,0,855.43,8.59,33.93,0
16:32:59,0,0,0,0,0,0,0,0,0,0,0,515,0,0,0,0,0.0000000,0.0000000,0.0000000,0.0000000,8.00,38.4063759,-110.7921524,1377.8000488,0.0,319.0,1.1,0.0,0.0,889,140,0,0,855.38,8.59,33.99,0
16:33:00,0,0,0,0,0,0,0,0,0,0,0,515,0,0,0,0,0.0000000,0.0000000,0.0000000,0.0000000,8.00,38.4063759,-110.7921524,1377.8000488,0.0,157.5,1.1,0.0,0.0,889,142,0,0,855.41,8.51,34.04,0
