Time, Motor A Speed, Motor A Dir, Motor B Speed, Motor B Dir, Servo Rail Current Sensor, Servo Pos - Arm L, Servo Pos - Arm R, Servo Pos - End, Servo Pos - Hopper, Servo Pos - Lid, Servo Pos - Extra, Servo Current, LED - Front L, LED - Front R, LED - Back L, LED - Back R, IMU Pitch, IMU Roll, IMU Yaw, Compass Heading, GPS Sats, GPS Latitude, GPS Longitude, GPS Altitude, GPS Speed, GPS Angle, GPS HDOP, GPS VDOP, GPS PDOP, Battery, Wind, Comm Xbee Latency, Comm Arduino Latency, Pressure, Humidity, Temperature, uRADMonitor
15:48:18,0,0,0,0,0,0,0,0,0,0,0,514,0,0,0,0,0.0000000,0.0000000,0.0000000,0.0000000,5.00,38.4062195,-110.7923813,1334.3000488,1.0,262.9,1.5,0.0,0.0,894,160,0,0,855.84,9.89,29.51,0
15:48:19,0,0,0,0,0,0,0,0,0,0,0,515,0,0,0,0,0.0000000,0.0000000,0.0000000,0.0000000,5.00,38.4062195,-110.7923965,1334.0000000,1.0,259.1,1.5,0.0,0.0,894,155,0,0,855.93,9.92,29.53,0
15:48:20,0,0,0,0,0,0,0,0,0,0,0,514,0,0,0,0,0.0000000,0.0000000,0.0000000,0.0000000,5.00,38.4062157,-110.7924118,1333.8000488,1.0,259.2,1.5,0.0,0.0,894,157,0,0,855.95,9.89,29.55,0
15:48:21,0,0,0,0,0,0,0,0,0,0,0,514,0,0,0,0,0.0000000,0.0000000,0.0000000,0.0000000,5.00,38.4062080,-110.7924118,1333.5000000,1.0,253.3,1.5,0.0,0.0,894,150,0,0,855.98,9.86,29.55,0
15:48:22,0,0,0,0,0,0,0,0,0,0,0,514,0,0,0,0,0.0000000,0.0000000,0.0000000,0.0000000,5.00,38.4062004,-110.7924194,1333.1999512,1.0,247.8,1.5,0.0,0.0,895,151,0,0,855.93,9.86,29.55,0
15:48:23,0,0,0,0,0,0,0,0,0,0,0,515,0,0,0,0,0.0000000,0.0000000,0.0000000,0.0000000,5.00,38.4062004,-110.7924194,1333.0000000,0.9,250.7,1.5,0.0,0.0,894,152,0,0,855.94,9.86,29.54,0
15:48:24,0,0,0,0,0,0,0,0,0,0,0,515,0,0,0,0,0.0000000,0.0000000,0.0000000,0.0000000,5.00,38.4061928,-110.7924194,1332.8000488,0.8,243.9,1.5,0.0,0.0,894,154,0,0,855.88,9.87,29.57,0
15:48:25,0,0,0,0,0,0,0,0,0,0,0,515,0,0,0,0,0.0000000,0.0000000,0.0000000,0.0000000,5.00,38.4061852,-110.7924347,1332.5999756,0.8,236.6,1.5,0.0,0.0,893,151,0,0,855.91,9.90,29.60,0
15:48:26,0,0,0,0,0,0,0,0,0,0,0,515,0,0,0,0,0.0000000,0.0000000,0.0000000,0.0000000,5.00,38.4061813,-110.7924347,1332.4000244,0.8,248.5,1.5,0.0,0.0,894,145,0,0,855.95,9.92,29.63,0
15:48:27,0,0,0,0,0,0,0,0,0,0,0,515,0,0,0,0,0.0000000,0.0000000,0.0000000,0.0000000,5.00,38.4061775,-110.7924500,1332.3000488,0.8,244.1,1.5,0.0,0.0,894,138,0,0,856.03,9.89,29.65,0
15:48:28,0,0,0,0,0,0,0,0,0,0,0,515,0,0,0,0,0.0000000,0.0000000,0.0000000,0.0000000,5.00,38.4061737,-110.7924500,1332.0999756,0.8,240.3,1.5,0.0,0.0,894,140,0,0,856.02,9.92,29.66,0
15:48:29,0,0,0,0,0,0,0,0,0,0,0,514,0,0,0,0,0.0000000,0.0000000,0.0000000,0.0000000,5.00,38.4061661,-110.7924728,1332.0999756,0.8,236.5,1.5,0.0,0.0,894,137,0,0,856.02,9.90,29.68,0
15:48:30,0,0,0,0,0,0,0,0,0,0,0,515,0,0,0,0,0.0000000,0.0000000,0.0000000,0.0000000,5.00,38.4061623,-110.7924728,1332.0000000,0.8,235.9,1.5,0.0,0.0,894,140,0,0,855.98,9.89,29.68,0
15:48:31,0,0,0,0,0,0,0,0,0,0,0,515,0,0,0,0,0.0000000,0.0000000,0.0000000,0.0000000,5.00,38.4061584,-110.7924728,1332.0999756,0.8,238.7,1.5,0.0,0.0,895,143,0,0,856.01,9.83,29.67,0
15:48:32,0,0,0,0,0,0,0,0,0,0,0,515,0,0,0,0,0.0000000,0.0000000,0.0000000,0.0000000,5.00,38.4061623,-110.7924881,1332.0999756,0.8,245.7,1.5,0.0,0.0,894,147,0,0,855.99,9.80,29.63,0
15:48:33,0,0,0,0,0,0,0,0,0,0,0,514,0,0,0,0,0.0000000,0.0000000,0.0000000,0.0000000,5.00,38.4061623,-110.7924957,1332.3000488,0.8,246.8,1.5,0.0,0.0,894,157,0,0,855.93,9.74,29.57,0
15:48:34,0,0,0,0,0,0,0,0,0,0,0,515,0,0,0,0,0.0000000,0.0000000,0.0000000,0.0000000,5.00,38.4061584,-110.7924957,1332.3000488,0.8,238.1,1.5,0.0,0.0,895,161,0,0,855.97,9.72,29.55,0
15:48:35,0,0,0,0,0,0,0,0,0,0,0,514,0,0,0,0,0.0000000,0.0000000,0.0000000,0.0000000,5.00,38.4061584,-110.7925110,1332.4000244,0.8,246.0,1.5,0.0,0.0,894,153,0,0,855.97,9.74,29.57,0
15:48:36,0,0,0,0,0,0,0,0,0,0,0,515,0,0,0,0,0.0000000,0.0000000,0.0000000,0.0000000,5.00,38.4061584,-110.7925110,1332.5000000,0.8,247.8,1.5,0.0,0.0,894,152,0,0,855.96,9.69,29.57,0
15:48:37,0,0,0,0,0,0,0,0,0,0,0,514,0,0,0,0,0.0000000,0.0000000,0.0000000,0.0000000,5.00,38.4061584,-110.7925262,1332.5999756,0.9,250.8,1.5,0.0,0.0,894,145,0,0,856.00,9.67,29.58,0
15:48:38,0,0,0,0,0,0,0,0,0,0,0,514,0,0,0,0,0.0000000,0.0000000,0.0000000,0.0000000,5.00,38.4061623,-110.7925339,1332.8000488,0.9,257.4,1.5,0.0,0.0,894,145,0,0,856.01,9.64,29.59,0
15:48:39,0,0,0,0,0,0,0,0,0,0,0,515,0,0,0,0,0.0000000,0.0000000,0.0000000,0.0000000,5.00,38.4061661,-110.7925262,1332.8000488,0.7,260.2,1.5,0.0,0.0,894,140,0,0,856.03,9.61,29.55,0
15:48:40,0,0,0,0,0,0,0,0,0,0,0,515,0,0,0,0,0.0000000,0.0000000,0.0000000,0.0000000,5.00,38.4061699,-110.7925262,1333.0000000,0.6,265.8,1.5,0.0,0.0,894,139,0,0,856.01,9.61,29.55,0
15:48:41,0,0,0,0,0,0,0,0,0,0,0,515,0,0,0,0,0.0000000,0.0000000,0.0000000,0.0000000,5.00,38.4061775,-110.7925110,1333.0999756,0.6,271.9,1.5,0.0,0.0,894,140,0,0,856.01,9.60,29.53,0
15:48:42,0,0,0,0,0,0,0,0,0,0,0,515,0,0,0,0,0.0000000,0.0000000,0.0000000,0.0000000,5.00,38.4061775,-110.7925110,1333.0999756,0.6,284.5,1.5,0.0,0.0,894,137,0,0,856.04,9.63,29.51,0
15:48:43,0,0,0,0,0,0,0,0,0,0,0,514,0,0,0,0,0.0000000,0.0000000,0.0000000,0.0000000,5.00,38.4061813,-110.7925110,1333.1999512,0.4,285.4,1.5,0.0,0.0,894,132,0,0,855.99,9.64,29.50,0
15:48:44,0,0,0,0,0,0,0,0,0,0,0,515,0,0,0,0,0.0000000,0.0000000,0.0000000,0.0000000,5.00,38.4061852,-110.7924957,1333.3000488,0.4,280.4,1.5,0.0,0.0,894,140,0,0,856.03,9.64,29.50,0
15:48:45,0,0,0,0,0,0,0,0,0,0,0,515,0,0,0,0,0.0000000,0.0000000,0.0000000,0.0000000,5.00,38.4061852,-110.7925110,1333.3000488,0.4,283.8,1.5,0.0,0.0,894,139,0,0,855.98,9.61,29.49,0
15:48:46,0,0,0,0,0,0,0,0,0,0,0,515,0,0,0,0,0.0000000,0.0000000,0.0000000,0.0000000,5.00,38.4061852,-110.7925110,1333.3000488,0.5,297.6,1.5,0.0,0.0,894,140,0,0,855.94,9.60,29.47,0
15:48:47,0,0,0,0,0,0,0,0,0,0,0,515,0,0,0,0,0.0000000,0.0000000,0.0000000,0.0000000,5.00,38.4061852,-110.7925110,1333.3000488,0.5,306.3,1.5,0.0,0.0,895,141,0,0,855.97,9.57,29.44,0
15:48:48,0,0,0,0,0,0,0,0,0,0,0,514,0,0,0,0,0.0000000,0.0000000,0.0000000,0.0000000,5.00,38.4061890,-110.7925110,1333.3000488,0.7,320.1,1.5,0.0,0.0,894,141,0,0,855.93,9.55,29.41,0
15:48:49,0,0,0,0,0,0,0,0,0,0,0,515,0,0,0,0,0.0000000,0.0000000,0.0000000,0.0000000,5.00,38.4061966,-110.7925262,1333.1999512,0.7,321.1,1.5,0.0,0.0,894,149,0,0,855.98,9.57,29.36,0
15:48:50,0,0,0,0,0,0,0,0,0,0,0,515,0,0,0,0,0.0000000,0.0000000,0.0000000,0.0000000,5.00,38.4062119,-110.7925262,1333.1999512,0.9,328.9,1.5,0.0,0.0,894,151,0,0,855.97,9.58,29.33,0
15:48:51,0,0,0,0,0,0,0,0,0,0,0,515,0,0,0,0,0.0000000,0.0000000,0.0000000,0.0000000,5.00,38.4062233,-110.7925339,1333.0999756,0.9,329.0,1.5,0.0,0.0,894,151,0,0,856.00,9.60,29.30,0
15:48:52,0,0,0,0,0,0,0,0,0,0,0,514,0,0,0,0,0.0000000,0.0000000,0.0000000,0.0000000,5.00,38.4062309,-110.7925491,1333.0999756,1.0,326.3,1.5,0.0,0.0,894,147,0,0,855.97,9.58,29.28,0
15:48:53,0,0,0,0,0,0,0,0,0,0,0,515,0,0,0,0,0.0000000,0.0000000,0.0000000,0.0000000,5.00,38.4062347,-110.7925491,1333.0999756,1.0,320.2,1.5,0.0,0.0,894,151,0,0,855.94,9.64,29.26,0
15:48:54,0,0,0,0,0,0,0,0,0,0,0,515,0,0,0,0,0.0000000,0.0000000,0.0000000,0.0000000,5.00,38.4062386,-110.7925644,1333.0999756,1.0,310.8,1.5,0.0,0.0,894,154,0,0,855.97,9.67,29.24,0
15:48:55,0,0,0,0,0,0,0,0,0,0,0,515,0,0,0,0,0.0000000,0.0000000,0.0000000,0.0000000,5.00,38.4062386,-110.7925797,1333.1999512,1.0,306.8,1.5,0.0,0.0,894,150,0,0,855.97,9.66,29.23,0
15:48:56,0,0,0,0,0,0,0,0,0,0,0,515,0,0,0,0,0.0000000,0.0000000,0.0000000,0.0000000,5.00,38.4062424,-110.7926025,1333.3000488,1.1,303.2,1.5,0.0,0.0,894,151,0,0,855.96,9.67,29.21,0
15:48:57,0,0,0,0,0,0,0,0,0,0,0,515,0,0,0,0,0.0000000,0.0000000,0.0000000,0.0000000,5.00,38.4062500,-110.7926025,1333.3000488,1.1,304.9,1.5,0.0,0.0,894,158,0,0,855.91,9.71,29.19,0
15:48:58,0,0,0,0,0,0,0,0,0,0,0,515,0,0,0,0,0.0000000,0.0000000,0.0000000,0.0000000,5.00,38.4062576,-110.7926178,1333.3000488,1.2,306.9,1.5,0.0,0.0,894,149,0,0,855.94,9.69,29.16,0
15:48:59,0,0,0,0,0,0,0,0,0,0,0,515,0,0,0,0,0.0000000,0.0000000,0.0000000,0.0000000,5.00,38.4062576,-110.7926254,1333.1999512,1.2,302.4,1.5,0.0,0.0,894,145,0,0,855.97,9.74,29.14,0
15:49:00,0,0,0,0,0,0,0,0,0,0,0,515,0,0,0,0,0.0000000,0.0000000,0.0000000,0.0000000,5.00,38.4062576,-110.7926407,1333.0999756,1.1,297.1,1.5,0.0,0.0,894,146,0,0,855.99,9.72,29.11,0
15:49:01,0,0,0,0,0,0,0,0,0,0,0,515,0,0,0,0,0.0000000,0.0000000,0.0000000,0.0000000,5.00,38.4062576,-110.7926407,1333.0000000,1.0,296.1,1.5,0.0,0.0,894,152,0,0,855.96,9.77,29.08,0
15:49:02,0,0,0,0,0,0,0,0,0,0,0,514,0,0,0,0,0.0000000,0.0000000,0.0000000,0.0000000,5.00,38.4062576,-110.7926407,1332.9000244,0.9,292.5,1.5,0.0,0.0,894,147,0,0,855.96,9.78,29.06,0
15:49:03,0,0,0,0,0,0,0,0,0,0,0,515,0,0,0,0,0.0000000,0.0000000,0.0000000,0.0000000,5.00,38.4062576,-110.7926559,1332.9000244,0.9,287.8,1.5,0.0,0.0,894,146,0,0,856.02,9.77,29.05,0
15:49:04,0,0,0,0,0,0,0,0,0,0,0,516,0,0,0,0,0.0000000,0.0000000,0.0000000,0.0000000,5.00,38.4062576,-110.7926636,1332.9000244,0.9,281.0,1.5,0.0,0.0,894,144,0,0,855.99,9.81,29.02,0
15:49:05,0,0,0,0,0,0,0,0,0,0,0,514,0,0,0,0,0.0000000,0.0000000,0.0000000,0.0000000,5.00,38.4062538,-110.7926788,1332.8000488,1.0,279.1,1.5,0.0,0.0,894,144,0,0,855.97,9.83,28.99,0
15:49:06,0,0,0,0,0,0,0,0,0,0,0,515,0,0,0,0,0.0000000,0.0000000,0.0000000,0.0000000,5.00,38.4062500,-110.7927017,1332.8000488,1.1,277.6,1.5,0.0,0.0,894,144,0,0,855.91,9.81,28.89,0
15:49:07,0,0,0,0,0,0,0,0,0,0,0,515,0,0,0,0,0.0000000,0.0000000,0.0000000,0.0000000,5.00,38.4062462,-110.7927017,1332.6999512,1.1,275.8,1.5,0.0,0.0,894,147,0,0,855.95,9.89,28.89,0
15:49:08,0,0,0,0,0,0,0,0,0,0,0,515,0,0,0,0,0.0000000,0.0000000,0.0000000,0.0000000,5.00,38.4062462,-110.7927170,1332.6999512,1.1,272.6,1.5,0.0,0.0,894,146,0,0,855.92,9.89,28.89,0
15:49:09,0,0,0,0,0,0,0,0,0,0,0,514,0,0,0,0,0.0000000,0.0000000,0.0000000,0.0000000,5.00,38.4062500,-110.7927322,1332.6999512,1.1,276.5,1.5,0.0,0.0,894,144,0,0,855.98,9.89,28.89,0
15:49:10,0,0,0,0,0,0,0,0,0,0,0,514,0,0,0,0,0.0000000,0.0000000,0.0000000,0.0000000,5.00,38.4062576,-110.7927322,1332.6999512,1.0,280.5,1.5,0.0,0.0,893,142,0,0,855.98,9.90,28.93,0
15:49:11,0,0,0,0,0,0,0,0,0,0,0,515,0,0,0,0,0.0000000,0.0000000,0.0000000,0.0000000,5.00,38.4062614,-110.7927399,1332.8000488,0.9,288.8,1.5,0.0,0.0,893,140,0,0,856.00,9.89,28.92,0
15:49:12,0,0,0,0,0,0,0,0,0,0,0,515,0,0,0,0,0.0000000,0.0000000,0.0000000,0.0000000,5.00,38.4062691,-110.7927399,1332.9000244,0.9,302.6,1.5,0.0,0.0,894,140,0,0,855.97,9.92,28.91,0
15:49:13,0,0,0,0,0,0,0,0,0,0,0,515,0,0,0,0,0.0000000,0.0000000,0.0000000,0.0000000,5.00,38.4062767,-110.7927399,1332.9000244,0.9,307.9,1.5,0.0,0.0,894,139,0,0,856.02,9.93,28.90,0
15:49:14,0,0,0,0,0,0,0,0,0,0,0,515,0,0,0,0,0.0000000,0.0000000,0.0000000,0.0000000,5.00,38.4062805,-110.7927399,1333.0000000,0.9,310.6,1.5,0.0,0.0,894,143,0,0,855.91,9.93,28.87,0
15:49:15,0,0,0,0,0,0,0,0,0,0,0,514,0,0,0,0,0.0000000,0.0000000,0.0000000,0.0000000,5.00,38.4062843,-110.7927399,1333.0000000,0.9,315.3,1.5,0.0,0.0,894,147,0,0,855.94,9.92,28.84,0
15:49:16,0,0,0,0,0,0,0,0,0,0,0,515,0,0,0,0,0.0000000,0.0000000,0.0000000,0.0000000,5.00,38.4062881,-110.7927322,1332.9000244,0.8,322.3,1.5,0.0,0.0,894,144,0,0,855.97,9.95,28.82,0
15:49:17,0,0,0,0,0,0,0,0,0,0,0,514,0,0,0,0,0.0000000,0.0000000,0.0000000,0.0000000,5.00,38.4062881,-110.7927322,1332.9000244,0.7,324.2,1.5,0.0,0.0,894,146,0,0,855.97,10.00,28.78,0
15:49:19,0,0,0,0,0,0,0,0,0,0,0,515,0,0,0,0,0.0000000,0.0000000,0.0000000,0.0000000,5.00,38.4062843,-110.7927170,1332.9000244,0.6,327.3,1.5,0.0,0.0,894,150,0,0,855.89,9.98,28.75,0
15:49:20,0,0,0,0,0,0,0,0,0,0,0,515,0,0,0,0,0.0000000,0.0000000,0.0000000,0.0000000,5.00,38.4062843,-110.7927170,1332.9000244,0.5,326.4,1.5,0.0,0.0,894,151,0,0,855.94,10.01,28.75,0
15:49:21,0,0,0,0,0,0,0,0,0,0,0,515,0,0,0,0,0.0000000,0.0000000,0.0000000,0.0000000,5.00,38.4062881,-110.7927170,1332.9000244,0.4,333.0,1.5,0.0,0.0,894,147,0,0,855.94,10.03,28.74,0
15:49:22,0,0,0,0,0,0,0,0,0,0,0,515,0,0,0,0,0.0000000,0.0000000,0.0000000,0.0000000,5.00,38.4062920,-110.7927170,1332.9000244,0.4,338.4,1.5,0.0,0.0,894,146,0,0,855.96,10.04,28.73,0
15:49:23,0,0,0,0,0,0,0,0,0,0,0,514,0,0,0,0,0.0000000,0.0000000,0.0000000,0.0000000,5.00,38.4062920,-110.7927170,1332.9000244,0.5,340.6,1.5,0.0,0.0,894,150,0,0,855.98,10.07,28.71,0
15:49:24,0,0,0,0,0,0,0,0,0,0,0,515,0,0,0,0,0.0000000,0.0000000,0.0000000,0.0000000,5.00,38.4062958,-110.7927170,1332.9000244,0.5,339.2,1.5,0.0,0.0,894,150,0,0,855.96,10.12,28.70,0
15:49:25,0,0,0,0,0,0,0,0,0,0,0,515,0,0,0,0,0.0000000,0.0000000,0.0000000,0.0000000,5.00,38.4062958,-110.7927170,1332.9000244,0.5,342.5,1.5,0.0,0.0,894,149,0,0,855.94,10.15,28.70,0
15:49:26,0,0,0,0,0,0,0,0,0,0,0,515,0,0,0,0,0.0000000,0.0000000,0.0000000,0.0000000,5.00,38.4062958,-110.7927170,1332.9000244,0.5,344.4,1.5,0.0,0.0,894,149,0,0,855.94,10.16,28.71,0
15:49:27,0,0,0,0,0,0,0,0,0,0,0,515,0,0,0,0,0.0000000,0.0000000,0.0000000,0.0000000,5.00,38.4062996,-110.7927170,1333.0000000,0.5,351.4,1.5,0.0,0.0,894,144,0,0,855.94,10.15,28.72,0
15:49:28,0,0,0,0,0,0,0,0,0,0,0,515,0,0,0,0,0.0000000,0.0000000,0.0000000,0.0000000,5.00,38.4062996,-110.7927170,1333.0000000,0.5,346.7,1.6,0.0,0.0,894,151,0,0,856.01,10.16,28.71,0
15:49:29,0,0,0,0,0,0,0,0,0,0,0,515,0,0,0,0,0.0000000,0.0000000,0.0000000,0.0000000,5.00,38.4063034,-110.7927170,1333.0000000,0.5,333.8,1.6,0.0,0.0,894,149,0,0,855.98,10.15,28.71,0
15:49:30,0,0,0,0,0,0,0,0,0,0,0,515,0,0,0,0,0.0000000,0.0000000,0.0000000,0.0000000,5.00,38.4063072,-110.7927322,1333.0000000,0.6,316.4,1.5,0.0,0.0,894,146,0,0,855.97,10.12,28.71,0
15:49:31,0,0,0,0,0,0,0,0,0,0,0,514,0,0,0,0,0.0000000,0.0000000,0.0000000,0.0000000,5.00,38.4063072,-110.7927322,1333.0000000,0.6,307.5,1.5,0.0,0.0,894,138,0,0,855.99,10.13,28.71,0
15:49:32,0,0,0,0,0,0,0,0,0,0,0,514,0,0,0,0,0.0000000,0.0000000,0.0000000,0.0000000,5.00,38.4062958,-110.7927322,1333.0999756,0.6,307.1,1.5,0.0,0.0,894,143,0,0,855.96,10.15,28.71,0
15:49:33,0,0,0,0,0,0,0,0,0,0,0,514,0,0,0,0,0.0000000,0.0000000,0.0000000,0.0000000,5.00,38.4062881,-110.7927170,1333.1999512,0.5,314.1,1.5,0.0,0.0,894,144,0,0,855.96,10.15,28.71,0
15:49:34,0,0,0,0,0,0,0,0,0,0,0,515,0,0,0,0,0.0000000,0.0000000,0.0000000,0.0000000,5.00,38.4062805,-110.7927322,1333.0999756,0.4,308.6,1.5,0.0,0.0,894,137,0,0,855.92,10.21,28.73,0
15:49:35,0,0,0,0,0,0,0,0,0,0,0,515,0,0,0,0,0.0000000,0.0000000,0.0000000,0.0000000,5.00,38.4062691,-110.7927399,1333.0999756,0.5,286.8,1.5,0.0,0.0,893,139,0,0,855.94,10.22,28.74,0
15:49:36,0,0,0,0,0,0,0,0,0,0,0,514,0,0,0,0,0.0000000,0.0000000,0.0000000,0.0000000,5.00,38.4062691,-110.7927551,1333.0999756,0.6,277.3,1.5,0.0,0.0,893,144,0,0,855.92,10.25,28.73,0
15:49:37,0,0,0,0,0,0,0,0,0,0,0,514,0,0,0,0,0.0000000,0.0000000,0.0000000,0.0000000,5.00,38.4062576,-110.7927780,1333.1999512,0.8,266.7,1.5,0.0,0.0,894,137,0,0,855.94,10.22,28.76,0
15:49:38,0,0,0,0,0,0,0,0,0,0,0,514,0,0,0,0,0.0000000,0.0000000,0.0000000,0.0000000,5.00,38.4062462,-110.7928085,1333.1999512,1.0,259.9,1.5,0.0,0.0,894,137,0,0,855.97,10.27,28.78,0
15:49:39,0,0,0,0,0,0,0,0,0,0,0,513,0,0,0,0,0.0000000,0.0000000,0.0000000,0.0000000,5.00,38.4062386,-110.7928314,1333.3000488,1.1,255.5,1.5,0.0,0.0,894,140,0,0,855.99,10.24,28.79,0
15:49:40,0,0,0,0,0,0,0,0,0,0,0,515,0,0,0,0,0.0000000,0.0000000,0.0000000,0.0000000,5.00,38.4062233,-110.7928543,1333.5000000,1.1,253.5,1.5,0.0,0.0,894,135,0,0,856.00,10.21,28.80,0
15:49:41,0,0,0,0,0,0,0,0,0,0,0,515,0,0,0,0,0.0000000,0.0000000,0.0000000,0.0000000,5.00,38.4062195,-110.7928696,1333.5999756,1.2,256.0,1.5,0.0,0.0,894,136,0,0,855.96,10.18,28.80,0
15:49:42,0,0,0,0,0,0,0,0,0,0,0,515,0,0,0,0,0.0000000,0.0000000,0.0000000,0.0000000,5.00,38.4062195,-110.7928848,1333.6999512,1.2,254.2,1.5,0.0,0.0,894,142,0,0,856.03,10.16,28.80,0
15:49:43,0,0,0,0,0,0,0,0,0,0,0,515,0,0,0,0,0.0000000,0.0000000,0.0000000,0.0000000,5.00,38.4062195,-110.7929077,1333.9000244,1.3,259.9,1.5,0.0,0.0,894,142,0,0,856.00,10.18,28.78,0
15:49:44,0,0,0,0,0,0,0,0,0,0,0,516,0,0,0,0,0.0000000,0.0000000,0.0000000,0.0000000,5.00,38.4062195,-110.7929230,1334.0999756,1.3,259.8,1.5,0.0,0.0,894,142,0,0,856.01,10.16,28.77,0
15:49:45,0,0,0,0,0,0,0,0,0,0,0,515,0,0,0,0,0.0000000,0.0000000,0.0000000,0.0000000,5.00,38.4062157,-110.7929306,1334.3000488,1.4,260.5,1.5,0.0,0.0,894,145,0,0,856.01,10.15,28.75,0
15:49:46,0,0,0,0,0,0,0,0,0,0,0,515,0,0,0,0,0.0000000,0.0000000,0.0000000,0.0000000,5.00,38.4062195,-110.7929611,1334.5000000,1.4,263.8,1.5,0.0,0.0,894,142,0,0,855.94,10.15,28.75,0
15:49:47,0,0,0,0,0,0,0,0,0,0,0,515,0,0,0,0,0.0000000,0.0000000,0.0000000,0.0000000,5.00,38.4062195,-110.7929764,1334.6999512,1.5,266.8,1.5,0.0,0.0,894,139,0,0,855.98,10.10,28.76,0
15:49:48,0,0,0,0,0,0,0,0,0,0,0,515,0,0,0,0,0.0000000,0.0000000,0.0000000,0.0000000,5.00,38.4062271,-110.7929764,1334.6999512,1.4,273.2,1.5,0.0,0.0,894,142,0,0,855.92,10.15,28.79,0
15:49:49,0,0,0,0,0,0,0,0,0,0,0,513,0,0,0,0,0.0000000,0.0000000,0.0000000,0.0000000,5.00,38.4062309,-110.7929764,1334.8000488,1.3,277.3,1.5,0.0,0.0,894,142,0,0,855.95,10.16,28.81,0
15:49:50,0,0,0,0,0,0,0,0,0,0,0,515,0,0,0,0,0.0000000,0.0000000,0.0000000,0.0000000,5.00,38.4062309,-110.7929840,1334.8000488,1.3,278.1,1.5,0.0,0.0,894,138,0,0,855.92,10.16,28.82,0
15:49:51,0,0,0,0,0,0,0,0,0,0,0,515,0,0,0,0,0.0000000,0.0000000,0.0000000,0.0000000,5.00,38.4062347,-110.7929993,1334.8000488,1.3,277.2,1.5,0.0,0.0,894,138,0,0,855.90,10.16,28.84,0
15:49:52,0,0,0,0,0,0,0,0,0,0,0,515,0,0,0,0,0.0000000,0.0000000,0.0000000,0.0000000,5.00,38.4062347,-110.7930145,1334.8000488,1.3,277.4,1.5,0.0,0.0,894,134,0,0,856.00,10.15,28.84,0
15:49:53,0,0,0,0,0,0,0,0,0,0,0,515,0,0,0,0,0.0000000,0.0000000,0.0000000,0.0000000,5.00,38.4062386,-110.7930145,1334.9000244,1.3,284.6,1.5,0.0,0.0,894,137,0,0,855.98,10.15,28.85,0
15:49:54,0,0,0,0,0,0,0,0,0,0,0,514,0,0,0,0,0.0000000,0.0000000,0.0000000,0.0000000,5.00,38.4062347,-110.7929993,1334.9000244,1.1,285.0,1.5,0.0,0.0,893,134,0,0,855.95,10.13,28.81,0
15:49:55,0,0,0,0,0,0,0,0,0,0,0,515,0,0,0,0,0.0000000,0.0000000,0.0000000,0.0000000,5.00,38.4062271,-110.7929764,1334.9000244,0.8,284.8,1.5,0.0,0.0,894,133,0,0,855.92,10.18,28.78,0
15:49:56,0,0,0,0,0,0,0,0,0,0,0,515,0,0,0,0,0.0000000,0.0000000,0.0000000,0.0000000,5.00,38.4062195,-110.7929459,1334.9000244,0.5,282.8,1.5,0.0,0.0,894,130,0,0,855.94,10.16,28.78,0
15:49:57,0,0,0,0,0,0,0,0,0,0,0,515,0,0,0,0,0.0000000,0.0000000,0.0000000,0.0000000,5.00,38.4062119,-110.7929230,1334.9000244,0.4,254.9,1.5,0.0,0.0,894,145,0,0,855.95,10.18,28.77,0
15:49:58,0,0,0,0,0,0,0,0,0,0,0,515,0,0,0,0,0.0000000,0.0000000,0.0000000,0.0000000,5.00,38.4062080,-110.7929230,1335.0999756,0.4,246.0,1.5,0.0,0.0,894,140,0,0,855.95,10.18,28.77,0
15:49:59,0,0,0,0,0,0,0,0,0,0,0,514,0,0,0,0,0.0000000,0.0000000,0.0000000,0.0000000,5.00,38.4062080,-110.7929230,1335.0999756,0.3,258.7,1.5,0.0,0.0,894,140,0,0,855.95,10.16,28.77,0
15:50:00,0,0,0,0,0,0,0,0,0,0,0,515,0,0,0,0,0.0000000,0.0000000,0.0000000,0.0000000,5.00,38.4062080,-110.7929230,1335.0999756,0.3,271.5,1.5,0.0,0.0,894,141,0,0,856.00,10.21,28.77,0
15:50:01,0,0,0,0,0,0,0,0,0,0,0,515,0,0,0,0,0.0000000,0.0000000,0.0000000,0.0000000,5.00,38.4062080,-110.7929306,1335.0999756,0.2,251.6,1.5,0.0,0.0,894,140,0,0,855.91,10.19,28.79,0
15:50:02,0,0,0,0,0,0,0,0,0,0,0,515,0,0,0,0,0.0000000,0.0000000,0.0000000,0.0000000,5.00,38.4062080,-110.7929306,1335.0999756,0.0,79.1,1.5,0.0,0.0,893,143,0,0,855.98,10.22,28.79,0
15:50:03,0,0,0,0,0,0,0,0,0,0,0,514,0,0,0,0,0.0000000,0.0000000,0.0000000,0.0000000,5.00,38.4062080,-110.7929306,1335.0999756,0.2,7.7,1.5,0.0,0.0,894,144,0,0,855.94,10.19,28.79,0
15:50:04,0,0,0,0,0,0,0,0,0,0,0,515,0,0,0,0,0.0000000,0.0000000,0.0000000,0.0000000,5.00,38.4062080,-110.7929230,1335.0999756,0.3,42.0,1.6,0.0,0.0,894,145,0,0,856.00,10.19,28.78,0
15:50:05,0,0,0,0,0,0,0,0,0,0,0,515,0,0,0,0,0.0000000,0.0000000,0.0000000,0.0000000,5.00,38.4062119,-110.7929230,1335.1999512,0.4,67.3,1.5,0.0,0.0,894,140,0,0,855.94,10.18,28.78,0
15:50:06,0,0,0,0,0,0,0,0,0,0,0,514,0,0,0,0,0.0000000,0.0000000,0.0000000,0.0000000,5.00,38.4062119,-110.7929230,1335.1999512,0.4,71.2,1.5,0.0,0.0,894,138,0,0,855.99,10.16,28.80,0
15:50:07,0,0,0,0,0,0,0,0,0,0,0,515,0,0,0,0,0.0000000,0.0000000,0.0000000,0.0000000,5.00,38.4062119,-110.7929230,1335.1999512,0.4,77.1,1.5,0.0,0.0,894,138,0,0,855.99,10.16,28.81,0
15:50:08,0,0,0,0,0,0,0,0,0,0,0,515,0,0,0,0,0.0000000,0.0000000,0.0000000,0.0000000,5.00,38.4062119,-110.7929230,1335.1999512,0.4,81.3,1.5,0.0,0.0,894,135,0,0,855.98,10.18,28.83,0
15:50:09,0,0,0,0,0,0,0,0,0,0,0,515,0,0,0,0,0.0000000,0.0000000,0.0000000,0.0000000,5.00,38.4062119,-110.7929230,1335.1999512,0.4,67.6,1.5,0.0,0.0,894,135,0,0,855.98,10.18,28.83,0
15:50:10,0,0,0,0,0,0,0,0,0,0,0,515,0,0,0,0,0.0000000,0.0000000,0.0000000,0.0000000,5.00,38.4062157,-110.7929077,1335.1999512,0.5,62.1,1.5,0.0,0.0,894,133,0,0,856.04,10.18,28.82,0
15:50:11,0,0,0,0,0,0,0,0,0,0,0,515,0,0,0,0,0.0000000,0.0000000,0.0000000,0.0000000,5.00,38.4062157,-110.7929077,1335.1999512,0.4,84.3,1.5,0.0,0.0,894,131,0,0,855.95,10.15,28.83,0
15:50:12,0,0,0,0,0,0,0,0,0,0,0,514,0,0,0,0,0.0000000,0.0000000,0.0000000,0.0000000,5.00,38.4062157,-110.7929077,1335.1999512,0.4,78.1,1.5,0.0,0.0,894,132,0,0,855.99,10.15,28.82,0
15:50:13,0,0,0,0,0,0,0,0,0,0,0,515,0,0,0,0,0.0000000,0.0000000,0.0000000,0.0000000,5.00,38.4062157,-110.7929077,1335.1999512,0.4,59.8,1.5,0.0,0.0,894,145,0,0,855.95,10.15,28.83,0
15:50:14,0,0,0,0,0,0,0,0,0,0,0,515,0,0,0,0,0.0000000,0.0000000,0.0000000,0.0000000,5.00,38.4062157,-110.7929077,1335.1999512,0.5,46.0,1.5,0.0,0.0,894,150,0,0,855.98,10.16,28.81,0
15:50:15,0,0,0,0,0,0,0,0,0,0,0,516,0,0,0,0,0.0000000,0.0000000,0.0000000,0.0000000,5.00,38.4062195,-110.7929077,1335.1999512,0.5,39.4,1.5,0.0,0.0,894,150,0,0,856.01,10.18,28.79,0
15:50:16,0,0,0,0,0,0,0,0,0,0,0,514,0,0,0,0,0.0000000,0.0000000,0.0000000,0.0000000,5.00,38.4062195,-110.7928925,1335.1999512,0.5,35.5,1.5,0.0,0.0,894,153,0,0,855.96,10.18,28.77,0
15:50:17,0,0,0,0,0,0,0,0,0,0,0,514,0,0,0,0,0.0000000,0.0000000,0.0000000,0.0000000,5.00,38.4062195,-110.7928925,1335.1999512,0.5,44.1,1.5,0.0,0.0,894,151,0,0,856.00,10.19,28.75,0
15:50:18,0,0,0,0,0,0,0,0,0,0,0,515,0,0,0,0,0.0000000,0.0000000,0.0000000,0.0000000,5.00,38.4062195,-110.7928925,1335.1999512,0.5,73.8,1.5,0.0,0.0,893,152,0,0,855.96,10.19,28.72,0
15:50:19,0,0,0,0,0,0,0,0,0,0,0,515,0,0,0,0,0.0000000,0.0000000,0.0000000,0.0000000,5.00,38.4062195,-110.7928925,1335.1999512,0.6,94.1,1.5,0.0,0.0,893,152,0,0,855.96,10.24,28.70,0
15:50:20,0,0,0,0,0,0,0,0,0,0,0,515,0,0,0,0,0.0000000,0.0000000,0.0000000,0.0000000,5.00,38.4062195,-110.7928848,1335.1999512,0.8,112.9,1.5,0.0,0.0,894,144,0,0,855.90,10.24,28.71,0
15:50:21,0,0,0,0,0,0,0,0,0,0,0,515,0,0,0,0,0.0000000,0.0000000,0.0000000,0.0000000,5.00,38.4061966,-110.7928467,1335.4000244,1.0,117.8,1.5,0.0,0.0,893,145,0,0,856.00,10.25,28.72,0
15:50:22,0,0,0,0,0,0,0,0,0,0,0,514,0,0,0,0,0.0000000,0.0000000,0.0000000,0.0000000,5.00,38.4061775,-110.7928162,1335.5999756,1.1,122.1,1.5,0.0,0.0,894,139,0,0,855.93,10.28,28.71,0
15:50:23,0,0,0,0,0,0,0,0,0,0,0,514,0,0,0,0,0.0000000,0.0000000,0.0000000,0.0000000,5.00,38.4061584,-110.7927933,1335.8000488,1.3,125.7,1.5,0.0,0.0,894,138,0,0,855.91,10.25,28.70,0
15:50:24,0,0,0,0,0,0,0,0,0,0,0,515,0,0,0,0,0.0000000,0.0000000,0.0000000,0.0000000,5.00,38.4061356,-110.7927551,1336.0000000,1.5,129.0,1.5,0.0,0.0,894,140,0,0,855.95,10.21,28.69,0
15:50:25,0,0,0,0,0,0,0,0,0,0,0,514,0,0,0,0,0.0000000,0.0000000,0.0000000,0.0000000,5.00,38.4061165,-110.7927170,1336.1999512,1.6,130.4,1.5,0.0,0.0,894,135,0,0,855.92,10.22,28.68,0
15:50:26,0,0,0,0,0,0,0,0,0,0,0,514,0,0,0,0,0.0000000,0.0000000,0.0000000,0.0000000,5.00,38.4060974,-110.7926941,1336.3000488,1.7,130.6,1.5,0.0,0.0,894,140,0,0,855.93,10.22,28.69,0
15:50:27,0,0,0,0,0,0,0,0,0,0,0,515,0,0,0,0,0.0000000,0.0000000,0.0000000,0.0000000,5.00,38.4060898,-110.7926636,1336.4000244,1.6,128.7,1.5,0.0,0.0,894,140,0,0,855.93,10.27,28.68,0
15:50:28,0,0,0,0,0,0,0,0,0,0,0,514,0,0,0,0,0.0000000,0.0000000,0.0000000,0.0000000,5.00,38.4060898,-110.7926559,1336.4000244,1.5,127.2,1.5,0.0,0.0,894,143,0,0,855.87,10.22,28.68,0
15:50:29,0,0,0,0,0,0,0,0,0,0,0,514,0,0,0,0,0.0000000,0.0000000,0.0000000,0.0000000,5.00,38.4060898,-110.7926407,1336.4000244,1.3,123.6,1.5,0.0,0.0,894,142,0,0,855.96,10.22,28.68,0
15:50:30,0,0,0,0,0,0,0,0,0,0,0,515,0,0,0,0,0.0000000,0.0000000,0.0000000,0.0000000,5.00,38.4060898,-110.7926407,1336.4000244,1.1,118.5,1.5,0.0,0.0,894,137,0,0,855.94,10.27,28.68,0
15:50:31,0,0,0,0,0,0,0,0,0,0,0,514,0,0,0,0,0.0000000,0.0000000,0.0000000,0.0000000,5.00,38.4060936,-110.7926407,1336.5000000,1.0,110.7,1.5,0.0,0.0,894,139,0,0,855.91,10.28,28.66,0
15:50:32,0,0,0,0,0,0,0,0,0,0,0,514,0,0,0,0,0.0000000,0.0000000,0.0000000,0.0000000,5.00,38.4061012,-110.7926178,1336.5999756,1.1,98.9,1.5,0.0,0.0,894,146,0,0,856.00,10.32,28.66,0
15:50:33,0,0,0,0,0,0,0,0,0,0,0,514,0,0,0,0,0.0000000,0.0000000,0.0000000,0.0000000,5.00,38.4061127,-110.7925873,1336.8000488,1.2,92.3,1.5,0.0,0.0,894,143,0,0,855.86,10.33,28.66,0
15:50:34,0,0,0,0,0,0,0,0,0,0,0,514,0,0,0,0,0.0000000,0.0000000,0.0000000,0.0000000,5.00,38.4061203,-110.7925644,1336.8000488,1.3,87.9,1.5,0.0,0.0,894,142,0,0,855.99,10.28,28.68,0
15:50:35,0,0,0,0,0,0,0,0,0,0,0,514,0,0,0,0,0.0000000,0.0000000,0.0000000,0.0000000,5.00,38.4061317,-110.7925491,1336.6999512,1.3,83.9,1.5,0.0,0.0,894,141,0,0,855.98,10.30,28.69,0
15:50:36,0,0,0,0,0,0,0,0,0,0,0,515,0,0,0,0,0.0000000,0.0000000,0.0000000,0.0000000,5.00,38.4061394,-110.7925491,1336.6999512,1.3,80.8,1.5,0.0,0.0,894,144,0,0,856.00,10.33,28.68,0
15:50:37,0,0,0,0,0,0,0,0,0,0,0,515,0,0,0,0,0.0000000,0.0000000,0.0000000,0.0000000,5.00,38.4061432,-110.7925339,1336.6999512,1.3,77.6,1.5,0.0,0.0,894,140,0,0,855.92,10.36,28.69,0
15:50:38,0,0,0,0,0,0,0,0,0,0,0,514,0,0,0,0,0.0000000,0.0000000,0.0000000,0.0000000,5.00,38.4061470,-110.7925339,1336.5999756,1.2,75.9,1.5,0.0,0.0,894,138,0,0,855.97,10.36,28.71,0
15:50:39,0,0,0,0,0,0,0,0,0,0,0,515,0,0,0,0,0.0000000,0.0000000,0.0000000,0.0000000,5.00,38.4061546,-110.7925262,1336.5999756,1.1,72.1,1.5,0.0,0.0,894,143,0,0,855.95,10.32,28.72,0
15:50:40,0,0,0,0,0,0,0,0,0,0,0,515,0,0,0,0,0.0000000,0.0000000,0.0000000,0.0000000,5.00,38.4061546,-110.7925262,1336.5999756,0.9,79.6,1.5,0.0,0.0,894,135,0,0,855.93,10.30,28.72,0
15:50:41,0,0,0,0,0,0,0,0,0,0,0,515,0,0,0,0,0.0000000,0.0000000,0.0000000,0.0000000,5.00,38.4061546,-110.7925262,1336.5999756,0.8,83.6,1.5,0.0,0.0,894,141,0,0,855.93,10.28,28.73,0
15:50:42,0,0,0,0,0,0,0,0,0,0,0,514,0,0,0,0,0.0000000,0.0000000,0.0000000,0.0000000,5.00,38.4061584,-110.7925262,1336.5999756,0.8,83.0,1.5,0.0,0.0,894,140,0,0,855.85,10.28,28.66,0
15:50:43,0,0,0,0,0,0,0,0,0,0,0,515,0,0,0,0,0.0000000,0.0000000,0.0000000,0.0000000,5.00,38.4061623,-110.7925262,1336.6999512,0.7,73.3,1.5,0.0,0.0,894,136,0,0,855.91,10.25,28.66,0
15:50:44,0,0,0,0,0,0,0,0,0,0,0,515,0,0,0,0,0.0000000,0.0000000,0.0000000,0.0000000,5.00,38.4061661,-110.7925110,1336.9000244,0.8,76.2,1.5,0.0,0.0,894,139,0,0,855.91,10.22,28.67,0
15:50:45,0,0,0,0,0,0,0,0,0,0,0,515,0,0,0,0,0.0000000,0.0000000,0.0000000,0.0000000,5.00,38.4061699,-110.7924957,1337.0999756,0.8,76.0,1.5,0.0,0.0,893,135,0,0,855.89,10.24,28.68,0
15:50:46,0,0,0,0,0,0,0,0,0,0,0,515,0,0,0,0,0.0000000,0.0000000,0.0000000,0.0000000,5.00,38.4061775,-110.7924881,1337.5000000,0.8,72.6,1.5,0.0,0.0,894,134,0,0,855.88,10.21,28.68,0
15:50:47,0,0,0,0,0,0,0,0,0,0,0,515,0,0,0,0,0.0000000,0.0000000,0.0000000,0.0000000,5.00,38.4061775,-110.7924881,1337.8000488,0.8,74.6,1.5,0.0,0.0,894,138,0,0,855.91,10.22,28.68,0
15:50:48,0,0,0,0,0,0,0,0,0,0,0,515,0,0,0,0,0.0000000,0.0000000,0.0000000,0.0000000,5.00,38.4061852,-110.7924881,1338.3000488,0.8,75.8,1.5,0.0,0.0,893,141,0,0,855.91,10.24,28.73,0
15:50:49,0,0,0,0,0,0,0,0,0,0,0,515,0,0,0,0,0.0000000,0.0000000,0.0000000,0.0000000,5.00,38.4061928,-110.7924881,1338.5999756,0.7,69.8,1.5,0.0,0.0,894,144,0,0,855.95,10.21,28.73,0
15:50:50,0,0,0,0,0,0,0,0,0,0,0,514,0,0,0,0,0.0000000,0.0000000,0.0000000,0.0000000,5.00,38.4062004,-110.7924728,1338.8000488,0.7,73.9,1.5,0.0,0.0,894,143,0,0,855.92,10.21,28.73,0
15:50:51,0,0,0,0,0,0,0,0,0,0,0,515,0,0,0,0,0.0000000,0.0000000,0.0000000,0.0000000,5.00,38.4062119,-110.7924728,1339.0000000,0.9,53.5,1.5,0.0,0.0,894,137,0,0,855.93,10.16,28.78,0
15:50:52,0,0,0,0,0,0,0,0,0,0,0,515,0,0,0,0,0.0000000,0.0000000,0.0000000,0.0000000,5.00,38.4062195,-110.7924576,1339.1999512,1.0,50.8,1.5,0.0,0.0,894,138,0,0,855.88,10.16,28.80,0
15:50:54,0,0,0,0,0,0,0,0,0,0,0,515,0,0,0,0,0.0000000,0.0000000,0.0000000,0.0000000,5.00,38.4062309,-110.7924500,1339.4000244,1.2,47.5,1.5,0.0,0.0,894,138,0,0,855.92,10.18,28.80,0
15:50:55,0,0,0,0,0,0,0,0,0,0,0,515,0,0,0,0,0.0000000,0.0000000,0.0000000,0.0000000,5.00,38.4062386,-110.7924194,1339.5000000,1.4,49.4,1.5,0.0,0.0,894,138,0,0,855.92,10.16,28.82,0
15:50:56,0,0,0,0,0,0,0,0,0,0,0,514,0,0,0,0,0.0000000,0.0000000,0.0000000,0.0000000,5.00,38.4062500,-110.7924194,1339.5999756,1.5,46.3,1.5,0.0,0.0,894,135,0,0,855.96,10.19,28.81,0
15:50:57,0,0,0,0,0,0,0,0,0,0,0,515,0,0,0,0,0.0000000,0.0000000,0.0000000,0.0000000,5.00,38.4062500,-110.7924194,1339.4000244,1.3,46.7,1.5,0.0,0.0,894,136,0,0,855.95,10.18,28.81,0
15:50:58,0,0,0,0,0,0,0,0,0,0,0,515,0,0,0,0,0.0000000,0.0000000,0.0000000,0.0000000,5.00,38.4062500,-110.7924194,1339.4000244,1.1,49.1,1.5,0.0,0.0,894,135,0,0,855.91,10.19,28.83,0
15:50:59,0,0,0,0,0,0,0,0,0,0,0,515,0,0,0,0,0.0000000,0.0000000,0.0000000,0.0000000,5.00,38.4062500,-110.7924347,1339.5000000,1.1,42.4,1.5,0.0,0.0,894,132,0,0,855.94,10.19,28.83,0
15:51:00,0,0,0,0,0,0,0,0,0,0,0,514,0,0,0,0,0.0000000,0.0000000,0.0000000,0.0000000,5.00,38.4062500,-110.7924500,1339.5999756,0.9,42.1,1.5,0.0,0.0,893,131,0,0,855.96,10.15,28.82,0
15:51:01,0,0,0,0,0,0,0,0,0,0,0,515,0,0,0,0,0.0000000,0.0000000,0.0000000,0.0000000,5.00,38.4062462,-110.7924500,1339.6999512,0.6,44.8,1.5,0.0,0.0,894,132,0,0,855.91,10.19,28.83,0
15:51:02,0,0,0,0,0,0,0,0,0,0,0,515,0,0,0,0,0.0000000,0.0000000,0.0000000,0.0000000,5.00,38.4062462,-110.7924500,1339.8000488,0.5,49.8,1.5,0.0,0.0,894,132,0,0,855.91,10.16,28.83,0
15:51:03,0,0,0,0,0,0,0,0,0,0,0,515,0,0,0,0,0.0000000,0.0000000,0.0000000,0.0000000,5.00,38.4062462,-110.7924576,1340.0000000,0.4,57.5,1.5,0.0,0.0,894,131,0,0,855.88,10.16,28.83,0
15:51:04,0,0,0,0,0,0,0,0,0,0,0,515,0,0,0,0,0.0000000,0.0000000,0.0000000,0.0000000,5.00,38.4062462,-110.7924500,1340.1999512,0.4,61.8,1.5,0.0,0.0,894,130,0,0,855.92,10.13,28.84,0
15:51:05,0,0,0,0,0,0,0,0,0,0,0,515,0,0,0,0,0.0000000,0.0000000,0.0000000,0.0000000,5.00,38.4062500,-110.7924500,1340.3000488,0.5,53.5,1.5,0.0,0.0,894,132,0,0,855.92,10.12,28.84,0
15:51:06,0,0,0,0,0,0,0,0,0,0,0,514,0,0,0,0,0.0000000,0.0000000,0.0000000,0.0000000,5.00,38.4062538,-110.7924500,1340.3000488,0.5,55.5,1.5,0.0,0.0,894,135,0,0,855.90,10.15,28.86,0
15:51:07,0,0,0,0,0,0,0,0,0,0,0,515,0,0,0,0,0.0000000,0.0000000,0.0000000,0.0000000,5.00,38.4062538,-110.7924500,1340.3000488,0.4,56.1,1.5,0.0,0.0,895,127,0,0,855.93,10.13,28.86,0
15:51:08,0,0,0,0,0,0,0,0,0,0,0,514,0,0,0,0,0.0000000,0.0000000,0.0000000,0.0000000,5.00,38.4062538,-110.7924500,1340.4000244,0.3,75.6,1.5,0.0,0.0,894,132,0,0,855.94,10.16,28.84,0
15:51:09,0,0,0,0,0,0,0,0,0,0,0,515,0,0,0,0,0.0000000,0.0000000,0.0000000,0.0000000,5.00,38.4062538,-110.7924347,1340.4000244,0.3,111.3,1.5,0.0,0.0,894,130,0,0,855.94,10.18,28.81,0
15:51:10,0,0,0,0,0,0,0,0,0,0,0,515,0,0,0,0,0.0000000,0.0000000,0.0000000,0.0000000,5.00,38.4062538,-110.7924347,1340.4000244,0.2,121.6,1.5,0.0,0.0,894,133,0,0,855.93,10.19,28.82,0
15:51:11,0,0,0,0,0,0,0,0,0,0,0,515,0,0,0,0,0.0000000,0.0000000,0.0000000,0.0000000,5.00,38.4062538,-110.7924347,1340.4000244,0.3,127.9,1.5,0.0,0.0,894,142,0,0,855.95,10.16,28.83,0
15:51:12,0,0,0,0,0,0,0,0,0,0,0,515,0,0,0,0,0.0000000,0.0000000,0.0000000,0.0000000,5.00,38.4062538,-110.7924347,1340.4000244,0.3,122.8,1.5,0.0,0.0,894,137,0,0,855.94,10.18,28.84,0
15:51:13,0,0,0,0,0,0,0,0,0,0,0,515,0,0,0,0,0.0000000,0.0000000,0.0000000,0.0000000,5.00,38.4062538,-110.7924347,1340.4000244,0.2,132.5,1.5,0.0,0.0,894,137,0,0,855.96,10.21,28.84,0
15:51:14,0,0,0,0,0,0,0,0,0,0,0,515,0,0,0,0,0.0000000,0.0000000,0.0000000,0.0000000,5.00,38.4062500,-110.7924347,1340.4000244,0.1,138.0,1.5,0.0,0.0,894,143,0,0,855.96,10.22,28.84,0
15:51:15,0,0,0,0,0,0,0,0,0,0,0,515,0,0,0,0,0.0000000,0.0000000,0.0000000,0.0000000,5.00,38.4062500,-110.7924347,1340.4000244,0.2,171.3,1.5,0.0,0.0,894,144,0,0,855.94,10.25,28.85,0
15:51:16,0,0,0,0,0,0,0,0,0,0,0,515,0,0,0,0,0.0000000,0.0000000,0.0000000,0.0000000,5.00,38.4062500,-110.7924347,1340.4000244,0.1,129.7,1.5,0.0,0.0,893,143,0,0,855.94,10.24,28.87,0
15:51:17,0,0,0,0,0,0,0,0,0,0,0,514,0,0,0,0,0.0000000,0.0000000,0.0000000,0.0000000,5.00,38.4062500,-110.7924347,1340.4000244,0.1,108.4,1.5,0.0,0.0,894,137,0,0,855.97,10.22,28.89,0
15:51:18,0,0,0,0,0,0,0,0,0,0,0,515,0,0,0,0,0.0000000,0.0000000,0.0000000,0.0000000,5.00,38.4062500,-110.7924347,1340.4000244,0.1,110.0,1.5,0.0,0.0,894,138,0,0,855.95,10.18,28.90,0
15:51:19,0,0,0,0,0,0,0,0,0,0,0,515,0,0,0,0,0.0000000,0.0000000,0.0000000,0.0000000,5.00,38.4062500,-110.7924347,1340.4000244,0.3,129.5,1.5,0.0,0.0,894,130,0,0,855.96,10.21,28.90,0
15:51:20,0,0,0,0,0,0,0,0,0,0,0,515,0,0,0,0,0.0000000,0.0000000,0.0000000,0.0000000,5.00,38.4062500,-110.7924347,1340.4000244,0.3,131.2,1.5,0.0,0.0,894,135,0,0,855.98,10.15,28.88,0
15:51:21,0,0,0,0,0,0,0,0,0,0,0,515,0,0,0,0,0.0000000,0.0000000,0.0000000,0.0000000,5.00,38.4062462,-110.7924347,1340.4000244,0.3,133.7,1.5,0.0,0.0,894,134,0,0,855.97,10.19,28.84,0
15:51:22,0,0,0,0,0,0,0,0,0,0,0,515,0,0,0,0,0.0000000,0.0000000,0.0000000,0.0000000,5.00,38.4062462,-110.7924347,1340.4000244,0.2,122.0,1.5,0.0,0.0,894,139,0,0,855.96,10.18,28.86,0
15:51:23,0,0,0,0,0,0,0,0,0,0,0,515,0,0,0,0,0.0000000,0.0000000,0.0000000,0.0000000,5.00,38.4062462,-110.7924347,1340.4000244,0.2,112.7,1.5,0.0,0.0,894,137,0,0,855.91,10.21,28.88,0
15:51:24,0,0,0,0,0,0,0,0,0,0,0,515,0,0,0,0,0.0000000,0.0000000,0.0000000,0.0000000,5.00,38.4062462,-110.7924194,1340.4000244,0.3,102.5,1.5,0.0,0.0,894,140,0,0,855.91,10.19,28.89,0
15:51:25,0,0,0,0,0,0,0,0,0,0,0,515,0,0,0,0,0.0000000,0.0000000,0.0000000,0.0000000,5.00,38.4062462,-110.7924194,1340.5000000,0.3,99.8,1.5,0.0,0.0,894,139,0,0,855.94,10.15,28.90,0
15:51:26,0,0,0,0,0,0,0,0,0,0,0,514,0,0,0,0,0.0000000,0.0000000,0.0000000,0.0000000,5.00,38.4062462,-110.7924194,1340.5000000,0.3,88.3,1.5,0.0,0.0,894,142,0,0,855.96,10.16,28.90,0
15:51:27,0,0,0,0,0,0,0,0,0,0,0,515,0,0,0,0,0.0000000,0.0000000,0.0000000,0.0000000,5.00,38.4062462,-110.7924194,1340.5000000,0.3,87.4,1.5,0.0,0.0,894,141,0,0,855.97,10.16,28.89,0
15:51:28,0,0,0,0,0,0,0,0,0,0,0,515,0,0,0,0,0.0000000,0.0000000,0.0000000,0.0000000,5.00,38.4062462,-110.7924194,1340.5000000,0.3,98.9,1.5,0.0,0.0,894,139,0,0,855.97,10.10,28.88,0
15:51:29,0,0,0,0,0,0,0,0,0,0,0,514,0,0,0,0,0.0000000,0.0000000,0.0000000,0.0000000,5.00,38.4062462,-110.7924194,1340.5000000,0.3,114.1,1.5,0.0,0.0,894,137,0,0,855.98,10.10,28.87,0
15:51:30,0,0,0,0,0,0,0,0,0,0,0,515,0,0,0,0,0.0000000,0.0000000,0.0000000,0.0000000,5.00,38.4062424,-110.7924194,1340.5000000,0.3,95.3,1.5,0.0,0.0,894,134,0,0,855.87,10.12,28.89,0
15:51:31,0,0,0,0,0,0,0,0,0,0,0,514,0,0,0,0,0.0000000,0.0000000,0.0000000,0.0000000,5.00,38.4062424,-110.7924118,1340.5000000,0.4,86.9,1.5,0.0,0.0,894,137,0,0,855.92,10.12,28.89,0
15:51:32,0,0,0,0,0,0,0,0,0,0,0,515,0,0,0,0,0.0000000,0.0000000,0.0000000,0.0000000,5.00,38.4062424,-110.7924118,1340.5000000,0.5,85.0,1.5,0.0,0.0,894,139,0,0,855.90,10.13,28.91,0
15:51:33,0,0,0,0,0,0,0,0,0,0,0,515,0,0,0,0,0.0000000,0.0000000,0.0000000,0.0000000,5.00,38.4062424,-110.7924118,1340.5000000,0.5,87.7,1.5,0.0,0.0,894,138,0,0,855.91,10.15,28.93,0
15:51:34,0,0,0,0,0,0,0,0,0,0,0,514,0,0,0,0,0.0000000,0.0000000,0.0000000,0.0000000,5.00,38.4062424,-110.7924118,1340.5000000,0.4,89.2,1.5,0.0,0.0,894,139,0,0,855.90,10.13,28.91,0
15:51:35,0,0,0,0,0,0,0,0,0,0,0,514,0,0,0,0,0.0000000,0.0000000,0.0000000,0.0000000,5.00,38.4062424,-110.7923965,1340.5000000,0.4,77.5,1.5,0.0,0.0,894,141,0,0,855.92,10.12,28.90,0
15:51:36,0,0,0,0,0,0,0,0,0,0,0,515,0,0,0,0,0.0000000,0.0000000,0.0000000,0.0000000,5.00,38.4062462,-110.7923965,1340.5000000,0.4,68.2,1.5,0.0,0.0,894,141,0,0,855.94,10.15,28.90,0
15:51:37,0,0,0,0,0,0,0,0,0,0,0,515,0,0,0,0,0.0000000,0.0000000,0.0000000,0.0000000,5.00,38.4062462,-110.7923965,1340.5000000,0.4,71.6,1.5,0.0,0.0,894,135,0,0,855.91,10.12,28.93,0
15:51:38,0,0,0,0,0,0,0,0,0,0,0,515,0,0,0,0,0.0000000,0.0000000,0.0000000,0.0000000,5.00,38.4062462,-110.7923965,1340.5000000,0.3,57.5,1.5,0.0,0.0,894,130,0,0,855.92,10.13,28.94,0
15:51:39,0,0,0,0,0,0,0,0,0,0,0,515,0,0,0,0,0.0000000,0.0000000,0.0000000,0.0000000,5.00,38.4062462,-110.7923965,1340.5000000,0.3,55.3,1.5,0.0,0.0,894,136,0,0,855.95,10.16,28.94,0
15:51:40,0,0,0,0,0,0,0,0,0,0,0,515,0,0,0,0,0.0000000,0.0000000,0.0000000,0.0000000,5.00,38.4062500,-110.7923965,1340.5000000,0.4,48.5,1.5,0.0,0.0,894,135,0,0,855.99,10.12,28.96,0
15:51:41,0,0,0,0,0,0,0,0,0,0,0,515,0,0,0,0,0.0000000,0.0000000,0.0000000,0.0000000,5.00,38.4062500,-110.7923965,1340.5000000,0.5,49.3,1.5,0.0,0.0,894,134,0,0,855.89,10.10,28.97,0
15:51:42,0,0,0,0,0,0,0,0,0,0,0,515,0,0,0,0,0.0000000,0.0000000,0.0000000,0.0000000,5.00,38.4062538,-110.7923813,1340.5999756,0.4,42.0,1.5,0.0,0.0,894,135,0,0,855.95,10.13,28.98,0
15:51:43,0,0,0,0,0,0,0,0,0,0,0,515,0,0,0,0,0.0000000,0.0000000,0.0000000,0.0000000,5.00,38.4062538,-110.7923813,1340.5999756,0.5,26.9,1.5,0.0,0.0,894,133,0,0,855.95,10.07,28.98,0
15:51:44,0,0,0,0,0,0,0,0,0,0,0,515,0,0,0,0,0.0000000,0.0000000,0.0000000,0.0000000,5.00,38.4062576,-110.7923813,1340.5999756,0.5,32.8,1.5,0.0,0.0,893,133,0,0,855.97,10.10,28.98,0
15:51:45,0,0,0,0,0,0,0,0,0,0,0,515,0,0,0,0,0.0000000,0.0000000,0.0000000,0.0000000,5.00,38.4062576,-110.7923813,1340.5999756,0.5,32.1,1.5,0.0,0.0,894,136,0,0,855.92,10.13,29.00,0
15:51:46,0,0,0,0,0,0,0,0,0,0,0,515,0,0,0,0,0.0000000,0.0000000,0.0000000,0.0000000,5.00,38.4062576,-110.7923813,1340.5999756,0.5,28.9,1.5,0.0,0.0,894,131,0,0,855.95,10.13,29.02,0
15:51:47,0,0,0,0,0,0,0,0,0,0,0,515,0,0,0,0,0.0000000,0.0000000,0.0000000,0.0000000,5.00,38.4062576,-110.7923813,1340.5999756,0.5,26.0,1.5,0.0,0.0,894,132,0,0,856.01,10.12,29.03,0
15:51:48,0,0,0,0,0,0,0,0,0,0,0,514,0,0,0,0,0.0000000,0.0000000,0.0000000,0.0000000,5.00,38.4062614,-110.7923813,1340.5999756,0.5,22.2,1.5,0.0,0.0,894,132,0,0,855.99,10.09,29.01,0
15:51:49,0,0,0,0,0,0,0,0,0,0,0,514,0,0,0,0,0.0000000,0.0000000,0.0000000,0.0000000,5.00,38.4062653,-110.7923813,1340.5999756,0.5,18.1,1.5,0.0,0.0,893,137,0,0,855.99,10.09,28.99,0
15:51:50,0,0,0,0,0,0,0,0,0,0,0,515,0,0,0,0,0.0000000,0.0000000,0.0000000,0.0000000,5.00,38.4062653,-110.7923813,1340.5999756,0.4,36.1,1.5,0.0,0.0,894,133,0,0,855.96,10.06,28.98,0
15:51:51,0,0,0,0,0,0,0,0,0,0,0,514,0,0,0,0,0.0000000,0.0000000,0.0000000,0.0000000,5.00,38.4062691,-110.7923737,1340.5999756,0.5,36.2,1.5,0.0,0.0,894,139,0,0,856.06,10.04,29.00,0
15:51:52,0,0,0,0,0,0,0,0,0,0,0,515,0,0,0,0,0.0000000,0.0000000,0.0000000,0.0000000,5.00,38.4062691,-110.7923737,1340.5999756,0.6,30.9,1.5,0.0,0.0,894,136,0,0,855.98,10.04,29.01,0
15:51:53,0,0,0,0,0,0,0,0,0,0,0,515,0,0,0,0,0.0000000,0.0000000,0.0000000,0.0000000,5.00,38.4062729,-110.7923737,1340.5999756,0.7,29.2,1.5,0.0,0.0,894,136,0,0,856.00,10.09,29.03,0
15:51:54,0,0,0,0,0,0,0,0,0,0,0,515,0,0,0,0,0.0000000,0.0000000,0.0000000,0.0000000,5.00,38.4062767,-110.7923737,1340.8000488,0.6,28.9,1.5,0.0,0.0,894,135,0,0,855.99,10.13,29.06,0
15:51:55,0,0,0,0,0,0,0,0,0,0,0,514,0,0,0,0,0.0000000,0.0000000,0.0000000,0.0000000,5.00,38.4062843,-110.7923584,1341.0000000,0.6,38.7,1.5,0.0,0.0,894,133,0,0,855.99,10.10,29.07,0
15:51:56,0,0,0,0,0,0,0,0,0,0,0,515,0,0,0,0,0.0000000,0.0000000,0.0000000,0.0000000,5.00,38.4062920,-110.7923584,1341.1999512,0.7,39.2,1.5,0.0,0.0,894,133,0,0,855.95,10.09,29.10,0
15:51:57,0,0,0,0,0,0,0,0,0,0,0,515,0,0,0,0,0.0000000,0.0000000,0.0000000,0.0000000,5.00,38.4062958,-110.7923431,1341.4000244,0.6,36.6,1.5,0.0,0.0,894,134,0,0,855.98,10.06,29.11,0
15:51:58,0,0,0,0,0,0,0,0,0,0,0,514,0,0,0,0,0.0000000,0.0000000,0.0000000,0.0000000,5.00,38.4062996,-110.7923431,1341.5999756,0.6,39.7,1.5,0.0,0.0,894,136,0,0,856.00,10.03,29.13,0
15:51:59,0,0,0,0,0,0,0,0,0,0,0,515,0,0,0,0,0.0000000,0.0000000,0.0000000,0.0000000,5.00,38.4062996,-110.7923355,1341.6999512,0.6,54.7,1.5,0.0,0.0,894,138,0,0,855.99,10.03,29.14,0
15:52:00,0,0,0,0,0,0,0,0,0,0,0,515,0,0,0,0,0.0000000,0.0000000,0.0000000,0.0000000,5.00,38.4063034,-110.7923203,1341.9000244,0.6,59.0,1.5,0.0,0.0,894,135,0,0,856.03,10.03,29.15,0
15:52:01,0,0,0,0,0,0,0,0,0,0,0,514,0,0,0,0,0.0000000,0.0000000,0.0000000,0.0000000,5.00,38.4063072,-110.7923203,1342.0000000,0.6,58.5,1.5,0.0,0.0,894,135,0,0,856.01,10.04,29.16,0
15:52:02,0,0,0,0,0,0,0,0,0,0,0,515,0,0,0,0,0.0000000,0.0000000,0.0000000,0.0000000,5.00,38.4063110,-110.7923203,1342.0999756,0.5,61.2,1.5,0.0,0.0,894,141,0,0,855.96,10.00,29.18,0
15:52:03,0,0,0,0,0,0,0,0,0,0,0,515,0,0,0,0,0.0000000,0.0000000,0.0000000,0.0000000,5.00,38.4063072,-110.7923355,1342.4000244,0.3,55.5,1.5,0.0,0.0,894,143,0,0,855.95,10.03,29.20,0
15:52:04,0,0,0,0,0,0,0,0,0,0,0,515,0,0,0,0,0.0000000,0.0000000,0.0000000,0.0000000,5.00,38.4063110,-110.7923355,1342.5000000,0.3,46.1,1.5,0.0,0.0,893,138,0,0,855.98,10.01,29.21,0
15:52:05,0,0,0,0,0,0,0,0,0,0,0,515,0,0,0,0,0.0000000,0.0000000,0.0000000,0.0000000,5.00,38.4063110,-110.7923355,1342.5000000,0.2,42.1,1.5,0.0,0.0,894,137,0,0,855.96,10.00,29.22,0
15:52:06,0,0,0,0,0,0,0,0,0,0,0,515,0,0,0,0,0.0000000,0.0000000,0.0000000,0.0000000,5.00,38.4063110,-110.7923355,1342.5000000,0.3,45.2,1.5,0.0,0.0,894,137,0,0,855.97,9.95,29.24,0
15:52:07,0,0,0,0,0,0,0,0,0,0,0,515,0,0,0,0,0.0000000,0.0000000,0.0000000,0.0000000,5.00,38.4063148,-110.7923355,1342.5000000,0.2,11.5,1.5,0.0,0.0,893,137,0,0,856.00,10.03,29.25,0
15:52:08,0,0,0,0,0,0,0,0,0,0,0,515,0,0,0,0,0.0000000,0.0000000,0.0000000,0.0000000,5.00,38.4063148,-110.7923355,1342.5000000,0.3,343.6,1.6,0.0,0.0,894,138,0,0,856.00,10.00,29.25,0
15:52:09,0,0,0,0,0,0,0,0,0,0,0,515,0,0,0,0,0.0000000,0.0000000,0.0000000,0.0000000,5.00,38.4063148,-110.7923355,1342.5000000,0.3,323.5,1.5,0.0,0.0,893,137,0,0,856.03,9.98,29.24,0
15:52:10,0,0,0,0,0,0,0,0,0,0,0,515,0,0,0,0,0.0000000,0.0000000,0.0000000,0.0000000,5.00,38.4063187,-110.7923355,1342.5000000,0.4,319.6,1.5,0.0,0.0,894,139,0,0,856.01,9.96,29.23,0
15:52:11,0,0,0,0,0,0,0,0,0,0,0,515,0,0,0,0,0.0000000,0.0000000,0.0000000,0.0000000,5.00,38.4063187,-110.7923355,1342.5000000,0.3,305.7,1.5,0.0,0.0,894,136,0,0,856.00,9.93,29.23,0
15:52:12,0,0,0,0,0,0,0,0,0,0,0,515,0,0,0,0,0.0000000,0.0000000,0.0000000,0.0000000,5.00,38.4063187,-110.7923431,1342.5000000,0.2,301.3,1.5,0.0,0.0,894,134,0,0,856.03,9.96,29.19,0
15:52:13,0,0,0,0,0,0,0,0,0,0,0,515,0,0,0,0,0.0000000,0.0000000,0.0000000,0.0000000,5.00,38.4063187,-110.7923431,1342.5000000,0.2,274.8,1.5,0.0,0.0,894,128,0,0,856.03,10.01,29.19,0
15:52:14,0,0,0,0,0,0,0,0,0,0,0,515,0,0,0,0,0.0000000,0.0000000,0.0000000,0.0000000,5.00,38.4063187,-110.7923431,1342.5999756,0.2,268.4,1.5,0.0,0.0,894,144,0,0,855.97,10.01,29.10,0
15:52:15,0,0,0,0,0,0,0,0,0,0,0,515,0,0,0,0,0.0000000,0.0000000,0.0000000,0.0000000,5.00,38.4063187,-110.7923431,1342.5999756,0.3,254.2,1.5,0.0,0.0,894,141,0,0,855.99,9.98,29.18,0
15:52:16,0,0,0,0,0,0,0,0,0,0,0,515,0,0,0,0,0.0000000,0.0000000,0.0000000,0.0000000,5.00,38.4063187,-110.7923431,1342.5999756,0.3,222.2,1.5,0.0,0.0,894,145,0,0,855.97,10.03,29.11,0
15:52:17,0,0,0,0,0,0,0,0,0,0,0,514,0,0,0,0,0.0000000,0.0000000,0.0000000,0.0000000,5.00,38.4063187,-110.7923431,1342.5999756,0.4,212.4,1.5,0.0,0.0,893,138,0,0,855.99,10.01,29.12,0
15:52:18,0,0,0,0,0,0,0,0,0,0,0,515,0,0,0,0,0.0000000,0.0000000,0.0000000,0.0000000,5.00,38.4063148,-110.7923431,1342.5999756,0.4,223.1,1.5,0.0,0.0,894,139,0,0,856.00,10.00,29.15,0
15:52:19,0,0,0,0,0,0,0,0,0,0,0,515,0,0,0,0,0.0000000,0.0000000,0.0000000,0.0000000,5.00,38.4063110,-110.7923431,1342.5999756,0.4,215.6,1.5,0.0,0.0,894,143,0,0,855.99,10.04,29.19,0
15:52:20,0,0,0,0,0,0,0,0,0,0,0,515,0,0,0,0,0.0000000,0.0000000,0.0000000,0.0000000,5.00,38.4063110,-110.7923584,1342.5999756,0.3,228.6,1.5,0.0,0.0,893,137,0,0,855.98,9.98,29.19,0
15:52:21,0,0,0,0,0,0,0,0,0,0,0,514,0,0,0,0,0.0000000,0.0000000,0.0000000,0.0000000,5.00,38.4063110,-110.7923584,1342.5999756,0.4,240.3,1.5,0.0,0.0,894,136,0,0,855.98,10.00,29.13,0
15:52:22,0,0,0,0,0,0,0,0,0,0,0,515,0,0,0,0,0.0000000,0.0000000,0.0000000,0.0000000,5.00,38.4063072,-110.7923584,1342.5999756,0.4,238.6,1.5,0.0,0.0,894,136,0,0,855.92,10.04,29.10,0
15:52:23,0,0,0,0,0,0,0,0,0,0,0,515,0,0,0,0,0.0000000,0.0000000,0.0000000,0.0000000,5.00,38.4063072,-110.7923584,1342.5999756,0.4,236.2,1.5,0.0,0.0,893,143,0,0,855.94,10.09,29.14,0
15:52:24,0,0,0,0,0,0,0,0,0,0,0,515,0,0,0,0,0.0000000,0.0000000,0.0000000,0.0000000,5.00,38.4063072,-110.7923584,1342.5999756,0.5,214.7,1.5,0.0,0.0,894,139,0,0,855.97,10.06,29.22,0
15:52:25,0,0,0,0,0,0,0,0,0,0,0,515,0,0,0,0,0.0000000,0.0000000,0.0000000,0.0000000,5.00,38.4063034,-110.7923584,1342.5999756,0.6,205.2,1.5,0.0,0.0,893,144,0,0,855.99,10.09,29.24,0
15:52:26,0,0,0,0,0,0,0,0,0,0,0,515,0,0,0,0,0.0000000,0.0000000,0.0000000,0.0000000,5.00,38.4062996,-110.7923584,1342.5999756,0.5,210.6,1.5,0.0,0.0,894,141,0,0,856.01,10.06,29.26,0
15:52:28,0,0,0,0,0,0,0,0,0,0,0,514,0,0,0,0,0.0000000,0.0000000,0.0000000,0.0000000,5.00,38.4062996,-110.7923737,1342.5999756,0.5,217.1,1.5,0.0,0.0,894,137,0,0,855.94,10.07,29.26,0
15:52:29,0,0,0,0,0,0,0,0,0,0,0,514,0,0,0,0,0.0000000,0.0000000,0.0000000,0.0000000,5.00,38.4062958,-110.7923737,1342.5999756,0.5,221.1,1.5,0.0,0.0,894,141,0,0,855.97,10.03,29.27,0
15:52:30,0,0,0,0,0,0,0,0,0,0,0,514,0,0,0,0,0.0000000,0.0000000,0.0000000,0.0000000,5.00,38.4062958,-110.7923737,1342.5999756,0.4,218.3,1.5,0.0,0.0,894,140,0,0,855.98,10.03,29.29,0
15:52:31,0,0,0,0,0,0,0,0,0,0,0,515,0,0,0,0,0.0000000,0.0000000,0.0000000,0.0000000,5.00,38.4062958,-110.7923737,1342.5999756,0.4,203.9,1.5,0.0,0.0,893,139,0,0,856.04,10.03,29.31,0
15:52:32,0,0,0,0,0,0,0,0,0,0,0,516,0,0,0,0,0.0000000,0.0000000,0.0000000,0.0000000,5.00,38.4062920,-110.7923737,1342.5999756,0.3,213.9,1.5,0.0,0.0,894,138,0,0,856.03,10.00,29.32,0
15:52:33,0,0,0,0,0,0,0,0,0,0,0,515,0,0,0,0,0.0000000,0.0000000,0.0000000,0.0000000,5.00,38.4062920,-110.7923737,1342.5999756,0.3,229.7,1.5,0.0,0.0,894,136,0,0,856.02,9.98,29.33,0
15:52:34,0,0,0,0,0,0,0,0,0,0,0,515,0,0,0,0,0.0000000,0.0000000,0.0000000,0.0000000,5.00,38.4062920,-110.7923737,1342.5999756,0.3,222.6,1.5,0.0,0.0,893,132,0,0,856.08,9.98,29.33,0
15:52:35,0,0,0,0,0,0,0,0,0,0,0,515,0,0,0,0,0.0000000,0.0000000,0.0000000,0.0000000,5.00,38.4062881,-110.7923737,1342.5999756,0.3,227.6,1.5,0.0,0.0,894,137,0,0,856.03,9.98,29.33,0
15:52:36,0,0,0,0,0,0,0,0,0,0,0,515,0,0,0,0,0.0000000,0.0000000,0.0000000,0.0000000,5.00,38.4062881,-110.7923813,1342.5999756,0.4,234.7,1.5,0.0,0.0,893,143,0,0,856.02,9.93,29.33,0
15:52:37,0,0,0,0,0,0,0,0,0,0,0,515,0,0,0,0,0.0000000,0.0000000,0.0000000,0.0000000,5.00,38.4062881,-110.7923813,1342.5999756,0.4,237.1,1.5,0.0,0.0,894,139,0,0,856.01,9.98,29.34,0
15:52:38,0,0,0,0,0,0,0,0,0,0,0,515,0,0,0,0,0.0000000,0.0000000,0.0000000,0.0000000,5.00,38.4062843,-110.7923813,1342.5999756,0.4,231.2,1.5,0.0,0.0,894,138,0,0,856.05,10.00,29.35,0
15:52:39,0,0,0,0,0,0,0,0,0,0,0,515,0,0,0,0,0.0000000,0.0000000,0.0000000,0.0000000,5.00,38.4062843,-110.7923813,1342.5999756,0.5,227.8,1.5,0.0,0.0,893,135,0,0,856.01,9.96,29.35,0
15:52:40,0,0,0,0,0,0,0,0,0,0,0,515,0,0,0,0,0.0000000,0.0000000,0.0000000,0.0000000,5.00,38.4062843,-110.7923813,1342.5999756,0.5,227.3,1.5,0.0,0.0,893,134,0,0,855.99,10.01,29.33,0
15:52:41,0,0,0,0,0,0,0,0,0,0,0,515,0,0,0,0,0.0000000,0.0000000,0.0000000,0.0000000,5.00,38.4062805,-110.7923813,1342.5999756,0.4,222.0,1.5,0.0,0.0,893,139,0,0,855.97,10.04,29.33,0
15:52:42,0,0,0,0,0,0,0,0,0,0,0,515,0,0,0,0,0.0000000,0.0000000,0.0000000,0.0000000,5.00,38.4062767,-110.7923813,1342.6999512,0.4,220.4,1.5,0.0,0.0,893,137,0,0,856.02,10.01,29.33,0
15:52:43,0,0,0,0,0,0,0,0,0,0,0,514,0,0,0,0,0.0000000,0.0000000,0.0000000,0.0000000,5.00,38.4062767,-110.7923813,1342.6999512,0.4,215.6,1.5,0.0,0.0,894,136,0,0,855.98,9.98,29.35,0
15:52:44,0,0,0,0,0,0,0,0,0,0,0,515,0,0,0,0,0.0000000,0.0000000,0.0000000,0.0000000,5.00,38.4062767,-110.7923965,1342.6999512,0.4,211.4,1.5,0.0,0.0,894,138,0,0,856.08,9.96,29.37,0
15:52:45,0,0,0,0,0,0,0,0,0,0,0,515,0,0,0,0,0.0000000,0.0000000,0.0000000,0.0000000,5.00,38.4062767,-110.7923965,1342.6999512,0.5,204.7,1.5,0.0,0.0,894,135,0,0,856.06,10.00,29.39,0
15:52:46,0,0,0,0,0,0,0,0,0,0,0,515,0,0,0,0,0.0000000,0.0000000,0.0000000,0.0000000,5.00,38.4062729,-110.7923965,1342.6999512,0.6,209.3,1.5,0.0,0.0,893,135,0,0,855.96,9.98,29.38,0
15:52:47,0,0,0,0,0,0,0,0,0,0,0,515,0,0,0,0,0.0000000,0.0000000,0.0000000,0.0000000,5.00,38.4062691,-110.7923965,1342.6999512,0.6,205.5,1.5,0.0,0.0,894,135,0,0,856.03,9.98,29.37,0
15:52:48,0,0,0,0,0,0,0,0,0,0,0,515,0,0,0,0,0.0000000,0.0000000,0.0000000,0.0000000,5.00,38.4062614,-110.7923965,1342.6999512,0.6,203.5,1.5,0.0,0.0,894,141,0,0,856.02,10.01,29.37,0
15:52:49,0,0,0,0,0,0,0,0,0,0,0,514,0,0,0,0,0.0000000,0.0000000,0.0000000,0.0000000,5.00,38.4062576,-110.7923965,1342.8000488,0.5,203.5,1.5,0.0,0.0,893,138,0,0,856.00,10.06,29.40,0
15:52:50,0,0,0,0,0,0,0,0,0,0,0,515,0,0,0,0,0.0000000,0.0000000,0.0000000,0.0000000,5.00,38.4062500,-110.7924118,1342.9000244,0.5,203.7,1.5,0.0,0.0,893,140,0,0,856.03,10.04,29.41,0
15:52:51,0,0,0,0,0,0,0,0,0,0,0,515,0,0,0,0,0.0000000,0.0000000,0.0000000,0.0000000,5.00,38.4062424,-110.7924118,1342.9000244,0.5,202.8,1.5,0.0,0.0,894,142,0,0,856.01,10.06,29.43,0
15:52:52,0,0,0,0,0,0,0,0,0,0,0,515,0,0,0,0,0.0000000,0.0000000,0.0000000,0.0000000,5.00,38.4062386,-110.7924118,1342.9000244,0.6,198.8,1.5,0.0,0.0,893,146,0,0,856.03,10.07,29.44,0
15:52:53,0,0,0,0,0,0,0,0,0,0,0,515,0,0,0,0,0.0000000,0.0000000,0.0000000,0.0000000,5.00,38.4062386,-110.7924118,1342.9000244,0.6,202.6,1.5,0.0,0.0,893,146,0,0,855.99,10.03,29.46,0
15:52:54,0,0,0,0,0,0,0,0,0,0,0,514,0,0,0,0,0.0000000,0.0000000,0.0000000,0.0000000,5.00,38.4062347,-110.7924118,1342.9000244,0.6,201.6,1.5,0.0,0.0,894,145,0,0,856.02,10.22,29.47,0
15:52:55,0,0,0,0,0,0,0,0,0,0,0,514,0,0,0,0,0.0000000,0.0000000,0.0000000,0.0000000,5.00,38.4062309,-110.7924118,1342.9000244,0.6,198.8,1.5,0.0,0.0,894,146,0,0,856.02,10.22,29.48,0
15:52:56,0,0,0,0,0,0,0,0,0,0,0,514,0,0,0,0,0.0000000,0.0000000,0.0000000,0.0000000,5.00,38.4062309,-110.7924118,1343.0000000,0.3,215.9,1.5,0.0,0.0,893,145,0,0,856.00,10.32,29.49,0
15:52:57,0,0,0,0,0,0,0,0,0,0,0,515,0,0,0,0,0.0000000,0.0000000,0.0000000,0.0000000,5.00,38.4062233,-110.7924194,1343.0000000,0.4,215.5,1.5,0.0,0.0,893,143,0,0,856.03,10.96,29.50,0
15:52:58,0,0,0,0,0,0,0,0,0,0,0,514,0,0,0,0,0.0000000,0.0000000,0.0000000,0.0000000,5.00,38.4062195,-110.7924194,1343.0000000,0.4,224.7,1.5,0.0,0.0,893,140,0,0,856.05,10.73,29.50,0
15:52:59,0,0,0,0,0,0,0,0,0,0,0,515,0,0,0,0,0.0000000,0.0000000,0.0000000,0.0000000,5.00,38.4062195,-110.7924194,1343.0000000,0.4,224.8,1.5,0.0,0.0,894,140,0,0,856.07,10.53,29.52,0
15:53:00,0,0,0,0,0,0,0,0,0,0,0,514,0,0,0,0,0.0000000,0.0000000,0.0000000,0.0000000,5.00,38.4062195,-110.7924194,1343.0000000,0.4,231.0,1.5,0.0,0.0,893,149,0,0,856.02,10.41,29.53,0
15:53:01,0,0,0,0,0,0,0,0,0,0,0,515,0,0,0,0,0.0000000,0.0000000,0.0000000,0.0000000,5.00,38.4062195,-110.7924194,1343.0000000,0.4,231.8,1.5,0.0,0.0,894,148,0,0,856.03,10.30,29.54,0
15:53:02,0,0,0,0,0,0,0,0,0,0,0,515,0,0,0,0,0.0000000,0.0000000,0.0000000,0.0000000,5.00,38.4062157,-110.7924347,1343.0000000,0.5,216.0,1.5,0.0,0.0,894,151,0,0,856.00,10.24,29.55,0
15:53:03,0,0,0,0,0,0,0,0,0,0,0,515,0,0,0,0,0.0000000,0.0000000,0.0000000,0.0000000,5.00,38.4062157,-110.7924347,1343.0000000,0.4,213.0,1.5,0.0,0.0,894,153,0,0,856.04,10.19,29.56,0
15:53:04,0,0,0,0,0,0,0,0,0,0,0,515,0,0,0,0,0.0000000,0.0000000,0.0000000,0.0000000,5.00,38.4062119,-110.7924347,1343.0000000,0.4,220.5,1.5,0.0,0.0,893,154,0,0,856.00,10.30,29.57,0
15:53:05,0,0,0,0,0,0,0,0,0,0,0,515,0,0,0,0,0.0000000,0.0000000,0.0000000,0.0000000,5.00,38.4062119,-110.7924347,1343.0000000,0.4,222.3,1.5,0.0,0.0,893,156,0,0,855.98,10.41,29.57,0
15:53:06,0,0,0,0,0,0,0,0,0,0,0,515,0,0,0,0,0.0000000,0.0000000,0.0000000,0.0000000,5.00,38.4062080,-110.7924347,1343.0000000,0.3,216.9,1.5,0.0,0.0,894,145,0,0,855.97,10.36,29.57,0
15:53:07,0,0,0,0,0,0,0,0,0,0,0,515,0,0,0,0,0.0000000,0.0000000,0.0000000,0.0000000,5.00,38.4062080,-110.7924347,1343.0000000,0.3,233.2,1.5,0.0,0.0,893,147,0,0,855.97,10.21,29.57,0
15:53:08,0,0,0,0,0,0,0,0,0,0,0,515,0,0,0,0,0.0000000,0.0000000,0.0000000,0.0000000,5.00,38.4062080,-110.7924347,1343.0000000,0.2,240.5,1.5,0.0,0.0,893,143,0,0,856.03,10.13,29.56,0
15:53:09,0,0,0,0,0,0,0,0,0,0,0,515,0,0,0,0,0.0000000,0.0000000,0.0000000,0.0000000,5.00,38.4062080,-110.7924347,1343.0000000,0.2,250.7,1.5,0.0,0.0,893,141,0,0,856.02,10.07,29.57,0
15:53:10,0,0,0,0,0,0,0,0,0,0,0,515,0,0,0,0,0.0000000,0.0000000,0.0000000,0.0000000,5.00,38.4062080,-110.7924347,1343.0000000,0.3,263.8,1.5,0.0,0.0,893,142,0,0,855.96,10.03,29.56,0
15:53:11,0,0,0,0,0,0,0,0,0,0,0,515,0,0,0,0,0.0000000,0.0000000,0.0000000,0.0000000,5.00,38.4062080,-110.7924347,1343.0000000,0.3,255.4,1.5,0.0,0.0,893,148,0,0,855.98,10.03,29.55,0
15:53:12,0,0,0,0,0,0,0,0,0,0,0,515,0,0,0,0,0.0000000,0.0000000,0.0000000,0.0000000,5.00,38.4062042,-110.7924500,1343.0000000,0.3,249.4,1.5,0.0,0.0,894,141,0,0,856.01,9.98,29.56,0
15:53:13,0,0,0,0,0,0,0,0,0,0,0,515,0,0,0,0,0.0000000,0.0000000,0.0000000,0.0000000,5.00,38.4062042,-110.7924500,1343.0000000,0.3,244.9,1.5,0.0,0.0,893,138,0,0,856.04,10.00,29.57,0
15:53:14,0,0,0,0,0,0,0,0,0,0,0,515,0,0,0,0,0.0000000,0.0000000,0.0000000,0.0000000,5.00,38.4062042,-110.7924500,1343.0000000,0.3,245.7,1.5,0.0,0.0,894,136,0,0,855.94,10.00,29.57,0
15:53:15,0,0,0,0,0,0,0,0,0,0,0,515,0,0,0,0,0.0000000,0.0000000,0.0000000,0.0000000,5.00,38.4062042,-110.7924500,1343.0000000,0.3,241.7,1.5,0.0,0.0,893,138,0,0,856.04,9.95,29.56,0
15:53:16,0,0,0,0,0,0,0,0,0,0,0,515,0,0,0,0,0.0000000,0.0000000,0.0000000,0.0000000,5.00,38.4062042,-110.7924500,1343.0000000,0.3,242.7,1.5,0.0,0.0,893,138,0,0,855.99,9.93,29.58,0
15:53:17,0,0,0,0,0,0,0,0,0,0,0,515,0,0,0,0,0.0000000,0.0000000,0.0000000,0.0000000,5.00,38.4062004,-110.7924500,1343.0000000,0.3,242.9,1.5,0.0,0.0,893,135,0,0,855.96,9.95,29.59,0
15:53:18,0,0,0,0,0,0,0,0,0,0,0,514,0,0,0,0,0.0000000,0.0000000,0.0000000,0.0000000,5.00,38.4062004,-110.7924500,1343.0999756,0.3,234.1,1.5,0.0,0.0,893,136,0,0,856.01,9.98,29.60,0
15:53:19,0,0,0,0,0,0,0,0,0,0,0,515,0,0,0,0,0.0000000,0.0000000,0.0000000,0.0000000,5.00,38.4062004,-110.7924576,1343.0999756,0.3,242.6,1.5,0.0,0.0,893,141,0,0,856.03,9.96,29.60,0
15:53:20,0,0,0,0,0,0,0,0,0,0,0,515,0,0,0,0,0.0000000,0.0000000,0.0000000,0.0000000,5.00,38.4062004,-110.7924576,1343.0999756,0.3,245.1,1.5,0.0,0.0,893,147,0,0,855.98,9.93,29.59,0
15:53:21,0,0,0,0,0,0,0,0,0,0,0,514,0,0,0,0,0.0000000,0.0000000,0.0000000,0.0000000,5.00,38.4062004,-110.7924576,1343.0999756,0.2,211.8,1.5,0.0,0.0,893,145,0,0,855.98,9.95,29.59,0
15:53:22,0,0,0,0,0,0,0,0,0,0,0,515,0,0,0,0,0.0000000,0.0000000,0.0000000,0.0000000,5.00,38.4061966,-110.7924576,1343.0999756,0.3,194.9,1.5,0.0,0.0,893,142,0,0,855.99,9.98,29.59,0
15:53:23,0,0,0,0,0,0,0,0,0,0,0,515,0,0,0,0,0.0000000,0.0000000,0.0000000,0.0000000,5.00,38.4061966,-110.7924576,1343.0999756,0.2,190.1,1.5,0.0,0.0,893,139,0,0,855.97,10.13,29.60,0
15:53:24,0,0,0,0,0,0,0,0,0,0,0,515,0,0,0,0,0.0000000,0.0000000,0.0000000,0.0000000,5.00,38.4061966,-110.7924576,1343.0999756,0.3,171.2,1.5,0.0,0.0,894,141,0,0,856.01,10.32,29.61,0
15:53:25,0,0,0,0,0,0,0,0,0,0,0,515,0,0,0,0,0.0000000,0.0000000,0.0000000,0.0000000,5.00,38.4061966,-110.7924576,1343.0999756,0.2,149.1,1.5,0.0,0.0,893,139,0,0,856.00,10.22,29.62,0
15:53:26,0,0,0,0,0,0,0,0,0,0,0,515,0,0,0,0,0.0000000,0.0000000,0.0000000,0.0000000,5.00,38.4061966,-110.7924576,1343.0999756,0.1,148.6,1.5,0.0,0.0,893,138,0,0,855.98,10.16,29.63,0
15:53:27,0,0,0,0,0,0,0,0,0,0,0,515,0,0,0,0,0.0000000,0.0000000,0.0000000,0.0000000,5.00,38.4061928,-110.7924576,1343.0999756,0.1,145.0,1.5,0.0,0.0,894,136,0,0,855.89,10.07,29.64,0
15:53:28,0,0,0,0,0,0,0,0,0,0,0,514,0,0,0,0,0.0000000,0.0000000,0.0000000,0.0000000,5.00,38.4061928,-110.7924576,1343.0999756,0.0,34.0,1.5,0.0,0.0,893,142,0,0,855.97,10.04,29.64,0
15:53:29,0,0,0,0,0,0,0,0,0,0,0,515,0,0,0,0,0.0000000,0.0000000,0.0000000,0.0000000,5.00,38.4061928,-110.7924576,1343.0999756,0.1,315.0,1.5,0.0,0.0,893,138,0,0,855.96,10.03,29.66,0
15:53:30,0,0,0,0,0,0,0,0,0,0,0,514,0,0,0,0,0.0000000,0.0000000,0.0000000,0.0000000,5.00,38.4061928,-110.7924576,1343.0999756,0.2,289.4,1.5,0.0,0.0,893,138,0,0,855.99,10.01,29.67,0
15:53:31,0,0,0,0,0,0,0,0,0,0,0,515,0,0,0,0,0.0000000,0.0000000,0.0000000,0.0000000,5.00,38.4061966,-110.7924576,1343.0999756,0.3,302.6,1.5,0.0,0.0,893,132,0,0,855.93,10.01,29.66,0
15:53:32,0,0,0,0,0,0,0,0,0,0,0,515,0,0,0,0,0.0000000,0.0000000,0.0000000,0.0000000,5.00,38.4061966,-110.7924576,1343.0999756,0.4,309.4,1.5,0.0,0.0,893,135,0,0,855.98,10.03,29.64,0
15:53:33,0,0,0,0,0,0,0,0,0,0,0,515,0,0,0,0,0.0000000,0.0000000,0.0000000,0.0000000,5.00,38.4061966,-110.7924576,1343.0999756,0.3,299.0,1.5,0.0,0.0,893,141,0,0,855.97,10.03,29.66,0
15:53:34,0,0,0,0,0,0,0,0,0,0,0,515,0,0,0,0,0.0000000,0.0000000,0.0000000,0.0000000,5.00,38.4061966,-110.7924576,1343.0999756,0.3,293.5,1.5,0.0,0.0,893,150,0,0,855.98,10.03,29.67,0
15:53:35,0,0,0,0,0,0,0,0,0,0,0,515,0,0,0,0,0.0000000,0.0000000,0.0000000,0.0000000,5.00,38.4061966,-110.7924576,1343.0999756,0.3,302.1,1.5,0.0,0.0,894,148,0,0,855.93,10.09,29.68,0
15:53:36,0,0,0,0,0,0,0,0,0,0,0,514,0,0,0,0,0.0000000,0.0000000,0.0000000,0.0000000,5.00,38.4061966,-110.7924728,1343.0999756,0.3,290.4,1.5,0.0,0.0,893,145,0,0,855.93,10.15,29.70,0
15:53:37,0,0,0,0,0,0,0,0,0,0,0,514,0,0,0,0,0.0000000,0.0000000,0.0000000,0.0000000,5.00,38.4061966,-110.7924728,1343.0999756,0.3,290.0,1.5,0.0,0.0,893,144,0,0,855.93,10.39,29.71,0
15:53:38,0,0,0,0,0,0,0,0,0,0,0,514,0,0,0,0,0.0000000,0.0000000,0.0000000,0.0000000,5.00,38.4062004,-110.7924728,1343.0999756,0.3,292.6,1.5,0.0,0.0,893,138,0,0,855.96,10.76,29.71,0
15:53:39,0,0,0,0,0,0,0,0,0,0,0,515,0,0,0,0,0.0000000,0.0000000,0.0000000,0.0000000,5.00,38.4062004,-110.7924728,1343.0999756,0.2,323.3,1.5,0.0,0.0,894,140,0,0,855.91,11.03,29.72,0
15:53:40,0,0,0,0,0,0,0,0,0,0,0,515,0,0,0,0,0.0000000,0.0000000,0.0000000,0.0000000,5.00,38.4062004,-110.7924728,1343.0999756,0.2,41.7,1.5,0.0,0.0,894,136,0,0,855.89,10.80,29.73,0
15:53:41,0,0,0,0,0,0,0,0,0,0,0,514,0,0,0,0,0.0000000,0.0000000,0.0000000,0.0000000,5.00,38.4062004,-110.7924728,1343.0999756,0.3,61.9,1.5,0.0,0.0,893,142,0,0,855.93,10.48,29.74,0
15:53:42,0,0,0,0,0,0,0,0,0,0,0,515,0,0,0,0,0.0000000,0.0000000,0.0000000,0.0000000,5.00,38.4062004,-110.7924728,1343.0999756,0.5,58.4,1.5,0.0,0.0,893,137,0,0,855.91,10.25,29.73,0
15:53:43,0,0,0,0,0,0,0,0,0,0,0,515,0,0,0,0,0.0000000,0.0000000,0.0000000,0.0000000,5.00,38.4062042,-110.7924576,1343.0999756,0.7,57.7,1.5,0.0,0.0,893,139,0,0,855.93,10.15,29.73,0
15:53:44,0,0,0,0,0,0,0,0,0,0,0,515,0,0,0,0,0.0000000,0.0000000,0.0000000,0.0000000,5.00,38.4062157,-110.7924347,1343.3000488,1.0,52.5,1.5,0.0,0.0,893,140,0,0,855.95,10.04,29.73,0
15:53:45,0,0,0,0,0,0,0,0,0,0,0,515,0,0,0,0,0.0000000,0.0000000,0.0000000,0.0000000,5.00,38.4062233,-110.7923965,1343.5000000,1.2,51.6,1.5,0.0,0.0,894,139,0,0,855.95,10.00,29.74,0
15:53:46,0,0,0,0,0,0,0,0,0,0,0,514,0,0,0,0,0.0000000,0.0000000,0.0000000,0.0000000,5.00,38.4062347,-110.7923737,1343.8000488,1.4,52.9,1.5,0.0,0.0,893,138,0,0,856.01,9.95,29.75,0
15:53:47,0,0,0,0,0,0,0,0,0,0,0,515,0,0,0,0,0.0000000,0.0000000,0.0000000,0.0000000,5.00,38.4062462,-110.7923355,1344.0999756,1.5,54.8,1.5,0.0,0.0,893,140,0,0,855.99,9.92,29.75,0
15:53:48,0,0,0,0,0,0,0,0,0,0,0,514,0,0,0,0,0.0000000,0.0000000,0.0000000,0.0000000,5.00,38.4062538,-110.7923050,1344.3000488,1.5,55.1,1.5,0.0,0.0,893,140,0,0,855.98,9.92,29.77,0
15:53:49,0,0,0,0,0,0,0,0,0,0,0,515,0,0,0,0,0.0000000,0.0000000,0.0000000,0.0000000,5.00,38.4062614,-110.7922974,1344.4000244,1.5,53.4,1.5,0.0,0.0,893,137,0,0,855.95,9.95,29.78,0
