Time, Motor A Speed, Motor A Dir, Motor B Speed, Motor B Dir, Servo Rail Current Sensor, Servo Pos - Arm L, Servo Pos - Arm R, Servo Pos - End, Servo Pos - Hopper, Servo Pos - Lid, Servo Pos - Extra, Servo Current, LED - Front L, LED - Front R, LED - Back L, LED - Back R, IMU Pitch, IMU Roll, IMU Yaw, Compass Heading, GPS Sats, GPS Latitude, GPS Longitude, GPS Altitude, GPS Speed, GPS Angle, GPS HDOP, GPS VDOP, GPS PDOP, Battery, Wind, Comm Xbee Latency, Comm Arduino Latency, Pressure, Humidity, Temperature, uRADMonitor
15:33:17,0,0,0,0,0,0,0,0,0,0,0,515,0,0,0,0,0.0000000,0.0000000,0.0000000,0.0000000,3.00,0.0000000,0.0000000,0.0000000,0.1,338.0,0.0,0.0,0.0,894,135,0,0,856.32,11.23,27.51,0
15:33:18,0,0,0,0,0,0,0,0,0,0,0,515,0,0,0,0,0.0000000,0.0000000,0.0000000,0.0000000,3.00,0.0000000,0.0000000,0.0000000,0.1,342.2,0.0,0.0,0.0,894,139,0,0,856.33,11.25,27.53,0
15:33:19,0,0,0,0,0,0,0,0,0,0,0,515,0,0,0,0,0.0000000,0.0000000,0.0000000,0.0000000,3.00,0.0000000,0.0000000,0.0000000,0.3,332.0,0.0,0.0,0.0,894,137,0,0,856.32,11.25,27.53,0
15:33:20,0,0,0,0,0,0,0,0,0,0,0,515,0,0,0,0,0.0000000,0.0000000,0.0000000,0.0000000,3.00,0.0000000,0.0000000,0.0000000,0.1,329.4,0.0,0.0,0.0,894,138,0,0,856.30,11.23,27.55,0
15:33:21,0,0,0,0,0,0,0,0,0,0,0,514,0,0,0,0,0.0000000,0.0000000,0.0000000,0.0000000,3.00,0.0000000,0.0000000,0.0000000,0.1,356.7,0.0,0.0,0.0,894,139,0,0,856.35,11.22,27.47,0
15:33:22,0,0,0,0,0,0,0,0,0,0,0,515,0,0,0,0,0.0000000,0.0000000,0.0000000,0.0000000,3.00,0.0000000,0.0000000,0.0000000,0.3,339.9,0.0,0.0,0.0,894,135,0,0,856.35,11.20,27.57,0
15:33:23,0,0,0,0,0,0,0,0,0,0,0,515,0,0,0,0,0.0000000,0.0000000,0.0000000,0.0000000,4.00,0.0000000,0.0000000,0.0000000,0.5,258.0,0.0,0.0,0.0,894,135,0,0,856.38,11.23,27.59,0
15:33:24,0,0,0,0,0,0,0,0,0,0,0,515,0,0,0,0,0.0000000,0.0000000,0.0000000,0.0000000,4.00,0.0000000,0.0000000,0.0000000,0.5,258.0,0.0,0.0,0.0,894,135,0,0,856.38,11.23,27.59,0
15:33:25,0,0,0,0,0,0,0,0,0,0,0,514,0,0,0,0,0.0000000,0.0000000,0.0000000,0.0000000,4.00,0.0000000,0.0000000,0.0000000,0.5,234.0,0.0,0.0,0.0,894,137,0,0,856.30,11.19,27.58,0
15:33:26,0,0,0,0,0,0,0,0,0,0,0,515,0,0,0,0,0.0000000,0.0000000,0.0000000,0.0000000,4.00,38.4062271,-110.7922440,1289.5999756,0.4,255.1,3.2,0.0,0.0,894,134,0,0,856.28,11.23,27.58,0
15:33:27,0,0,0,0,0,0,0,0,0,0,0,515,0,0,0,0,0.0000000,0.0000000,0.0000000,0.0000000,4.00,38.4062347,-110.7922440,1292.5000000,0.4,264.2,3.2,0.0,0.0,894,135,0,0,856.33,11.22,27.59,0
15:33:28,0,0,0,0,0,0,0,0,0,0,0,515,0,0,0,0,0.0000000,0.0000000,0.0000000,0.0000000,4.00,38.4062386,-110.7922440,1298.4000244,0.4,256.8,3.2,0.0,0.0,894,132,0,0,856.35,11.23,27.59,0
15:33:29,0,0,0,0,0,0,0,0,0,0,0,515,0,0,0,0,0.0000000,0.0000000,0.0000000,0.0000000,4.00,38.4062500,-110.7922287,1303.5999756,0.4,264.0,3.2,0.0,0.0,894,136,0,0,856.31,11.28,27.58,0
15:33:30,0,0,0,0,0,0,0,0,0,0,0,515,0,0,0,0,0.0000000,0.0000000,0.0000000,0.0000000,4.00,38.4062500,-110.7922287,1304.8000488,0.4,289.8,3.2,0.0,0.0,894,145,0,0,856.30,11.22,27.57,0
15:33:31,0,0,0,0,0,0,0,0,0,0,0,515,0,0,0,0,0.0000000,0.0000000,0.0000000,0.0000000,4.00,38.4062538,-110.7922287,1303.4000244,0.4,288.3,3.2,0.0,0.0,894,145,0,0,856.33,11.22,27.57,0
15:33:32,0,0,0,0,0,0,0,0,0,0,0,514,0,0,0,0,0.0000000,0.0000000,0.0000000,0.0000000,4.00,38.4062538,-110.7922211,1303.3000488,0.3,255.4,3.2,0.0,0.0,894,152,0,0,856.34,11.20,27.58,0
15:33:33,0,0,0,0,0,0,0,0,0,0,0,515,0,0,0,0,0.0000000,0.0000000,0.0000000,0.0000000,4.00,38.4062538,-110.7922211,1301.9000244,0.3,228.0,3.2,0.0,0.0,894,148,0,0,856.34,11.17,27.56,0
15:33:34,0,0,0,0,0,0,0,0,0,0,0,515,0,0,0,0,0.0000000,0.0000000,0.0000000,0.0000000,4.00,38.4062462,-110.7922287,1299.0000000,0.3,250.4,3.2,0.0,0.0,894,153,0,0,856.32,11.17,27.58,0
15:33:35,0,0,0,0,0,0,0,0,0,0,0,515,0,0,0,0,0.0000000,0.0000000,0.0000000,0.0000000,4.00,38.4062386,-110.7922440,1296.6999512,0.3,237.4,3.2,0.0,0.0,894,147,0,0,856.34,11.19,27.60,0
15:33:36,0,0,0,0,0,0,0,0,0,0,0,515,0,0,0,0,0.0000000,0.0000000,0.0000000,0.0000000,4.00,38.4062309,-110.7922668,1293.5999756,0.3,236.3,3.2,0.0,0.0,894,144,0,0,856.37,11.20,27.62,0
15:33:37,0,0,0,0,0,0,0,0,0,0,0,515,0,0,0,0,0.0000000,0.0000000,0.0000000,0.0000000,4.00,38.4062233,-110.7922821,1290.3000488,0.3,248.7,3.2,0.0,0.0,894,144,0,0,856.40,11.22,27.63,0
15:33:38,0,0,0,0,0,0,0,0,0,0,0,515,0,0,0,0,0.0000000,0.0000000,0.0000000,0.0000000,4.00,38.4062195,-110.7922821,1286.5999756,0.3,256.5,3.2,0.0,0.0,894,141,0,0,856.35,11.23,27.63,0
15:33:39,0,0,0,0,0,0,0,0,0,0,0,514,0,0,0,0,0.0000000,0.0000000,0.0000000,0.0000000,4.00,38.4062271,-110.7922668,1286.1999512,0.1,267.7,3.2,0.0,0.0,894,144,0,0,856.35,11.20,27.64,0
15:33:40,0,0,0,0,0,0,0,0,0,0,0,514,0,0,0,0,0.0000000,0.0000000,0.0000000,0.0000000,4.00,38.4062195,-110.7922668,1283.0999756,0.2,188.4,3.2,0.0,0.0,894,146,0,0,856.35,11.14,27.62,0
15:33:41,0,0,0,0,0,0,0,0,0,0,0,515,0,0,0,0,0.0000000,0.0000000,0.0000000,0.0000000,4.00,38.4062157,-110.7922668,1280.6999512,0.3,172.1,3.2,0.0,0.0,893,142,0,0,856.40,11.14,27.60,0
15:33:42,0,0,0,0,0,0,0,0,0,0,0,515,0,0,0,0,0.0000000,0.0000000,0.0000000,0.0000000,4.00,38.4062195,-110.7922668,1279.8000488,0.1,185.8,3.2,0.0,0.0,894,142,0,0,856.37,11.11,27.61,0
15:33:43,0,0,0,0,0,0,0,0,0,0,0,515,0,0,0,0,0.0000000,0.0000000,0.0000000,0.0000000,4.00,38.4062195,-110.7922668,1279.5999756,0.0,194.4,3.2,0.0,0.0,895,140,0,0,856.38,11.12,27.59,0
15:33:44,0,0,0,0,0,0,0,0,0,0,0,514,0,0,0,0,0.0000000,0.0000000,0.0000000,0.0000000,4.00,38.4062157,-110.7922668,1279.3000488,0.1,198.7,3.2,0.0,0.0,894,143,0,0,856.37,11.09,27.60,0
15:33:45,0,0,0,0,0,0,0,0,0,0,0,514,0,0,0,0,0.0000000,0.0000000,0.0000000,0.0000000,4.00,38.4062119,-110.7922668,1279.0999756,0.1,197.8,3.2,0.0,0.0,894,146,0,0,856.35,11.09,27.59,0
15:33:46,0,0,0,0,0,0,0,0,0,0,0,515,0,0,0,0,0.0000000,0.0000000,0.0000000,0.0000000,4.00,38.4062080,-110.7922668,1278.5000000,0.2,199.7,3.2,0.0,0.0,894,149,0,0,856.37,11.12,27.55,0
15:33:48,0,0,0,0,0,0,0,0,0,0,0,515,0,0,0,0,0.0000000,0.0000000,0.0000000,0.0000000,4.00,38.4062004,-110.7922668,1278.0000000,0.2,208.4,3.2,0.0,0.0,895,150,0,0,856.36,11.17,27.54,0
15:33:49,0,0,0,0,0,0,0,0,0,0,0,514,0,0,0,0,0.0000000,0.0000000,0.0000000,0.0000000,4.00,38.4061966,-110.7922821,1277.3000488,0.3,215.1,3.2,0.0,0.0,894,151,0,0,856.34,11.15,27.53,0
15:33:50,0,0,0,0,0,0,0,0,0,0,0,515,0,0,0,0,0.0000000,0.0000000,0.0000000,0.0000000,4.00,38.4061928,-110.7922821,1277.4000244,0.3,226.5,3.2,0.0,0.0,893,151,0,0,856.38,11.17,27.52,0
15:33:51,0,0,0,0,0,0,0,0,0,0,0,514,0,0,0,0,0.0000000,0.0000000,0.0000000,0.0000000,4.00,38.4061928,-110.7922974,1277.8000488,0.4,225.0,3.2,0.0,0.0,894,151,0,0,856.34,11.20,27.52,0
15:33:52,0,0,0,0,0,0,0,0,0,0,0,515,0,0,0,0,0.0000000,0.0000000,0.0000000,0.0000000,4.00,38.4061928,-110.7922974,1278.5999756,0.4,245.9,3.2,0.0,0.0,894,149,0,0,856.37,11.17,27.51,0
15:33:53,0,0,0,0,0,0,0,0,0,0,0,513,0,0,0,0,0.0000000,0.0000000,0.0000000,0.0000000,4.00,38.4061928,-110.7923050,1278.6999512,0.5,244.6,3.2,0.0,0.0,894,147,0,0,856.42,11.17,27.51,0
15:33:54,0,0,0,0,0,0,0,0,0,0,0,515,0,0,0,0,0.0000000,0.0000000,0.0000000,0.0000000,4.00,38.4061928,-110.7923203,1278.5000000,0.5,255.2,3.2,0.0,0.0,894,148,0,0,856.41,11.15,27.50,0
15:33:55,0,0,0,0,0,0,0,0,0,0,0,515,0,0,0,0,0.0000000,0.0000000,0.0000000,0.0000000,4.00,38.4061890,-110.7923203,1278.0000000,0.5,255.6,3.2,0.0,0.0,894,144,0,0,856.38,11.17,27.52,0
15:33:56,0,0,0,0,0,0,0,0,0,0,0,515,0,0,0,0,0.0000000,0.0000000,0.0000000,0.0000000,4.00,38.4061890,-110.7923355,1278.0000000,0.6,256.8,3.2,0.0,0.0,894,143,0,0,856.39,11.15,27.54,0
15:33:57,0,0,0,0,0,0,0,0,0,0,0,515,0,0,0,0,0.0000000,0.0000000,0.0000000,0.0000000,4.00,38.4061852,-110.7923431,1277.0999756,0.6,260.1,3.2,0.0,0.0,894,139,0,0,856.39,11.14,27.55,0
15:33:58,0,0,0,0,0,0,0,0,0,0,0,515,0,0,0,0,0.0000000,0.0000000,0.0000000,0.0000000,4.00,38.4061813,-110.7923584,1277.0000000,0.6,258.0,3.2,0.0,0.0,894,139,0,0,856.35,11.15,27.54,0
15:33:59,0,0,0,0,0,0,0,0,0,0,0,514,0,0,0,0,0.0000000,0.0000000,0.0000000,0.0000000,4.00,38.4061775,-110.7923737,1276.3000488,0.8,253.8,3.2,0.0,0.0,894,140,0,0,856.34,11.15,27.53,0
15:34:00,0,0,0,0,0,0,0,0,0,0,0,514,0,0,0,0,0.0000000,0.0000000,0.0000000,0.0000000,4.00,38.4061775,-110.7923813,1276.3000488,0.8,251.8,3.2,0.0,0.0,894,137,0,0,856.38,11.17,27.52,0
15:34:01,0,0,0,0,0,0,0,0,0,0,0,515,0,0,0,0,0.0000000,0.0000000,0.0000000,0.0000000,4.00,38.4061813,-110.7923813,1277.5000000,0.8,257.8,3.2,0.0,0.0,894,138,0,0,856.35,11.19,27.51,0
15:34:02,0,0,0,0,0,0,0,0,0,0,0,515,0,0,0,0,0.0000000,0.0000000,0.0000000,0.0000000,4.00,38.4061852,-110.7923813,1278.8000488,0.8,262.6,3.2,0.0,0.0,894,135,0,0,856.39,11.17,27.50,0
15:34:03,0,0,0,0,0,0,0,0,0,0,0,514,0,0,0,0,0.0000000,0.0000000,0.0000000,0.0000000,4.00,38.4061852,-110.7923813,1280.3000488,0.8,258.5,3.2,0.0,0.0,893,140,0,0,856.37,11.22,27.49,0
15:34:04,0,0,0,0,0,0,0,0,0,0,0,515,0,0,0,0,0.0000000,0.0000000,0.0000000,0.0000000,4.00,38.4061852,-110.7923813,1281.1999512,0.8,258.6,3.2,0.0,0.0,894,135,0,0,856.37,11.19,27.50,0
15:34:05,0,0,0,0,0,0,0,0,0,0,0,515,0,0,0,0,0.0000000,0.0000000,0.0000000,0.0000000,4.00,38.4061852,-110.7923965,1282.1999512,0.9,255.0,3.2,0.0,0.0,894,137,0,0,856.37,11.22,27.48,0
15:34:06,0,0,0,0,0,0,0,0,0,0,0,515,0,0,0,0,0.0000000,0.0000000,0.0000000,0.0000000,4.00,38.4061852,-110.7923965,1283.6999512,0.9,256.2,3.2,0.0,0.0,894,138,0,0,856.41,11.23,27.46,0
15:34:07,0,0,0,0,0,0,0,0,0,0,0,514,0,0,0,0,0.0000000,0.0000000,0.0000000,0.0000000,4.00,38.4061928,-110.7924118,1285.3000488,0.9,260.2,3.2,0.0,0.0,894,141,0,0,856.34,11.22,27.45,0
15:34:08,0,0,0,0,0,0,0,0,0,0,0,515,0,0,0,0,0.0000000,0.0000000,0.0000000,0.0000000,4.00,38.4061890,-110.7924194,1287.1999512,1.0,252.1,3.2,0.0,0.0,894,145,0,0,856.34,11.22,27.44,0
15:34:09,0,0,0,0,0,0,0,0,0,0,0,515,0,0,0,0,0.0000000,0.0000000,0.0000000,0.0000000,4.00,38.4061890,-110.7924194,1288.1999512,1.0,253.3,3.2,0.0,0.0,894,143,0,0,856.32,11.25,27.44,0
15:34:10,0,0,0,0,0,0,0,0,0,0,0,514,0,0,0,0,0.0000000,0.0000000,0.0000000,0.0000000,4.00,38.4061890,-110.7924347,1289.5000000,1.0,251.6,3.2,0.0,0.0,894,142,0,0,856.34,11.23,27.44,0
15:34:11,0,0,0,0,0,0,0,0,0,0,0,515,0,0,0,0,0.0000000,0.0000000,0.0000000,0.0000000,4.00,38.4061890,-110.7924347,1290.4000244,1.0,248.8,3.2,0.0,0.0,894,146,0,0,856.33,11.22,27.45,0
15:34:12,0,0,0,0,0,0,0,0,0,0,0,515,0,0,0,0,0.0000000,0.0000000,0.0000000,0.0000000,4.00,38.4061890,-110.7924500,1291.9000244,1.0,255.1,3.2,0.0,0.0,894,148,0,0,856.33,11.23,27.46,0
15:34:13,0,0,0,0,0,0,0,0,0,0,0,515,0,0,0,0,0.0000000,0.0000000,0.0000000,0.0000000,4.00,38.4061890,-110.7924576,1292.9000244,1.0,258.8,3.2,0.0,0.0,894,143,0,0,856.32,11.23,27.46,0
15:34:14,0,0,0,0,0,0,0,0,0,0,0,515,0,0,0,0,0.0000000,0.0000000,0.0000000,0.0000000,4.00,38.4061852,-110.7924728,1293.8000488,1.1,258.7,3.2,0.0,0.0,894,146,0,0,856.35,11.25,27.43,0
15:34:15,0,0,0,0,0,0,0,0,0,0,0,514,0,0,0,0,0.0000000,0.0000000,0.0000000,0.0000000,4.00,38.4061813,-110.7924881,1294.8000488,1.2,257.4,3.2,0.0,0.0,894,147,0,0,856.34,11.28,27.39,0
15:34:16,0,0,0,0,0,0,0,0,0,0,0,514,0,0,0,0,0.0000000,0.0000000,0.0000000,0.0000000,4.00,38.4061775,-110.7924957,1295.5999756,1.2,256.0,3.2,0.0,0.0,895,150,0,0,856.37,11.25,27.36,0
15:34:17,0,0,0,0,0,0,0,0,0,0,0,515,0,0,0,0,0.0000000,0.0000000,0.0000000,0.0000000,4.00,38.4061775,-110.7925110,1296.5000000,1.2,257.2,3.2,0.0,0.0,894,156,0,0,856.34,11.23,27.35,0
15:34:18,0,0,0,0,0,0,0,0,0,0,0,515,0,0,0,0,0.0000000,0.0000000,0.0000000,0.0000000,4.00,38.4061737,-110.7925339,1297.3000488,1.3,257.5,3.2,0.0,0.0,893,149,0,0,856.35,11.25,27.37,0
15:34:19,0,0,0,0,0,0,0,0,0,0,0,514,0,0,0,0,0.0000000,0.0000000,0.0000000,0.0000000,4.00,38.4061699,-110.7925491,1297.9000244,1.4,256.6,3.2,0.0,0.0,894,143,0,0,856.35,11.28,27.39,0
15:34:20,0,0,0,0,0,0,0,0,0,0,0,515,0,0,0,0,0.0000000,0.0000000,0.0000000,0.0000000,4.00,38.4061623,-110.7925797,1298.5000000,1.4,254.7,3.2,0.0,0.0,894,144,0,0,856.31,11.28,27.39,0
15:34:21,0,0,0,0,0,0,0,0,0,0,0,515,0,0,0,0,0.0000000,0.0000000,0.0000000,0.0000000,4.00,38.4061584,-110.7925873,1299.1999512,1.5,251.9,3.2,0.0,0.0,894,145,0,0,856.33,11.25,27.40,0
15:34:22,0,0,0,0,0,0,0,0,0,0,0,515,0,0,0,0,0.0000000,0.0000000,0.0000000,0.0000000,4.00,38.4061546,-110.7926025,1299.5999756,1.6,255.4,3.2,0.0,0.0,894,144,0,0,856.31,11.26,27.39,0
15:34:23,0,0,0,0,0,0,0,0,0,0,0,515,0,0,0,0,0.0000000,0.0000000,0.0000000,0.0000000,4.00,38.4061508,-110.7926254,1300.0000000,1.6,257.6,3.2,0.0,0.0,893,141,0,0,856.29,11.26,27.38,0
15:34:24,0,0,0,0,0,0,0,0,0,0,0,514,0,0,0,0,0.0000000,0.0000000,0.0000000,0.0000000,4.00,38.4061470,-110.7926407,1300.5999756,1.7,257.8,3.2,0.0,0.0,894,141,0,0,856.33,11.25,27.37,0
15:34:25,0,0,0,0,0,0,0,0,0,0,0,515,0,0,0,0,0.0000000,0.0000000,0.0000000,0.0000000,4.00,38.4061432,-110.7926636,1301.0999756,1.7,256.2,3.2,0.0,0.0,894,144,0,0,856.31,11.28,27.37,0
15:34:26,0,0,0,0,0,0,0,0,0,0,0,515,0,0,0,0,0.0000000,0.0000000,0.0000000,0.0000000,4.00,38.4061394,-110.7926788,1301.5000000,1.7,256.2,3.2,0.0,0.0,894,144,0,0,856.31,11.26,27.39,0
15:34:27,0,0,0,0,0,0,0,0,0,0,0,514,0,0,0,0,0.0000000,0.0000000,0.0000000,0.0000000,4.00,38.4061394,-110.7926941,1301.9000244,1.7,253.9,3.2,0.0,0.0,894,144,0,0,856.31,11.25,27.40,0
15:34:28,0,0,0,0,0,0,0,0,0,0,0,515,0,0,0,0,0.0000000,0.0000000,0.0000000,0.0000000,4.00,38.4061394,-110.7926941,1302.1999512,1.7,253.5,3.2,0.0,0.0,894,136,0,0,856.35,11.25,27.40,0
15:34:29,0,0,0,0,0,0,0,0,0,0,0,515,0,0,0,0,0.0000000,0.0000000,0.0000000,0.0000000,4.00,38.4061394,-110.7927017,1302.5000000,1.7,255.1,3.2,0.0,0.0,894,140,0,0,856.35,11.26,27.40,0
15:34:30,0,0,0,0,0,0,0,0,0,0,0,514,0,0,0,0,0.0000000,0.0000000,0.0000000,0.0000000,5.00,38.4062004,-110.7925644,1307.5000000,0.8,271.8,1.5,0.0,0.0,894,146,0,0,856.32,11.29,27.39,0
15:34:31,0,0,0,0,0,0,0,0,0,0,0,514,0,0,0,0,0.0000000,0.0000000,0.0000000,0.0000000,5.00,38.4062080,-110.7925491,1308.5999756,0.7,269.9,1.5,0.0,0.0,894,148,0,0,856.34,11.28,27.38,0
15:34:32,0,0,0,0,0,0,0,0,0,0,0,515,0,0,0,0,0.0000000,0.0000000,0.0000000,0.0000000,5.00,38.4062157,-110.7925339,1309.4000244,0.7,265.5,1.5,0.0,0.0,894,150,0,0,856.32,11.31,27.37,0
15:34:33,0,0,0,0,0,0,0,0,0,0,0,515,0,0,0,0,0.0000000,0.0000000,0.0000000,0.0000000,5.00,38.4062195,-110.7925262,1309.5000000,0.5,269.6,1.5,0.0,0.0,894,152,0,0,856.34,11.29,27.38,0
15:34:34,0,0,0,0,0,0,0,0,0,0,0,515,0,0,0,0,0.0000000,0.0000000,0.0000000,0.0000000,5.00,38.4062195,-110.7925262,1309.5000000,0.5,277.3,1.5,0.0,0.0,893,154,0,0,856.29,11.29,27.36,0
15:34:35,0,0,0,0,0,0,0,0,0,0,0,515,0,0,0,0,0.0000000,0.0000000,0.0000000,0.0000000,5.00,38.4062195,-110.7925262,1309.4000244,0.5,291.3,1.5,0.0,0.0,894,152,0,0,856.34,11.26,27.35,0
15:34:36,0,0,0,0,0,0,0,0,0,0,0,515,0,0,0,0,0.0000000,0.0000000,0.0000000,0.0000000,5.00,38.4062233,-110.7925262,1309.5000000,0.4,296.5,1.5,0.0,0.0,894,144,0,0,856.31,11.28,27.37,0
15:34:37,0,0,0,0,0,0,0,0,0,0,0,515,0,0,0,0,0.0000000,0.0000000,0.0000000,0.0000000,5.00,38.4062233,-110.7925262,1309.5000000,0.4,311.9,1.5,0.0,0.0,894,143,0,0,856.31,11.28,27.38,0
15:34:38,0,0,0,0,0,0,0,0,0,0,0,515,0,0,0,0,0.0000000,0.0000000,0.0000000,0.0000000,5.00,38.4062271,-110.7925339,1309.5000000,0.5,342.0,1.5,0.0,0.0,894,143,0,0,856.34,11.28,27.38,0
15:34:39,0,0,0,0,0,0,0,0,0,0,0,515,0,0,0,0,0.0000000,0.0000000,0.0000000,0.0000000,5.00,38.4062271,-110.7925339,1309.5000000,0.4,350.1,1.5,0.0,0.0,894,140,0,0,856.29,11.26,27.39,0
15:34:40,0,0,0,0,0,0,0,0,0,0,0,515,0,0,0,0,0.0000000,0.0000000,0.0000000,0.0000000,5.00,38.4062309,-110.7925339,1309.5000000,0.3,339.0,1.9,0.0,0.0,894,140,0,0,856.29,11.25,27.40,0
15:34:41,0,0,0,0,0,0,0,0,0,0,0,515,0,0,0,0,0.0000000,0.0000000,0.0000000,0.0000000,5.00,38.4062309,-110.7925339,1309.5000000,0.2,336.2,1.5,0.0,0.0,894,136,0,0,856.32,11.26,27.41,0
15:34:42,0,0,0,0,0,0,0,0,0,0,0,515,0,0,0,0,0.0000000,0.0000000,0.0000000,0.0000000,5.00,38.4062309,-110.7925339,1309.5000000,0.1,323.3,1.5,0.0,0.0,894,136,0,0,856.35,11.23,27.42,0
15:34:43,0,0,0,0,0,0,0,0,0,0,0,515,0,0,0,0,0.0000000,0.0000000,0.0000000,0.0000000,5.00,38.4062347,-110.7925339,1309.5000000,0.1,242.6,1.5,0.0,0.0,894,139,0,0,856.36,11.25,27.43,0
15:34:44,0,0,0,0,0,0,0,0,0,0,0,515,0,0,0,0,0.0000000,0.0000000,0.0000000,0.0000000,5.00,38.4062347,-110.7925339,1309.5000000,0.2,275.1,1.5,0.0,0.0,894,136,0,0,856.31,11.23,27.32,0
15:34:45,0,0,0,0,0,0,0,0,0,0,0,515,0,0,0,0,0.0000000,0.0000000,0.0000000,0.0000000,5.00,38.4062347,-110.7925339,1309.5000000,0.2,299.6,1.5,0.0,0.0,894,135,0,0,856.30,11.25,27.32,0
15:34:46,0,0,0,0,0,0,0,0,0,0,0,514,0,0,0,0,0.0000000,0.0000000,0.0000000,0.0000000,5.00,38.4062347,-110.7925339,1309.5000000,0.3,302.4,1.5,0.0,0.0,894,130,0,0,856.30,11.28,27.37,0
15:34:47,0,0,0,0,0,0,0,0,0,0,0,515,0,0,0,0,0.0000000,0.0000000,0.0000000,0.0000000,5.00,38.4062347,-110.7925339,1309.5000000,0.4,315.1,1.5,0.0,0.0,894,133,0,0,856.31,11.31,27.36,0
15:34:48,0,0,0,0,0,0,0,0,0,0,0,514,0,0,0,0,0.0000000,0.0000000,0.0000000,0.0000000,5.00,38.4062386,-110.7925339,1309.4000244,0.4,321.3,1.5,0.0,0.0,894,134,0,0,856.33,11.29,27.41,0
15:34:49,0,0,0,0,0,0,0,0,0,0,0,515,0,0,0,0,0.0000000,0.0000000,0.0000000,0.0000000,5.00,38.4062386,-110.7925339,1309.4000244,0.4,305.6,1.5,0.0,0.0,894,137,0,0,856.32,11.28,27.40,0
15:34:50,0,0,0,0,0,0,0,0,0,0,0,515,0,0,0,0,0.0000000,0.0000000,0.0000000,0.0000000,5.00,38.4062386,-110.7925491,1309.4000244,0.4,304.4,1.5,0.0,0.0,894,139,0,0,856.32,11.28,27.40,0
15:34:51,0,0,0,0,0,0,0,0,0,0,0,514,0,0,0,0,0.0000000,0.0000000,0.0000000,0.0000000,5.00,38.4062386,-110.7925491,1309.4000244,0.4,304.4,1.5,0.0,0.0,894,142,0,0,856.33,11.31,27.35,0
15:34:52,0,0,0,0,0,0,0,0,0,0,0,515,0,0,0,0,0.0000000,0.0000000,0.0000000,0.0000000,5.00,38.4062424,-110.7925491,1309.4000244,0.3,313.9,1.5,0.0,0.0,894,150,0,0,856.30,11.28,27.40,0
15:34:53,0,0,0,0,0,0,0,0,0,0,0,515,0,0,0,0,0.0000000,0.0000000,0.0000000,0.0000000,5.00,38.4062424,-110.7925491,1309.4000244,0.2,291.0,1.5,0.0,0.0,894,156,0,0,856.33,11.29,27.39,0
15:34:54,0,0,0,0,0,0,0,0,0,0,0,514,0,0,0,0,0.0000000,0.0000000,0.0000000,0.0000000,5.00,38.4062424,-110.7925491,1309.3000488,0.0,4.6,1.5,0.0,0.0,895,154,0,0,856.34,11.31,27.38,0
15:34:55,0,0,0,0,0,0,0,0,0,0,0,515,0,0,0,0,0.0000000,0.0000000,0.0000000,0.0000000,5.00,38.4062424,-110.7925491,1309.3000488,0.1,132.4,1.9,0.0,0.0,894,155,0,0,856.31,11.31,27.34,0
15:34:56,0,0,0,0,0,0,0,0,0,0,0,514,0,0,0,0,0.0000000,0.0000000,0.0000000,0.0000000,5.00,38.4062424,-110.7925491,1309.3000488,0.1,107.6,1.5,0.0,0.0,894,151,0,0,856.35,11.32,27.35,0
15:34:57,0,0,0,0,0,0,0,0,0,0,0,515,0,0,0,0,0.0000000,0.0000000,0.0000000,0.0000000,5.00,38.4062424,-110.7925491,1309.3000488,0.2,82.0,1.5,0.0,0.0,894,146,0,0,856.36,11.32,27.36,0
15:34:58,0,0,0,0,0,0,0,0,0,0,0,515,0,0,0,0,0.0000000,0.0000000,0.0000000,0.0000000,5.00,38.4062424,-110.7925491,1309.3000488,0.3,102.1,1.5,0.0,0.0,894,143,0,0,856.31,11.31,27.38,0
15:34:59,0,0,0,0,0,0,0,0,0,0,0,515,0,0,0,0,0.0000000,0.0000000,0.0000000,0.0000000,5.00,38.4062424,-110.7925491,1309.3000488,0.3,107.9,1.5,0.0,0.0,894,139,0,0,856.27,11.31,27.39,0
15:35:00,0,0,0,0,0,0,0,0,0,0,0,514,0,0,0,0,0.0000000,0.0000000,0.0000000,0.0000000,5.00,38.4062424,-110.7925491,1309.1999512,0.3,88.9,1.5,0.0,0.0,894,138,0,0,856.36,11.32,27.41,0
15:35:01,0,0,0,0,0,0,0,0,0,0,0,515,0,0,0,0,0.0000000,0.0000000,0.0000000,0.0000000,5.00,38.4062424,-110.7925339,1309.1999512,0.4,72.4,1.5,0.0,0.0,894,136,0,0,856.28,11.28,27.42,0
15:35:02,0,0,0,0,0,0,0,0,0,0,0,515,0,0,0,0,0.0000000,0.0000000,0.0000000,0.0000000,5.00,38.4062424,-110.7925339,1309.1999512,0.4,78.0,1.5,0.0,0.0,894,135,0,0,856.33,11.28,27.42,0
15:35:03,0,0,0,0,0,0,0,0,0,0,0,515,0,0,0,0,0.0000000,0.0000000,0.0000000,0.0000000,5.00,38.4062424,-110.7925339,1309.1999512,0.4,70.8,1.5,0.0,0.0,894,140,0,0,856.36,11.26,27.43,0
15:35:04,0,0,0,0,0,0,0,0,0,0,0,515,0,0,0,0,0.0000000,0.0000000,0.0000000,0.0000000,5.00,38.4062424,-110.7925339,1309.1999512,0.5,76.0,1.5,0.0,0.0,894,142,0,0,856.33,11.23,27.43,0
15:35:05,0,0,0,0,0,0,0,0,0,0,0,514,0,0,0,0,0.0000000,0.0000000,0.0000000,0.0000000,5.00,38.4062424,-110.7925262,1309.1999512,0.4,69.4,1.5,0.0,0.0,893,142,0,0,856.37,11.25,27.44,0
15:35:06,0,0,0,0,0,0,0,0,0,0,0,515,0,0,0,0,0.0000000,0.0000000,0.0000000,0.0000000,5.00,38.4062462,-110.7925262,1309.1999512,0.5,68.1,1.5,0.0,0.0,894,139,0,0,856.38,11.29,27.44,0
15:35:07,0,0,0,0,0,0,0,0,0,0,0,515,0,0,0,0,0.0000000,0.0000000,0.0000000,0.0000000,5.00,38.4062462,-110.7925262,1309.1999512,0.5,69.2,1.5,0.0,0.0,894,140,0,0,856.38,11.28,27.45,0
15:35:08,0,0,0,0,0,0,0,0,0,0,0,515,0,0,0,0,0.0000000,0.0000000,0.0000000,0.0000000,5.00,38.4062462,-110.7925262,1309.1999512,0.6,79.5,1.5,0.0,0.0,894,139,0,0,856.34,11.26,27.45,0
15:35:09,0,0,0,0,0,0,0,0,0,0,0,515,0,0,0,0,0.0000000,0.0000000,0.0000000,0.0000000,5.00,38.4062462,-110.7925262,1309.1999512,0.5,79.6,1.5,0.0,0.0,894,136,0,0,856.42,11.26,27.47,0
15:35:10,0,0,0,0,0,0,0,0,0,0,0,515,0,0,0,0,0.0000000,0.0000000,0.0000000,0.0000000,5.00,38.4062462,-110.7925110,1309.1999512,0.5,82.7,1.5,0.0,0.0,894,137,0,0,856.32,11.25,27.47,0
15:35:11,0,0,0,0,0,0,0,0,0,0,0,515,0,0,0,0,0.0000000,0.0000000,0.0000000,0.0000000,5.00,38.4062500,-110.7925110,1309.0999756,0.4,81.4,1.5,0.0,0.0,894,131,0,0,856.35,11.28,27.46,0
15:35:12,0,0,0,0,0,0,0,0,0,0,0,514,0,0,0,0,0.0000000,0.0000000,0.0000000,0.0000000,5.00,38.4062500,-110.7925110,1309.0999756,0.4,93.6,1.5,0.0,0.0,894,129,0,0,856.36,11.26,27.46,0
15:35:13,0,0,0,0,0,0,0,0,0,0,0,515,0,0,0,0,0.0000000,0.0000000,0.0000000,0.0000000,5.00,38.4062500,-110.7925110,1309.0999756,0.4,78.4,1.5,0.0,0.0,894,136,0,0,856.39,11.23,27.46,0
15:35:14,0,0,0,0,0,0,0,0,0,0,0,515,0,0,0,0,0.0000000,0.0000000,0.0000000,0.0000000,5.00,38.4062500,-110.7925110,1309.0999756,0.4,65.6,1.5,0.0,0.0,893,136,0,0,856.34,11.23,27.46,0
15:35:15,0,0,0,0,0,0,0,0,0,0,0,514,0,0,0,0,0.0000000,0.0000000,0.0000000,0.0000000,5.00,38.4062500,-110.7924957,1309.0999756,0.4,76.3,1.5,0.0,0.0,894,136,0,0,856.35,11.25,27.45,0
15:35:16,0,0,0,0,0,0,0,0,0,0,0,515,0,0,0,0,0.0000000,0.0000000,0.0000000,0.0000000,5.00,38.4062500,-110.7924957,1309.0999756,0.3,94.9,1.5,0.0,0.0,894,135,0,0,856.37,11.26,27.44,0
15:35:17,0,0,0,0,0,0,0,0,0,0,0,515,0,0,0,0,0.0000000,0.0000000,0.0000000,0.0000000,5.00,38.4062500,-110.7924957,1309.0999756,0.3,96.8,1.5,0.0,0.0,895,138,0,0,856.34,11.31,27.46,0
15:35:18,0,0,0,0,0,0,0,0,0,0,0,515,0,0,0,0,0.0000000,0.0000000,0.0000000,0.0000000,5.00,38.4062500,-110.7924957,1309.0999756,0.3,91.8,1.5,0.0,0.0,895,136,0,0,856.35,11.23,27.47,0
15:35:19,0,0,0,0,0,0,0,0,0,0,0,515,0,0,0,0,0.0000000,0.0000000,0.0000000,0.0000000,5.00,38.4062500,-110.7924957,1309.0999756,0.3,108.7,1.5,0.0,0.0,894,134,0,0,856.31,11.28,27.47,0
15:35:20,0,0,0,0,0,0,0,0,0,0,0,515,0,0,0,0,0.0000000,0.0000000,0.0000000,0.0000000,5.00,38.4062500,-110.7924957,1309.0999756,0.3,105.3,1.5,0.0,0.0,893,135,0,0,856.34,11.26,27.49,0
15:35:21,0,0,0,0,0,0,0,0,0,0,0,515,0,0,0,0,0.0000000,0.0000000,0.0000000,0.0000000,5.00,38.4062500,-110.7924881,1309.0999756,0.3,94.7,1.5,0.0,0.0,894,134,0,0,856.40,11.25,27.50,0
15:35:23,0,0,0,0,0,0,0,0,0,0,0,514,0,0,0,0,0.0000000,0.0000000,0.0000000,0.0000000,5.00,38.4062500,-110.7924881,1309.0999756,0.3,86.1,1.5,0.0,0.0,894,135,0,0,856.37,11.23,27.52,0
15:35:24,0,0,0,0,0,0,0,0,0,0,0,514,0,0,0,0,0.0000000,0.0000000,0.0000000,0.0000000,5.00,38.4062500,-110.7924881,1309.0999756,0.2,64.7,1.5,0.0,0.0,894,139,0,0,856.34,11.20,27.50,0
15:35:25,0,0,0,0,0,0,0,0,0,0,0,515,0,0,0,0,0.0000000,0.0000000,0.0000000,0.0000000,5.00,38.4062500,-110.7924881,1309.0999756,0.2,45.3,1.5,0.0,0.0,894,137,0,0,856.33,11.25,27.50,0
15:35:26,0,0,0,0,0,0,0,0,0,0,0,515,0,0,0,0,0.0000000,0.0000000,0.0000000,0.0000000,5.00,38.4062500,-110.7924881,1309.0999756,0.3,63.6,1.5,0.0,0.0,894,138,0,0,856.41,11.23,27.49,0
15:35:27,0,0,0,0,0,0,0,0,0,0,0,515,0,0,0,0,0.0000000,0.0000000,0.0000000,0.0000000,5.00,38.4062500,-110.7924881,1309.0999756,0.2,85.2,1.5,0.0,0.0,894,135,0,0,856.33,11.25,27.48,0
15:35:28,0,0,0,0,0,0,0,0,0,0,0,515,0,0,0,0,0.0000000,0.0000000,0.0000000,0.0000000,5.00,38.4062500,-110.7924881,1309.0999756,0.2,68.2,1.5,0.0,0.0,894,138,0,0,856.37,11.23,27.49,0
15:35:29,0,0,0,0,0,0,0,0,0,0,0,515,0,0,0,0,0.0000000,0.0000000,0.0000000,0.0000000,5.00,38.4062500,-110.7924881,1309.0999756,0.2,72.9,1.5,0.0,0.0,893,135,0,0,856.34,11.25,27.50,0
15:35:30,0,0,0,0,0,0,0,0,0,0,0,515,0,0,0,0,0.0000000,0.0000000,0.0000000,0.0000000,5.00,38.4062500,-110.7924881,1309.0999756,0.2,58.6,1.5,0.0,0.0,894,136,0,0,856.32,11.26,27.50,0
15:35:31,0,0,0,0,0,0,0,0,0,0,0,515,0,0,0,0,0.0000000,0.0000000,0.0000000,0.0000000,5.00,38.4062538,-110.7924881,1309.0999756,0.2,64.9,1.5,0.0,0.0,894,135,0,0,856.30,11.23,27.50,0
15:35:32,0,0,0,0,0,0,0,0,0,0,0,515,0,0,0,0,0.0000000,0.0000000,0.0000000,0.0000000,5.00,38.4062538,-110.7924881,1309.0999756,0.1,116.2,1.5,0.0,0.0,894,132,0,0,856.30,11.23,27.52,0
15:35:33,0,0,0,0,0,0,0,0,0,0,0,515,0,0,0,0,0.0000000,0.0000000,0.0000000,0.0000000,5.00,38.4062538,-110.7924881,1309.0999756,0.1,177.4,1.5,0.0,0.0,894,136,0,0,856.29,11.22,27.52,0
15:35:34,0,0,0,0,0,0,0,0,0,0,0,515,0,0,0,0,0.0000000,0.0000000,0.0000000,0.0000000,5.00,38.4062538,-110.7924881,1309.0999756,0.1,194.4,1.5,0.0,0.0,894,134,0,0,856.33,11.25,27.53,0
15:35:35,0,0,0,0,0,0,0,0,0,0,0,515,0,0,0,0,0.0000000,0.0000000,0.0000000,0.0000000,5.00,38.4062500,-110.7924881,1309.0999756,0.1,183.7,1.5,0.0,0.0,894,132,0,0,856.27,11.22,27.54,0
15:35:36,0,0,0,0,0,0,0,0,0,0,0,515,0,0,0,0,0.0000000,0.0000000,0.0000000,0.0000000,5.00,38.4062500,-110.7924881,1309.0999756,0.1,183.3,1.5,0.0,0.0,894,128,0,0,856.32,11.17,27.54,0
15:35:37,0,0,0,0,0,0,0,0,0,0,0,515,0,0,0,0,0.0000000,0.0000000,0.0000000,0.0000000,5.00,38.4062500,-110.7924881,1309.0999756,0.2,131.6,1.5,0.0,0.0,894,127,0,0,856.32,11.15,27.52,0
15:35:38,0,0,0,0,0,0,0,0,0,0,0,514,0,0,0,0,0.0000000,0.0000000,0.0000000,0.0000000,5.00,38.4062500,-110.7924728,1309.0999756,0.3,159.6,1.5,0.0,0.0,894,132,0,0,856.31,11.15,27.51,0
15:35:39,0,0,0,0,0,0,0,0,0,0,0,515,0,0,0,0,0.0000000,0.0000000,0.0000000,0.0000000,5.00,38.4062500,-110.7924728,1309.0999756,0.3,147.3,1.5,0.0,0.0,894,132,0,0,856.37,11.14,27.52,0
15:35:40,0,0,0,0,0,0,0,0,0,0,0,515,0,0,0,0,0.0000000,0.0000000,0.0000000,0.0000000,5.00,38.4062462,-110.7924728,1309.0999756,0.4,161.3,1.5,0.0,0.0,894,141,0,0,856.34,11.15,27.52,0
15:35:41,0,0,0,0,0,0,0,0,0,0,0,515,0,0,0,0,0.0000000,0.0000000,0.0000000,0.0000000,5.00,38.4062462,-110.7924728,1309.0999756,0.5,173.9,1.5,0.0,0.0,894,138,0,0,856.30,11.12,27.52,0
15:35:42,0,0,0,0,0,0,0,0,0,0,0,515,0,0,0,0,0.0000000,0.0000000,0.0000000,0.0000000,5.00,38.4062424,-110.7924728,1309.0999756,0.5,176.1,1.5,0.0,0.0,894,139,0,0,856.36,11.11,27.49,0
15:35:43,0,0,0,0,0,0,0,0,0,0,0,515,0,0,0,0,0.0000000,0.0000000,0.0000000,0.0000000,5.00,38.4062386,-110.7924728,1309.0999756,0.4,183.8,1.5,0.0,0.0,894,136,0,0,856.32,11.14,27.49,0
15:35:44,0,0,0,0,0,0,0,0,0,0,0,515,0,0,0,0,0.0000000,0.0000000,0.0000000,0.0000000,5.00,38.4062386,-110.7924728,1309.0999756,0.3,205.4,1.5,0.0,0.0,894,136,0,0,856.30,11.17,27.51,0
15:35:45,0,0,0,0,0,0,0,0,0,0,0,514,0,0,0,0,0.0000000,0.0000000,0.0000000,0.0000000,5.00,38.4062386,-110.7924728,1309.0999756,0.3,220.5,1.5,0.0,0.0,894,134,0,0,856.34,11.14,27.52,0
15:35:46,0,0,0,0,0,0,0,0,0,0,0,514,0,0,0,0,0.0000000,0.0000000,0.0000000,0.0000000,5.00,38.4062386,-110.7924728,1309.0999756,0.3,226.9,1.5,0.0,0.0,894,139,0,0,856.32,11.17,27.53,0
15:35:47,0,0,0,0,0,0,0,0,0,0,0,514,0,0,0,0,0.0000000,0.0000000,0.0000000,0.0000000,5.00,38.4062347,-110.7924881,1309.0999756,0.3,224.1,1.5,0.0,0.0,894,139,0,0,856.30,11.17,27.54,0
15:35:48,0,0,0,0,0,0,0,0,0,0,0,515,0,0,0,0,0.0000000,0.0000000,0.0000000,0.0000000,5.00,38.4062347,-110.7924881,1309.0999756,0.4,217.9,1.5,0.0,0.0,894,139,0,0,856.32,11.15,27.54,0
15:35:49,0,0,0,0,0,0,0,0,0,0,0,514,0,0,0,0,0.0000000,0.0000000,0.0000000,0.0000000,5.00,38.4062347,-110.7924881,1309.0999756,0.4,218.8,1.5,0.0,0.0,894,136,0,0,856.36,11.12,27.54,0
15:35:50,0,0,0,0,0,0,0,0,0,0,0,515,0,0,0,0,0.0000000,0.0000000,0.0000000,0.0000000,5.00,38.4062309,-110.7924881,1309.0999756,0.4,185.7,1.5,0.0,0.0,894,133,0,0,856.31,11.14,27.53,0
15:35:51,0,0,0,0,0,0,0,0,0,0,0,514,0,0,0,0,0.0000000,0.0000000,0.0000000,0.0000000,5.00,38.4062271,-110.7924881,1309.0999756,0.4,179.8,1.5,0.0,0.0,894,132,0,0,856.32,11.14,27.54,0
15:35:52,0,0,0,0,0,0,0,0,0,0,0,515,0,0,0,0,0.0000000,0.0000000,0.0000000,0.0000000,5.00,38.4062271,-110.7924881,1309.1999512,0.5,167.6,1.5,0.0,0.0,894,132,0,0,856.37,11.15,27.55,0
15:35:53,0,0,0,0,0,0,0,0,0,0,0,516,0,0,0,0,0.0000000,0.0000000,0.0000000,0.0000000,5.00,38.4062233,-110.7924881,1309.1999512,0.6,158.1,1.5,0.0,0.0,894,132,0,0,856.39,11.15,27.55,0
15:35:54,0,0,0,0,0,0,0,0,0,0,0,514,0,0,0,0,0.0000000,0.0000000,0.0000000,0.0000000,5.00,38.4062195,-110.7924881,1309.1999512,0.7,153.5,1.5,0.0,0.0,894,129,0,0,856.32,11.15,27.55,0
15:35:55,0,0,0,0,0,0,0,0,0,0,0,515,0,0,0,0,0.0000000,0.0000000,0.0000000,0.0000000,5.00,38.4062119,-110.7924576,1310.0999756,0.8,151.1,1.5,0.0,0.0,893,137,0,0,856.32,11.15,27.55,0
15:35:56,0,0,0,0,0,0,0,0,0,0,0,515,0,0,0,0,0.0000000,0.0000000,0.0000000,0.0000000,5.00,38.4062004,-110.7924347,1310.9000244,0.9,146.0,1.5,0.0,0.0,894,139,0,0,856.37,11.19,27.55,0
15:35:57,0,0,0,0,0,0,0,0,0,0,0,515,0,0,0,0,0.0000000,0.0000000,0.0000000,0.0000000,5.00,38.4061966,-110.7924347,1311.0999756,0.9,143.5,1.5,0.0,0.0,894,141,0,0,856.36,11.17,27.53,0
15:35:58,0,0,0,0,0,0,0,0,0,0,0,514,0,0,0,0,0.0000000,0.0000000,0.0000000,0.0000000,5.00,38.4061928,-110.7924347,1311.1999512,0.9,143.2,1.5,0.0,0.0,893,136,0,0,856.37,11.17,27.52,0
15:35:59,0,0,0,0,0,0,0,0,0,0,0,515,0,0,0,0,0.0000000,0.0000000,0.0000000,0.0000000,5.00,38.4061928,-110.7924347,1311.3000488,0.9,142.3,1.5,0.0,0.0,894,140,0,0,856.36,11.17,27.52,0
15:36:00,0,0,0,0,0,0,0,0,0,0,0,515,0,0,0,0,0.0000000,0.0000000,0.0000000,0.0000000,5.00,38.4061890,-110.7924194,1311.4000244,0.9,144.7,1.5,0.0,0.0,894,141,0,0,856.36,11.20,27.52,0
15:36:01,0,0,0,0,0,0,0,0,0,0,0,514,0,0,0,0,0.0000000,0.0000000,0.0000000,0.0000000,5.00,38.4061852,-110.7924194,1311.4000244,0.9,145.0,1.5,0.0,0.0,894,137,0,0,856.35,11.17,27.52,0
15:36:02,0,0,0,0,0,0,0,0,0,0,0,515,0,0,0,0,0.0000000,0.0000000,0.0000000,0.0000000,5.00,38.4061813,-110.7924194,1311.4000244,0.9,144.4,1.5,0.0,0.0,894,140,0,0,856.34,11.19,27.52,0
15:36:03,0,0,0,0,0,0,0,0,0,0,0,515,0,0,0,0,0.0000000,0.0000000,0.0000000,0.0000000,5.00,38.4061813,-110.7924194,1311.4000244,0.9,138.8,1.5,0.0,0.0,894,136,0,0,856.33,11.19,27.52,0
15:36:04,0,0,0,0,0,0,0,0,0,0,0,515,0,0,0,0,0.0000000,0.0000000,0.0000000,0.0000000,5.00,38.4061775,-110.7924118,1311.6999512,0.9,141.9,1.5,0.0,0.0,894,134,0,0,856.35,11.19,27.52,0
15:36:05,0,0,0,0,0,0,0,0,0,0,0,515,0,0,0,0,0.0000000,0.0000000,0.0000000,0.0000000,5.00,38.4061775,-110.7924118,1311.9000244,0.9,140.5,1.5,0.0,0.0,894,139,0,0,856.34,11.19,27.52,0
15:36:06,0,0,0,0,0,0,0,0,0,0,0,515,0,0,0,0,0.0000000,0.0000000,0.0000000,0.0000000,5.00,38.4061699,-110.7923965,1312.3000488,0.9,137.9,1.5,0.0,0.0,894,136,0,0,856.36,11.20,27.52,0
15:36:07,0,0,0,0,0,0,0,0,0,0,0,515,0,0,0,0,0.0000000,0.0000000,0.0000000,0.0000000,5.00,38.4061661,-110.7923965,1312.6999512,0.8,143.2,1.5,0.0,0.0,894,137,0,0,856.43,11.20,27.51,0
15:36:08,0,0,0,0,0,0,0,0,0,0,0,514,0,0,0,0,0.0000000,0.0000000,0.0000000,0.0000000,5.00,38.4061661,-110.7923965,1312.6999512,0.8,141.7,1.5,0.0,0.0,893,134,0,0,856.41,11.22,27.52,0
15:36:09,0,0,0,0,0,0,0,0,0,0,0,515,0,0,0,0,0.0000000,0.0000000,0.0000000,0.0000000,5.00,38.4061699,-110.7923965,1312.9000244,0.7,136.5,1.5,0.0,0.0,894,135,0,0,856.38,11.22,27.53,0
15:36:10,0,0,0,0,0,0,0,0,0,0,0,514,0,0,0,0,0.0000000,0.0000000,0.0000000,0.0000000,5.00,38.4061699,-110.7923813,1312.9000244,0.7,129.1,1.5,0.0,0.0,894,135,0,0,856.38,11.22,27.46,0
15:36:11,0,0,0,0,0,0,0,0,0,0,0,515,0,0,0,0,0.0000000,0.0000000,0.0000000,0.0000000,5.00,38.4061699,-110.7923813,1312.8000488,0.6,127.9,1.5,0.0,0.0,894,133,0,0,856.31,11.19,27.47,0
15:36:12,0,0,0,0,0,0,0,0,0,0,0,515,0,0,0,0,0.0000000,0.0000000,0.0000000,0.0000000,5.00,38.4061623,-110.7923737,1312.6999512,0.6,132.5,1.5,0.0,0.0,893,141,0,0,856.39,11.15,27.52,0
15:36:13,0,0,0,0,0,0,0,0,0,0,0,514,0,0,0,0,0.0000000,0.0000000,0.0000000,0.0000000,5.00,38.4061584,-110.7923737,1312.6999512,0.6,137.3,1.5,0.0,0.0,894,138,0,0,856.38,11.15,27.52,0
15:36:14,0,0,0,0,0,0,0,0,0,0,0,514,0,0,0,0,0.0000000,0.0000000,0.0000000,0.0000000,5.00,38.4061546,-110.7923584,1312.5999756,0.7,135.2,1.5,0.0,0.0,894,147,0,0,856.39,11.11,27.55,0
15:36:15,0,0,0,0,0,0,0,0,0,0,0,515,0,0,0,0,0.0000000,0.0000000,0.0000000,0.0000000,5.00,38.4061546,-110.7923584,1312.5000000,0.6,135.8,1.5,0.0,0.0,894,150,0,0,856.33,11.09,27.52,0
15:36:16,0,0,0,0,0,0,0,0,0,0,0,513,0,0,0,0,0.0000000,0.0000000,0.0000000,0.0000000,5.00,38.4061546,-110.7923584,1312.5000000,0.6,136.3,1.5,0.0,0.0,893,154,0,0,856.44,11.12,27.49,0
15:36:17,0,0,0,0,0,0,0,0,0,0,0,514,0,0,0,0,0.0000000,0.0000000,0.0000000,0.0000000,4.00,38.4061546,-110.7923584,1312.3000488,0.6,137.0,2.1,0.0,0.0,894,156,0,0,856.47,11.09,27.45,0
15:36:18,0,0,0,0,0,0,0,0,0,0,0,515,0,0,0,0,0.0000000,0.0000000,0.0000000,0.0000000,4.00,38.4061546,-110.7923584,1312.0000000,0.6,139.3,2.1,0.0,0.0,894,154,0,0,856.39,11.12,27.45,0
15:36:19,0,0,0,0,0,0,0,0,0,0,0,515,0,0,0,0,0.0000000,0.0000000,0.0000000,0.0000000,4.00,38.4061470,-110.7923431,1312.0000000,0.7,144.7,2.1,0.0,0.0,894,155,0,0,856.42,11.14,27.42,0
15:36:20,0,0,0,0,0,0,0,0,0,0,0,515,0,0,0,0,0.0000000,0.0000000,0.0000000,0.0000000,4.00,38.4061432,-110.7923584,1312.0000000,0.6,152.5,2.1,0.0,0.0,894,154,0,0,856.43,11.15,27.45,0
15:36:21,0,0,0,0,0,0,0,0,0,0,0,514,0,0,0,0,0.0000000,0.0000000,0.0000000,0.0000000,4.00,38.4061470,-110.7923584,1312.0999756,0.6,150.8,2.1,0.0,0.0,894,154,0,0,856.38,11.11,27.45,0
15:36:22,0,0,0,0,0,0,0,0,0,0,0,515,0,0,0,0,0.0000000,0.0000000,0.0000000,0.0000000,4.00,38.4061470,-110.7923584,1312.0999756,0.5,144.7,2.1,0.0,0.0,894,150,0,0,856.39,11.11,27.46,0
15:36:23,0,0,0,0,0,0,0,0,0,0,0,515,0,0,0,0,0.0000000,0.0000000,0.0000000,0.0000000,4.00,38.4061470,-110.7923431,1312.0999756,0.5,141.5,2.1,0.0,0.0,894,142,0,0,856.45,11.12,27.46,0
15:36:24,0,0,0,0,0,0,0,0,0,0,0,515,0,0,0,0,0.0000000,0.0000000,0.0000000,0.0000000,4.00,38.4061470,-110.7923431,1312.0999756,0.4,142.3,2.1,0.0,0.0,894,143,0,0,856.34,11.09,27.45,0
15:36:25,0,0,0,0,0,0,0,0,0,0,0,515,0,0,0,0,0.0000000,0.0000000,0.0000000,0.0000000,4.00,38.4061432,-110.7923431,1312.0999756,0.4,145.5,2.1,0.0,0.0,894,148,0,0,856.43,11.14,27.44,0
15:36:26,0,0,0,0,0,0,0,0,0,0,0,515,0,0,0,0,0.0000000,0.0000000,0.0000000,0.0000000,4.00,38.4061432,-110.7923431,1312.0999756,0.4,149.8,2.1,0.0,0.0,893,147,0,0,856.39,11.14,27.44,0
15:36:27,0,0,0,0,0,0,0,0,0,0,0,515,0,0,0,0,0.0000000,0.0000000,0.0000000,0.0000000,4.00,38.4061394,-110.7923431,1312.0999756,0.4,152.2,2.1,0.0,0.0,894,144,0,0,856.42,11.09,27.44,0
15:36:28,0,0,0,0,0,0,0,0,0,0,0,515,0,0,0,0,0.0000000,0.0000000,0.0000000,0.0000000,4.00,38.4061394,-110.7923431,1312.0999756,0.5,159.5,2.1,0.0,0.0,894,143,0,0,856.35,11.11,27.41,0
15:36:29,0,0,0,0,0,0,0,0,0,0,0,515,0,0,0,0,0.0000000,0.0000000,0.0000000,0.0000000,4.00,38.4061394,-110.7923431,1312.0999756,0.5,163.7,2.1,0.0,0.0,893,148,0,0,856.39,11.14,27.36,0
15:36:30,0,0,0,0,0,0,0,0,0,0,0,514,0,0,0,0,0.0000000,0.0000000,0.0000000,0.0000000,4.00,38.4061394,-110.7923431,1312.0999756,0.5,167.8,2.1,0.0,0.0,894,154,0,0,856.44,11.14,27.32,0
15:36:31,0,0,0,0,0,0,0,0,0,0,0,515,0,0,0,0,0.0000000,0.0000000,0.0000000,0.0000000,4.00,38.4061356,-110.7923431,1312.0999756,0.5,170.4,2.1,0.0,0.0,894,150,0,0,856.38,11.15,27.32,0
15:36:32,0,0,0,0,0,0,0,0,0,0,0,514,0,0,0,0,0.0000000,0.0000000,0.0000000,0.0000000,4.00,38.4061317,-110.7923431,1312.0999756,0.5,167.8,2.1,0.0,0.0,894,149,0,0,856.40,11.15,27.31,0
15:36:33,0,0,0,0,0,0,0,0,0,0,0,515,0,0,0,0,0.0000000,0.0000000,0.0000000,0.0000000,4.00,38.4061317,-110.7923431,1312.0999756,0.5,169.6,2.1,0.0,0.0,893,154,0,0,856.38,11.19,27.29,0
15:36:34,0,0,0,0,0,0,0,0,0,0,0,514,0,0,0,0,0.0000000,0.0000000,0.0000000,0.0000000,4.00,38.4061279,-110.7923431,1312.0999756,0.4,172.4,2.1,0.0,0.0,894,155,0,0,856.41,11.19,27.27,0
15:36:35,0,0,0,0,0,0,0,0,0,0,0,515,0,0,0,0,0.0000000,0.0000000,0.0000000,0.0000000,4.00,38.4061241,-110.7923431,1312.0999756,0.5,175.2,2.1,0.0,0.0,894,152,0,0,856.40,11.22,27.27,0
15:36:36,0,0,0,0,0,0,0,0,0,0,0,514,0,0,0,0,0.0000000,0.0000000,0.0000000,0.0000000,4.00,38.4061241,-110.7923431,1312.0999756,0.4,176.6,2.1,0.0,0.0,894,153,0,0,856.33,11.23,27.27,0
15:36:37,0,0,0,0,0,0,0,0,0,0,0,514,0,0,0,0,0.0000000,0.0000000,0.0000000,0.0000000,4.00,38.4061203,-110.7923431,1312.0999756,0.4,181.4,2.1,0.0,0.0,894,149,0,0,856.36,11.22,27.27,0
15:36:39,0,0,0,0,0,0,0,0,0,0,0,515,0,0,0,0,0.0000000,0.0000000,0.0000000,0.0000000,4.00,38.4061203,-110.7923431,1312.0999756,0.4,181.7,2.1,0.0,0.0,894,158,0,0,856.40,11.20,27.27,0
15:36:40,0,0,0,0,0,0,0,0,0,0,0,515,0,0,0,0,0.0000000,0.0000000,0.0000000,0.0000000,4.00,38.4061203,-110.7923431,1312.0999756,0.4,191.7,2.1,0.0,0.0,894,158,0,0,856.35,11.26,27.27,0
15:36:41,0,0,0,0,0,0,0,0,0,0,0,515,0,0,0,0,0.0000000,0.0000000,0.0000000,0.0000000,4.00,38.4061165,-110.7923431,1312.0999756,0.4,191.7,2.1,0.0,0.0,893,160,0,0,856.35,11.22,27.26,0
15:36:42,0,0,0,0,0,0,0,0,0,0,0,515,0,0,0,0,0.0000000,0.0000000,0.0000000,0.0000000,4.00,38.4061127,-110.7923431,1312.0999756,0.3,207.0,2.1,0.0,0.0,894,161,0,0,856.36,11.23,27.24,0
15:36:43,0,0,0,0,0,0,0,0,0,0,0,515,0,0,0,0,0.0000000,0.0000000,0.0000000,0.0000000,4.00,38.4061127,-110.7923431,1312.0999756,0.4,209.6,2.1,0.0,0.0,894,158,0,0,856.41,11.29,27.23,0
15:36:44,0,0,0,0,0,0,0,0,0,0,0,515,0,0,0,0,0.0000000,0.0000000,0.0000000,0.0000000,5.00,38.4061127,-110.7923431,1312.0999756,0.4,208.5,1.5,0.0,0.0,894,157,0,0,856.39,11.28,27.22,0
15:36:45,0,0,0,0,0,0,0,0,0,0,0,515,0,0,0,0,0.0000000,0.0000000,0.0000000,0.0000000,5.00,38.4061089,-110.7923431,1312.0999756,0.4,199.7,1.5,0.0,0.0,894,149,0,0,856.35,11.28,27.21,0
15:36:46,0,0,0,0,0,0,0,0,0,0,0,514,0,0,0,0,0.0000000,0.0000000,0.0000000,0.0000000,5.00,38.4061050,-110.7923431,1312.0999756,0.5,195.6,1.5,0.0,0.0,894,150,0,0,856.41,11.29,27.20,0
15:36:47,0,0,0,0,0,0,0,0,0,0,0,514,0,0,0,0,0.0000000,0.0000000,0.0000000,0.0000000,5.00,38.4061050,-110.7923431,1312.0999756,0.6,200.8,1.5,0.0,0.0,894,162,0,0,856.40,11.28,27.19,0
15:36:48,0,0,0,0,0,0,0,0,0,0,0,515,0,0,0,0,0.0000000,0.0000000,0.0000000,0.0000000,5.00,38.4061012,-110.7923431,1312.0999756,0.6,205.8,1.5,0.0,0.0,893,168,0,0,856.36,11.26,27.17,0
15:36:49,0,0,0,0,0,0,0,0,0,0,0,514,0,0,0,0,0.0000000,0.0000000,0.0000000,0.0000000,5.00,38.4060974,-110.7923431,1312.0000000,0.5,210.0,1.5,0.0,0.0,894,167,0,0,856.33,11.29,27.17,0
15:36:50,0,0,0,0,0,0,0,0,0,0,0,515,0,0,0,0,0.0000000,0.0000000,0.0000000,0.0000000,5.00,38.4060974,-110.7923584,1312.0000000,0.5,209.8,1.5,0.0,0.0,893,162,0,0,856.30,11.23,27.15,0
15:36:51,0,0,0,0,0,0,0,0,0,0,0,515,0,0,0,0,0.0000000,0.0000000,0.0000000,0.0000000,5.00,38.4060974,-110.7923584,1312.0000000,0.5,205.0,1.5,0.0,0.0,894,156,0,0,856.37,11.26,27.15,0
15:36:52,0,0,0,0,0,0,0,0,0,0,0,515,0,0,0,0,0.0000000,0.0000000,0.0000000,0.0000000,5.00,38.4060936,-110.7923584,1312.0999756,0.5,203.8,1.5,0.0,0.0,894,157,0,0,856.36,11.28,27.15,0
15:36:53,0,0,0,0,0,0,0,0,0,0,0,515,0,0,0,0,0.0000000,0.0000000,0.0000000,0.0000000,5.00,38.4060936,-110.7923584,1312.0999756,0.5,203.6,1.5,0.0,0.0,894,155,0,0,856.33,11.31,27.14,0
15:36:54,0,0,0,0,0,0,0,0,0,0,0,515,0,0,0,0,0.0000000,0.0000000,0.0000000,0.0000000,5.00,38.4060898,-110.7923584,1312.0999756,0.5,202.9,1.5,0.0,0.0,894,157,0,0,856.38,11.28,27.13,0
15:36:55,0,0,0,0,0,0,0,0,0,0,0,515,0,0,0,0,0.0000000,0.0000000,0.0000000,0.0000000,5.00,38.4060898,-110.7923584,1312.0999756,0.5,205.8,1.5,0.0,0.0,894,156,0,0,856.39,11.29,27.10,0
15:36:56,0,0,0,0,0,0,0,0,0,0,0,515,0,0,0,0,0.0000000,0.0000000,0.0000000,0.0000000,5.00,38.4060860,-110.7923584,1312.0999756,0.6,210.6,1.5,0.0,0.0,894,156,0,0,856.30,11.34,27.08,0
15:36:57,0,0,0,0,0,0,0,0,0,0,0,515,0,0,0,0,0.0000000,0.0000000,0.0000000,0.0000000,5.00,38.4060822,-110.7923584,1312.0999756,0.6,215.9,1.5,0.0,0.0,894,156,0,0,856.37,11.34,27.08,0
15:36:58,0,0,0,0,0,0,0,0,0,0,0,514,0,0,0,0,0.0000000,0.0000000,0.0000000,0.0000000,5.00,38.4060822,-110.7923584,1312.0999756,0.5,224.0,1.5,0.0,0.0,894,157,0,0,856.43,11.35,27.07,0
15:36:59,0,0,0,0,0,0,0,0,0,0,0,515,0,0,0,0,0.0000000,0.0000000,0.0000000,0.0000000,5.00,38.4060783,-110.7923737,1312.0999756,0.5,230.9,1.5,0.0,0.0,894,153,0,0,856.42,11.32,27.07,0
15:37:00,0,0,0,0,0,0,0,0,0,0,0,515,0,0,0,0,0.0000000,0.0000000,0.0000000,0.0000000,5.00,38.4060783,-110.7923737,1312.0999756,0.5,239.3,1.5,0.0,0.0,893,154,0,0,856.35,11.38,27.05,0
15:37:01,0,0,0,0,0,0,0,0,0,0,0,515,0,0,0,0,0.0000000,0.0000000,0.0000000,0.0000000,5.00,38.4060783,-110.7923737,1312.0999756,0.4,245.1,1.5,0.0,0.0,894,157,0,0,856.38,11.43,27.04,0
15:37:02,0,0,0,0,0,0,0,0,0,0,0,515,0,0,0,0,0.0000000,0.0000000,0.0000000,0.0000000,5.00,38.4060783,-110.7923737,1312.0999756,0.4,243.5,1.5,0.0,0.0,894,162,0,0,856.48,11.41,27.03,0
15:37:03,0,0,0,0,0,0,0,0,0,0,0,514,0,0,0,0,0.0000000,0.0000000,0.0000000,0.0000000,5.00,38.4060783,-110.7923737,1312.0999756,0.4,239.7,1.5,0.0,0.0,893,146,0,0,856.42,11.43,27.03,0
15:37:04,0,0,0,0,0,0,0,0,0,0,0,514,0,0,0,0,0.0000000,0.0000000,0.0000000,0.0000000,5.00,38.4060745,-110.7923813,1312.0999756,0.4,257.2,1.5,0.0,0.0,894,145,0,0,856.43,11.44,27.02,0
15:37:05,0,0,0,0,0,0,0,0,0,0,0,515,0,0,0,0,0.0000000,0.0000000,0.0000000,0.0000000,5.00,38.4060745,-110.7923813,1312.0999756,0.3,256.8,1.5,0.0,0.0,894,145,0,0,856.33,11.44,27.01,0
15:37:06,0,0,0,0,0,0,0,0,0,0,0,515,0,0,0,0,0.0000000,0.0000000,0.0000000,0.0000000,5.00,38.4060745,-110.7923813,1312.0999756,0.3,270.6,1.5,0.0,0.0,893,142,0,0,856.33,11.41,27.00,0
15:37:07,0,0,0,0,0,0,0,0,0,0,0,514,0,0,0,0,0.0000000,0.0000000,0.0000000,0.0000000,5.00,38.4060745,-110.7923813,1312.0999756,0.4,293.3,1.5,0.0,0.0,894,149,0,0,856.35,11.44,26.99,0
15:37:08,0,0,0,0,0,0,0,0,0,0,0,514,0,0,0,0,0.0000000,0.0000000,0.0000000,0.0000000,5.00,38.4060745,-110.7923813,1312.0999756,0.6,295.8,1.5,0.0,0.0,894,141,0,0,856.39,11.48,26.98,0
15:37:09,0,0,0,0,0,0,0,0,0,0,0,515,0,0,0,0,0.0000000,0.0000000,0.0000000,0.0000000,5.00,38.4060783,-110.7923813,1312.0000000,0.6,304.4,1.5,0.0,0.0,894,142,0,0,856.38,11.46,26.98,0
15:37:10,0,0,0,0,0,0,0,0,0,0,0,514,0,0,0,0,0.0000000,0.0000000,0.0000000,0.0000000,5.00,38.4060783,-110.7923965,1312.0000000,0.6,318.0,1.5,0.0,0.0,894,141,0,0,856.44,11.49,26.98,0
15:37:11,0,0,0,0,0,0,0,0,0,0,0,515,0,0,0,0,0.0000000,0.0000000,0.0000000,0.0000000,5.00,38.4060936,-110.7923813,1311.6999512,0.7,329.5,1.5,0.0,0.0,894,145,0,0,856.35,11.49,26.96,0
15:37:12,0,0,0,0,0,0,0,0,0,0,0,515,0,0,0,0,0.0000000,0.0000000,0.0000000,0.0000000,5.00,38.4061012,-110.7923813,1311.8000488,0.7,330.5,1.5,0.0,0.0,894,145,0,0,856.43,11.49,26.95,0
15:37:13,0,0,0,0,0,0,0,0,0,0,0,515,0,0,0,0,0.0000000,0.0000000,0.0000000,0.0000000,5.00,38.4061050,-110.7923813,1311.5000000,0.7,328.0,1.5,0.0,0.0,894,141,0,0,856.41,11.51,26.94,0
15:37:14,0,0,0,0,0,0,0,0,0,0,0,515,0,0,0,0,0.0000000,0.0000000,0.0000000,0.0000000,4.00,38.4061089,-110.7923737,1311.0000000,0.6,329.5,1.6,0.0,0.0,894,143,0,0,856.49,11.49,26.93,0
15:37:15,0,0,0,0,0,0,0,0,0,0,0,515,0,0,0,0,0.0000000,0.0000000,0.0000000,0.0000000,4.00,38.4061127,-110.7923737,1310.6999512,0.6,330.4,1.6,0.0,0.0,894,146,0,0,856.44,11.58,26.87,0
15:37:16,0,0,0,0,0,0,0,0,0,0,0,515,0,0,0,0,0.0000000,0.0000000,0.0000000,0.0000000,4.00,38.4061165,-110.7923584,1310.5000000,0.6,333.2,1.6,0.0,0.0,894,151,0,0,856.43,11.63,26.84,0
15:37:17,0,0,0,0,0,0,0,0,0,0,0,515,0,0,0,0,0.0000000,0.0000000,0.0000000,0.0000000,4.00,38.4061165,-110.7923431,1310.3000488,0.5,335.3,1.6,0.0,0.0,894,146,0,0,856.40,11.64,26.84,0
15:37:18,0,0,0,0,0,0,0,0,0,0,0,515,0,0,0,0,0.0000000,0.0000000,0.0000000,0.0000000,4.00,38.4061203,-110.7923431,1310.0000000,0.5,336.9,1.6,0.0,0.0,894,145,0,0,856.34,11.63,26.85,0
15:37:19,0,0,0,0,0,0,0,0,0,0,0,515,0,0,0,0,0.0000000,0.0000000,0.0000000,0.0000000,4.00,38.4061241,-110.7923431,1310.0000000,0.5,336.0,1.6,0.0,0.0,894,149,0,0,856.40,11.64,26.84,0
15:37:20,0,0,0,0,0,0,0,0,0,0,0,515,0,0,0,0,0.0000000,0.0000000,0.0000000,0.0000000,4.00,38.4061279,-110.7923431,1310.0000000,0.4,329.4,1.6,0.0,0.0,894,142,0,0,856.32,11.64,26.84,0
15:37:21,0,0,0,0,0,0,0,0,0,0,0,516,0,0,0,0,0.0000000,0.0000000,0.0000000,0.0000000,4.00,38.4061279,-110.7923431,1310.0000000,0.4,319.5,1.6,0.0,0.0,894,147,0,0,856.34,11.63,26.84,0
15:37:22,0,0,0,0,0,0,0,0,0,0,0,514,0,0,0,0,0.0000000,0.0000000,0.0000000,0.0000000,4.00,38.4061317,-110.7923431,1310.0000000,0.3,308.9,1.6,0.0,0.0,893,150,0,0,856.41,11.67,26.84,0
15:37:23,0,0,0,0,0,0,0,0,0,0,0,515,0,0,0,0,0.0000000,0.0000000,0.0000000,0.0000000,4.00,38.4061317,-110.7923431,1310.0000000,0.3,316.8,1.6,0.0,0.0,893,149,0,0,856.35,11.66,26.83,0
15:37:24,0,0,0,0,0,0,0,0,0,0,0,515,0,0,0,0,0.0000000,0.0000000,0.0000000,0.0000000,4.00,38.4061317,-110.7923584,1310.0000000,0.4,332.0,1.6,0.0,0.0,894,142,0,0,856.40,11.66,26.81,0
15:37:25,0,0,0,0,0,0,0,0,0,0,0,514,0,0,0,0,0.0000000,0.0000000,0.0000000,0.0000000,4.00,38.4061356,-110.7923584,1310.0000000,0.4,332.2,1.6,0.0,0.0,894,144,0,0,856.36,11.67,26.80,0
15:37:26,0,0,0,0,0,0,0,0,0,0,0,514,0,0,0,0,0.0000000,0.0000000,0.0000000,0.0000000,4.00,38.4061356,-110.7923584,1310.0000000,0.4,324.0,1.6,0.0,0.0,894,151,0,0,856.36,11.67,26.79,0
15:37:27,0,0,0,0,0,0,0,0,0,0,0,514,0,0,0,0,0.0000000,0.0000000,0.0000000,0.0000000,4.00,38.4061394,-110.7923584,1310.0000000,0.5,313.4,1.6,0.0,0.0,893,160,0,0,856.37,11.69,26.78,0
15:37:28,0,0,0,0,0,0,0,0,0,0,0,515,0,0,0,0,0.0000000,0.0000000,0.0000000,0.0000000,4.00,38.4061394,-110.7923584,1310.0000000,0.6,305.3,1.6,0.0,0.0,894,158,0,0,856.34,11.69,26.76,0
15:37:29,0,0,0,0,0,0,0,0,0,0,0,515,0,0,0,0,0.0000000,0.0000000,0.0000000,0.0000000,4.00,38.4061394,-110.7923584,1310.0000000,0.6,298.8,1.6,0.0,0.0,895,154,0,0,856.37,11.70,26.76,0
15:37:30,0,0,0,0,0,0,0,0,0,0,0,514,0,0,0,0,0.0000000,0.0000000,0.0000000,0.0000000,4.00,38.4061432,-110.7923813,1310.1999512,0.7,295.3,1.6,0.0,0.0,894,150,0,0,856.38,11.72,26.75,0
15:37:31,0,0,0,0,0,0,0,0,0,0,0,515,0,0,0,0,0.0000000,0.0000000,0.0000000,0.0000000,4.00,38.4061508,-110.7923965,1310.3000488,0.8,297.6,1.6,0.0,0.0,893,151,0,0,856.31,11.73,26.74,0
15:37:32,0,0,0,0,0,0,0,0,0,0,0,514,0,0,0,0,0.0000000,0.0000000,0.0000000,0.0000000,4.00,38.4061546,-110.7924118,1310.5000000,0.9,297.7,1.6,0.0,0.0,894,146,0,0,856.32,11.73,26.74,0
15:37:33,0,0,0,0,0,0,0,0,0,0,0,514,0,0,0,0,0.0000000,0.0000000,0.0000000,0.0000000,4.00,38.4061623,-110.7924194,1310.5999756,1.0,298.0,1.6,0.0,0.0,894,141,0,0,856.41,11.73,26.73,0
15:37:34,0,0,0,0,0,0,0,0,0,0,0,515,0,0,0,0,0.0000000,0.0000000,0.0000000,0.0000000,4.00,38.4061661,-110.7924194,1310.6999512,0.9,296.7,1.6,0.0,0.0,894,139,0,0,856.40,11.73,26.71,0
15:37:35,0,0,0,0,0,0,0,0,0,0,0,514,0,0,0,0,0.0000000,0.0000000,0.0000000,0.0000000,4.00,38.4061584,-110.7924118,1310.4000244,0.8,294.7,1.6,0.0,0.0,894,140,0,0,856.39,11.75,26.71,0
15:37:36,0,0,0,0,0,0,0,0,0,0,0,515,0,0,0,0,0.0000000,0.0000000,0.0000000,0.0000000,4.00,38.4061584,-110.7923965,1310.1999512,0.6,293.2,1.6,0.0,0.0,894,147,0,0,856.41,11.73,26.70,0
15:37:37,0,0,0,0,0,0,0,0,0,0,0,514,0,0,0,0,0.0000000,0.0000000,0.0000000,0.0000000,4.00,38.4061623,-110.7923965,1310.1999512,0.6,296.0,1.6,0.0,0.0,894,147,0,0,856.38,11.73,26.70,0
15:37:38,0,0,0,0,0,0,0,0,0,0,0,515,0,0,0,0,0.0000000,0.0000000,0.0000000,0.0000000,4.00,38.4061623,-110.7923813,1310.0000000,0.6,297.8,1.6,0.0,0.0,894,152,0,0,856.30,11.80,26.70,0
15:37:39,0,0,0,0,0,0,0,0,0,0,0,515,0,0,0,0,0.0000000,0.0000000,0.0000000,0.0000000,4.00,38.4061661,-110.7923813,1309.9000244,0.6,300.6,1.6,0.0,0.0,893,162,0,0,856.36,11.73,26.69,0
15:37:40,0,0,0,0,0,0,0,0,0,0,0,515,0,0,0,0,0.0000000,0.0000000,0.0000000,0.0000000,4.00,38.4061699,-110.7923813,1309.8000488,0.6,303.1,1.6,0.0,0.0,894,161,0,0,856.37,11.78,26.65,0
15:37:41,0,0,0,0,0,0,0,0,0,0,0,514,0,0,0,0,0.0000000,0.0000000,0.0000000,0.0000000,4.00,38.4061661,-110.7923813,1309.6999512,0.5,299.0,1.6,0.0,0.0,894,163,0,0,856.35,11.84,26.61,0
15:37:42,0,0,0,0,0,0,0,0,0,0,0,515,0,0,0,0,0.0000000,0.0000000,0.0000000,0.0000000,4.00,38.4061661,-110.7923737,1309.5999756,0.4,291.5,1.6,0.0,0.0,893,161,0,0,856.38,11.84,26.59,0
15:37:43,0,0,0,0,0,0,0,0,0,0,0,514,0,0,0,0,0.0000000,0.0000000,0.0000000,0.0000000,4.00,38.4061661,-110.7923737,1309.5000000,0.3,289.4,1.6,0.0,0.0,893,163,0,0,856.36,11.84,26.57,0
15:37:44,0,0,0,0,0,0,0,0,0,0,0,515,0,0,0,0,0.0000000,0.0000000,0.0000000,0.0000000,4.00,38.4061623,-110.7923584,1309.3000488,0.3,293.9,1.6,0.0,0.0,894,164,0,0,856.31,11.90,26.53,0
15:37:45,0,0,0,0,0,0,0,0,0,0,0,515,0,0,0,0,0.0000000,0.0000000,0.0000000,0.0000000,4.00,38.4061623,-110.7923584,1309.3000488,0.2,288.5,1.6,0.0,0.0,893,158,0,0,856.41,11.90,26.53,0
15:37:46,0,0,0,0,0,0,0,0,0,0,0,514,0,0,0,0,0.0000000,0.0000000,0.0000000,0.0000000,4.00,38.4061623,-110.7923584,1309.3000488,0.2,305.9,1.6,0.0,0.0,894,157,0,0,856.38,11.90,26.54,0
15:37:47,0,0,0,0,0,0,0,0,0,0,0,515,0,0,0,0,0.0000000,0.0000000,0.0000000,0.0000000,4.00,38.4061623,-110.7923584,1309.3000488,0.2,308.5,1.6,0.0,0.0,894,152,0,0,856.33,11.92,26.54,0
15:37:48,0,0,0,0,0,0,0,0,0,0,0,514,0,0,0,0,0.0000000,0.0000000,0.0000000,0.0000000,4.00,38.4061623,-110.7923584,1309.3000488,0.3,314.9,1.6,0.0,0.0,894,149,0,0,856.42,11.90,26.55,0
15:37:49,0,0,0,0,0,0,0,0,0,0,0,514,0,0,0,0,0.0000000,0.0000000,0.0000000,0.0000000,4.00,38.4061661,-110.7923584,1309.3000488,0.4,322.7,1.6,0.0,0.0,894,142,0,0,856.43,11.87,26.55,0
15:37:50,0,0,0,0,0,0,0,0,0,0,0,514,0,0,0,0,0.0000000,0.0000000,0.0000000,0.0000000,4.00,38.4061661,-110.7923584,1309.3000488,0.4,324.0,1.6,0.0,0.0,894,142,0,0,856.38,11.92,26.54,0
15:37:51,0,0,0,0,0,0,0,0,0,0,0,515,0,0,0,0,0.0000000,0.0000000,0.0000000,0.0000000,5.00,38.4061699,-110.7923584,1309.3000488,0.4,329.2,1.5,0.0,0.0,893,143,0,0,856.39,11.90,26.55,0
15:37:52,0,0,0,0,0,0,0,0,0,0,0,514,0,0,0,0,0.0000000,0.0000000,0.0000000,0.0000000,5.00,38.4061699,-110.7923737,1309.3000488,0.4,329.9,1.5,0.0,0.0,894,142,0,0,856.41,11.86,26.55,0
15:37:53,0,0,0,0,0,0,0,0,0,0,0,515,0,0,0,0,0.0000000,0.0000000,0.0000000,0.0000000,5.00,38.4061737,-110.7923737,1309.3000488,0.5,327.1,1.5,0.0,0.0,894,143,0,0,856.43,11.90,26.55,0
15:37:54,0,0,0,0,0,0,0,0,0,0,0,515,0,0,0,0,0.0000000,0.0000000,0.0000000,0.0000000,5.00,38.4061737,-110.7923737,1309.3000488,0.4,330.0,1.5,0.0,0.0,894,146,0,0,856.45,11.89,26.55,0
15:37:55,0,0,0,0,0,0,0,0,0,0,0,515,0,0,0,0,0.0000000,0.0000000,0.0000000,0.0000000,5.00,38.4061775,-110.7923737,1309.3000488,0.4,334.0,1.5,0.0,0.0,893,143,0,0,856.46,11.87,26.54,0
15:37:56,0,0,0,0,0,0,0,0,0,0,0,515,0,0,0,0,0.0000000,0.0000000,0.0000000,0.0000000,5.00,38.4061775,-110.7923737,1309.3000488,0.4,340.2,1.5,0.0,0.0,894,147,0,0,856.41,11.89,26.54,0
15:37:57,0,0,0,0,0,0,0,0,0,0,0,514,0,0,0,0,0.0000000,0.0000000,0.0000000,0.0000000,5.00,38.4061775,-110.7923737,1309.3000488,0.4,335.9,1.5,0.0,0.0,894,146,0,0,856.37,11.89,26.54,0
15:37:58,0,0,0,0,0,0,0,0,0,0,0,514,0,0,0,0,0.0000000,0.0000000,0.0000000,0.0000000,5.00,38.4061775,-110.7923737,1309.3000488,0.4,338.1,1.5,0.0,0.0,894,148,0,0,856.39,11.90,26.54,0
15:37:59,0,0,0,0,0,0,0,0,0,0,0,515,0,0,0,0,0.0000000,0.0000000,0.0000000,0.0000000,5.00,38.4061813,-110.7923737,1309.3000488,0.4,349.5,1.5,0.0,0.0,893,143,0,0,856.42,11.89,26.54,0
15:38:00,0,0,0,0,0,0,0,0,0,0,0,515,0,0,0,0,0.0000000,0.0000000,0.0000000,0.0000000,5.00,38.4061852,-110.7923737,1309.3000488,0.4,353.8,1.8,0.0,0.0,894,140,0,0,856.36,11.92,26.55,0
15:38:01,0,0,0,0,0,0,0,0,0,0,0,514,0,0,0,0,0.0000000,0.0000000,0.0000000,0.0000000,5.00,38.4061852,-110.7923737,1309.3000488,0.5,352.6,1.8,0.0,0.0,894,140,0,0,856.39,11.92,26.55,0
15:38:02,0,0,0,0,0,0,0,0,0,0,0,514,0,0,0,0,0.0000000,0.0000000,0.0000000,0.0000000,5.00,38.4061890,-110.7923737,1309.4000244,0.5,344.1,1.8,0.0,0.0,894,138,0,0,856.38,11.93,26.55,0
15:38:03,0,0,0,0,0,0,0,0,0,0,0,514,0,0,0,0,0.0000000,0.0000000,0.0000000,0.0000000,5.00,38.4061928,-110.7923737,1309.4000244,0.5,341.9,1.5,0.0,0.0,894,141,0,0,856.31,11.92,26.47,0
15:38:04,0,0,0,0,0,0,0,0,0,0,0,514,0,0,0,0,0.0000000,0.0000000,0.0000000,0.0000000,5.00,38.4061928,-110.7923737,1309.4000244,0.3,334.4,1.5,0.0,0.0,894,143,0,0,856.26,11.89,26.47,0
15:38:05,0,0,0,0,0,0,0,0,0,0,0,514,0,0,0,0,0.0000000,0.0000000,0.0000000,0.0000000,5.00,38.4061966,-110.7923813,1309.4000244,0.3,334.8,1.5,0.0,0.0,894,143,0,0,856.32,11.89,26.47,0
15:38:06,0,0,0,0,0,0,0,0,0,0,0,515,0,0,0,0,0.0000000,0.0000000,0.0000000,0.0000000,5.00,38.4061966,-110.7923813,1309.4000244,0.3,332.5,1.5,0.0,0.0,894,143,0,0,856.36,11.89,26.53,0
15:38:07,0,0,0,0,0,0,0,0,0,0,0,515,0,0,0,0,0.0000000,0.0000000,0.0000000,0.0000000,5.00,38.4061966,-110.7923813,1309.4000244,0.3,332.5,1.5,0.0,0.0,894,139,0,0,856.34,11.89,26.54,0
15:38:08,0,0,0,0,0,0,0,0,0,0,0,514,0,0,0,0,0.0000000,0.0000000,0.0000000,0.0000000,5.00,38.4062004,-110.7923813,1309.4000244,0.3,326.6,1.5,0.0,0.0,893,138,0,0,856.36,11.86,26.56,0
15:38:09,0,0,0,0,0,0,0,0,0,0,0,515,0,0,0,0,0.0000000,0.0000000,0.0000000,0.0000000,5.00,38.4062004,-110.7923813,1309.5000000,0.3,324.9,1.5,0.0,0.0,894,133,0,0,856.30,11.90,26.56,0
15:38:10,0,0,0,0,0,0,0,0,0,0,0,515,0,0,0,0,0.0000000,0.0000000,0.0000000,0.0000000,5.00,38.4062042,-110.7923813,1309.5000000,0.3,315.5,1.5,0.0,0.0,894,137,0,0,856.35,11.87,26.60,0
15:38:11,0,0,0,0,0,0,0,0,0,0,0,515,0,0,0,0,0.0000000,0.0000000,0.0000000,0.0000000,5.00,38.4062042,-110.7923813,1309.5000000,0.4,326.6,1.5,0.0,0.0,894,135,0,0,856.39,11.86,26.60,0
15:38:13,0,0,0,0,0,0,0,0,0,0,0,515,0,0,0,0,0.0000000,0.0000000,0.0000000,0.0000000,5.00,38.4062042,-110.7923813,1309.5000000,0.5,327.3,1.5,0.0,0.0,894,135,0,0,856.39,11.87,26.58,0
15:38:14,0,0,0,0,0,0,0,0,0,0,0,515,0,0,0,0,0.0000000,0.0000000,0.0000000,0.0000000,5.00,38.4062080,-110.7923813,1309.5000000,0.5,327.0,1.5,0.0,0.0,893,138,0,0,856.36,11.90,26.58,0
15:38:15,0,0,0,0,0,0,0,0,0,0,0,515,0,0,0,0,0.0000000,0.0000000,0.0000000,0.0000000,5.00,38.4062119,-110.7923813,1309.5000000,0.6,324.6,1.5,0.0,0.0,894,138,0,0,856.38,11.87,26.59,0
15:38:16,0,0,0,0,0,0,0,0,0,0,0,515,0,0,0,0,0.0000000,0.0000000,0.0000000,0.0000000,5.00,38.4062119,-110.7923965,1309.5000000,0.6,326.8,1.5,0.0,0.0,894,138,0,0,856.32,11.89,26.60,0
15:38:17,0,0,0,0,0,0,0,0,0,0,0,515,0,0,0,0,0.0000000,0.0000000,0.0000000,0.0000000,5.00,38.4062157,-110.7923965,1309.5999756,0.5,343.9,1.5,0.0,0.0,894,142,0,0,856.33,11.86,26.60,0
15:38:18,0,0,0,0,0,0,0,0,0,0,0,515,0,0,0,0,0.0000000,0.0000000,0.0000000,0.0000000,5.00,38.4062195,-110.7923965,1309.5999756,0.5,353.1,1.5,0.0,0.0,893,137,0,0,856.31,11.84,26.61,0
15:38:19,0,0,0,0,0,0,0,0,0,0,0,515,0,0,0,0,0.0000000,0.0000000,0.0000000,0.0000000,5.00,38.4062195,-110.7923965,1309.5999756,0.5,6.7,1.8,0.0,0.0,894,142,0,0,856.34,11.86,26.62,0
15:38:20,0,0,0,0,0,0,0,0,0,0,0,514,0,0,0,0,0.0000000,0.0000000,0.0000000,0.0000000,5.00,38.4062195,-110.7923965,1309.5999756,0.4,14.5,1.8,0.0,0.0,893,141,0,0,856.32,11.87,26.63,0
15:38:21,0,0,0,0,0,0,0,0,0,0,0,515,0,0,0,0,0.0000000,0.0000000,0.0000000,0.0000000,5.00,38.4062233,-110.7923965,1309.5999756,0.5,17.7,1.8,0.0,0.0,894,128,0,0,856.30,11.83,26.62,0
15:38:22,0,0,0,0,0,0,0,0,0,0,0,514,0,0,0,0,0.0000000,0.0000000,0.0000000,0.0000000,5.00,38.4062233,-110.7923965,1309.5999756,0.5,20.4,1.5,0.0,0.0,894,128,0,0,856.35,11.83,26.63,0
15:38:23,0,0,0,0,0,0,0,0,0,0,0,515,0,0,0,0,0.0000000,0.0000000,0.0000000,0.0000000,5.00,38.4062271,-110.7923813,1309.5999756,0.5,27.1,1.5,0.0,0.0,893,129,0,0,856.33,11.83,26.64,0
15:38:24,0,0,0,0,0,0,0,0,0,0,0,514,0,0,0,0,0.0000000,0.0000000,0.0000000,0.0000000,5.00,38.4062309,-110.7923813,1309.5999756,0.6,28.1,1.5,0.0,0.0,893,129,0,0,856.30,11.84,26.64,0
15:38:25,0,0,0,0,0,0,0,0,0,0,0,514,0,0,0,0,0.0000000,0.0000000,0.0000000,0.0000000,5.00,38.4062309,-110.7923813,1309.6999512,0.6,30.0,1.5,0.0,0.0,894,136,0,0,856.37,11.81,26.66,0
15:38:26,0,0,0,0,0,0,0,0,0,0,0,515,0,0,0,0,0.0000000,0.0000000,0.0000000,0.0000000,5.00,38.4062386,-110.7923813,1309.6999512,0.6,28.7,1.5,0.0,0.0,894,135,0,0,856.35,11.83,26.68,0
15:38:27,0,0,0,0,0,0,0,0,0,0,0,514,0,0,0,0,0.0000000,0.0000000,0.0000000,0.0000000,5.00,38.4062424,-110.7923737,1310.4000244,0.6,32.8,1.5,0.0,0.0,894,136,0,0,856.40,11.80,26.69,0
15:38:28,0,0,0,0,0,0,0,0,0,0,0,515,0,0,0,0,0.0000000,0.0000000,0.0000000,0.0000000,5.00,38.4062424,-110.7923584,1311.0999756,0.5,48.6,1.5,0.0,0.0,894,134,0,0,856.34,11.77,26.70,0
15:38:29,0,0,0,0,0,0,0,0,0,0,0,515,0,0,0,0,0.0000000,0.0000000,0.0000000,0.0000000,5.00,38.4062424,-110.7923431,1311.5999756,0.5,51.4,1.5,0.0,0.0,894,135,0,0,856.35,11.78,26.70,0
15:38:30,0,0,0,0,0,0,0,0,0,0,0,515,0,0,0,0,0.0000000,0.0000000,0.0000000,0.0000000,5.00,38.4062538,-110.7923355,1312.0000000,0.6,37.8,1.5,0.0,0.0,894,135,0,0,856.27,11.80,26.69,0
15:38:31,0,0,0,0,0,0,0,0,0,0,0,515,0,0,0,0,0.0000000,0.0000000,0.0000000,0.0000000,5.00,38.4062576,-110.7923355,1312.5000000,0.6,29.6,1.5,0.0,0.0,893,137,0,0,856.31,11.80,26.70,0
15:38:32,0,0,0,0,0,0,0,0,0,0,0,515,0,0,0,0,0.0000000,0.0000000,0.0000000,0.0000000,5.00,38.4062576,-110.7923355,1313.1999512,0.5,22.6,1.5,0.0,0.0,894,137,0,0,856.35,11.81,26.70,0
15:38:33,0,0,0,0,0,0,0,0,0,0,0,515,0,0,0,0,0.0000000,0.0000000,0.0000000,0.0000000,5.00,38.4062614,-110.7923355,1314.0000000,0.4,17.2,1.5,0.0,0.0,894,135,0,0,856.34,11.80,26.71,0
15:38:34,0,0,0,0,0,0,0,0,0,0,0,515,0,0,0,0,0.0000000,0.0000000,0.0000000,0.0000000,5.00,38.4062653,-110.7923431,1314.9000244,0.3,11.1,1.5,0.0,0.0,894,129,0,0,856.34,11.81,26.69,0
15:38:35,0,0,0,0,0,0,0,0,0,0,0,514,0,0,0,0,0.0000000,0.0000000,0.0000000,0.0000000,5.00,38.4062691,-110.7923355,1314.9000244,0.3,9.6,1.8,0.0,0.0,893,136,0,0,856.37,11.81,26.68,0
15:38:36,0,0,0,0,0,0,0,0,0,0,0,515,0,0,0,0,0.0000000,0.0000000,0.0000000,0.0000000,5.00,38.4062691,-110.7923355,1314.9000244,0.3,10.1,1.8,0.0,0.0,893,142,0,0,856.33,11.80,26.68,0
15:38:37,0,0,0,0,0,0,0,0,0,0,0,515,0,0,0,0,0.0000000,0.0000000,0.0000000,0.0000000,5.00,38.4062691,-110.7923355,1314.9000244,0.3,14.3,1.8,0.0,0.0,893,141,0,0,856.34,11.81,26.69,0
15:38:38,0,0,0,0,0,0,0,0,0,0,0,515,0,0,0,0,0.0000000,0.0000000,0.0000000,0.0000000,5.00,38.4062729,-110.7923355,1314.9000244,0.3,15.8,1.8,0.0,0.0,894,141,0,0,856.32,11.80,26.71,0
15:38:39,0,0,0,0,0,0,0,0,0,0,0,515,0,0,0,0,0.0000000,0.0000000,0.0000000,0.0000000,5.00,38.4062729,-110.7923355,1314.9000244,0.4,10.5,1.5,0.0,0.0,894,140,0,0,856.32,11.78,26.71,0
15:38:40,0,0,0,0,0,0,0,0,0,0,0,515,0,0,0,0,0.0000000,0.0000000,0.0000000,0.0000000,5.00,38.4062767,-110.7923355,1314.9000244,0.3,3.7,1.8,0.0,0.0,893,148,0,0,856.31,11.75,26.72,0
15:38:41,0,0,0,0,0,0,0,0,0,0,0,514,0,0,0,0,0.0000000,0.0000000,0.0000000,0.0000000,5.00,38.4062767,-110.7923355,1314.9000244,0.4,0.4,1.8,0.0,0.0,894,141,0,0,856.34,11.75,26.73,0
15:38:42,0,0,0,0,0,0,0,0,0,0,0,514,0,0,0,0,0.0000000,0.0000000,0.0000000,0.0000000,5.00,38.4062767,-110.7923355,1315.0000000,0.4,354.1,1.8,0.0,0.0,894,142,0,0,856.28,11.77,26.73,0
15:38:43,0,0,0,0,0,0,0,0,0,0,0,515,0,0,0,0,0.0000000,0.0000000,0.0000000,0.0000000,5.00,38.4062767,-110.7923355,1315.0000000,0.5,353.6,1.8,0.0,0.0,894,139,0,0,856.28,11.78,26.73,0
15:38:44,0,0,0,0,0,0,0,0,0,0,0,515,0,0,0,0,0.0000000,0.0000000,0.0000000,0.0000000,5.00,38.4062843,-110.7923355,1315.0000000,0.4,351.6,1.8,0.0,0.0,893,140,0,0,856.28,11.78,26.74,0
15:38:45,0,0,0,0,0,0,0,0,0,0,0,515,0,0,0,0,0.0000000,0.0000000,0.0000000,0.0000000,5.00,38.4062843,-110.7923355,1315.0000000,0.4,344.8,1.8,0.0,0.0,894,142,0,0,856.39,11.78,26.74,0
15:38:46,0,0,0,0,0,0,0,0,0,0,0,515,0,0,0,0,0.0000000,0.0000000,0.0000000,0.0000000,5.00,38.4062881,-110.7923355,1315.0000000,0.4,312.9,1.5,0.0,0.0,894,147,0,0,856.31,11.78,26.74,0
15:38:47,0,0,0,0,0,0,0,0,0,0,0,515,0,0,0,0,0.0000000,0.0000000,0.0000000,0.0000000,5.00,38.4062881,-110.7923431,1315.0000000,0.4,305.8,1.5,0.0,0.0,894,148,0,0,856.33,11.80,26.74,0
15:38:48,0,0,0,0,0,0,0,0,0,0,0,514,0,0,0,0,0.0000000,0.0000000,0.0000000,0.0000000,5.00,38.4062881,-110.7923431,1315.0999756,0.4,295.6,1.5,0.0,0.0,893,149,0,0,856.29,11.77,26.70,0
15:38:49,0,0,0,0,0,0,0,0,0,0,0,515,0,0,0,0,0.0000000,0.0000000,0.0000000,0.0000000,5.00,38.4062881,-110.7923431,1315.0999756,0.5,301.0,1.5,0.0,0.0,894,149,0,0,856.30,11.78,26.72,0
