Time, Motor A Speed, Motor A Dir, Motor B Speed, Motor B Dir, Servo Rail Current Sensor, Servo Pos - Arm L, Servo Pos - Arm R, Servo Pos - End, Servo Pos - Hopper, Servo Pos - Lid, Servo Pos - Extra, Servo Current, LED - Front L, LED - Front R, LED - Back L, LED - Back R, IMU Pitch, IMU Roll, IMU Yaw, Compass Heading, GPS Sats, GPS Latitude, GPS Longitude, GPS Altitude, GPS Speed, GPS Angle, GPS HDOP, GPS VDOP, GPS PDOP, Battery, Wind, Comm Xbee Latency, Comm Arduino Latency, Pressure, Humidity, Temperature, uRADMonitor
16:18:18,0,0,0,0,0,0,0,0,0,0,0,515,0,0,0,0,0.0000000,0.0000000,0.0000000,0.0000000,8.00,38.4061966,-110.7922440,1364.8000488,0.0,227.7,1.0,0.0,0.0,891,159,0,0,855.58,10.39,28.33,0
16:18:19,0,0,0,0,0,0,0,0,0,0,0,515,0,0,0,0,0.0000000,0.0000000,0.0000000,0.0000000,8.00,38.4061966,-110.7922440,1364.8000488,0.1,335.6,1.0,0.0,0.0,892,153,0,0,855.62,10.39,28.34,0
16:18:20,0,0,0,0,0,0,0,0,0,0,0,515,0,0,0,0,0.0000000,0.0000000,0.0000000,0.0000000,8.00,38.4061966,-110.7922440,1364.8000488,0.1,342.1,1.0,0.0,0.0,892,151,0,0,855.55,10.42,28.35,0
16:18:21,0,0,0,0,0,0,0,0,0,0,0,515,0,0,0,0,0.0000000,0.0000000,0.0000000,0.0000000,8.00,38.4061966,-110.7922440,1364.8000488,0.1,6.6,1.0,0.0,0.0,892,149,0,0,855.61,10.36,28.36,0
16:18:22,0,0,0,0,0,0,0,0,0,0,0,516,0,0,0,0,0.0000000,0.0000000,0.0000000,0.0000000,8.00,38.4062004,-110.7922440,1364.8000488,0.2,23.5,1.1,0.0,0.0,891,150,0,0,855.59,10.36,28.38,0
16:18:23,0,0,0,0,0,0,0,0,0,0,0,515,0,0,0,0,0.0000000,0.0000000,0.0000000,0.0000000,8.00,38.4062004,-110.7922440,1364.8000488,0.3,34.0,1.0,0.0,0.0,891,141,0,0,855.53,10.35,28.40,0
16:18:24,0,0,0,0,0,0,0,0,0,0,0,514,0,0,0,0,0.0000000,0.0000000,0.0000000,0.0000000,8.00,38.4062004,-110.7922440,1364.8000488,0.2,30.1,1.0,0.0,0.0,892,142,0,0,855.60,10.36,28.42,0
16:18:25,0,0,0,0,0,0,0,0,0,0,0,515,0,0,0,0,0.0000000,0.0000000,0.0000000,0.0000000,8.00,38.4062004,-110.7922440,1364.8000488,0.2,32.9,1.0,0.0,0.0,892,147,0,0,855.58,10.36,28.43,0
16:18:26,0,0,0,0,0,0,0,0,0,0,0,515,0,0,0,0,0.0000000,0.0000000,0.0000000,0.0000000,8.00,38.4062042,-110.7922440,1364.8000488,0.1,28.0,1.0,0.0,0.0,892,160,0,0,855.61,10.33,28.43,0
16:18:27,0,0,0,0,0,0,0,0,0,0,0,514,0,0,0,0,0.0000000,0.0000000,0.0000000,0.0000000,8.00,38.4062042,-110.7922440,1364.8000488,0.1,25.5,1.0,0.0,0.0,890,160,0,0,855.61,10.35,28.43,0
16:18:28,0,0,0,0,0,0,0,0,0,0,0,515,0,0,0,0,0.0000000,0.0000000,0.0000000,0.0000000,8.00,38.4062042,-110.7922440,1364.8000488,0.1,33.8,1.0,0.0,0.0,891,153,0,0,855.60,10.36,28.42,0
16:18:29,0,0,0,0,0,0,0,0,0,0,0,515,0,0,0,0,0.0000000,0.0000000,0.0000000,0.0000000,8.00,38.4062042,-110.7922440,1364.8000488,0.2,23.5,1.0,0.0,0.0,892,147,0,0,855.63,10.35,28.41,0
16:18:30,0,0,0,0,0,0,0,0,0,0,0,515,0,0,0,0,0.0000000,0.0000000,0.0000000,0.0000000,8.00,38.4062042,-110.7922440,1364.8000488,0.1,357.1,1.0,0.0,0.0,891,151,0,0,855.73,10.38,28.41,0
16:18:31,0,0,0,0,0,0,0,0,0,0,0,515,0,0,0,0,0.0000000,0.0000000,0.0000000,0.0000000,8.00,38.4062042,-110.7922440,1364.8000488,0.1,356.3,1.1,0.0,0.0,891,161,0,0,855.59,10.45,28.37,0
16:18:32,0,0,0,0,0,0,0,0,0,0,0,515,0,0,0,0,0.0000000,0.0000000,0.0000000,0.0000000,8.00,38.4062080,-110.7922440,1364.8000488,0.1,295.7,1.1,0.0,0.0,892,161,0,0,855.49,10.47,28.35,0
16:18:33,0,0,0,0,0,0,0,0,0,0,0,515,0,0,0,0,0.0000000,0.0000000,0.0000000,0.0000000,8.00,38.4062080,-110.7922440,1364.8000488,0.1,249.1,1.0,0.0,0.0,892,161,0,0,855.52,10.45,28.33,0
16:18:34,0,0,0,0,0,0,0,0,0,0,0,515,0,0,0,0,0.0000000,0.0000000,0.0000000,0.0000000,8.00,38.4062080,-110.7922440,1364.8000488,0.1,218.4,1.0,0.0,0.0,892,168,0,0,855.76,10.54,28.22,0
16:18:35,0,0,0,0,0,0,0,0,0,0,0,515,0,0,0,0,0.0000000,0.0000000,0.0000000,0.0000000,8.00,38.4062080,-110.7922440,1364.8000488,0.2,231.6,1.0,0.0,0.0,892,166,0,0,855.53,10.57,28.20,0
16:18:36,0,0,0,0,0,0,0,0,0,0,0,515,0,0,0,0,0.0000000,0.0000000,0.0000000,0.0000000,8.00,38.4062042,-110.7922440,1364.8000488,0.1,186.9,1.0,0.0,0.0,891,167,0,0,855.64,10.59,28.23,0
16:18:37,0,0,0,0,0,0,0,0,0,0,0,516,0,0,0,0,0.0000000,0.0000000,0.0000000,0.0000000,8.00,38.4062042,-110.7922440,1364.8000488,0.1,146.3,1.0,0.0,0.0,891,162,0,0,855.56,10.59,28.23,0
16:18:38,0,0,0,0,0,0,0,0,0,0,0,515,0,0,0,0,0.0000000,0.0000000,0.0000000,0.0000000,8.00,38.4062042,-110.7922440,1364.8000488,0.1,74.7,1.0,0.0,0.0,891,169,0,0,855.67,10.57,28.23,0
16:18:39,0,0,0,0,0,0,0,0,0,0,0,515,0,0,0,0,0.0000000,0.0000000,0.0000000,0.0000000,8.00,38.4062042,-110.7922440,1364.8000488,0.1,130.8,1.0,0.0,0.0,891,163,0,0,855.58,10.59,28.24,0
16:18:40,0,0,0,0,0,0,0,0,0,0,0,514,0,0,0,0,0.0000000,0.0000000,0.0000000,0.0000000,8.00,38.4062042,-110.7922440,1364.8000488,0.1,142.2,1.0,0.0,0.0,892,154,0,0,855.62,10.61,28.23,0
16:18:41,0,0,0,0,0,0,0,0,0,0,0,515,0,0,0,0,0.0000000,0.0000000,0.0000000,0.0000000,8.00,38.4062042,-110.7922287,1364.8000488,0.1,149.8,1.0,0.0,0.0,891,157,0,0,855.52,10.59,28.23,0
16:18:42,0,0,0,0,0,0,0,0,0,0,0,514,0,0,0,0,0.0000000,0.0000000,0.0000000,0.0000000,8.00,38.4062042,-110.7922287,1364.8000488,0.1,320.7,1.0,0.0,0.0,891,169,0,0,855.55,10.61,28.20,0
16:18:43,0,0,0,0,0,0,0,0,0,0,0,515,0,0,0,0,0.0000000,0.0000000,0.0000000,0.0000000,8.00,38.4062042,-110.7922287,1364.8000488,0.1,22.5,1.0,0.0,0.0,892,165,0,0,855.54,10.62,28.18,0
16:18:44,0,0,0,0,0,0,0,0,0,0,0,515,0,0,0,0,0.0000000,0.0000000,0.0000000,0.0000000,8.00,38.4062042,-110.7922287,1364.8000488,0.1,36.1,1.0,0.0,0.0,892,173,0,0,855.62,10.68,28.15,0
16:18:45,0,0,0,0,0,0,0,0,0,0,0,514,0,0,0,0,0.0000000,0.0000000,0.0000000,0.0000000,8.00,38.4062042,-110.7922287,1364.8000488,0.1,31.0,1.0,0.0,0.0,892,178,0,0,855.55,10.68,28.12,0
16:18:46,0,0,0,0,0,0,0,0,0,0,0,515,0,0,0,0,0.0000000,0.0000000,0.0000000,0.0000000,8.00,38.4062080,-110.7922287,1364.8000488,0.3,19.1,1.0,0.0,0.0,892,180,0,0,855.58,10.68,28.08,0
16:18:47,0,0,0,0,0,0,0,0,0,0,0,515,0,0,0,0,0.0000000,0.0000000,0.0000000,0.0000000,8.00,38.4062080,-110.7922287,1364.8000488,0.3,28.0,1.0,0.0,0.0,891,172,0,0,855.53,10.70,28.07,0
16:18:48,0,0,0,0,0,0,0,0,0,0,0,514,0,0,0,0,0.0000000,0.0000000,0.0000000,0.0000000,8.00,38.4062080,-110.7922287,1364.8000488,0.3,45.3,1.0,0.0,0.0,891,179,0,0,855.55,10.77,28.02,0
16:18:49,0,0,0,0,0,0,0,0,0,0,0,515,0,0,0,0,0.0000000,0.0000000,0.0000000,0.0000000,8.00,38.4062119,-110.7922287,1364.8000488,0.1,74.2,1.0,0.0,0.0,892,168,0,0,855.61,10.76,27.99,0
16:18:50,0,0,0,0,0,0,0,0,0,0,0,515,0,0,0,0,0.0000000,0.0000000,0.0000000,0.0000000,8.00,38.4062119,-110.7922287,1364.8000488,0.1,51.8,1.0,0.0,0.0,892,161,0,0,855.61,10.74,28.01,0
16:18:51,0,0,0,0,0,0,0,0,0,0,0,515,0,0,0,0,0.0000000,0.0000000,0.0000000,0.0000000,8.00,38.4062119,-110.7922287,1364.8000488,0.2,11.6,1.0,0.0,0.0,891,160,0,0,855.59,10.76,28.02,0
16:18:52,0,0,0,0,0,0,0,0,0,0,0,515,0,0,0,0,0.0000000,0.0000000,0.0000000,0.0000000,8.00,38.4062119,-110.7922287,1364.8000488,0.2,344.1,1.1,0.0,0.0,891,150,0,0,855.53,10.76,28.02,0
16:18:53,0,0,0,0,0,0,0,0,0,0,0,515,0,0,0,0,0.0000000,0.0000000,0.0000000,0.0000000,8.00,38.4062119,-110.7922287,1364.8000488,0.3,340.8,1.0,0.0,0.0,892,155,0,0,855.58,10.74,28.01,0
16:18:54,0,0,0,0,0,0,0,0,0,0,0,515,0,0,0,0,0.0000000,0.0000000,0.0000000,0.0000000,8.00,38.4062157,-110.7922287,1364.8000488,0.4,344.1,1.0,0.0,0.0,892,160,0,0,855.57,10.77,27.98,0
16:18:55,0,0,0,0,0,0,0,0,0,0,0,515,0,0,0,0,0.0000000,0.0000000,0.0000000,0.0000000,8.00,38.4062157,-110.7922287,1364.8000488,0.4,335.5,1.0,0.0,0.0,891,154,0,0,855.62,10.76,27.99,0
16:18:56,0,0,0,0,0,0,0,0,0,0,0,514,0,0,0,0,0.0000000,0.0000000,0.0000000,0.0000000,8.00,38.4062195,-110.7922287,1364.8000488,0.4,337.3,1.0,0.0,0.0,891,156,0,0,855.57,10.79,28.00,0
16:18:57,0,0,0,0,0,0,0,0,0,0,0,514,0,0,0,0,0.0000000,0.0000000,0.0000000,0.0000000,8.00,38.4062195,-110.7922287,1364.8000488,0.4,328.3,1.0,0.0,0.0,892,148,0,0,855.56,10.79,28.01,0
16:18:58,0,0,0,0,0,0,0,0,0,0,0,514,0,0,0,0,0.0000000,0.0000000,0.0000000,0.0000000,8.00,38.4062195,-110.7922287,1364.8000488,0.4,352.6,1.0,0.0,0.0,891,149,0,0,855.54,10.74,28.01,0
16:18:59,0,0,0,0,0,0,0,0,0,0,0,515,0,0,0,0,0.0000000,0.0000000,0.0000000,0.0000000,8.00,38.4062195,-110.7922287,1364.8000488,0.3,349.7,1.1,0.0,0.0,891,148,0,0,855.61,10.79,28.00,0
16:19:00,0,0,0,0,0,0,0,0,0,0,0,515,0,0,0,0,0.0000000,0.0000000,0.0000000,0.0000000,8.00,38.4062233,-110.7922287,1364.8000488,0.4,354.2,1.1,0.0,0.0,891,165,0,0,855.54,10.77,27.97,0
16:19:01,0,0,0,0,0,0,0,0,0,0,0,515,0,0,0,0,0.0000000,0.0000000,0.0000000,0.0000000,8.00,38.4062233,-110.7922287,1364.8000488,0.3,4.7,1.1,0.0,0.0,891,159,0,0,855.59,10.83,27.93,0
16:19:02,0,0,0,0,0,0,0,0,0,0,0,515,0,0,0,0,0.0000000,0.0000000,0.0000000,0.0000000,8.00,38.4062271,-110.7922287,1364.8000488,0.2,345.3,1.1,0.0,0.0,891,160,0,0,855.60,10.85,27.92,0
16:19:03,0,0,0,0,0,0,0,0,0,0,0,515,0,0,0,0,0.0000000,0.0000000,0.0000000,0.0000000,7.00,38.4062271,-110.7922287,1364.8000488,0.1,3.7,1.1,0.0,0.0,892,154,0,0,855.69,10.83,27.92,0
16:19:04,0,0,0,0,0,0,0,0,0,0,0,515,0,0,0,0,0.0000000,0.0000000,0.0000000,0.0000000,7.00,38.4062271,-110.7922287,1364.8000488,0.1,351.3,1.1,0.0,0.0,891,150,0,0,855.61,10.82,27.95,0
16:19:05,0,0,0,0,0,0,0,0,0,0,0,514,0,0,0,0,0.0000000,0.0000000,0.0000000,0.0000000,7.00,38.4062271,-110.7922287,1364.8000488,0.1,36.6,1.1,0.0,0.0,892,144,0,0,855.58,10.83,27.95,0
16:19:06,0,0,0,0,0,0,0,0,0,0,0,515,0,0,0,0,0.0000000,0.0000000,0.0000000,0.0000000,8.00,38.4062271,-110.7922287,1364.8000488,0.1,338.4,1.0,0.0,0.0,891,149,0,0,855.58,10.83,27.94,0
16:19:07,0,0,0,0,0,0,0,0,0,0,0,515,0,0,0,0,0.0000000,0.0000000,0.0000000,0.0000000,8.00,38.4062309,-110.7922287,1364.8000488,0.1,354.2,1.0,0.0,0.0,892,162,0,0,855.57,10.83,27.87,0
16:19:08,0,0,0,0,0,0,0,0,0,0,0,515,0,0,0,0,0.0000000,0.0000000,0.0000000,0.0000000,8.00,38.4062309,-110.7922287,1364.8000488,0.1,62.3,1.1,0.0,0.0,891,164,0,0,855.54,10.88,27.85,0
16:19:09,0,0,0,0,0,0,0,0,0,0,0,514,0,0,0,0,0.0000000,0.0000000,0.0000000,0.0000000,8.00,38.4062309,-110.7922287,1364.8000488,0.2,40.4,1.0,0.0,0.0,892,156,0,0,855.64,10.88,27.84,0
16:19:10,0,0,0,0,0,0,0,0,0,0,0,515,0,0,0,0,0.0000000,0.0000000,0.0000000,0.0000000,8.00,38.4062309,-110.7922287,1364.8000488,0.2,62.7,1.0,0.0,0.0,892,149,0,0,855.54,10.93,27.85,0
16:19:11,0,0,0,0,0,0,0,0,0,0,0,515,0,0,0,0,0.0000000,0.0000000,0.0000000,0.0000000,8.00,38.4062309,-110.7922287,1364.8000488,0.2,88.4,1.0,0.0,0.0,892,143,0,0,855.55,10.91,27.85,0
16:19:12,0,0,0,0,0,0,0,0,0,0,0,514,0,0,0,0,0.0000000,0.0000000,0.0000000,0.0000000,8.00,38.4062309,-110.7922287,1364.8000488,0.1,68.6,1.0,0.0,0.0,891,143,0,0,855.58,10.93,27.87,0
16:19:13,0,0,0,0,0,0,0,0,0,0,0,514,0,0,0,0,0.0000000,0.0000000,0.0000000,0.0000000,8.00,38.4062309,-110.7922287,1364.8000488,0.1,50.7,1.0,0.0,0.0,891,143,0,0,855.55,10.90,27.90,0
16:19:14,0,0,0,0,0,0,0,0,0,0,0,515,0,0,0,0,0.0000000,0.0000000,0.0000000,0.0000000,8.00,38.4062309,-110.7922287,1364.8000488,0.1,16.8,1.0,0.0,0.0,892,140,0,0,855.59,10.90,27.93,0
16:19:15,0,0,0,0,0,0,0,0,0,0,0,515,0,0,0,0,0.0000000,0.0000000,0.0000000,0.0000000,8.00,38.4062309,-110.7922287,1364.8000488,0.1,284.5,1.0,0.0,0.0,891,140,0,0,855.57,10.91,27.96,0
16:19:16,0,0,0,0,0,0,0,0,0,0,0,515,0,0,0,0,0.0000000,0.0000000,0.0000000,0.0000000,8.00,38.4062309,-110.7922287,1364.8000488,0.2,324.0,1.0,0.0,0.0,891,143,0,0,855.58,10.85,27.97,0
16:19:17,0,0,0,0,0,0,0,0,0,0,0,514,0,0,0,0,0.0000000,0.0000000,0.0000000,0.0000000,8.00,38.4062347,-110.7922287,1364.8000488,0.1,336.9,1.0,0.0,0.0,891,150,0,0,855.60,10.88,27.97,0
16:19:18,0,0,0,0,0,0,0,0,0,0,0,515,0,0,0,0,0.0000000,0.0000000,0.0000000,0.0000000,8.00,38.4062347,-110.7922287,1364.8000488,0.1,345.9,1.0,0.0,0.0,891,147,0,0,855.54,10.85,27.89,0
16:19:19,0,0,0,0,0,0,0,0,0,0,0,515,0,0,0,0,0.0000000,0.0000000,0.0000000,0.0000000,8.00,38.4062347,-110.7922287,1364.8000488,0.1,13.8,1.1,0.0,0.0,891,146,0,0,855.58,10.83,27.93,0
16:19:20,0,0,0,0,0,0,0,0,0,0,0,515,0,0,0,0,0.0000000,0.0000000,0.0000000,0.0000000,8.00,38.4062347,-110.7922287,1364.8000488,0.0,257.5,1.1,0.0,0.0,891,144,0,0,855.58,10.88,27.88,0
16:19:21,0,0,0,0,0,0,0,0,0,0,0,515,0,0,0,0,0.0000000,0.0000000,0.0000000,0.0000000,8.00,38.4062347,-110.7922287,1364.8000488,0.1,235.0,1.0,0.0,0.0,891,142,0,0,855.59,10.85,27.91,0
16:19:22,0,0,0,0,0,0,0,0,0,0,0,516,0,0,0,0,0.0000000,0.0000000,0.0000000,0.0000000,8.00,38.4062347,-110.7922287,1364.8000488,0.1,272.9,1.0,0.0,0.0,891,137,0,0,855.59,10.80,28.00,0
16:19:23,0,0,0,0,0,0,0,0,0,0,0,515,0,0,0,0,0.0000000,0.0000000,0.0000000,0.0000000,8.00,38.4062347,-110.7922287,1364.8000488,0.2,187.1,1.0,0.0,0.0,891,140,0,0,855.53,10.77,28.01,0
16:19:25,0,0,0,0,0,0,0,0,0,0,0,515,0,0,0,0,0.0000000,0.0000000,0.0000000,0.0000000,8.00,38.4062309,-110.7922287,1364.8000488,0.2,163.8,1.0,0.0,0.0,891,142,0,0,855.53,10.80,28.03,0
16:19:26,0,0,0,0,0,0,0,0,0,0,0,515,0,0,0,0,0.0000000,0.0000000,0.0000000,0.0000000,8.00,38.4062309,-110.7922287,1364.8000488,0.2,186.2,1.0,0.0,0.0,891,144,0,0,855.50,10.77,28.07,0
16:19:27,0,0,0,0,0,0,0,0,0,0,0,515,0,0,0,0,0.0000000,0.0000000,0.0000000,0.0000000,8.00,38.4062309,-110.7922287,1364.8000488,0.1,221.9,1.0,0.0,0.0,891,142,0,0,855.53,10.77,28.09,0
16:19:28,0,0,0,0,0,0,0,0,0,0,0,515,0,0,0,0,0.0000000,0.0000000,0.0000000,0.0000000,8.00,38.4062309,-110.7922287,1364.8000488,0.1,172.1,1.0,0.0,0.0,891,143,0,0,855.59,10.74,28.10,0
16:19:29,0,0,0,0,0,0,0,0,0,0,0,515,0,0,0,0,0.0000000,0.0000000,0.0000000,0.0000000,8.00,38.4062309,-110.7922287,1364.8000488,0.0,229.8,1.0,0.0,0.0,891,142,0,0,855.61,10.73,28.11,0
16:19:30,0,0,0,0,0,0,0,0,0,0,0,514,0,0,0,0,0.0000000,0.0000000,0.0000000,0.0000000,8.00,38.4062309,-110.7922287,1364.8000488,0.0,285.9,1.0,0.0,0.0,891,142,0,0,855.60,10.76,28.10,0
16:19:31,0,0,0,0,0,0,0,0,0,0,0,515,0,0,0,0,0.0000000,0.0000000,0.0000000,0.0000000,8.00,38.4062309,-110.7922287,1364.8000488,0.1,358.6,1.0,0.0,0.0,891,138,0,0,855.62,10.74,28.10,0
16:19:32,0,0,0,0,0,0,0,0,0,0,0,515,0,0,0,0,0.0000000,0.0000000,0.0000000,0.0000000,8.00,38.4062309,-110.7922287,1364.8000488,0.1,323.1,1.1,0.0,0.0,892,143,0,0,855.60,10.74,28.10,0
16:19:33,0,0,0,0,0,0,0,0,0,0,0,515,0,0,0,0,0.0000000,0.0000000,0.0000000,0.0000000,8.00,38.4062309,-110.7922287,1364.8000488,0.1,344.2,1.0,0.0,0.0,891,142,0,0,855.50,10.74,28.11,0
16:19:34,0,0,0,0,0,0,0,0,0,0,0,514,0,0,0,0,0.0000000,0.0000000,0.0000000,0.0000000,8.00,38.4062309,-110.7922287,1364.8000488,0.1,18.0,1.0,0.0,0.0,891,145,0,0,855.59,10.74,28.09,0
16:19:35,0,0,0,0,0,0,0,0,0,0,0,515,0,0,0,0,0.0000000,0.0000000,0.0000000,0.0000000,8.00,38.4062309,-110.7922287,1364.8000488,0.3,337.6,1.0,0.0,0.0,891,144,0,0,855.51,10.73,28.07,0
16:19:36,0,0,0,0,0,0,0,0,0,0,0,515,0,0,0,0,0.0000000,0.0000000,0.0000000,0.0000000,8.00,38.4062309,-110.7922287,1364.8000488,0.2,336.5,1.0,0.0,0.0,891,151,0,0,855.56,10.71,28.05,0
16:19:37,0,0,0,0,0,0,0,0,0,0,0,515,0,0,0,0,0.0000000,0.0000000,0.0000000,0.0000000,8.00,38.4062347,-110.7922287,1364.8000488,0.1,342.0,1.0,0.0,0.0,891,149,0,0,855.58,10.74,28.07,0
16:19:38,0,0,0,0,0,0,0,0,0,0,0,515,0,0,0,0,0.0000000,0.0000000,0.0000000,0.0000000,8.00,38.4062347,-110.7922287,1364.8000488,0.1,12.6,1.0,0.0,0.0,891,146,0,0,855.53,10.71,28.07,0
16:19:39,0,0,0,0,0,0,0,0,0,0,0,515,0,0,0,0,0.0000000,0.0000000,0.0000000,0.0000000,8.00,38.4062347,-110.7922287,1364.8000488,0.1,357.7,1.1,0.0,0.0,892,138,0,0,855.58,10.74,28.08,0
16:19:40,0,0,0,0,0,0,0,0,0,0,0,515,0,0,0,0,0.0000000,0.0000000,0.0000000,0.0000000,8.00,38.4062347,-110.7922287,1364.8000488,0.1,38.5,1.1,0.0,0.0,892,136,0,0,855.54,10.73,28.08,0
16:19:41,0,0,0,0,0,0,0,0,0,0,0,514,0,0,0,0,0.0000000,0.0000000,0.0000000,0.0000000,8.00,38.4062347,-110.7922287,1364.8000488,0.0,49.8,1.0,0.0,0.0,891,137,0,0,855.54,10.74,28.08,0
16:19:42,0,0,0,0,0,0,0,0,0,0,0,515,0,0,0,0,0.0000000,0.0000000,0.0000000,0.0000000,8.00,38.4062347,-110.7922287,1364.8000488,0.0,309.8,1.0,0.0,0.0,891,132,0,0,855.58,10.76,28.05,0
16:19:43,0,0,0,0,0,0,0,0,0,0,0,515,0,0,0,0,0.0000000,0.0000000,0.0000000,0.0000000,8.00,38.4062347,-110.7922287,1364.8000488,0.0,250.4,1.0,0.0,0.0,891,136,0,0,855.60,10.77,28.05,0
16:19:44,0,0,0,0,0,0,0,0,0,0,0,514,0,0,0,0,0.0000000,0.0000000,0.0000000,0.0000000,8.00,38.4062347,-110.7922287,1364.8000488,0.1,236.0,1.0,0.0,0.0,891,136,0,0,855.62,10.74,28.07,0
16:19:45,0,0,0,0,0,0,0,0,0,0,0,515,0,0,0,0,0.0000000,0.0000000,0.0000000,0.0000000,8.00,38.4062347,-110.7922287,1364.8000488,0.1,207.2,1.0,0.0,0.0,891,133,0,0,855.60,10.74,28.09,0
16:19:46,0,0,0,0,0,0,0,0,0,0,0,514,0,0,0,0,0.0000000,0.0000000,0.0000000,0.0000000,8.00,38.4062347,-110.7922287,1364.8000488,0.1,352.5,1.0,0.0,0.0,892,135,0,0,855.57,10.73,28.11,0
16:19:47,0,0,0,0,0,0,0,0,0,0,0,514,0,0,0,0,0.0000000,0.0000000,0.0000000,0.0000000,8.00,38.4062347,-110.7922287,1364.8000488,0.0,357.4,1.1,0.0,0.0,891,133,0,0,855.57,10.74,28.13,0
16:19:48,0,0,0,0,0,0,0,0,0,0,0,514,0,0,0,0,0.0000000,0.0000000,0.0000000,0.0000000,8.00,38.4062347,-110.7922287,1364.8000488,0.1,105.1,1.1,0.0,0.0,891,130,0,0,855.56,10.74,28.14,0
16:19:49,0,0,0,0,0,0,0,0,0,0,0,515,0,0,0,0,0.0000000,0.0000000,0.0000000,0.0000000,8.00,38.4062347,-110.7922287,1364.8000488,0.1,188.2,1.0,0.0,0.0,891,141,0,0,855.61,10.70,28.16,0
16:19:50,0,0,0,0,0,0,0,0,0,0,0,515,0,0,0,0,0.0000000,0.0000000,0.0000000,0.0000000,8.00,38.4062347,-110.7922287,1364.8000488,0.2,182.9,1.0,0.0,0.0,892,142,0,0,855.53,10.70,28.17,0
16:19:51,0,0,0,0,0,0,0,0,0,0,0,514,0,0,0,0,0.0000000,0.0000000,0.0000000,0.0000000,8.00,38.4062309,-110.7922287,1364.8000488,0.1,193.5,1.0,0.0,0.0,890,139,0,0,855.58,10.70,28.19,0
16:19:52,0,0,0,0,0,0,0,0,0,0,0,514,0,0,0,0,0.0000000,0.0000000,0.0000000,0.0000000,8.00,38.4062309,-110.7922287,1364.8000488,0.2,172.0,1.0,0.0,0.0,891,136,0,0,855.55,10.70,28.19,0
16:19:53,0,0,0,0,0,0,0,0,0,0,0,516,0,0,0,0,0.0000000,0.0000000,0.0000000,0.0000000,8.00,38.4062309,-110.7922287,1364.8000488,0.1,195.6,1.0,0.0,0.0,891,134,0,0,855.54,10.71,28.20,0
16:19:54,0,0,0,0,0,0,0,0,0,0,0,515,0,0,0,0,0.0000000,0.0000000,0.0000000,0.0000000,8.00,38.4062309,-110.7922287,1364.8000488,0.1,343.3,1.0,0.0,0.0,891,137,0,0,855.51,10.73,28.21,0
16:19:55,0,0,0,0,0,0,0,0,0,0,0,514,0,0,0,0,0.0000000,0.0000000,0.0000000,0.0000000,8.00,38.4062309,-110.7922287,1364.8000488,0.0,250.8,1.0,0.0,0.0,891,137,0,0,855.54,10.71,28.22,0
16:19:56,0,0,0,0,0,0,0,0,0,0,0,515,0,0,0,0,0.0000000,0.0000000,0.0000000,0.0000000,8.00,38.4062309,-110.7922287,1364.8000488,0.1,251.7,1.0,0.0,0.0,891,137,0,0,855.56,10.70,28.21,0
16:19:57,0,0,0,0,0,0,0,0,0,0,0,515,0,0,0,0,0.0000000,0.0000000,0.0000000,0.0000000,8.00,38.4062309,-110.7922287,1364.8000488,0.1,219.8,1.0,0.0,0.0,891,139,0,0,855.50,10.71,28.21,0
16:19:58,0,0,0,0,0,0,0,0,0,0,0,515,0,0,0,0,0.0000000,0.0000000,0.0000000,0.0000000,8.00,38.4062309,-110.7922287,1364.8000488,0.1,202.3,1.0,0.0,0.0,891,139,0,0,855.57,10.68,28.20,0
16:19:59,0,0,0,0,0,0,0,0,0,0,0,514,0,0,0,0,0.0000000,0.0000000,0.0000000,0.0000000,8.00,38.4062309,-110.7922287,1364.8000488,0.1,321.9,1.0,0.0,0.0,892,139,0,0,855.50,10.68,28.21,0
16:20:00,0,0,0,0,0,0,0,0,0,0,0,514,0,0,0,0,0.0000000,0.0000000,0.0000000,0.0000000,8.00,38.4062309,-110.7922287,1364.8000488,0.1,268.2,1.0,0.0,0.0,891,135,0,0,855.53,10.64,28.22,0
16:20:01,0,0,0,0,0,0,0,0,0,0,0,516,0,0,0,0,0.0000000,0.0000000,0.0000000,0.0000000,8.00,38.4062309,-110.7922287,1364.8000488,0.1,291.4,1.0,0.0,0.0,891,135,0,0,855.51,10.64,28.23,0
16:20:02,0,0,0,0,0,0,0,0,0,0,0,515,0,0,0,0,0.0000000,0.0000000,0.0000000,0.0000000,8.00,38.4062309,-110.7922440,1364.8000488,0.1,307.1,1.0,0.0,0.0,891,137,0,0,855.52,10.62,28.22,0
16:20:03,0,0,0,0,0,0,0,0,0,0,0,514,0,0,0,0,0.0000000,0.0000000,0.0000000,0.0000000,8.00,38.4062309,-110.7922440,1364.9000244,0.2,314.5,1.0,0.0,0.0,891,145,0,0,855.55,10.65,28.18,0
16:20:04,0,0,0,0,0,0,0,0,0,0,0,516,0,0,0,0,0.0000000,0.0000000,0.0000000,0.0000000,8.00,38.4062309,-110.7922440,1364.9000244,0.1,311.9,1.0,0.0,0.0,891,142,0,0,855.54,10.65,28.18,0
16:20:05,0,0,0,0,0,0,0,0,0,0,0,514,0,0,0,0,0.0000000,0.0000000,0.0000000,0.0000000,8.00,38.4062309,-110.7922440,1364.9000244,0.1,200.6,1.0,0.0,0.0,891,139,0,0,855.53,10.67,28.17,0
16:20:06,0,0,0,0,0,0,0,0,0,0,0,516,0,0,0,0,0.0000000,0.0000000,0.0000000,0.0000000,8.00,38.4062309,-110.7922440,1364.9000244,0.1,92.3,1.0,0.0,0.0,891,140,0,0,855.54,10.70,28.13,0
16:20:07,0,0,0,0,0,0,0,0,0,0,0,514,0,0,0,0,0.0000000,0.0000000,0.0000000,0.0000000,8.00,38.4062309,-110.7922440,1364.9000244,0.1,118.1,1.0,0.0,0.0,891,148,0,0,855.52,10.67,28.11,0
16:20:08,0,0,0,0,0,0,0,0,0,0,0,515,0,0,0,0,0.0000000,0.0000000,0.0000000,0.0000000,8.00,38.4062309,-110.7922440,1364.9000244,0.1,25.0,1.0,0.0,0.0,891,154,0,0,855.51,10.74,28.14,0
16:20:09,0,0,0,0,0,0,0,0,0,0,0,514,0,0,0,0,0.0000000,0.0000000,0.0000000,0.0000000,8.00,38.4062309,-110.7922440,1364.9000244,0.0,351.0,1.0,0.0,0.0,891,151,0,0,855.49,10.74,28.18,0
16:20:10,0,0,0,0,0,0,0,0,0,0,0,515,0,0,0,0,0.0000000,0.0000000,0.0000000,0.0000000,8.00,38.4062309,-110.7922440,1364.9000244,0.1,147.8,1.1,0.0,0.0,891,150,0,0,855.51,10.73,28.20,0
16:20:11,0,0,0,0,0,0,0,0,0,0,0,514,0,0,0,0,0.0000000,0.0000000,0.0000000,0.0000000,8.00,38.4062309,-110.7922287,1364.9000244,0.1,212.7,1.0,0.0,0.0,891,142,0,0,855.53,10.73,28.22,0
16:20:12,0,0,0,0,0,0,0,0,0,0,0,515,0,0,0,0,0.0000000,0.0000000,0.0000000,0.0000000,8.00,38.4062309,-110.7922287,1364.9000244,0.1,348.1,1.0,0.0,0.0,891,147,0,0,855.48,10.73,28.24,0
16:20:13,0,0,0,0,0,0,0,0,0,0,0,514,0,0,0,0,0.0000000,0.0000000,0.0000000,0.0000000,8.00,38.4062309,-110.7922287,1364.9000244,0.1,28.1,1.1,0.0,0.0,891,147,0,0,855.53,10.70,28.25,0
16:20:14,0,0,0,0,0,0,0,0,0,0,0,515,0,0,0,0,0.0000000,0.0000000,0.0000000,0.0000000,8.00,38.4062309,-110.7922287,1364.9000244,0.0,279.0,1.0,0.0,0.0,890,143,0,0,855.56,10.68,28.26,0
16:20:15,0,0,0,0,0,0,0,0,0,0,0,515,0,0,0,0,0.0000000,0.0000000,0.0000000,0.0000000,8.00,38.4062271,-110.7922287,1365.0000000,0.0,234.0,1.0,0.0,0.0,891,141,0,0,855.48,10.64,28.28,0
16:20:16,0,0,0,0,0,0,0,0,0,0,0,515,0,0,0,0,0.0000000,0.0000000,0.0000000,0.0000000,8.00,38.4062233,-110.7922287,1365.1999512,0.1,242.5,1.0,0.0,0.0,891,145,0,0,855.49,10.62,28.25,0
16:20:17,0,0,0,0,0,0,0,0,0,0,0,515,0,0,0,0,0.0000000,0.0000000,0.0000000,0.0000000,8.00,38.4062195,-110.7922287,1365.4000244,0.1,250.9,1.0,0.0,0.0,891,138,0,0,855.54,10.62,28.23,0
16:20:18,0,0,0,0,0,0,0,0,0,0,0,514,0,0,0,0,0.0000000,0.0000000,0.0000000,0.0000000,8.00,38.4062195,-110.7922440,1365.5999756,0.1,240.4,1.0,0.0,0.0,891,138,0,0,855.54,10.64,28.25,0
16:20:19,0,0,0,0,0,0,0,0,0,0,0,515,0,0,0,0,0.0000000,0.0000000,0.0000000,0.0000000,8.00,38.4062157,-110.7922440,1365.6999512,0.2,259.6,1.0,0.0,0.0,891,142,0,0,855.53,10.64,28.27,0
16:20:20,0,0,0,0,0,0,0,0,0,0,0,515,0,0,0,0,0.0000000,0.0000000,0.0000000,0.0000000,8.00,38.4062157,-110.7922287,1365.8000488,0.1,357.0,1.0,0.0,0.0,891,141,0,0,855.52,10.59,28.30,0
16:20:21,0,0,0,0,0,0,0,0,0,0,0,515,0,0,0,0,0.0000000,0.0000000,0.0000000,0.0000000,8.00,38.4062157,-110.7922287,1365.9000244,0.1,355.2,1.1,0.0,0.0,890,137,0,0,855.56,10.59,28.31,0
16:20:22,0,0,0,0,0,0,0,0,0,0,0,514,0,0,0,0,0.0000000,0.0000000,0.0000000,0.0000000,8.00,38.4062157,-110.7922287,1366.0000000,0.1,30.3,1.1,0.0,0.0,891,136,0,0,855.49,10.57,28.31,0
16:20:23,0,0,0,0,0,0,0,0,0,0,0,515,0,0,0,0,0.0000000,0.0000000,0.0000000,0.0000000,8.00,38.4062119,-110.7922287,1366.1999512,0.1,27.6,1.0,0.0,0.0,891,137,0,0,855.51,10.56,28.32,0
16:20:24,0,0,0,0,0,0,0,0,0,0,0,515,0,0,0,0,0.0000000,0.0000000,0.0000000,0.0000000,8.00,38.4062119,-110.7922287,1366.3000488,0.1,279.4,1.0,0.0,0.0,891,142,0,0,855.53,10.56,28.32,0
16:20:25,0,0,0,0,0,0,0,0,0,0,0,515,0,0,0,0,0.0000000,0.0000000,0.0000000,0.0000000,8.00,38.4062119,-110.7922287,1366.4000244,0.1,332.3,1.0,0.0,0.0,891,140,0,0,855.56,10.56,28.33,0
16:20:26,0,0,0,0,0,0,0,0,0,0,0,515,0,0,0,0,0.0000000,0.0000000,0.0000000,0.0000000,8.00,38.4062080,-110.7922287,1366.5000000,0.1,250.9,1.0,0.0,0.0,891,137,0,0,855.55,10.54,28.34,0
16:20:27,0,0,0,0,0,0,0,0,0,0,0,515,0,0,0,0,0.0000000,0.0000000,0.0000000,0.0000000,8.00,38.4062080,-110.7922287,1366.5999756,0.1,145.4,1.0,0.0,0.0,891,134,0,0,855.53,10.56,28.35,0
16:20:28,0,0,0,0,0,0,0,0,0,0,0,515,0,0,0,0,0.0000000,0.0000000,0.0000000,0.0000000,8.00,38.4062042,-110.7922287,1366.6999512,0.2,163.0,1.0,0.0,0.0,891,135,0,0,855.54,10.56,28.36,0
16:20:29,0,0,0,0,0,0,0,0,0,0,0,515,0,0,0,0,0.0000000,0.0000000,0.0000000,0.0000000,8.00,38.4062042,-110.7922287,1366.8000488,0.2,133.6,1.0,0.0,0.0,891,135,0,0,855.53,10.56,28.37,0
16:20:30,0,0,0,0,0,0,0,0,0,0,0,515,0,0,0,0,0.0000000,0.0000000,0.0000000,0.0000000,8.00,38.4062004,-110.7922287,1366.8000488,0.1,153.1,1.0,0.0,0.0,891,137,0,0,855.49,10.57,28.38,0
16:20:31,0,0,0,0,0,0,0,0,0,0,0,515,0,0,0,0,0.0000000,0.0000000,0.0000000,0.0000000,8.00,38.4062004,-110.7922287,1366.9000244,0.1,91.0,1.0,0.0,0.0,891,134,0,0,855.53,10.56,28.39,0
16:20:32,0,0,0,0,0,0,0,0,0,0,0,515,0,0,0,0,0.0000000,0.0000000,0.0000000,0.0000000,8.00,38.4062004,-110.7922287,1366.9000244,0.2,78.5,1.0,0.0,0.0,891,136,0,0,855.50,10.53,28.40,0
16:20:33,0,0,0,0,0,0,0,0,0,0,0,515,0,0,0,0,0.0000000,0.0000000,0.0000000,0.0000000,8.00,38.4062004,-110.7922211,1367.0000000,0.2,84.2,1.0,0.0,0.0,891,135,0,0,855.52,10.53,28.40,0
16:20:34,0,0,0,0,0,0,0,0,0,0,0,514,0,0,0,0,0.0000000,0.0000000,0.0000000,0.0000000,8.00,38.4062004,-110.7922211,1367.0000000,0.1,73.6,1.0,0.0,0.0,891,136,0,0,855.53,10.50,28.40,0
16:20:35,0,0,0,0,0,0,0,0,0,0,0,514,0,0,0,0,0.0000000,0.0000000,0.0000000,0.0000000,8.00,38.4062004,-110.7922211,1367.0999756,0.1,341.5,1.0,0.0,0.0,891,138,0,0,855.55,10.51,28.42,0
16:20:36,0,0,0,0,0,0,0,0,0,0,0,515,0,0,0,0,0.0000000,0.0000000,0.0000000,0.0000000,8.00,38.4062004,-110.7922211,1367.0999756,0.1,29.5,1.0,0.0,0.0,891,136,0,0,855.49,10.54,28.43,0
16:20:37,0,0,0,0,0,0,0,0,0,0,0,515,0,0,0,0,0.0000000,0.0000000,0.0000000,0.0000000,8.00,38.4061966,-110.7922058,1367.0000000,0.1,66.0,1.0,0.0,0.0,891,132,0,0,855.52,10.51,28.44,0
16:20:38,0,0,0,0,0,0,0,0,0,0,0,515,0,0,0,0,0.0000000,0.0000000,0.0000000,0.0000000,8.00,38.4061966,-110.7922058,1367.0000000,0.2,86.3,1.0,0.0,0.0,891,131,0,0,855.48,10.51,28.45,0
16:20:39,0,0,0,0,0,0,0,0,0,0,0,515,0,0,0,0,0.0000000,0.0000000,0.0000000,0.0000000,8.00,38.4061966,-110.7922058,1367.0000000,0.3,105.6,1.0,0.0,0.0,891,133,0,0,855.52,10.51,28.45,0
16:20:40,0,0,0,0,0,0,0,0,0,0,0,515,0,0,0,0,0.0000000,0.0000000,0.0000000,0.0000000,8.00,38.4061966,-110.7922058,1367.0000000,0.1,76.2,1.0,0.0,0.0,890,136,0,0,855.47,10.48,28.47,0
16:20:41,0,0,0,0,0,0,0,0,0,0,0,515,0,0,0,0,0.0000000,0.0000000,0.0000000,0.0000000,8.00,38.4061966,-110.7922058,1367.0000000,0.0,58.8,1.0,0.0,0.0,891,140,0,0,855.51,10.47,28.48,0
16:20:42,0,0,0,0,0,0,0,0,0,0,0,515,0,0,0,0,0.0000000,0.0000000,0.0000000,0.0000000,8.00,38.4061966,-110.7922058,1367.0000000,0.1,68.0,1.0,0.0,0.0,891,140,0,0,855.52,10.50,28.49,0
16:20:43,0,0,0,0,0,0,0,0,0,0,0,514,0,0,0,0,0.0000000,0.0000000,0.0000000,0.0000000,8.00,38.4061966,-110.7922058,1367.0000000,0.2,73.4,1.0,0.0,0.0,891,138,0,0,855.50,10.48,28.50,0
16:20:44,0,0,0,0,0,0,0,0,0,0,0,515,0,0,0,0,0.0000000,0.0000000,0.0000000,0.0000000,8.00,38.4061966,-110.7921906,1367.0000000,0.2,73.6,1.0,0.0,0.0,891,139,0,0,855.50,10.51,28.51,0
16:20:45,0,0,0,0,0,0,0,0,0,0,0,515,0,0,0,0,0.0000000,0.0000000,0.0000000,0.0000000,8.00,38.4061966,-110.7921906,1367.0000000,0.2,31.3,1.0,0.0,0.0,891,139,0,0,855.48,10.51,28.52,0
16:20:46,0,0,0,0,0,0,0,0,0,0,0,515,0,0,0,0,0.0000000,0.0000000,0.0000000,0.0000000,8.00,38.4061966,-110.7921906,1367.0000000,0.2,26.4,1.0,0.0,0.0,891,140,0,0,855.50,10.51,28.53,0
16:20:47,0,0,0,0,0,0,0,0,0,0,0,515,0,0,0,0,0.0000000,0.0000000,0.0000000,0.0000000,8.00,38.4062004,-110.7921906,1367.0000000,0.1,51.9,1.0,0.0,0.0,891,140,0,0,855.45,10.48,28.54,0
16:20:48,0,0,0,0,0,0,0,0,0,0,0,515,0,0,0,0,0.0000000,0.0000000,0.0000000,0.0000000,8.00,38.4062004,-110.7921906,1367.0000000,0.2,84.5,1.0,0.0,0.0,890,146,0,0,855.51,10.45,28.44,0
16:20:49,0,0,0,0,0,0,0,0,0,0,0,515,0,0,0,0,0.0000000,0.0000000,0.0000000,0.0000000,8.00,38.4062004,-110.7921906,1367.0000000,0.3,67.4,1.0,0.0,0.0,891,149,0,0,855.53,10.45,28.45,0
16:20:50,0,0,0,0,0,0,0,0,0,0,0,515,0,0,0,0,0.0000000,0.0000000,0.0000000,0.0000000,8.00,38.4062004,-110.7921906,1367.0000000,0.4,65.7,1.0,0.0,0.0,891,147,0,0,855.53,10.41,28.51,0
16:20:51,0,0,0,0,0,0,0,0,0,0,0,515,0,0,0,0,0.0000000,0.0000000,0.0000000,0.0000000,8.00,38.4062004,-110.7921906,1367.0000000,0.4,92.2,1.0,0.0,0.0,891,139,0,0,855.54,10.41,28.51,0
16:20:52,0,0,0,0,0,0,0,0,0,0,0,515,0,0,0,0,0.0000000,0.0000000,0.0000000,0.0000000,8.00,38.4062004,-110.7921906,1367.0000000,0.4,70.7,1.0,0.0,0.0,891,136,0,0,855.52,10.41,28.55,0
16:20:54,0,0,0,0,0,0,0,0,0,0,0,514,0,0,0,0,0.0000000,0.0000000,0.0000000,0.0000000,8.00,38.4062042,-110.7921829,1367.0000000,0.5,65.6,1.0,0.0,0.0,890,137,0,0,855.54,10.41,28.55,0
16:20:55,0,0,0,0,0,0,0,0,0,0,0,515,0,0,0,0,0.0000000,0.0000000,0.0000000,0.0000000,8.00,38.4062042,-110.7921829,1367.0000000,0.4,58.3,1.0,0.0,0.0,891,140,0,0,855.51,10.47,28.56,0
16:20:56,0,0,0,0,0,0,0,0,0,0,0,515,0,0,0,0,0.0000000,0.0000000,0.0000000,0.0000000,8.00,38.4062042,-110.7921829,1366.9000244,0.3,69.0,1.0,0.0,0.0,891,141,0,0,855.54,10.57,28.58,0
16:20:57,0,0,0,0,0,0,0,0,0,0,0,515,0,0,0,0,0.0000000,0.0000000,0.0000000,0.0000000,8.00,38.4062042,-110.7921829,1366.9000244,0.4,72.9,1.0,0.0,0.0,891,142,0,0,855.45,10.56,28.59,0
16:20:58,0,0,0,0,0,0,0,0,0,0,0,515,0,0,0,0,0.0000000,0.0000000,0.0000000,0.0000000,8.00,38.4062042,-110.7921829,1366.9000244,0.5,61.8,1.0,0.0,0.0,890,145,0,0,855.54,10.51,28.59,0
16:20:59,0,0,0,0,0,0,0,0,0,0,0,515,0,0,0,0,0.0000000,0.0000000,0.0000000,0.0000000,8.00,38.4062080,-110.7921677,1366.9000244,0.3,46.2,1.0,0.0,0.0,890,141,0,0,855.47,10.51,28.60,0
16:21:00,0,0,0,0,0,0,0,0,0,0,0,515,0,0,0,0,0.0000000,0.0000000,0.0000000,0.0000000,8.00,38.4062080,-110.7921677,1366.9000244,0.4,52.5,1.0,0.0,0.0,891,139,0,0,855.43,10.53,28.61,0
16:21:01,0,0,0,0,0,0,0,0,0,0,0,514,0,0,0,0,0.0000000,0.0000000,0.0000000,0.0000000,8.00,38.4062080,-110.7921677,1366.9000244,0.5,53.4,1.0,0.0,0.0,890,143,0,0,855.48,10.53,28.62,0
16:21:02,0,0,0,0,0,0,0,0,0,0,0,514,0,0,0,0,0.0000000,0.0000000,0.0000000,0.0000000,8.00,38.4062119,-110.7921677,1366.9000244,0.4,40.0,1.0,0.0,0.0,891,143,0,0,855.48,10.50,28.63,0
16:21:03,0,0,0,0,0,0,0,0,0,0,0,515,0,0,0,0,0.0000000,0.0000000,0.0000000,0.0000000,8.00,38.4062119,-110.7921677,1366.6999512,0.3,44.0,1.0,0.0,0.0,891,147,0,0,855.44,10.51,28.63,0
16:21:04,0,0,0,0,0,0,0,0,0,0,0,514,0,0,0,0,0.0000000,0.0000000,0.0000000,0.0000000,8.00,38.4062157,-110.7921524,1366.5000000,0.2,44.6,1.0,0.0,0.0,890,150,0,0,855.41,10.47,28.65,0
16:21:05,0,0,0,0,0,0,0,0,0,0,0,515,0,0,0,0,0.0000000,0.0000000,0.0000000,0.0000000,7.00,38.4062195,-110.7921524,1366.4000244,0.3,75.8,1.0,0.0,0.0,891,153,0,0,855.45,10.48,28.66,0
16:21:06,0,0,0,0,0,0,0,0,0,0,0,515,0,0,0,0,0.0000000,0.0000000,0.0000000,0.0000000,7.00,38.4062195,-110.7921524,1366.1999512,0.2,108.1,1.0,0.0,0.0,891,151,0,0,855.49,10.48,28.66,0
16:21:07,0,0,0,0,0,0,0,0,0,0,0,514,0,0,0,0,0.0000000,0.0000000,0.0000000,0.0000000,7.00,38.4062195,-110.7921371,1366.0000000,0.2,96.6,1.0,0.0,0.0,891,149,0,0,855.49,10.50,28.68,0
16:21:08,0,0,0,0,0,0,0,0,0,0,0,515,0,0,0,0,0.0000000,0.0000000,0.0000000,0.0000000,7.00,38.4062195,-110.7921371,1365.8000488,0.2,73.7,1.0,0.0,0.0,892,147,0,0,855.45,10.48,28.68,0
16:21:09,0,0,0,0,0,0,0,0,0,0,0,515,0,0,0,0,0.0000000,0.0000000,0.0000000,0.0000000,7.00,38.4062195,-110.7921295,1365.5999756,0.2,112.5,1.0,0.0,0.0,890,147,0,0,855.48,10.42,28.68,0
16:21:10,0,0,0,0,0,0,0,0,0,0,0,515,0,0,0,0,0.0000000,0.0000000,0.0000000,0.0000000,7.00,38.4062233,-110.7921295,1365.4000244,0.2,114.7,1.0,0.0,0.0,891,143,0,0,855.49,10.42,28.67,0
16:21:11,0,0,0,0,0,0,0,0,0,0,0,514,0,0,0,0,0.0000000,0.0000000,0.0000000,0.0000000,8.00,38.4062233,-110.7921295,1365.4000244,0.3,70.4,1.0,0.0,0.0,890,138,0,0,855.51,10.36,28.69,0
16:21:12,0,0,0,0,0,0,0,0,0,0,0,515,0,0,0,0,0.0000000,0.0000000,0.0000000,0.0000000,8.00,38.4062233,-110.7921143,1365.4000244,0.4,56.5,1.0,0.0,0.0,890,138,0,0,855.53,10.38,28.70,0
16:21:13,0,0,0,0,0,0,0,0,0,0,0,515,0,0,0,0,0.0000000,0.0000000,0.0000000,0.0000000,8.00,38.4062233,-110.7921143,1365.4000244,0.3,52.8,1.0,0.0,0.0,890,135,0,0,855.54,10.39,28.71,0
16:21:14,0,0,0,0,0,0,0,0,0,0,0,515,0,0,0,0,0.0000000,0.0000000,0.0000000,0.0000000,8.00,38.4062233,-110.7921143,1365.4000244,0.3,55.0,1.0,0.0,0.0,891,136,0,0,855.48,10.38,28.72,0
16:21:15,0,0,0,0,0,0,0,0,0,0,0,515,0,0,0,0,0.0000000,0.0000000,0.0000000,0.0000000,8.00,38.4062271,-110.7921143,1365.4000244,0.2,63.6,1.0,0.0,0.0,891,133,0,0,855.51,10.35,28.73,0
16:21:16,0,0,0,0,0,0,0,0,0,0,0,515,0,0,0,0,0.0000000,0.0000000,0.0000000,0.0000000,8.00,38.4062271,-110.7921143,1365.4000244,0.2,49.4,1.0,0.0,0.0,891,135,0,0,855.57,10.32,28.73,0
16:21:17,0,0,0,0,0,0,0,0,0,0,0,515,0,0,0,0,0.0000000,0.0000000,0.0000000,0.0000000,8.00,38.4062271,-110.7921143,1365.4000244,0.2,23.4,1.0,0.0,0.0,890,130,0,0,855.50,10.25,28.74,0
16:21:18,0,0,0,0,0,0,0,0,0,0,0,515,0,0,0,0,0.0000000,0.0000000,0.0000000,0.0000000,8.00,38.4062271,-110.7921143,1365.4000244,0.2,2.9,1.0,0.0,0.0,890,145,0,0,855.48,10.27,28.73,0
16:21:19,0,0,0,0,0,0,0,0,0,0,0,514,0,0,0,0,0.0000000,0.0000000,0.0000000,0.0000000,8.00,38.4062309,-110.7921143,1365.4000244,0.3,358.9,1.1,0.0,0.0,891,137,0,0,855.47,10.25,28.74,0
16:21:20,0,0,0,0,0,0,0,0,0,0,0,515,0,0,0,0,0.0000000,0.0000000,0.0000000,0.0000000,8.00,38.4062309,-110.7921143,1365.4000244,0.3,0.3,1.1,0.0,0.0,891,137,0,0,855.53,10.25,28.76,0
16:21:21,0,0,0,0,0,0,0,0,0,0,0,515,0,0,0,0,0.0000000,0.0000000,0.0000000,0.0000000,8.00,38.4062309,-110.7921143,1365.4000244,0.3,2.8,1.1,0.0,0.0,891,138,0,0,855.52,10.28,28.77,0
16:21:22,0,0,0,0,0,0,0,0,0,0,0,515,0,0,0,0,0.0000000,0.0000000,0.0000000,0.0000000,8.00,38.4062347,-110.7921143,1365.4000244,0.3,353.4,1.1,0.0,0.0,891,138,0,0,855.50,10.24,28.77,0
16:21:23,0,0,0,0,0,0,0,0,0,0,0,515,0,0,0,0,0.0000000,0.0000000,0.0000000,0.0000000,8.00,38.4062347,-110.7921143,1365.4000244,0.3,347.7,1.1,0.0,0.0,890,138,0,0,855.54,10.19,28.75,0
16:21:24,0,0,0,0,0,0,0,0,0,0,0,514,0,0,0,0,0.0000000,0.0000000,0.0000000,0.0000000,8.00,38.4062386,-110.7921143,1365.4000244,0.4,348.0,1.1,0.0,0.0,891,140,0,0,855.51,10.22,28.72,0
16:21:25,0,0,0,0,0,0,0,0,0,0,0,515,0,0,0,0,0.0000000,0.0000000,0.0000000,0.0000000,8.00,38.4062386,-110.7921143,1365.4000244,0.4,351.5,1.1,0.0,0.0,890,157,0,0,855.57,10.21,28.69,0
16:21:26,0,0,0,0,0,0,0,0,0,0,0,515,0,0,0,0,0.0000000,0.0000000,0.0000000,0.0000000,8.00,38.4062386,-110.7921143,1365.4000244,0.4,356.2,1.1,0.0,0.0,890,160,0,0,855.56,10.22,28.67,0
16:21:27,0,0,0,0,0,0,0,0,0,0,0,515,0,0,0,0,0.0000000,0.0000000,0.0000000,0.0000000,8.00,38.4062424,-110.7921143,1365.4000244,0.4,350.2,1.1,0.0,0.0,891,152,0,0,855.56,10.22,28.71,0
16:21:28,0,0,0,0,0,0,0,0,0,0,0,515,0,0,0,0,0.0000000,0.0000000,0.0000000,0.0000000,8.00,38.4062424,-110.7921143,1365.4000244,0.4,352.1,1.1,0.0,0.0,890,156,0,0,855.52,10.22,28.73,0
16:21:29,0,0,0,0,0,0,0,0,0,0,0,515,0,0,0,0,0.0000000,0.0000000,0.0000000,0.0000000,8.00,38.4062462,-110.7921143,1365.4000244,0.3,4.1,1.1,0.0,0.0,891,153,0,0,855.54,10.22,28.73,0
16:21:30,0,0,0,0,0,0,0,0,0,0,0,514,0,0,0,0,0.0000000,0.0000000,0.0000000,0.0000000,8.00,38.4062462,-110.7921143,1365.4000244,0.2,358.0,1.1,0.0,0.0,891,148,0,0,855.57,10.21,28.72,0
16:21:31,0,0,0,0,0,0,0,0,0,0,0,514,0,0,0,0,0.0000000,0.0000000,0.0000000,0.0000000,8.00,38.4062500,-110.7921143,1365.3000488,0.3,359.9,1.1,0.0,0.0,890,143,0,0,855.49,10.22,28.69,0
16:21:32,0,0,0,0,0,0,0,0,0,0,0,515,0,0,0,0,0.0000000,0.0000000,0.0000000,0.0000000,8.00,38.4062500,-110.7921143,1365.3000488,0.3,12.9,1.1,0.0,0.0,890,143,0,0,855.53,10.24,28.69,0
16:21:33,0,0,0,0,0,0,0,0,0,0,0,515,0,0,0,0,0.0000000,0.0000000,0.0000000,0.0000000,8.00,38.4062538,-110.7921143,1365.3000488,0.4,22.0,1.1,0.0,0.0,891,142,0,0,855.45,10.24,28.70,0
16:21:34,0,0,0,0,0,0,0,0,0,0,0,515,0,0,0,0,0.0000000,0.0000000,0.0000000,0.0000000,8.00,38.4062538,-110.7921143,1365.3000488,0.3,30.1,1.0,0.0,0.0,891,142,0,0,855.55,10.22,28.67,0
16:21:35,0,0,0,0,0,0,0,0,0,0,0,514,0,0,0,0,0.0000000,0.0000000,0.0000000,0.0000000,8.00,38.4062538,-110.7921143,1365.3000488,0.3,41.6,1.0,0.0,0.0,890,141,0,0,855.55,10.22,28.65,0
16:21:36,0,0,0,0,0,0,0,0,0,0,0,515,0,0,0,0,0.0000000,0.0000000,0.0000000,0.0000000,8.00,38.4062576,-110.7921143,1365.3000488,0.2,59.5,1.0,0.0,0.0,890,144,0,0,855.61,10.22,28.64,0
16:21:37,0,0,0,0,0,0,0,0,0,0,0,514,0,0,0,0,0.0000000,0.0000000,0.0000000,0.0000000,8.00,38.4062576,-110.7921143,1365.3000488,0.2,72.4,1.0,0.0,0.0,890,141,0,0,855.58,10.24,28.64,0
16:21:38,0,0,0,0,0,0,0,0,0,0,0,514,0,0,0,0,0.0000000,0.0000000,0.0000000,0.0000000,8.00,38.4062576,-110.7921143,1365.3000488,0.1,82.4,1.0,0.0,0.0,891,130,0,0,855.59,10.25,28.66,0
16:21:39,0,0,0,0,0,0,0,0,0,0,0,514,0,0,0,0,0.0000000,0.0000000,0.0000000,0.0000000,8.00,38.4062576,-110.7921143,1365.3000488,0.1,37.3,1.0,0.0,0.0,890,139,0,0,855.63,10.25,28.67,0
16:21:40,0,0,0,0,0,0,0,0,0,0,0,515,0,0,0,0,0.0000000,0.0000000,0.0000000,0.0000000,8.00,38.4062576,-110.7921143,1365.3000488,0.1,42.2,1.0,0.0,0.0,891,144,0,0,855.59,10.24,28.68,0
16:21:41,0,0,0,0,0,0,0,0,0,0,0,514,0,0,0,0,0.0000000,0.0000000,0.0000000,0.0000000,8.00,38.4062576,-110.7921143,1365.3000488,0.1,127.0,1.0,0.0,0.0,890,143,0,0,855.63,10.24,28.69,0
16:21:42,0,0,0,0,0,0,0,0,0,0,0,515,0,0,0,0,0.0000000,0.0000000,0.0000000,0.0000000,8.00,38.4062576,-110.7921143,1365.3000488,0.1,77.1,1.0,0.0,0.0,890,138,0,0,855.54,10.19,28.69,0
16:21:43,0,0,0,0,0,0,0,0,0,0,0,515,0,0,0,0,0.0000000,0.0000000,0.0000000,0.0000000,8.00,38.4062576,-110.7920990,1365.3000488,0.1,106.7,1.0,0.0,0.0,891,144,0,0,855.51,10.22,28.69,0
16:21:44,0,0,0,0,0,0,0,0,0,0,0,515,0,0,0,0,0.0000000,0.0000000,0.0000000,0.0000000,8.00,38.4062576,-110.7920990,1365.3000488,0.2,106.3,1.0,0.0,0.0,890,150,0,0,855.49,10.21,28.66,0
16:21:45,0,0,0,0,0,0,0,0,0,0,0,514,0,0,0,0,0.0000000,0.0000000,0.0000000,0.0000000,8.00,38.4062576,-110.7920990,1365.3000488,0.2,77.4,1.0,0.0,0.0,891,147,0,0,855.56,10.21,28.65,0
16:21:46,0,0,0,0,0,0,0,0,0,0,0,514,0,0,0,0,0.0000000,0.0000000,0.0000000,0.0000000,8.00,38.4062576,-110.7920990,1365.3000488,0.3,79.9,1.0,0.0,0.0,890,152,0,0,855.59,10.24,28.64,0
16:21:47,0,0,0,0,0,0,0,0,0,0,0,515,0,0,0,0,0.0000000,0.0000000,0.0000000,0.0000000,8.00,38.4062576,-110.7920990,1365.3000488,0.1,89.6,1.0,0.0,0.0,891,154,0,0,855.69,10.22,28.62,0
16:21:48,0,0,0,0,0,0,0,0,0,0,0,514,0,0,0,0,0.0000000,0.0000000,0.0000000,0.0000000,8.00,38.4062576,-110.7920990,1365.3000488,0.1,83.1,1.0,0.0,0.0,891,144,0,0,855.57,10.22,28.60,0
16:21:49,0,0,0,0,0,0,0,0,0,0,0,516,0,0,0,0,0.0000000,0.0000000,0.0000000,0.0000000,8.00,38.4062576,-110.7920990,1365.3000488,0.2,57.8,1.0,0.0,0.0,891,144,0,0,855.58,10.24,28.59,0
16:21:50,0,0,0,0,0,0,0,0,0,0,0,515,0,0,0,0,0.0000000,0.0000000,0.0000000,0.0000000,8.00,38.4062576,-110.7920990,1365.3000488,0.2,55.4,1.0,0.0,0.0,890,145,0,0,855.53,10.25,28.60,0
16:21:51,0,0,0,0,0,0,0,0,0,0,0,515,0,0,0,0,0.0000000,0.0000000,0.0000000,0.0000000,8.00,38.4062576,-110.7920990,1365.3000488,0.2,63.4,1.0,0.0,0.0,891,138,0,0,855.50,10.24,28.57,0
16:21:52,0,0,0,0,0,0,0,0,0,0,0,515,0,0,0,0,0.0000000,0.0000000,0.0000000,0.0000000,8.00,38.4062576,-110.7920990,1365.3000488,0.3,59.9,1.0,0.0,0.0,891,136,0,0,855.53,10.25,28.53,0
16:21:53,0,0,0,0,0,0,0,0,0,0,0,514,0,0,0,0,0.0000000,0.0000000,0.0000000,0.0000000,8.00,38.4062576,-110.7920990,1365.3000488,0.4,74.6,1.0,0.0,0.0,890,145,0,0,855.56,10.27,28.51,0
16:21:54,0,0,0,0,0,0,0,0,0,0,0,516,0,0,0,0,0.0000000,0.0000000,0.0000000,0.0000000,8.00,38.4062576,-110.7920914,1365.3000488,0.2,70.3,1.0,0.0,0.0,890,144,0,0,855.58,10.30,28.53,0
16:21:55,0,0,0,0,0,0,0,0,0,0,0,515,0,0,0,0,0.0000000,0.0000000,0.0000000,0.0000000,8.00,38.4062576,-110.7920914,1365.3000488,0.2,50.3,1.0,0.0,0.0,891,145,0,0,855.49,10.27,28.53,0
16:21:56,0,0,0,0,0,0,0,0,0,0,0,515,0,0,0,0,0.0000000,0.0000000,0.0000000,0.0000000,8.00,38.4062576,-110.7920914,1365.3000488,0.3,54.8,1.0,0.0,0.0,890,151,0,0,855.50,10.28,28.49,0
16:21:57,0,0,0,0,0,0,0,0,0,0,0,514,0,0,0,0,0.0000000,0.0000000,0.0000000,0.0000000,8.00,38.4062576,-110.7920914,1365.3000488,0.2,44.8,1.0,0.0,0.0,891,153,0,0,855.51,10.30,28.48,0
16:21:58,0,0,0,0,0,0,0,0,0,0,0,516,0,0,0,0,0.0000000,0.0000000,0.0000000,0.0000000,8.00,38.4062576,-110.7920914,1365.3000488,0.2,44.3,1.0,0.0,0.0,891,149,0,0,855.51,10.33,28.46,0
16:21:59,0,0,0,0,0,0,0,0,0,0,0,515,0,0,0,0,0.0000000,0.0000000,0.0000000,0.0000000,8.00,38.4062576,-110.7920914,1365.1999512,0.2,32.0,1.0,0.0,0.0,891,145,0,0,855.54,10.33,28.44,0
16:22:00,0,0,0,0,0,0,0,0,0,0,0,515,0,0,0,0,0.0000000,0.0000000,0.0000000,0.0000000,8.00,38.4062614,-110.7920914,1365.1999512,0.2,40.5,1.0,0.0,0.0,891,144,0,0,855.43,10.32,28.42,0
16:22:01,0,0,0,0,0,0,0,0,0,0,0,514,0,0,0,0,0.0000000,0.0000000,0.0000000,0.0000000,8.00,38.4062614,-110.7920914,1365.1999512,0.3,28.9,1.0,0.0,0.0,890,130,0,0,855.51,10.38,28.40,0
16:22:02,0,0,0,0,0,0,0,0,0,0,0,515,0,0,0,0,0.0000000,0.0000000,0.0000000,0.0000000,8.00,38.4062614,-110.7920914,1365.1999512,0.3,33.4,1.0,0.0,0.0,890,139,0,0,855.52,10.39,28.40,0
16:22:03,0,0,0,0,0,0,0,0,0,0,0,515,0,0,0,0,0.0000000,0.0000000,0.0000000,0.0000000,8.00,38.4062653,-110.7920914,1365.1999512,0.3,40.5,1.0,0.0,0.0,891,137,0,0,855.54,10.39,28.40,0
16:22:04,0,0,0,0,0,0,0,0,0,0,0,515,0,0,0,0,0.0000000,0.0000000,0.0000000,0.0000000,8.00,38.4062653,-110.7920761,1365.1999512,0.2,38.2,1.0,0.0,0.0,890,138,0,0,855.58,10.38,28.39,0
16:22:05,0,0,0,0,0,0,0,0,0,0,0,515,0,0,0,0,0.0000000,0.0000000,0.0000000,0.0000000,8.00,38.4062653,-110.7920761,1365.1999512,0.3,65.3,1.0,0.0,0.0,891,139,0,0,855.57,10.41,28.37,0
16:22:06,0,0,0,0,0,0,0,0,0,0,0,515,0,0,0,0,0.0000000,0.0000000,0.0000000,0.0000000,8.00,38.4062653,-110.7920761,1365.1999512,0.3,79.4,1.0,0.0,0.0,890,131,0,0,855.57,10.42,28.34,0
16:22:07,0,0,0,0,0,0,0,0,0,0,0,515,0,0,0,0,0.0000000,0.0000000,0.0000000,0.0000000,8.00,38.4062653,-110.7920761,1365.1999512,0.3,79.4,1.0,0.0,0.0,890,129,0,0,855.52,10.41,28.34,0
16:22:08,0,0,0,0,0,0,0,0,0,0,0,515,0,0,0,0,0.0000000,0.0000000,0.0000000,0.0000000,8.00,38.4062653,-110.7920761,1365.1999512,0.4,78.8,1.0,0.0,0.0,890,145,0,0,855.57,10.44,28.33,0
16:22:09,0,0,0,0,0,0,0,0,0,0,0,515,0,0,0,0,0.0000000,0.0000000,0.0000000,0.0000000,8.00,38.4062691,-110.7920761,1365.1999512,0.4,86.2,1.0,0.0,0.0,890,151,0,0,855.46,10.45,28.32,0
16:22:10,0,0,0,0,0,0,0,0,0,0,0,515,0,0,0,0,0.0000000,0.0000000,0.0000000,0.0000000,8.00,38.4062691,-110.7920761,1365.1999512,0.3,102.0,1.0,0.0,0.0,890,147,0,0,855.51,10.45,28.28,0
16:22:11,0,0,0,0,0,0,0,0,0,0,0,516,0,0,0,0,0.0000000,0.0000000,0.0000000,0.0000000,8.00,38.4062653,-110.7920609,1365.1999512,0.3,127.5,1.0,0.0,0.0,891,155,0,0,855.54,10.48,28.26,0
16:22:12,0,0,0,0,0,0,0,0,0,0,0,515,0,0,0,0,0.0000000,0.0000000,0.0000000,0.0000000,8.00,38.4062653,-110.7920609,1365.1999512,0.3,141.2,1.0,0.0,0.0,891,158,0,0,855.43,10.50,28.23,0
16:22:13,0,0,0,0,0,0,0,0,0,0,0,514,0,0,0,0,0.0000000,0.0000000,0.0000000,0.0000000,8.00,38.4062653,-110.7920609,1365.1999512,0.2,175.5,1.0,0.0,0.0,891,159,0,0,855.55,10.54,28.21,0
16:22:14,0,0,0,0,0,0,0,0,0,0,0,515,0,0,0,0,0.0000000,0.0000000,0.0000000,0.0000000,8.00,38.4062653,-110.7920609,1365.1999512,0.2,205.8,1.0,0.0,0.0,890,152,0,0,855.61,10.54,28.21,0
16:22:15,0,0,0,0,0,0,0,0,0,0,0,514,0,0,0,0,0.0000000,0.0000000,0.0000000,0.0000000,8.00,38.4062614,-110.7920609,1365.1999512,0.2,173.9,1.0,0.0,0.0,890,146,0,0,855.55,10.53,28.21,0
16:22:16,0,0,0,0,0,0,0,0,0,0,0,515,0,0,0,0,0.0000000,0.0000000,0.0000000,0.0000000,8.00,38.4062614,-110.7920609,1365.1999512,0.2,180.7,1.0,0.0,0.0,890,150,0,0,855.47,10.59,28.10,0
16:22:17,0,0,0,0,0,0,0,0,0,0,0,515,0,0,0,0,0.0000000,0.0000000,0.0000000,0.0000000,8.00,38.4062614,-110.7920609,1365.1999512,0.1,181.6,1.0,0.0,0.0,890,152,0,0,855.52,10.57,28.06,0
16:22:18,0,0,0,0,0,0,0,0,0,0,0,515,0,0,0,0,0.0000000,0.0000000,0.0000000,0.0000000,8.00,38.4062576,-110.7920609,1365.1999512,0.1,121.4,1.0,0.0,0.0,891,150,0,0,855.56,10.62,28.13,0
16:22:19,0,0,0,0,0,0,0,0,0,0,0,515,0,0,0,0,0.0000000,0.0000000,0.0000000,0.0000000,8.00,38.4062576,-110.7920609,1365.1999512,0.1,121.4,1.0,0.0,0.0,890,147,0,0,855.53,10.62,28.12,0
16:22:21,0,0,0,0,0,0,0,0,0,0,0,515,0,0,0,0,0.0000000,0.0000000,0.0000000,0.0000000,8.00,38.4062614,-110.7920609,1365.1999512,0.2,56.6,1.0,0.0,0.0,890,147,0,0,855.53,10.59,28.14,0
16:22:22,0,0,0,0,0,0,0,0,0,0,0,515,0,0,0,0,0.0000000,0.0000000,0.0000000,0.0000000,8.00,38.4062614,-110.7920609,1365.1999512,0.4,60.6,1.0,0.0,0.0,891,150,0,0,855.52,10.62,28.13,0
16:22:23,0,0,0,0,0,0,0,0,0,0,0,514,0,0,0,0,0.0000000,0.0000000,0.0000000,0.0000000,8.00,38.4062614,-110.7920609,1365.1999512,0.3,98.1,1.0,0.0,0.0,890,151,0,0,855.50,10.67,28.14,0
16:22:24,0,0,0,0,0,0,0,0,0,0,0,515,0,0,0,0,0.0000000,0.0000000,0.0000000,0.0000000,8.00,38.4062614,-110.7920609,1365.1999512,0.2,127.8,1.0,0.0,0.0,891,149,0,0,855.60,10.65,28.16,0
16:22:25,0,0,0,0,0,0,0,0,0,0,0,515,0,0,0,0,0.0000000,0.0000000,0.0000000,0.0000000,8.00,38.4062614,-110.7920609,1365.1999512,0.1,155.1,1.0,0.0,0.0,891,144,0,0,855.49,10.68,28.18,0
16:22:26,0,0,0,0,0,0,0,0,0,0,0,515,0,0,0,0,0.0000000,0.0000000,0.0000000,0.0000000,8.00,38.4062576,-110.7920609,1365.1999512,0.2,130.4,1.0,0.0,0.0,890,145,0,0,855.65,10.67,28.20,0
16:22:27,0,0,0,0,0,0,0,0,0,0,0,515,0,0,0,0,0.0000000,0.0000000,0.0000000,0.0000000,8.00,38.4062576,-110.7920609,1365.1999512,0.3,88.3,1.0,0.0,0.0,890,143,0,0,855.45,10.65,28.21,0
16:22:28,0,0,0,0,0,0,0,0,0,0,0,515,0,0,0,0,0.0000000,0.0000000,0.0000000,0.0000000,8.00,38.4062576,-110.7920532,1365.1999512,0.4,80.1,1.0,0.0,0.0,890,147,0,0,855.60,10.62,28.19,0
16:22:29,0,0,0,0,0,0,0,0,0,0,0,515,0,0,0,0,0.0000000,0.0000000,0.0000000,0.0000000,8.00,38.4062576,-110.7920532,1365.1999512,0.4,62.5,1.0,0.0,0.0,890,147,0,0,855.62,10.62,28.18,0
16:22:30,0,0,0,0,0,0,0,0,0,0,0,515,0,0,0,0,0.0000000,0.0000000,0.0000000,0.0000000,8.00,38.4062614,-110.7920532,1365.1999512,0.3,72.5,1.0,0.0,0.0,890,145,0,0,855.66,10.62,28.17,0
16:22:31,0,0,0,0,0,0,0,0,0,0,0,515,0,0,0,0,0.0000000,0.0000000,0.0000000,0.0000000,8.00,38.4062614,-110.7920532,1365.1999512,0.3,87.7,1.0,0.0,0.0,890,153,0,0,855.64,10.65,28.14,0
16:22:32,0,0,0,0,0,0,0,0,0,0,0,515,0,0,0,0,0.0000000,0.0000000,0.0000000,0.0000000,8.00,38.4062614,-110.7920532,1365.1999512,0.2,61.0,1.0,0.0,0.0,890,153,0,0,855.65,10.68,28.13,0
16:22:33,0,0,0,0,0,0,0,0,0,0,0,515,0,0,0,0,0.0000000,0.0000000,0.0000000,0.0000000,8.00,38.4062614,-110.7920532,1365.1999512,0.3,94.8,1.0,0.0,0.0,891,152,0,0,855.63,10.65,28.13,0
16:22:34,0,0,0,0,0,0,0,0,0,0,0,515,0,0,0,0,0.0000000,0.0000000,0.0000000,0.0000000,8.00,38.4062614,-110.7920532,1365.1999512,0.3,110.5,1.0,0.0,0.0,890,144,0,0,855.63,10.67,28.13,0
16:22:35,0,0,0,0,0,0,0,0,0,0,0,515,0,0,0,0,0.0000000,0.0000000,0.0000000,0.0000000,8.00,38.4062614,-110.7920380,1365.1999512,0.2,81.1,1.0,0.0,0.0,890,146,0,0,855.59,10.67,28.14,0
16:22:36,0,0,0,0,0,0,0,0,0,0,0,514,0,0,0,0,0.0000000,0.0000000,0.0000000,0.0000000,8.00,38.4062614,-110.7920380,1365.1999512,0.2,48.6,1.0,0.0,0.0,890,169,0,0,855.66,10.68,28.11,0
16:22:37,0,0,0,0,0,0,0,0,0,0,0,514,0,0,0,0,0.0000000,0.0000000,0.0000000,0.0000000,8.00,38.4062614,-110.7920380,1365.1999512,0.3,54.0,1.0,0.0,0.0,890,161,0,0,855.72,10.65,28.12,0
16:22:38,0,0,0,0,0,0,0,0,0,0,0,514,0,0,0,0,0.0000000,0.0000000,0.0000000,0.0000000,8.00,38.4062614,-110.7920380,1365.1999512,0.3,27.4,1.0,0.0,0.0,890,158,0,0,855.77,10.68,28.12,0
16:22:39,0,0,0,0,0,0,0,0,0,0,0,515,0,0,0,0,0.0000000,0.0000000,0.0000000,0.0000000,8.00,38.4062614,-110.7920380,1365.1999512,0.4,41.5,1.0,0.0,0.0,890,152,0,0,855.76,10.70,28.11,0
16:22:40,0,0,0,0,0,0,0,0,0,0,0,515,0,0,0,0,0.0000000,0.0000000,0.0000000,0.0000000,8.00,38.4062653,-110.7920380,1365.1999512,0.4,38.4,1.0,0.0,0.0,890,144,0,0,855.67,10.73,28.10,0
16:22:41,0,0,0,0,0,0,0,0,0,0,0,514,0,0,0,0,0.0000000,0.0000000,0.0000000,0.0000000,8.00,38.4062653,-110.7920380,1365.1999512,0.3,40.5,1.0,0.0,0.0,891,151,0,0,855.71,10.71,28.07,0
16:22:42,0,0,0,0,0,0,0,0,0,0,0,515,0,0,0,0,0.0000000,0.0000000,0.0000000,0.0000000,8.00,38.4062691,-110.7920380,1365.1999512,0.4,67.2,1.0,0.0,0.0,890,157,0,0,855.68,10.73,28.09,0
16:22:43,0,0,0,0,0,0,0,0,0,0,0,515,0,0,0,0,0.0000000,0.0000000,0.0000000,0.0000000,8.00,38.4062691,-110.7920380,1365.1999512,0.4,70.4,1.0,0.0,0.0,890,154,0,0,855.67,10.73,28.08,0
16:22:44,0,0,0,0,0,0,0,0,0,0,0,514,0,0,0,0,0.0000000,0.0000000,0.0000000,0.0000000,8.00,38.4062691,-110.7920380,1365.1999512,0.3,72.9,1.0,0.0,0.0,891,150,0,0,855.77,10.77,28.08,0
16:22:45,0,0,0,0,0,0,0,0,0,0,0,513,0,0,0,0,0.0000000,0.0000000,0.0000000,0.0000000,8.00,38.4062691,-110.7920227,1365.1999512,0.3,73.7,1.0,0.0,0.0,890,151,0,0,855.69,10.71,28.08,0
16:22:46,0,0,0,0,0,0,0,0,0,0,0,515,0,0,0,0,0.0000000,0.0000000,0.0000000,0.0000000,8.00,38.4062691,-110.7920227,1365.1999512,0.3,60.2,1.0,0.0,0.0,890,147,0,0,855.75,10.73,28.10,0
16:22:47,0,0,0,0,0,0,0,0,0,0,0,515,0,0,0,0,0.0000000,0.0000000,0.0000000,0.0000000,8.00,38.4062691,-110.7920227,1365.1999512,0.5,33.4,1.0,0.0,0.0,890,139,0,0,855.71,10.71,28.10,0
16:22:48,0,0,0,0,0,0,0,0,0,0,0,514,0,0,0,0,0.0000000,0.0000000,0.0000000,0.0000000,8.00,38.4062729,-110.7920227,1365.1999512,0.4,47.8,1.0,0.0,0.0,890,152,0,0,855.80,10.70,28.09,0
16:22:49,0,0,0,0,0,0,0,0,0,0,0,515,0,0,0,0,0.0000000,0.0000000,0.0000000,0.0000000,8.00,38.4062729,-110.7920227,1365.1999512,0.3,60.9,1.0,0.0,0.0,891,166,0,0,855.72,10.71,28.07,0
16:22:50,0,0,0,0,0,0,0,0,0,0,0,515,0,0,0,0,0.0000000,0.0000000,0.0000000,0.0000000,8.00,38.4062767,-110.7920227,1365.1999512,0.2,69.9,1.0,0.0,0.0,890,169,0,0,855.75,10.74,28.05,0
16:22:51,0,0,0,0,0,0,0,0,0,0,0,515,0,0,0,0,0.0000000,0.0000000,0.0000000,0.0000000,8.00,38.4062767,-110.7920227,1365.1999512,0.2,76.5,1.0,0.0,0.0,890,161,0,0,855.73,10.73,28.07,0
16:22:52,0,0,0,0,0,0,0,0,0,0,0,515,0,0,0,0,0.0000000,0.0000000,0.0000000,0.0000000,8.00,38.4062767,-110.7920227,1365.1999512,0.2,87.1,1.0,0.0,0.0,890,155,0,0,855.71,10.71,28.09,0
16:22:53,0,0,0,0,0,0,0,0,0,0,0,515,0,0,0,0,0.0000000,0.0000000,0.0000000,0.0000000,8.00,38.4062767,-110.7920151,1365.1999512,0.1,106.9,1.0,0.0,0.0,891,153,0,0,855.64,10.71,28.10,0
16:22:54,0,0,0,0,0,0,0,0,0,0,0,515,0,0,0,0,0.0000000,0.0000000,0.0000000,0.0000000,8.00,38.4062729,-110.7920151,1365.1999512,0.1,209.2,1.0,0.0,0.0,890,154,0,0,855.76,10.68,28.09,0
16:22:55,0,0,0,0,0,0,0,0,0,0,0,515,0,0,0,0,0.0000000,0.0000000,0.0000000,0.0000000,8.00,38.4062729,-110.7920151,1365.1999512,0.1,265.0,1.0,0.0,0.0,890,147,0,0,855.73,10.73,28.10,0
16:22:56,0,0,0,0,0,0,0,0,0,0,0,515,0,0,0,0,0.0000000,0.0000000,0.0000000,0.0000000,8.00,38.4062729,-110.7920227,1365.1999512,0.0,228.3,1.0,0.0,0.0,890,146,0,0,855.70,10.74,28.07,0
16:22:57,0,0,0,0,0,0,0,0,0,0,0,515,0,0,0,0,0.0000000,0.0000000,0.0000000,0.0000000,8.00,38.4062729,-110.7920227,1365.1999512,0.1,137.8,1.0,0.0,0.0,889,145,0,0,855.77,10.73,28.06,0
16:22:58,0,0,0,0,0,0,0,0,0,0,0,514,0,0,0,0,0.0000000,0.0000000,0.0000000,0.0000000,8.00,38.4062729,-110.7920151,1365.1999512,0.1,109.8,1.0,0.0,0.0,890,144,0,0,855.79,10.74,28.06,0
16:22:59,0,0,0,0,0,0,0,0,0,0,0,515,0,0,0,0,0.0000000,0.0000000,0.0000000,0.0000000,8.00,38.4062729,-110.7920151,1365.1999512,0.2,77.5,1.0,0.0,0.0,891,149,0,0,855.71,10.74,28.05,0
16:23:00,0,0,0,0,0,0,0,0,0,0,0,514,0,0,0,0,0.0000000,0.0000000,0.0000000,0.0000000,8.00,38.4062729,-110.7920151,1365.1999512,0.1,69.6,1.0,0.0,0.0,890,149,0,0,855.76,10.77,28.02,0
16:23:01,0,0,0,0,0,0,0,0,0,0,0,515,0,0,0,0,0.0000000,0.0000000,0.0000000,0.0000000,8.00,38.4062729,-110.7920151,1365.1999512,0.2,75.2,1.0,0.0,0.0,890,155,0,0,855.78,10.80,28.01,0
16:23:02,0,0,0,0,0,0,0,0,0,0,0,514,0,0,0,0,0.0000000,0.0000000,0.0000000,0.0000000,8.00,38.4062729,-110.7920151,1365.1999512,0.3,88.9,1.0,0.0,0.0,890,155,0,0,855.73,10.79,28.01,0
16:23:03,0,0,0,0,0,0,0,0,0,0,0,514,0,0,0,0,0.0000000,0.0000000,0.0000000,0.0000000,8.00,38.4062729,-110.7920151,1365.1999512,0.2,82.3,1.0,0.0,0.0,891,148,0,0,855.68,10.77,28.03,0
16:23:04,0,0,0,0,0,0,0,0,0,0,0,515,0,0,0,0,0.0000000,0.0000000,0.0000000,0.0000000,8.00,38.4062729,-110.7920151,1365.1999512,0.1,78.4,1.0,0.0,0.0,890,152,0,0,855.67,10.77,28.05,0
16:23:05,0,0,0,0,0,0,0,0,0,0,0,515,0,0,0,0,0.0000000,0.0000000,0.0000000,0.0000000,8.00,38.4062729,-110.7920151,1365.1999512,0.1,71.1,1.0,0.0,0.0,890,141,0,0,855.62,10.73,28.07,0
16:23:06,0,0,0,0,0,0,0,0,0,0,0,514,0,0,0,0,0.0000000,0.0000000,0.0000000,0.0000000,8.00,38.4062729,-110.7920151,1365.1999512,0.2,87.4,1.0,0.0,0.0,890,142,0,0,855.60,10.73,28.07,0
16:23:07,0,0,0,0,0,0,0,0,0,0,0,514,0,0,0,0,0.0000000,0.0000000,0.0000000,0.0000000,8.00,38.4062729,-110.7920151,1365.1999512,0.2,108.1,1.0,0.0,0.0,890,142,0,0,855.64,10.70,28.06,0
16:23:08,0,0,0,0,0,0,0,0,0,0,0,515,0,0,0,0,0.0000000,0.0000000,0.0000000,0.0000000,8.00,38.4062729,-110.7919998,1365.1999512,0.4,103.6,1.0,0.0,0.0,891,141,0,0,855.61,10.68,28.04,0
16:23:09,0,0,0,0,0,0,0,0,0,0,0,514,0,0,0,0,0.0000000,0.0000000,0.0000000,0.0000000,8.00,38.4062729,-110.7919998,1365.1999512,0.4,103.7,1.0,0.0,0.0,891,138,0,0,855.63,10.65,28.04,0
16:23:10,0,0,0,0,0,0,0,0,0,0,0,515,0,0,0,0,0.0000000,0.0000000,0.0000000,0.0000000,8.00,38.4062729,-110.7919998,1365.1999512,0.4,93.0,1.0,0.0,0.0,890,141,0,0,855.67,10.67,28.04,0
16:23:11,0,0,0,0,0,0,0,0,0,0,0,515,0,0,0,0,0.0000000,0.0000000,0.0000000,0.0000000,8.00,38.4062729,-110.7919998,1365.1999512,0.3,102.8,1.0,0.0,0.0,890,144,0,0,855.69,10.77,28.04,0
16:23:12,0,0,0,0,0,0,0,0,0,0,0,514,0,0,0,0,0.0000000,0.0000000,0.0000000,0.0000000,8.00,38.4062729,-110.7919998,1365.1999512,0.1,100.7,1.0,0.0,0.0,891,163,0,0,855.63,10.88,28.05,0
16:23:13,0,0,0,0,0,0,0,0,0,0,0,514,0,0,0,0,0.0000000,0.0000000,0.0000000,0.0000000,8.00,38.4062729,-110.7919998,1365.1999512,0.2,81.0,1.0,0.0,0.0,890,175,0,0,855.61,10.88,28.06,0
16:23:14,0,0,0,0,0,0,0,0,0,0,0,515,0,0,0,0,0.0000000,0.0000000,0.0000000,0.0000000,8.00,38.4062729,-110.7919998,1365.1999512,0.1,67.6,1.0,0.0,0.0,890,170,0,0,855.64,10.88,28.07,0
16:23:15,0,0,0,0,0,0,0,0,0,0,0,515,0,0,0,0,0.0000000,0.0000000,0.0000000,0.0000000,8.00,38.4062729,-110.7919998,1365.1999512,0.1,338.7,1.0,0.0,0.0,891,162,0,0,855.55,10.86,28.08,0
16:23:16,0,0,0,0,0,0,0,0,0,0,0,515,0,0,0,0,0.0000000,0.0000000,0.0000000,0.0000000,8.00,38.4062729,-110.7919998,1365.1999512,0.1,85.1,1.0,0.0,0.0,890,156,0,0,855.67,10.83,28.07,0
16:23:17,0,0,0,0,0,0,0,0,0,0,0,515,0,0,0,0,0.0000000,0.0000000,0.0000000,0.0000000,8.00,38.4062729,-110.7919998,1365.1999512,0.0,114.6,1.0,0.0,0.0,890,150,0,0,855.65,10.76,28.08,0
16:23:18,0,0,0,0,0,0,0,0,0,0,0,514,0,0,0,0,0.0000000,0.0000000,0.0000000,0.0000000,8.00,38.4062729,-110.7919998,1365.1999512,0.2,90.1,1.0,0.0,0.0,890,145,0,0,855.62,10.76,28.09,0
16:23:19,0,0,0,0,0,0,0,0,0,0,0,514,0,0,0,0,0.0000000,0.0000000,0.0000000,0.0000000,8.00,38.4062729,-110.7919846,1365.1999512,0.1,15.2,1.0,0.0,0.0,890,142,0,0,855.61,10.74,28.09,0
16:23:20,0,0,0,0,0,0,0,0,0,0,0,515,0,0,0,0,0.0000000,0.0000000,0.0000000,0.0000000,8.00,38.4062729,-110.7919846,1365.1999512,0.2,61.8,1.0,0.0,0.0,891,151,0,0,855.64,10.70,28.06,0
16:23:21,0,0,0,0,0,0,0,0,0,0,0,514,0,0,0,0,0.0000000,0.0000000,0.0000000,0.0000000,8.00,38.4062729,-110.7919846,1365.1999512,0.3,82.6,1.0,0.0,0.0,890,146,0,0,855.56,10.68,28.07,0
16:23:22,0,0,0,0,0,0,0,0,0,0,0,514,0,0,0,0,0.0000000,0.0000000,0.0000000,0.0000000,8.00,38.4062729,-110.7919846,1365.1999512,0.3,90.2,1.0,0.0,0.0,891,145,0,0,855.67,10.70,28.07,0
16:23:23,0,0,0,0,0,0,0,0,0,0,0,514,0,0,0,0,0.0000000,0.0000000,0.0000000,0.0000000,8.00,38.4062729,-110.7919846,1365.1999512,0.3,129.6,1.0,0.0,0.0,890,146,0,0,855.61,10.74,28.08,0
16:23:24,0,0,0,0,0,0,0,0,0,0,0,515,0,0,0,0,0.0000000,0.0000000,0.0000000,0.0000000,8.00,38.4062729,-110.7919846,1365.1999512,0.3,162.9,1.0,0.0,0.0,890,138,0,0,855.60,10.74,28.09,0
16:23:25,0,0,0,0,0,0,0,0,0,0,0,515,0,0,0,0,0.0000000,0.0000000,0.0000000,0.0000000,8.00,38.4062691,-110.7919846,1365.1999512,0.3,155.1,1.0,0.0,0.0,890,140,0,0,855.54,10.74,28.10,0
16:23:26,0,0,0,0,0,0,0,0,0,0,0,514,0,0,0,0,0.0000000,0.0000000,0.0000000,0.0000000,8.00,38.4062691,-110.7919846,1365.1999512,0.2,150.4,1.0,0.0,0.0,890,134,0,0,855.58,10.77,28.11,0
16:23:27,0,0,0,0,0,0,0,0,0,0,0,515,0,0,0,0,0.0000000,0.0000000,0.0000000,0.0000000,8.00,38.4062653,-110.7919846,1365.1999512,0.3,153.1,1.0,0.0,0.0,890,151,0,0,855.54,10.74,28.11,0
16:23:28,0,0,0,0,0,0,0,0,0,0,0,515,0,0,0,0,0.0000000,0.0000000,0.0000000,0.0000000,8.00,38.4062653,-110.7919846,1365.1999512,0.3,151.5,1.0,0.0,0.0,890,151,0,0,855.58,10.73,28.12,0
16:23:29,0,0,0,0,0,0,0,0,0,0,0,515,0,0,0,0,0.0000000,0.0000000,0.0000000,0.0000000,8.00,38.4062653,-110.7919846,1365.1999512,0.3,132.0,1.0,0.0,0.0,890,154,0,0,855.50,10.76,28.13,0
16:23:30,0,0,0,0,0,0,0,0,0,0,0,515,0,0,0,0,0.0000000,0.0000000,0.0000000,0.0000000,8.00,38.4062614,-110.7919846,1365.1999512,0.2,138.7,1.0,0.0,0.0,890,148,0,0,855.56,10.71,28.12,0
16:23:31,0,0,0,0,0,0,0,0,0,0,0,514,0,0,0,0,0.0000000,0.0000000,0.0000000,0.0000000,8.00,38.4062614,-110.7919846,1365.1999512,0.3,151.1,1.0,0.0,0.0,891,148,0,0,855.60,10.70,28.12,0
16:23:32,0,0,0,0,0,0,0,0,0,0,0,515,0,0,0,0,0.0000000,0.0000000,0.0000000,0.0000000,8.00,38.4062614,-110.7919769,1365.1999512,0.2,148.9,1.0,0.0,0.0,890,142,0,0,855.62,10.68,28.11,0
16:23:33,0,0,0,0,0,0,0,0,0,0,0,515,0,0,0,0,0.0000000,0.0000000,0.0000000,0.0000000,8.00,38.4062576,-110.7919769,1365.1999512,0.2,148.7,1.0,0.0,0.0,890,145,0,0,855.61,10.67,28.10,0
16:23:34,0,0,0,0,0,0,0,0,0,0,0,515,0,0,0,0,0.0000000,0.0000000,0.0000000,0.0000000,8.00,38.4062576,-110.7919769,1365.1999512,0.1,194.7,1.0,0.0,0.0,891,143,0,0,855.51,10.65,28.11,0
16:23:35,0,0,0,0,0,0,0,0,0,0,0,515,0,0,0,0,0.0000000,0.0000000,0.0000000,0.0000000,8.00,38.4062576,-110.7919769,1365.1999512,0.1,319.4,1.0,0.0,0.0,890,145,0,0,855.61,10.65,28.12,0
16:23:36,0,0,0,0,0,0,0,0,0,0,0,514,0,0,0,0,0.0000000,0.0000000,0.0000000,0.0000000,8.00,38.4062576,-110.7919769,1365.1999512,0.2,292.7,1.0,0.0,0.0,890,146,0,0,855.55,10.64,28.12,0
16:23:37,0,0,0,0,0,0,0,0,0,0,0,514,0,0,0,0,0.0000000,0.0000000,0.0000000,0.0000000,8.00,38.4062576,-110.7919769,1365.1999512,0.2,268.6,1.0,0.0,0.0,890,132,0,0,855.54,10.64,28.00,0
16:23:38,0,0,0,0,0,0,0,0,0,0,0,514,0,0,0,0,0.0000000,0.0000000,0.0000000,0.0000000,8.00,38.4062576,-110.7919846,1365.1999512,0.2,247.8,1.0,0.0,0.0,890,146,0,0,855.60,10.62,28.01,0
16:23:39,0,0,0,0,0,0,0,0,0,0,0,514,0,0,0,0,0.0000000,0.0000000,0.0000000,0.0000000,8.00,38.4062576,-110.7919846,1365.1999512,0.3,279.7,1.0,0.0,0.0,890,141,0,0,855.72,10.62,28.00,0
16:23:40,0,0,0,0,0,0,0,0,0,0,0,515,0,0,0,0,0.0000000,0.0000000,0.0000000,0.0000000,8.00,38.4062576,-110.7919846,1365.1999512,0.2,312.0,1.0,0.0,0.0,890,140,0,0,855.72,10.62,28.07,0
16:23:41,0,0,0,0,0,0,0,0,0,0,0,515,0,0,0,0,0.0000000,0.0000000,0.0000000,0.0000000,8.00,38.4062576,-110.7919846,1365.1999512,0.2,305.5,1.0,0.0,0.0,890,141,0,0,855.58,10.64,28.01,0
16:23:42,0,0,0,0,0,0,0,0,0,0,0,514,0,0,0,0,0.0000000,0.0000000,0.0000000,0.0000000,8.00,38.4062614,-110.7919846,1365.1999512,0.1,317.2,1.0,0.0,0.0,890,134,0,0,855.69,10.62,28.07,0
16:23:43,0,0,0,0,0,0,0,0,0,0,0,515,0,0,0,0,0.0000000,0.0000000,0.0000000,0.0000000,8.00,38.4062576,-110.7919846,1365.1999512,0.1,242.6,1.0,0.0,0.0,890,135,0,0,855.76,10.64,28.08,0
16:23:44,0,0,0,0,0,0,0,0,0,0,0,514,0,0,0,0,0.0000000,0.0000000,0.0000000,0.0000000,8.00,38.4062576,-110.7919846,1365.1999512,0.2,210.8,1.0,0.0,0.0,890,136,0,0,855.80,10.64,28.12,0
16:23:46,0,0,0,0,0,0,0,0,0,0,0,515,0,0,0,0,0.0000000,0.0000000,0.0000000,0.0000000,8.00,38.4062576,-110.7919846,1365.1999512,0.1,199.8,1.0,0.0,0.0,890,141,0,0,855.84,10.61,28.12,0
16:23:47,0,0,0,0,0,0,0,0,0,0,0,515,0,0,0,0,0.0000000,0.0000000,0.0000000,0.0000000,8.00,38.4062576,-110.7919846,1365.1999512,0.2,194.5,1.0,0.0,0.0,890,151,0,0,855.65,10.59,28.09,0
16:23:48,0,0,0,0,0,0,0,0,0,0,0,515,0,0,0,0,0.0000000,0.0000000,0.0000000,0.0000000,8.00,38.4062576,-110.7919846,1365.1999512,0.2,163.0,1.0,0.0,0.0,890,149,0,0,855.52,10.59,28.06,0
16:23:49,0,0,0,0,0,0,0,0,0,0,0,515,0,0,0,0,0.0000000,0.0000000,0.0000000,0.0000000,8.00,38.4062576,-110.7919846,1365.1999512,0.2,177.4,1.0,0.0,0.0,890,156,0,0,855.70,10.64,28.05,0
16:23:50,0,0,0,0,0,0,0,0,0,0,0,515,0,0,0,0,0.0000000,0.0000000,0.0000000,0.0000000,8.00,38.4062576,-110.7919846,1365.1999512,0.1,183.4,1.0,0.0,0.0,890,158,0,0,855.65,10.62,28.06,0
