Time, Motor A Speed, Motor A Dir, Motor B Speed, Motor B Dir, Servo Rail Current Sensor, Servo Pos - Arm L, Servo Pos - Arm R, Servo Pos - End, Servo Pos - Hopper, Servo Pos - Lid, Servo Pos - Extra, Servo Current, LED - Front L, LED - Front R, LED - Back L, LED - Back R, IMU Pitch, IMU Roll, IMU Yaw, Compass Heading, GPS Sats, GPS Latitude, GPS Longitude, GPS Altitude, GPS Speed, GPS Angle, GPS HDOP, GPS VDOP, GPS PDOP, Battery, Wind, Comm Xbee Latency, Comm Arduino Latency, Pressure, Humidity, Temperature, uRADMonitor
16:42:27,0,0,0,0,0,0,0,0,0,0,0,515,0,0,0,0,0.0000000,0.0000000,0.0000000,0.0000000,9.00,38.4063568,-110.7921677,1375.5000000,0.0,60.7,1.1,0.0,0.0,887,147,0,0,855.14,10.82,29.29,0
16:42:28,0,0,0,0,0,0,0,0,0,0,0,515,0,0,0,0,0.0000000,0.0000000,0.0000000,0.0000000,9.00,38.4063568,-110.7921677,1375.5000000,0.0,219.8,1.1,0.0,0.0,887,150,0,0,855.16,10.85,29.26,0
16:42:29,0,0,0,0,0,0,0,0,0,0,0,514,0,0,0,0,0.0000000,0.0000000,0.0000000,0.0000000,9.00,38.4063568,-110.7921677,1375.5000000,0.0,271.0,1.1,0.0,0.0,887,146,0,0,855.11,10.85,29.25,0
16:42:30,0,0,0,0,0,0,0,0,0,0,0,514,0,0,0,0,0.0000000,0.0000000,0.0000000,0.0000000,9.00,38.4063568,-110.7921677,1375.5000000,0.0,224.3,1.1,0.0,0.0,888,149,0,0,855.11,10.88,29.23,0
16:42:31,0,0,0,0,0,0,0,0,0,0,0,514,0,0,0,0,0.0000000,0.0000000,0.0000000,0.0000000,9.00,38.4063568,-110.7921677,1375.5000000,0.0,268.2,1.1,0.0,0.0,887,143,0,0,855.13,10.88,29.21,0
16:42:32,0,0,0,0,0,0,0,0,0,0,0,515,0,0,0,0,0.0000000,0.0000000,0.0000000,0.0000000,9.00,38.4063568,-110.7921677,1375.5000000,0.0,300.3,1.0,0.0,0.0,887,141,0,0,855.16,10.90,29.22,0
16:42:33,0,0,0,0,0,0,0,0,0,0,0,515,0,0,0,0,0.0000000,0.0000000,0.0000000,0.0000000,9.00,38.4063568,-110.7921677,1375.5000000,0.0,176.6,1.1,0.0,0.0,888,141,0,0,855.15,10.88,29.25,0
16:42:34,0,0,0,0,0,0,0,0,0,0,0,516,0,0,0,0,0.0000000,0.0000000,0.0000000,0.0000000,9.00,38.4063568,-110.7921677,1375.5000000,0.0,0.0,1.0,0.0,0.0,888,143,0,0,855.15,10.90,29.25,0
16:42:35,0,0,0,0,0,0,0,0,0,0,0,515,0,0,0,0,0.0000000,0.0000000,0.0000000,0.0000000,9.00,38.4063568,-110.7921677,1375.5000000,0.0,220.0,1.1,0.0,0.0,888,150,0,0,855.20,10.86,29.26,0
16:42:36,0,0,0,0,0,0,0,0,0,0,0,515,0,0,0,0,0.0000000,0.0000000,0.0000000,0.0000000,9.00,38.4063568,-110.7921677,1375.5000000,0.0,304.5,1.1,0.0,0.0,887,146,0,0,855.16,10.88,29.23,0
16:42:37,0,0,0,0,0,0,0,0,0,0,0,515,0,0,0,0,0.0000000,0.0000000,0.0000000,0.0000000,9.00,38.4063568,-110.7921677,1375.5000000,0.0,331.7,1.0,0.0,0.0,887,146,0,0,855.17,10.90,29.20,0
16:42:38,0,0,0,0,0,0,0,0,0,0,0,514,0,0,0,0,0.0000000,0.0000000,0.0000000,0.0000000,9.00,38.4063568,-110.7921677,1375.5000000,0.0,273.7,1.1,0.0,0.0,888,150,0,0,855.20,10.90,29.17,0
16:42:39,0,0,0,0,0,0,0,0,0,0,0,514,0,0,0,0,0.0000000,0.0000000,0.0000000,0.0000000,9.00,38.4063568,-110.7921677,1375.5000000,0.0,269.3,1.1,0.0,0.0,887,142,0,0,855.14,10.91,29.17,0
16:42:40,0,0,0,0,0,0,0,0,0,0,0,515,0,0,0,0,0.0000000,0.0000000,0.0000000,0.0000000,9.00,38.4063568,-110.7921677,1375.5000000,0.0,236.0,1.1,0.0,0.0,887,139,0,0,855.17,10.91,29.17,0
16:42:41,0,0,0,0,0,0,0,0,0,0,0,515,0,0,0,0,0.0000000,0.0000000,0.0000000,0.0000000,9.00,38.4063568,-110.7921677,1375.5000000,0.0,221.8,1.0,0.0,0.0,887,138,0,0,855.17,10.90,29.16,0
16:42:42,0,0,0,0,0,0,0,0,0,0,0,515,0,0,0,0,0.0000000,0.0000000,0.0000000,0.0000000,9.00,38.4063568,-110.7921677,1375.5000000,0.0,214.8,1.1,0.0,0.0,887,144,0,0,855.17,10.93,29.13,0
16:42:43,0,0,0,0,0,0,0,0,0,0,0,515,0,0,0,0,0.0000000,0.0000000,0.0000000,0.0000000,9.00,38.4063568,-110.7921677,1375.5000000,0.0,303.2,1.1,0.0,0.0,888,140,0,0,855.18,10.94,29.12,0
16:42:44,0,0,0,0,0,0,0,0,0,0,0,515,0,0,0,0,0.0000000,0.0000000,0.0000000,0.0000000,9.00,38.4063568,-110.7921677,1375.5000000,0.0,96.2,1.1,0.0,0.0,887,145,0,0,855.19,10.94,29.16,0
16:42:45,0,0,0,0,0,0,0,0,0,0,0,516,0,0,0,0,0.0000000,0.0000000,0.0000000,0.0000000,9.00,38.4063568,-110.7921677,1375.5000000,0.0,208.4,1.1,0.0,0.0,887,144,0,0,855.19,10.93,29.15,0
16:42:46,0,0,0,0,0,0,0,0,0,0,0,515,0,0,0,0,0.0000000,0.0000000,0.0000000,0.0000000,9.00,38.4063568,-110.7921677,1375.5000000,0.0,205.5,1.1,0.0,0.0,887,146,0,0,855.14,10.91,29.14,0
16:42:47,0,0,0,0,0,0,0,0,0,0,0,514,0,0,0,0,0.0000000,0.0000000,0.0000000,0.0000000,9.00,38.4063568,-110.7921677,1375.5000000,0.0,171.1,1.1,0.0,0.0,888,145,0,0,855.18,10.93,29.15,0
16:42:48,0,0,0,0,0,0,0,0,0,0,0,514,0,0,0,0,0.0000000,0.0000000,0.0000000,0.0000000,9.00,38.4063568,-110.7921677,1375.5000000,0.0,103.8,1.1,0.0,0.0,887,143,0,0,855.12,10.91,29.15,0
16:42:49,0,0,0,0,0,0,0,0,0,0,0,515,0,0,0,0,0.0000000,0.0000000,0.0000000,0.0000000,9.00,38.4063568,-110.7921677,1375.5000000,0.0,182.7,1.0,0.0,0.0,888,142,0,0,855.18,10.90,29.16,0
16:42:50,0,0,0,0,0,0,0,0,0,0,0,513,0,0,0,0,0.0000000,0.0000000,0.0000000,0.0000000,9.00,38.4063568,-110.7921677,1375.5000000,0.0,21.2,1.1,0.0,0.0,887,141,0,0,855.19,10.93,29.14,0
16:42:51,0,0,0,0,0,0,0,0,0,0,0,515,0,0,0,0,0.0000000,0.0000000,0.0000000,0.0000000,9.00,38.4063568,-110.7921677,1375.5000000,0.0,11.3,1.0,0.0,0.0,887,140,0,0,855.17,10.96,29.12,0
16:42:52,0,0,0,0,0,0,0,0,0,0,0,514,0,0,0,0,0.0000000,0.0000000,0.0000000,0.0000000,9.00,38.4063568,-110.7921677,1375.5000000,0.0,203.0,1.1,0.0,0.0,887,136,0,0,855.14,10.97,29.12,0
16:42:53,0,0,0,0,0,0,0,0,0,0,0,514,0,0,0,0,0.0000000,0.0000000,0.0000000,0.0000000,9.00,38.4063568,-110.7921677,1375.5000000,0.0,178.9,1.0,0.0,0.0,887,141,0,0,855.19,10.97,29.11,0
16:42:54,0,0,0,0,0,0,0,0,0,0,0,513,0,0,0,0,0.0000000,0.0000000,0.0000000,0.0000000,9.00,38.4063568,-110.7921677,1375.5000000,0.0,219.0,1.1,0.0,0.0,887,143,0,0,855.14,10.99,29.11,0
16:42:55,0,0,0,0,0,0,0,0,0,0,0,515,0,0,0,0,0.0000000,0.0000000,0.0000000,0.0000000,9.00,38.4063568,-110.7921677,1375.5000000,0.0,182.9,1.0,0.0,0.0,887,142,0,0,855.16,10.94,29.13,0
16:42:56,0,0,0,0,0,0,0,0,0,0,0,514,0,0,0,0,0.0000000,0.0000000,0.0000000,0.0000000,9.00,38.4063568,-110.7921677,1375.5000000,0.0,264.8,1.0,0.0,0.0,888,141,0,0,855.18,10.94,29.14,0
16:42:57,0,0,0,0,0,0,0,0,0,0,0,514,0,0,0,0,0.0000000,0.0000000,0.0000000,0.0000000,9.00,38.4063568,-110.7921677,1375.5000000,0.0,285.6,1.1,0.0,0.0,886,140,0,0,855.16,10.97,29.12,0
16:42:58,0,0,0,0,0,0,0,0,0,0,0,515,0,0,0,0,0.0000000,0.0000000,0.0000000,0.0000000,9.00,38.4063568,-110.7921677,1375.5000000,0.0,24.9,1.0,0.0,0.0,887,138,0,0,855.16,10.96,29.14,0
16:42:59,0,0,0,0,0,0,0,0,0,0,0,515,0,0,0,0,0.0000000,0.0000000,0.0000000,0.0000000,9.00,38.4063568,-110.7921677,1375.5000000,0.0,41.8,1.1,0.0,0.0,887,141,0,0,855.12,10.93,29.15,0
16:43:00,0,0,0,0,0,0,0,0,0,0,0,515,0,0,0,0,0.0000000,0.0000000,0.0000000,0.0000000,9.00,38.4063568,-110.7921677,1375.5000000,0.0,96.2,1.0,0.0,0.0,887,136,0,0,855.17,10.93,29.18,0
16:43:01,0,0,0,0,0,0,0,0,0,0,0,514,0,0,0,0,0.0000000,0.0000000,0.0000000,0.0000000,9.00,38.4063568,-110.7921677,1375.5000000,0.0,54.7,1.1,0.0,0.0,887,141,0,0,855.17,10.93,29.19,0
16:43:02,0,0,0,0,0,0,0,0,0,0,0,515,0,0,0,0,0.0000000,0.0000000,0.0000000,0.0000000,9.00,38.4063568,-110.7921677,1375.5000000,0.0,82.1,1.1,0.0,0.0,887,142,0,0,855.16,10.91,29.20,0
16:43:03,0,0,0,0,0,0,0,0,0,0,0,515,0,0,0,0,0.0000000,0.0000000,0.0000000,0.0000000,9.00,38.4063568,-110.7921677,1375.5000000,0.0,116.0,1.0,0.0,0.0,887,145,0,0,855.17,10.90,29.21,0
16:43:04,0,0,0,0,0,0,0,0,0,0,0,515,0,0,0,0,0.0000000,0.0000000,0.0000000,0.0000000,9.00,38.4063568,-110.7921677,1375.5000000,0.0,221.4,1.1,0.0,0.0,887,144,0,0,855.14,10.91,29.21,0
16:43:05,0,0,0,0,0,0,0,0,0,0,0,514,0,0,0,0,0.0000000,0.0000000,0.0000000,0.0000000,9.00,38.4063568,-110.7921677,1375.5000000,0.0,243.7,1.1,0.0,0.0,887,140,0,0,855.18,10.93,29.21,0
16:43:06,0,0,0,0,0,0,0,0,0,0,0,514,0,0,0,0,0.0000000,0.0000000,0.0000000,0.0000000,9.00,38.4063568,-110.7921677,1375.5000000,0.0,283.1,1.1,0.0,0.0,887,140,0,0,855.16,10.90,29.20,0
16:43:07,0,0,0,0,0,0,0,0,0,0,0,514,0,0,0,0,0.0000000,0.0000000,0.0000000,0.0000000,9.00,38.4063568,-110.7921677,1375.5000000,0.0,268.1,1.1,0.0,0.0,887,142,0,0,855.14,10.93,29.21,0
16:43:08,0,0,0,0,0,0,0,0,0,0,0,515,0,0,0,0,0.0000000,0.0000000,0.0000000,0.0000000,9.00,38.4063568,-110.7921677,1375.5000000,0.0,277.9,1.0,0.0,0.0,887,143,0,0,855.11,10.90,29.13,0
16:43:09,0,0,0,0,0,0,0,0,0,0,0,514,0,0,0,0,0.0000000,0.0000000,0.0000000,0.0000000,9.00,38.4063568,-110.7921677,1375.5000000,0.0,279.8,1.1,0.0,0.0,887,140,0,0,855.07,10.88,29.13,0
16:43:10,0,0,0,0,0,0,0,0,0,0,0,515,0,0,0,0,0.0000000,0.0000000,0.0000000,0.0000000,9.00,38.4063568,-110.7921677,1375.5000000,0.0,11.9,1.0,0.0,0.0,887,139,0,0,855.12,10.88,29.11,0
16:43:11,0,0,0,0,0,0,0,0,0,0,0,515,0,0,0,0,0.0000000,0.0000000,0.0000000,0.0000000,9.00,38.4063568,-110.7921677,1375.5000000,0.0,48.3,1.1,0.0,0.0,887,139,0,0,855.19,10.91,29.21,0
16:43:12,0,0,0,0,0,0,0,0,0,0,0,514,0,0,0,0,0.0000000,0.0000000,0.0000000,0.0000000,9.00,38.4063568,-110.7921677,1375.5000000,0.0,53.5,1.0,0.0,0.0,887,140,0,0,855.18,10.91,29.23,0
16:43:13,0,0,0,0,0,0,0,0,0,0,0,515,0,0,0,0,0.0000000,0.0000000,0.0000000,0.0000000,9.00,38.4063568,-110.7921677,1375.5000000,0.0,73.4,1.1,0.0,0.0,887,142,0,0,855.16,10.90,29.16,0
16:43:14,0,0,0,0,0,0,0,0,0,0,0,514,0,0,0,0,0.0000000,0.0000000,0.0000000,0.0000000,9.00,38.4063568,-110.7921677,1375.5000000,0.0,75.5,1.0,0.0,0.0,887,138,0,0,855.17,10.86,29.15,0
16:43:15,0,0,0,0,0,0,0,0,0,0,0,515,0,0,0,0,0.0000000,0.0000000,0.0000000,0.0000000,9.00,38.4063568,-110.7921677,1375.5000000,0.0,49.7,1.0,0.0,0.0,887,138,0,0,855.19,10.85,29.17,0
16:43:16,0,0,0,0,0,0,0,0,0,0,0,515,0,0,0,0,0.0000000,0.0000000,0.0000000,0.0000000,9.00,38.4063568,-110.7921677,1375.5000000,0.0,89.1,1.0,0.0,0.0,888,140,0,0,855.16,10.85,29.23,0
16:43:17,0,0,0,0,0,0,0,0,0,0,0,515,0,0,0,0,0.0000000,0.0000000,0.0000000,0.0000000,9.00,38.4063568,-110.7921677,1375.5000000,0.0,21.7,1.1,0.0,0.0,887,146,0,0,855.21,10.85,29.20,0
16:43:18,0,0,0,0,0,0,0,0,0,0,0,514,0,0,0,0,0.0000000,0.0000000,0.0000000,0.0000000,9.00,38.4063568,-110.7921677,1375.5000000,0.0,4.1,1.1,0.0,0.0,887,142,0,0,855.18,10.86,29.22,0
16:43:19,0,0,0,0,0,0,0,0,0,0,0,514,0,0,0,0,0.0000000,0.0000000,0.0000000,0.0000000,9.00,38.4063568,-110.7921677,1375.5000000,0.0,24.0,1.1,0.0,0.0,887,139,0,0,855.22,10.86,29.22,0
16:43:20,0,0,0,0,0,0,0,0,0,0,0,515,0,0,0,0,0.0000000,0.0000000,0.0000000,0.0000000,9.00,38.4063568,-110.7921677,1375.5000000,0.0,3.5,1.0,0.0,0.0,888,140,0,0,855.17,10.85,29.21,0
16:43:22,0,0,0,0,0,0,0,0,0,0,0,515,0,0,0,0,0.0000000,0.0000000,0.0000000,0.0000000,9.00,38.4063568,-110.7921677,1375.5000000,0.0,338.1,1.0,0.0,0.0,888,143,0,0,855.16,10.85,29.23,0
16:43:23,0,0,0,0,0,0,0,0,0,0,0,515,0,0,0,0,0.0000000,0.0000000,0.0000000,0.0000000,9.00,38.4063568,-110.7921677,1375.5000000,0.0,28.5,1.1,0.0,0.0,887,137,0,0,855.17,10.83,29.22,0
16:43:24,0,0,0,0,0,0,0,0,0,0,0,514,0,0,0,0,0.0000000,0.0000000,0.0000000,0.0000000,9.00,38.4063568,-110.7921677,1375.5000000,0.0,22.7,1.0,0.0,0.0,887,139,0,0,855.18,10.83,29.20,0
16:43:25,0,0,0,0,0,0,0,0,0,0,0,515,0,0,0,0,0.0000000,0.0000000,0.0000000,0.0000000,9.00,38.4063568,-110.7921677,1375.4000244,0.0,57.1,1.0,0.0,0.0,887,136,0,0,855.17,10.86,29.18,0
16:43:26,0,0,0,0,0,0,0,0,0,0,0,514,0,0,0,0,0.0000000,0.0000000,0.0000000,0.0000000,9.00,38.4063568,-110.7921677,1375.4000244,0.0,98.8,1.0,0.0,0.0,887,136,0,0,855.23,10.88,29.18,0
16:43:27,0,0,0,0,0,0,0,0,0,0,0,515,0,0,0,0,0.0000000,0.0000000,0.0000000,0.0000000,9.00,38.4063568,-110.7921677,1375.4000244,0.0,126.4,1.1,0.0,0.0,887,141,0,0,855.16,10.88,29.15,0
16:43:28,0,0,0,0,0,0,0,0,0,0,0,516,0,0,0,0,0.0000000,0.0000000,0.0000000,0.0000000,9.00,38.4063568,-110.7921677,1375.4000244,0.0,95.2,1.0,0.0,0.0,887,144,0,0,855.18,10.90,29.17,0
16:43:29,0,0,0,0,0,0,0,0,0,0,0,515,0,0,0,0,0.0000000,0.0000000,0.0000000,0.0000000,9.00,38.4063568,-110.7921677,1375.4000244,0.0,6.4,1.0,0.0,0.0,887,139,0,0,855.21,10.90,29.17,0
16:43:30,0,0,0,0,0,0,0,0,0,0,0,514,0,0,0,0,0.0000000,0.0000000,0.0000000,0.0000000,9.00,38.4063568,-110.7921677,1375.4000244,0.0,41.4,1.1,0.0,0.0,887,141,0,0,855.23,10.90,29.17,0
16:43:31,0,0,0,0,0,0,0,0,0,0,0,515,0,0,0,0,0.0000000,0.0000000,0.0000000,0.0000000,9.00,38.4063568,-110.7921677,1375.4000244,0.0,35.6,1.1,0.0,0.0,887,139,0,0,855.19,10.85,29.18,0
16:43:32,0,0,0,0,0,0,0,0,0,0,0,514,0,0,0,0,0.0000000,0.0000000,0.0000000,0.0000000,9.00,38.4063568,-110.7921677,1375.4000244,0.0,4.3,1.0,0.0,0.0,887,140,0,0,855.19,10.88,29.21,0
16:43:33,0,0,0,0,0,0,0,0,0,0,0,515,0,0,0,0,0.0000000,0.0000000,0.0000000,0.0000000,9.00,38.4063568,-110.7921677,1375.4000244,0.0,0.9,1.1,0.0,0.0,887,144,0,0,855.18,10.86,29.24,0
16:43:34,0,0,0,0,0,0,0,0,0,0,0,514,0,0,0,0,0.0000000,0.0000000,0.0000000,0.0000000,9.00,38.4063568,-110.7921677,1375.4000244,0.0,165.6,1.0,0.0,0.0,887,138,0,0,855.19,10.90,29.19,0
16:43:35,0,0,0,0,0,0,0,0,0,0,0,514,0,0,0,0,0.0000000,0.0000000,0.0000000,0.0000000,9.00,38.4063568,-110.7921677,1375.4000244,0.0,346.7,1.1,0.0,0.0,887,138,0,0,855.23,10.88,29.17,0
16:43:36,0,0,0,0,0,0,0,0,0,0,0,515,0,0,0,0,0.0000000,0.0000000,0.0000000,0.0000000,9.00,38.4063568,-110.7921677,1375.4000244,0.0,38.2,1.0,0.0,0.0,887,141,0,0,855.24,10.90,29.13,0
16:43:37,0,0,0,0,0,0,0,0,0,0,0,515,0,0,0,0,0.0000000,0.0000000,0.0000000,0.0000000,9.00,38.4063568,-110.7921677,1375.4000244,0.0,355.4,1.0,0.0,0.0,886,138,0,0,855.18,10.90,29.12,0
16:43:38,0,0,0,0,0,0,0,0,0,0,0,514,0,0,0,0,0.0000000,0.0000000,0.0000000,0.0000000,9.00,38.4063568,-110.7921677,1375.4000244,0.0,351.9,1.0,0.0,0.0,887,144,0,0,855.21,10.88,29.16,0
16:43:39,0,0,0,0,0,0,0,0,0,0,0,515,0,0,0,0,0.0000000,0.0000000,0.0000000,0.0000000,9.00,38.4063568,-110.7921677,1375.4000244,0.0,57.4,1.1,0.0,0.0,887,136,0,0,855.19,10.88,29.21,0
16:43:40,0,0,0,0,0,0,0,0,0,0,0,514,0,0,0,0,0.0000000,0.0000000,0.0000000,0.0000000,9.00,38.4063568,-110.7921677,1375.4000244,0.0,217.6,1.1,0.0,0.0,887,135,0,0,855.20,10.85,29.21,0
16:43:41,0,0,0,0,0,0,0,0,0,0,0,515,0,0,0,0,0.0000000,0.0000000,0.0000000,0.0000000,9.00,38.4063568,-110.7921677,1375.4000244,0.0,285.7,1.1,0.0,0.0,887,136,0,0,855.18,10.88,29.20,0
16:43:42,0,0,0,0,0,0,0,0,0,0,0,515,0,0,0,0,0.0000000,0.0000000,0.0000000,0.0000000,9.00,38.4063568,-110.7921677,1375.4000244,0.0,294.2,1.0,0.0,0.0,886,134,0,0,855.24,10.91,29.19,0
16:43:43,0,0,0,0,0,0,0,0,0,0,0,515,0,0,0,0,0.0000000,0.0000000,0.0000000,0.0000000,9.00,38.4063568,-110.7921677,1375.4000244,0.0,300.5,1.0,0.0,0.0,887,133,0,0,855.20,10.88,29.20,0
16:43:44,0,0,0,0,0,0,0,0,0,0,0,515,0,0,0,0,0.0000000,0.0000000,0.0000000,0.0000000,9.00,38.4063568,-110.7921677,1375.4000244,0.0,294.6,1.1,0.0,0.0,887,130,0,0,855.19,10.90,29.19,0
16:43:45,0,0,0,0,0,0,0,0,0,0,0,515,0,0,0,0,0.0000000,0.0000000,0.0000000,0.0000000,9.00,38.4063568,-110.7921677,1375.4000244,0.0,304.5,1.0,0.0,0.0,887,136,0,0,855.20,10.86,29.19,0
16:43:46,0,0,0,0,0,0,0,0,0,0,0,514,0,0,0,0,0.0000000,0.0000000,0.0000000,0.0000000,9.00,38.4063568,-110.7921677,1375.4000244,0.0,317.5,1.0,0.0,0.0,887,135,0,0,855.23,10.91,29.18,0
16:43:47,0,0,0,0,0,0,0,0,0,0,0,515,0,0,0,0,0.0000000,0.0000000,0.0000000,0.0000000,9.00,38.4063568,-110.7921677,1375.4000244,0.0,265.9,1.0,0.0,0.0,887,137,0,0,855.22,10.88,29.18,0
16:43:48,0,0,0,0,0,0,0,0,0,0,0,515,0,0,0,0,0.0000000,0.0000000,0.0000000,0.0000000,9.00,38.4063568,-110.7921677,1375.4000244,0.0,261.8,1.0,0.0,0.0,887,136,0,0,855.24,10.91,29.17,0
16:43:49,0,0,0,0,0,0,0,0,0,0,0,515,0,0,0,0,0.0000000,0.0000000,0.0000000,0.0000000,9.00,38.4063568,-110.7921677,1375.4000244,0.0,244.8,1.0,0.0,0.0,887,135,0,0,855.18,10.86,29.18,0
16:43:50,0,0,0,0,0,0,0,0,0,0,0,514,0,0,0,0,0.0000000,0.0000000,0.0000000,0.0000000,9.00,38.4063568,-110.7921677,1375.4000244,0.1,323.1,1.1,0.0,0.0,887,136,0,0,855.21,10.86,29.18,0
16:43:51,0,0,0,0,0,0,0,0,0,0,0,515,0,0,0,0,0.0000000,0.0000000,0.0000000,0.0000000,9.00,38.4063568,-110.7921677,1375.4000244,0.0,290.3,1.1,0.0,0.0,886,135,0,0,855.17,10.88,29.17,0
16:43:52,0,0,0,0,0,0,0,0,0,0,0,515,0,0,0,0,0.0000000,0.0000000,0.0000000,0.0000000,9.00,38.4063568,-110.7921677,1375.4000244,0.0,358.0,1.0,0.0,0.0,887,135,0,0,855.23,10.88,29.18,0
16:43:53,0,0,0,0,0,0,0,0,0,0,0,515,0,0,0,0,0.0000000,0.0000000,0.0000000,0.0000000,9.00,38.4063568,-110.7921677,1375.4000244,0.0,33.1,1.1,0.0,0.0,887,136,0,0,855.19,10.86,29.15,0
16:43:54,0,0,0,0,0,0,0,0,0,0,0,515,0,0,0,0,0.0000000,0.0000000,0.0000000,0.0000000,9.00,38.4063568,-110.7921677,1375.4000244,0.0,7.5,1.1,0.0,0.0,887,134,0,0,855.23,10.90,29.13,0
16:43:55,0,0,0,0,0,0,0,0,0,0,0,515,0,0,0,0,0.0000000,0.0000000,0.0000000,0.0000000,9.00,38.4063568,-110.7921677,1375.4000244,0.0,61.7,1.1,0.0,0.0,887,138,0,0,855.17,10.88,29.12,0
16:43:56,0,0,0,0,0,0,0,0,0,0,0,515,0,0,0,0,0.0000000,0.0000000,0.0000000,0.0000000,9.00,38.4063568,-110.7921677,1375.4000244,0.0,9.2,1.1,0.0,0.0,887,144,0,0,855.22,10.91,29.12,0
16:43:57,0,0,0,0,0,0,0,0,0,0,0,514,0,0,0,0,0.0000000,0.0000000,0.0000000,0.0000000,9.00,38.4063568,-110.7921677,1375.4000244,0.0,43.8,1.0,0.0,0.0,887,138,0,0,855.19,10.90,29.11,0
16:43:58,0,0,0,0,0,0,0,0,0,0,0,515,0,0,0,0,0.0000000,0.0000000,0.0000000,0.0000000,9.00,38.4063568,-110.7921677,1375.4000244,0.0,64.2,1.1,0.0,0.0,886,139,0,0,855.22,10.85,29.12,0
16:43:59,0,0,0,0,0,0,0,0,0,0,0,515,0,0,0,0,0.0000000,0.0000000,0.0000000,0.0000000,9.00,38.4063568,-110.7921677,1375.4000244,0.0,133.8,1.1,0.0,0.0,887,141,0,0,855.24,10.86,29.09,0
16:44:00,0,0,0,0,0,0,0,0,0,0,0,515,0,0,0,0,0.0000000,0.0000000,0.0000000,0.0000000,9.00,38.4063568,-110.7921677,1375.4000244,0.0,81.1,1.0,0.0,0.0,887,136,0,0,855.18,10.86,29.10,0
16:44:01,0,0,0,0,0,0,0,0,0,0,0,514,0,0,0,0,0.0000000,0.0000000,0.0000000,0.0000000,9.00,38.4063568,-110.7921677,1375.4000244,0.0,74.7,1.1,0.0,0.0,887,142,0,0,855.20,10.86,29.11,0
16:44:02,0,0,0,0,0,0,0,0,0,0,0,514,0,0,0,0,0.0000000,0.0000000,0.0000000,0.0000000,9.00,38.4063568,-110.7921677,1375.4000244,0.0,87.1,1.1,0.0,0.0,887,139,0,0,855.19,10.86,29.13,0
16:44:03,0,0,0,0,0,0,0,0,0,0,0,515,0,0,0,0,0.0000000,0.0000000,0.0000000,0.0000000,9.00,38.4063568,-110.7921677,1375.4000244,0.0,119.0,1.1,0.0,0.0,887,137,0,0,855.23,10.85,29.15,0
16:44:04,0,0,0,0,0,0,0,0,0,0,0,515,0,0,0,0,0.0000000,0.0000000,0.0000000,0.0000000,9.00,38.4063568,-110.7921677,1375.4000244,0.0,297.2,1.1,0.0,0.0,886,139,0,0,855.20,10.83,29.18,0
16:44:05,0,0,0,0,0,0,0,0,0,0,0,515,0,0,0,0,0.0000000,0.0000000,0.0000000,0.0000000,9.00,38.4063568,-110.7921677,1375.4000244,0.0,273.6,1.1,0.0,0.0,887,139,0,0,855.25,10.82,29.18,0
16:44:06,0,0,0,0,0,0,0,0,0,0,0,515,0,0,0,0,0.0000000,0.0000000,0.0000000,0.0000000,9.00,38.4063568,-110.7921677,1375.4000244,0.0,260.9,1.1,0.0,0.0,887,140,0,0,855.19,10.83,29.17,0
16:44:07,0,0,0,0,0,0,0,0,0,0,0,515,0,0,0,0,0.0000000,0.0000000,0.0000000,0.0000000,9.00,38.4063568,-110.7921677,1375.4000244,0.0,289.3,1.1,0.0,0.0,887,139,0,0,855.24,10.82,29.17,0
16:44:08,0,0,0,0,0,0,0,0,0,0,0,514,0,0,0,0,0.0000000,0.0000000,0.0000000,0.0000000,9.00,38.4063568,-110.7921677,1375.4000244,0.0,326.5,1.0,0.0,0.0,887,140,0,0,855.21,10.83,29.18,0
16:44:09,0,0,0,0,0,0,0,0,0,0,0,514,0,0,0,0,0.0000000,0.0000000,0.0000000,0.0000000,9.00,38.4063568,-110.7921677,1375.4000244,0.0,330.1,1.1,0.0,0.0,887,140,0,0,855.21,10.80,29.17,0
16:44:10,0,0,0,0,0,0,0,0,0,0,0,515,0,0,0,0,0.0000000,0.0000000,0.0000000,0.0000000,9.00,38.4063568,-110.7921677,1375.4000244,0.0,112.6,1.1,0.0,0.0,887,144,0,0,855.20,10.80,29.15,0
16:44:11,0,0,0,0,0,0,0,0,0,0,0,514,0,0,0,0,0.0000000,0.0000000,0.0000000,0.0000000,9.00,38.4063568,-110.7921677,1375.4000244,0.0,94.2,1.1,0.0,0.0,887,140,0,0,855.23,10.77,29.17,0
16:44:12,0,0,0,0,0,0,0,0,0,0,0,515,0,0,0,0,0.0000000,0.0000000,0.0000000,0.0000000,9.00,38.4063568,-110.7921677,1375.4000244,0.0,78.8,1.1,0.0,0.0,887,141,0,0,855.16,10.76,29.19,0
16:44:13,0,0,0,0,0,0,0,0,0,0,0,515,0,0,0,0,0.0000000,0.0000000,0.0000000,0.0000000,9.00,38.4063568,-110.7921677,1375.4000244,0.0,88.3,1.0,0.0,0.0,887,141,0,0,855.22,10.77,29.19,0
16:44:14,0,0,0,0,0,0,0,0,0,0,0,515,0,0,0,0,0.0000000,0.0000000,0.0000000,0.0000000,9.00,38.4063568,-110.7921677,1375.4000244,0.0,86.8,1.1,0.0,0.0,887,141,0,0,855.27,10.74,29.17,0
16:44:15,0,0,0,0,0,0,0,0,0,0,0,514,0,0,0,0,0.0000000,0.0000000,0.0000000,0.0000000,9.00,38.4063568,-110.7921677,1375.4000244,0.0,77.5,1.0,0.0,0.0,887,146,0,0,855.22,10.74,29.16,0
16:44:16,0,0,0,0,0,0,0,0,0,0,0,514,0,0,0,0,0.0000000,0.0000000,0.0000000,0.0000000,9.00,38.4063568,-110.7921677,1375.4000244,0.0,241.7,1.1,0.0,0.0,887,144,0,0,855.17,10.79,29.15,0
16:44:17,0,0,0,0,0,0,0,0,0,0,0,513,0,0,0,0,0.0000000,0.0000000,0.0000000,0.0000000,9.00,38.4063568,-110.7921677,1375.4000244,0.0,304.9,1.0,0.0,0.0,887,142,0,0,855.22,10.82,29.15,0
16:44:18,0,0,0,0,0,0,0,0,0,0,0,514,0,0,0,0,0.0000000,0.0000000,0.0000000,0.0000000,9.00,38.4063568,-110.7921677,1375.4000244,0.0,275.1,1.1,0.0,0.0,887,145,0,0,855.21,10.82,29.14,0
16:44:19,0,0,0,0,0,0,0,0,0,0,0,514,0,0,0,0,0.0000000,0.0000000,0.0000000,0.0000000,9.00,38.4063568,-110.7921677,1375.4000244,0.0,275.6,1.0,0.0,0.0,887,143,0,0,855.19,10.80,29.08,0
16:44:20,0,0,0,0,0,0,0,0,0,0,0,515,0,0,0,0,0.0000000,0.0000000,0.0000000,0.0000000,9.00,38.4063568,-110.7921677,1375.4000244,0.0,261.0,1.0,0.0,0.0,887,143,0,0,855.26,10.85,29.04,0
16:44:21,0,0,0,0,0,0,0,0,0,0,0,515,0,0,0,0,0.0000000,0.0000000,0.0000000,0.0000000,9.00,38.4063568,-110.7921677,1375.4000244,0.0,282.8,1.0,0.0,0.0,887,141,0,0,855.19,10.85,29.05,0
16:44:22,0,0,0,0,0,0,0,0,0,0,0,514,0,0,0,0,0.0000000,0.0000000,0.0000000,0.0000000,9.00,38.4063568,-110.7921677,1375.4000244,0.0,117.2,1.0,0.0,0.0,887,141,0,0,855.22,10.85,29.06,0
16:44:23,0,0,0,0,0,0,0,0,0,0,0,514,0,0,0,0,0.0000000,0.0000000,0.0000000,0.0000000,9.00,38.4063568,-110.7921677,1375.4000244,0.0,96.8,1.1,0.0,0.0,886,140,0,0,855.19,10.82,29.06,0
16:44:24,0,0,0,0,0,0,0,0,0,0,0,514,0,0,0,0,0.0000000,0.0000000,0.0000000,0.0000000,9.00,38.4063568,-110.7921677,1375.4000244,0.0,98.3,1.1,0.0,0.0,887,140,0,0,855.24,10.85,29.03,0
16:44:25,0,0,0,0,0,0,0,0,0,0,0,515,0,0,0,0,0.0000000,0.0000000,0.0000000,0.0000000,9.00,38.4063568,-110.7921677,1375.4000244,0.0,74.8,1.1,0.0,0.0,887,141,0,0,855.22,10.86,29.01,0
16:44:26,0,0,0,0,0,0,0,0,0,0,0,515,0,0,0,0,0.0000000,0.0000000,0.0000000,0.0000000,9.00,38.4063568,-110.7921677,1375.4000244,0.0,84.0,1.0,0.0,0.0,887,142,0,0,855.23,10.88,29.01,0
16:44:27,0,0,0,0,0,0,0,0,0,0,0,515,0,0,0,0,0.0000000,0.0000000,0.0000000,0.0000000,9.00,38.4063568,-110.7921677,1375.4000244,0.0,81.0,1.0,0.0,0.0,887,137,0,0,855.19,10.90,29.01,0
16:44:28,0,0,0,0,0,0,0,0,0,0,0,515,0,0,0,0,0.0000000,0.0000000,0.0000000,0.0000000,9.00,38.4063568,-110.7921677,1375.4000244,0.0,317.0,1.0,0.0,0.0,887,139,0,0,855.16,10.88,28.98,0
16:44:29,0,0,0,0,0,0,0,0,0,0,0,514,0,0,0,0,0.0000000,0.0000000,0.0000000,0.0000000,9.00,38.4063568,-110.7921677,1375.4000244,0.0,329.4,1.0,0.0,0.0,887,142,0,0,855.21,10.90,28.97,0
16:44:30,0,0,0,0,0,0,0,0,0,0,0,515,0,0,0,0,0.0000000,0.0000000,0.0000000,0.0000000,9.00,38.4063568,-110.7921677,1375.4000244,0.0,313.9,1.0,0.0,0.0,887,141,0,0,855.17,10.86,29.00,0
16:44:31,0,0,0,0,0,0,0,0,0,0,0,515,0,0,0,0,0.0000000,0.0000000,0.0000000,0.0000000,9.00,38.4063568,-110.7921677,1375.4000244,0.0,330.2,1.0,0.0,0.0,886,138,0,0,855.16,10.85,28.98,0
16:44:32,0,0,0,0,0,0,0,0,0,0,0,514,0,0,0,0,0.0000000,0.0000000,0.0000000,0.0000000,9.00,38.4063568,-110.7921677,1375.4000244,0.0,328.1,1.1,0.0,0.0,887,140,0,0,855.21,10.86,28.98,0
16:44:33,0,0,0,0,0,0,0,0,0,0,0,514,0,0,0,0,0.0000000,0.0000000,0.0000000,0.0000000,9.00,38.4063568,-110.7921677,1375.4000244,0.0,312.5,1.0,0.0,0.0,887,137,0,0,855.25,10.83,29.00,0
16:44:34,0,0,0,0,0,0,0,0,0,0,0,515,0,0,0,0,0.0000000,0.0000000,0.0000000,0.0000000,9.00,38.4063568,-110.7921677,1375.4000244,0.0,99.2,1.0,0.0,0.0,887,137,0,0,855.23,10.86,29.01,0
16:44:35,0,0,0,0,0,0,0,0,0,0,0,514,0,0,0,0,0.0000000,0.0000000,0.0000000,0.0000000,9.00,38.4063568,-110.7921677,1375.4000244,0.0,136.4,1.0,0.0,0.0,887,133,0,0,855.19,10.86,29.01,0
16:44:36,0,0,0,0,0,0,0,0,0,0,0,514,0,0,0,0,0.0000000,0.0000000,0.0000000,0.0000000,9.00,38.4063568,-110.7921677,1375.4000244,0.0,121.8,1.0,0.0,0.0,887,135,0,0,855.17,10.85,28.98,0
16:44:37,0,0,0,0,0,0,0,0,0,0,0,515,0,0,0,0,0.0000000,0.0000000,0.0000000,0.0000000,9.00,38.4063568,-110.7921677,1375.4000244,0.0,127.3,1.0,0.0,0.0,886,138,0,0,855.24,10.86,29.01,0
16:44:38,0,0,0,0,0,0,0,0,0,0,0,515,0,0,0,0,0.0000000,0.0000000,0.0000000,0.0000000,9.00,38.4063568,-110.7921677,1375.4000244,0.0,120.1,1.0,0.0,0.0,887,140,0,0,855.21,10.83,29.04,0
16:44:39,0,0,0,0,0,0,0,0,0,0,0,516,0,0,0,0,0.0000000,0.0000000,0.0000000,0.0000000,9.00,38.4063568,-110.7921677,1375.4000244,0.0,124.5,1.1,0.0,0.0,887,136,0,0,855.21,10.80,29.05,0
16:44:40,0,0,0,0,0,0,0,0,0,0,0,515,0,0,0,0,0.0000000,0.0000000,0.0000000,0.0000000,9.00,38.4063568,-110.7921677,1375.4000244,0.0,318.2,1.1,0.0,0.0,887,139,0,0,855.27,10.83,29.06,0
16:44:41,0,0,0,0,0,0,0,0,0,0,0,515,0,0,0,0,0.0000000,0.0000000,0.0000000,0.0000000,9.00,38.4063568,-110.7921677,1375.4000244,0.0,314.2,1.0,0.0,0.0,887,134,0,0,855.22,10.80,29.05,0
16:44:42,0,0,0,0,0,0,0,0,0,0,0,514,0,0,0,0,0.0000000,0.0000000,0.0000000,0.0000000,9.00,38.4063568,-110.7921677,1375.4000244,0.0,304.1,1.0,0.0,0.0,887,141,0,0,855.19,10.82,29.03,0
16:44:43,0,0,0,0,0,0,0,0,0,0,0,514,0,0,0,0,0.0000000,0.0000000,0.0000000,0.0000000,9.00,38.4063568,-110.7921677,1375.3000488,0.0,317.7,1.0,0.0,0.0,887,139,0,0,855.19,10.82,28.94,0
16:44:44,0,0,0,0,0,0,0,0,0,0,0,515,0,0,0,0,0.0000000,0.0000000,0.0000000,0.0000000,9.00,38.4063568,-110.7921677,1375.3000488,0.0,318.3,1.0,0.0,0.0,887,139,0,0,855.17,10.83,28.94,0
16:44:45,0,0,0,0,0,0,0,0,0,0,0,515,0,0,0,0,0.0000000,0.0000000,0.0000000,0.0000000,9.00,38.4063568,-110.7921677,1375.3000488,0.0,312.6,1.1,0.0,0.0,886,140,0,0,855.17,10.80,28.96,0
16:44:46,0,0,0,0,0,0,0,0,0,0,0,515,0,0,0,0,0.0000000,0.0000000,0.0000000,0.0000000,9.00,38.4063568,-110.7921677,1375.3000488,0.0,138.6,1.0,0.0,0.0,886,140,0,0,855.18,10.77,28.95,0
16:44:47,0,0,0,0,0,0,0,0,0,0,0,515,0,0,0,0,0.0000000,0.0000000,0.0000000,0.0000000,9.00,38.4063568,-110.7921677,1375.3000488,0.0,113.2,1.0,0.0,0.0,887,146,0,0,855.15,10.80,28.97,0
16:44:48,0,0,0,0,0,0,0,0,0,0,0,515,0,0,0,0,0.0000000,0.0000000,0.0000000,0.0000000,9.00,38.4063568,-110.7921677,1375.3000488,0.0,107.6,1.0,0.0,0.0,887,143,0,0,855.18,10.85,29.00,0
16:44:49,0,0,0,0,0,0,0,0,0,0,0,514,0,0,0,0,0.0000000,0.0000000,0.0000000,0.0000000,9.00,38.4063568,-110.7921677,1375.3000488,0.0,118.5,1.0,0.0,0.0,886,143,0,0,855.19,10.85,29.00,0
16:44:50,0,0,0,0,0,0,0,0,0,0,0,514,0,0,0,0,0.0000000,0.0000000,0.0000000,0.0000000,9.00,38.4063568,-110.7921677,1375.3000488,0.0,112.3,1.1,0.0,0.0,887,143,0,0,855.20,10.85,28.99,0
16:44:51,0,0,0,0,0,0,0,0,0,0,0,515,0,0,0,0,0.0000000,0.0000000,0.0000000,0.0000000,9.00,38.4063568,-110.7921677,1375.3000488,0.0,301.9,1.0,0.0,0.0,886,146,0,0,855.18,10.85,28.99,0
16:44:52,0,0,0,0,0,0,0,0,0,0,0,515,0,0,0,0,0.0000000,0.0000000,0.0000000,0.0000000,9.00,38.4063568,-110.7921677,1375.3000488,0.0,280.2,1.1,0.0,0.0,887,144,0,0,855.20,10.86,29.03,0
16:44:53,0,0,0,0,0,0,0,0,0,0,0,515,0,0,0,0,0.0000000,0.0000000,0.0000000,0.0000000,9.00,38.4063568,-110.7921677,1375.3000488,0.0,289.7,1.0,0.0,0.0,887,146,0,0,855.24,10.86,29.05,0
16:44:54,0,0,0,0,0,0,0,0,0,0,0,514,0,0,0,0,0.0000000,0.0000000,0.0000000,0.0000000,9.00,38.4063568,-110.7921677,1375.3000488,0.0,268.9,1.0,0.0,0.0,887,145,0,0,855.20,10.83,29.02,0
16:44:55,0,0,0,0,0,0,0,0,0,0,0,515,0,0,0,0,0.0000000,0.0000000,0.0000000,0.0000000,9.00,38.4063568,-110.7921677,1375.3000488,0.0,275.9,1.1,0.0,0.0,887,144,0,0,855.17,10.86,28.99,0
16:44:57,0,0,0,0,0,0,0,0,0,0,0,514,0,0,0,0,0.0000000,0.0000000,0.0000000,0.0000000,9.00,38.4063568,-110.7921677,1375.3000488,0.0,257.1,1.0,0.0,0.0,886,145,0,0,855.19,10.85,28.99,0
16:44:58,0,0,0,0,0,0,0,0,0,0,0,515,0,0,0,0,0.0000000,0.0000000,0.0000000,0.0000000,9.00,38.4063568,-110.7921677,1375.3000488,0.0,260.4,1.1,0.0,0.0,886,144,0,0,855.23,10.83,29.01,0
16:44:59,0,0,0,0,0,0,0,0,0,0,0,515,0,0,0,0,0.0000000,0.0000000,0.0000000,0.0000000,9.00,38.4063568,-110.7921677,1375.3000488,0.0,248.3,1.0,0.0,0.0,887,140,0,0,855.24,10.85,29.03,0
16:45:00,0,0,0,0,0,0,0,0,0,0,0,515,0,0,0,0,0.0000000,0.0000000,0.0000000,0.0000000,9.00,38.4063568,-110.7921677,1375.3000488,0.0,277.4,1.1,0.0,0.0,887,142,0,0,855.17,10.85,29.01,0
16:45:01,0,0,0,0,0,0,0,0,0,0,0,514,0,0,0,0,0.0000000,0.0000000,0.0000000,0.0000000,9.00,38.4063568,-110.7921677,1375.3000488,0.0,297.0,1.0,0.0,0.0,887,139,0,0,855.22,10.88,29.01,0
16:45:02,0,0,0,0,0,0,0,0,0,0,0,514,0,0,0,0,0.0000000,0.0000000,0.0000000,0.0000000,9.00,38.4063568,-110.7921677,1375.3000488,0.0,280.0,1.1,0.0,0.0,886,143,0,0,855.19,10.88,29.01,0
16:45:03,0,0,0,0,0,0,0,0,0,0,0,515,0,0,0,0,0.0000000,0.0000000,0.0000000,0.0000000,9.00,38.4063568,-110.7921677,1375.3000488,0.0,267.3,1.0,0.0,0.0,887,140,0,0,855.24,10.91,29.01,0
16:45:04,0,0,0,0,0,0,0,0,0,0,0,514,0,0,0,0,0.0000000,0.0000000,0.0000000,0.0000000,9.00,38.4063568,-110.7921677,1375.3000488,0.0,333.2,1.1,0.0,0.0,887,137,0,0,855.18,10.88,28.99,0
16:45:05,0,0,0,0,0,0,0,0,0,0,0,514,0,0,0,0,0.0000000,0.0000000,0.0000000,0.0000000,9.00,38.4063568,-110.7921677,1375.3000488,0.0,29.8,1.0,0.0,0.0,887,139,0,0,855.19,10.88,29.00,0
16:45:06,0,0,0,0,0,0,0,0,0,0,0,514,0,0,0,0,0.0000000,0.0000000,0.0000000,0.0000000,9.00,38.4063568,-110.7921677,1375.3000488,0.0,7.0,1.0,0.0,0.0,887,142,0,0,855.19,10.90,29.02,0
16:45:07,0,0,0,0,0,0,0,0,0,0,0,515,0,0,0,0,0.0000000,0.0000000,0.0000000,0.0000000,9.00,38.4063568,-110.7921677,1375.3000488,0.0,19.3,1.1,0.0,0.0,886,138,0,0,855.22,10.90,29.01,0
16:45:08,0,0,0,0,0,0,0,0,0,0,0,515,0,0,0,0,0.0000000,0.0000000,0.0000000,0.0000000,9.00,38.4063568,-110.7921677,1375.3000488,0.0,6.0,1.0,0.0,0.0,887,144,0,0,855.21,10.93,29.03,0
16:45:09,0,0,0,0,0,0,0,0,0,0,0,515,0,0,0,0,0.0000000,0.0000000,0.0000000,0.0000000,9.00,38.4063568,-110.7921677,1375.3000488,0.0,2.0,1.0,0.0,0.0,887,138,0,0,855.24,10.93,29.06,0
16:45:10,0,0,0,0,0,0,0,0,0,0,0,514,0,0,0,0,0.0000000,0.0000000,0.0000000,0.0000000,9.00,38.4063568,-110.7921677,1375.3000488,0.0,91.5,1.0,0.0,0.0,887,141,0,0,855.21,10.91,29.03,0
16:45:11,0,0,0,0,0,0,0,0,0,0,0,514,0,0,0,0,0.0000000,0.0000000,0.0000000,0.0000000,9.00,38.4063568,-110.7921677,1375.3000488,0.0,98.0,1.1,0.0,0.0,887,137,0,0,855.21,10.93,28.97,0
16:45:12,0,0,0,0,0,0,0,0,0,0,0,515,0,0,0,0,0.0000000,0.0000000,0.0000000,0.0000000,9.00,38.4063568,-110.7921677,1375.3000488,0.0,91.7,1.0,0.0,0.0,887,137,0,0,855.20,10.94,28.96,0
16:45:13,0,0,0,0,0,0,0,0,0,0,0,514,0,0,0,0,0.0000000,0.0000000,0.0000000,0.0000000,9.00,38.4063568,-110.7921677,1375.3000488,0.0,120.1,1.0,0.0,0.0,887,137,0,0,855.21,10.97,28.98,0
16:45:14,0,0,0,0,0,0,0,0,0,0,0,514,0,0,0,0,0.0000000,0.0000000,0.0000000,0.0000000,9.00,38.4063568,-110.7921677,1375.3000488,0.0,78.1,1.1,0.0,0.0,886,136,0,0,855.17,11.02,28.99,0
16:45:15,0,0,0,0,0,0,0,0,0,0,0,515,0,0,0,0,0.0000000,0.0000000,0.0000000,0.0000000,9.00,38.4063568,-110.7921677,1375.3000488,0.0,49.9,1.0,0.0,0.0,887,134,0,0,855.21,11.02,29.02,0
16:45:16,0,0,0,0,0,0,0,0,0,0,0,514,0,0,0,0,0.0000000,0.0000000,0.0000000,0.0000000,9.00,38.4063568,-110.7921677,1375.3000488,0.0,89.9,1.0,0.0,0.0,887,131,0,0,855.17,10.99,29.06,0
16:45:17,0,0,0,0,0,0,0,0,0,0,0,515,0,0,0,0,0.0000000,0.0000000,0.0000000,0.0000000,9.00,38.4063568,-110.7921677,1375.3000488,0.0,137.5,1.0,0.0,0.0,887,134,0,0,855.14,11.02,29.08,0
16:45:18,0,0,0,0,0,0,0,0,0,0,0,515,0,0,0,0,0.0000000,0.0000000,0.0000000,0.0000000,9.00,38.4063568,-110.7921677,1375.3000488,0.0,129.8,1.1,0.0,0.0,887,134,0,0,855.18,11.06,29.09,0
16:45:19,0,0,0,0,0,0,0,0,0,0,0,515,0,0,0,0,0.0000000,0.0000000,0.0000000,0.0000000,9.00,38.4063568,-110.7921677,1375.3000488,0.0,122.3,1.0,0.0,0.0,886,134,0,0,855.16,11.06,29.07,0
16:45:20,0,0,0,0,0,0,0,0,0,0,0,515,0,0,0,0,0.0000000,0.0000000,0.0000000,0.0000000,9.00,38.4063568,-110.7921677,1375.3000488,0.0,122.8,1.1,0.0,0.0,887,131,0,0,855.20,11.08,29.08,0
16:45:21,0,0,0,0,0,0,0,0,0,0,0,515,0,0,0,0,0.0000000,0.0000000,0.0000000,0.0000000,9.00,38.4063568,-110.7921677,1375.3000488,0.0,100.9,1.0,0.0,0.0,887,136,0,0,855.19,11.06,29.08,0
16:45:22,0,0,0,0,0,0,0,0,0,0,0,514,0,0,0,0,0.0000000,0.0000000,0.0000000,0.0000000,9.00,38.4063568,-110.7921677,1375.3000488,0.0,118.0,1.0,0.0,0.0,887,131,0,0,855.20,11.08,29.09,0
16:45:23,0,0,0,0,0,0,0,0,0,0,0,514,0,0,0,0,0.0000000,0.0000000,0.0000000,0.0000000,9.00,38.4063568,-110.7921677,1375.3000488,0.0,319.0,1.0,0.0,0.0,887,138,0,0,855.18,11.11,29.06,0
16:45:24,0,0,0,0,0,0,0,0,0,0,0,515,0,0,0,0,0.0000000,0.0000000,0.0000000,0.0000000,9.00,38.4063568,-110.7921677,1375.3000488,0.0,277.1,1.0,0.0,0.0,887,134,0,0,855.14,11.11,29.10,0
16:45:25,0,0,0,0,0,0,0,0,0,0,0,515,0,0,0,0,0.0000000,0.0000000,0.0000000,0.0000000,9.00,38.4063568,-110.7921677,1375.3000488,0.0,357.3,1.1,0.0,0.0,887,130,0,0,855.14,11.08,29.14,0
16:45:26,0,0,0,0,0,0,0,0,0,0,0,514,0,0,0,0,0.0000000,0.0000000,0.0000000,0.0000000,9.00,38.4063568,-110.7921677,1375.3000488,0.0,302.1,1.0,0.0,0.0,887,135,0,0,855.18,11.09,29.15,0
16:45:27,0,0,0,0,0,0,0,0,0,0,0,514,0,0,0,0,0.0000000,0.0000000,0.0000000,0.0000000,9.00,38.4063568,-110.7921677,1375.3000488,0.0,302.1,1.0,0.0,0.0,887,135,0,0,855.10,11.06,29.14,0
16:45:28,0,0,0,0,0,0,0,0,0,0,0,515,0,0,0,0,0.0000000,0.0000000,0.0000000,0.0000000,9.00,38.4063568,-110.7921677,1375.3000488,0.0,271.3,1.0,0.0,0.0,886,136,0,0,855.13,11.06,29.14,0
16:45:29,0,0,0,0,0,0,0,0,0,0,0,514,0,0,0,0,0.0000000,0.0000000,0.0000000,0.0000000,9.00,38.4063568,-110.7921677,1375.3000488,0.0,359.2,1.0,0.0,0.0,887,136,0,0,855.17,11.05,29.16,0
16:45:30,0,0,0,0,0,0,0,0,0,0,0,514,0,0,0,0,0.0000000,0.0000000,0.0000000,0.0000000,9.00,38.4063568,-110.7921677,1375.3000488,0.0,289.1,1.0,0.0,0.0,887,139,0,0,855.12,11.06,29.15,0
16:45:31,0,0,0,0,0,0,0,0,0,0,0,515,0,0,0,0,0.0000000,0.0000000,0.0000000,0.0000000,9.00,38.4063568,-110.7921677,1375.3000488,0.0,342.7,1.0,0.0,0.0,886,135,0,0,855.15,11.08,29.15,0
16:45:32,0,0,0,0,0,0,0,0,0,0,0,515,0,0,0,0,0.0000000,0.0000000,0.0000000,0.0000000,9.00,38.4063568,-110.7921677,1375.3000488,0.0,277.7,1.0,0.0,0.0,887,139,0,0,855.19,11.00,29.11,0
16:45:33,0,0,0,0,0,0,0,0,0,0,0,514,0,0,0,0,0.0000000,0.0000000,0.0000000,0.0000000,9.00,38.4063568,-110.7921677,1375.3000488,0.0,305.4,1.0,0.0,0.0,886,138,0,0,855.19,11.03,29.10,0
16:45:34,0,0,0,0,0,0,0,0,0,0,0,515,0,0,0,0,0.0000000,0.0000000,0.0000000,0.0000000,9.00,38.4063568,-110.7921677,1375.3000488,0.0,273.9,1.0,0.0,0.0,887,140,0,0,855.20,11.05,29.09,0
16:45:35,0,0,0,0,0,0,0,0,0,0,0,514,0,0,0,0,0.0000000,0.0000000,0.0000000,0.0000000,9.00,38.4063568,-110.7921677,1375.3000488,0.0,18.8,1.0,0.0,0.0,887,140,0,0,855.16,11.06,29.08,0
16:45:36,0,0,0,0,0,0,0,0,0,0,0,515,0,0,0,0,0.0000000,0.0000000,0.0000000,0.0000000,9.00,38.4063568,-110.7921677,1375.3000488,0.0,293.0,1.0,0.0,0.0,887,140,0,0,855.16,11.06,29.09,0
16:45:37,0,0,0,0,0,0,0,0,0,0,0,514,0,0,0,0,0.0000000,0.0000000,0.0000000,0.0000000,9.00,38.4063568,-110.7921677,1375.3000488,0.0,33.7,1.0,0.0,0.0,886,145,0,0,855.21,11.09,29.05,0
16:45:38,0,0,0,0,0,0,0,0,0,0,0,515,0,0,0,0,0.0000000,0.0000000,0.0000000,0.0000000,9.00,38.4063568,-110.7921677,1375.3000488,0.0,311.5,1.0,0.0,0.0,887,143,0,0,855.19,11.11,29.01,0
16:45:39,0,0,0,0,0,0,0,0,0,0,0,515,0,0,0,0,0.0000000,0.0000000,0.0000000,0.0000000,9.00,38.4063568,-110.7921677,1375.3000488,0.0,73.8,1.1,0.0,0.0,887,143,0,0,855.13,11.11,29.01,0
16:45:40,0,0,0,0,0,0,0,0,0,0,0,515,0,0,0,0,0.0000000,0.0000000,0.0000000,0.0000000,9.00,38.4063568,-110.7921677,1375.3000488,0.0,351.9,1.0,0.0,0.0,887,141,0,0,855.15,11.11,29.06,0
16:45:41,0,0,0,0,0,0,0,0,0,0,0,515,0,0,0,0,0.0000000,0.0000000,0.0000000,0.0000000,9.00,38.4063568,-110.7921677,1375.3000488,0.0,2.3,1.0,0.0,0.0,887,139,0,0,855.18,11.08,29.02,0
16:45:42,0,0,0,0,0,0,0,0,0,0,0,515,0,0,0,0,0.0000000,0.0000000,0.0000000,0.0000000,9.00,38.4063568,-110.7921677,1375.3000488,0.0,354.0,1.1,0.0,0.0,887,139,0,0,855.14,11.11,28.98,0
16:45:43,0,0,0,0,0,0,0,0,0,0,0,515,0,0,0,0,0.0000000,0.0000000,0.0000000,0.0000000,9.00,38.4063568,-110.7921677,1375.3000488,0.0,348.1,1.0,0.0,0.0,887,141,0,0,855.13,11.11,28.97,0
16:45:44,0,0,0,0,0,0,0,0,0,0,0,514,0,0,0,0,0.0000000,0.0000000,0.0000000,0.0000000,9.00,38.4063568,-110.7921677,1375.3000488,0.0,11.6,1.0,0.0,0.0,886,138,0,0,855.15,11.12,29.02,0
16:45:45,0,0,0,0,0,0,0,0,0,0,0,514,0,0,0,0,0.0000000,0.0000000,0.0000000,0.0000000,9.00,38.4063568,-110.7921677,1375.3000488,0.0,357.0,1.0,0.0,0.0,887,139,0,0,855.16,11.08,29.07,0
16:45:46,0,0,0,0,0,0,0,0,0,0,0,514,0,0,0,0,0.0000000,0.0000000,0.0000000,0.0000000,9.00,38.4063568,-110.7921677,1375.3000488,0.0,357.4,1.0,0.0,0.0,887,137,0,0,855.17,11.09,29.08,0
16:45:47,0,0,0,0,0,0,0,0,0,0,0,515,0,0,0,0,0.0000000,0.0000000,0.0000000,0.0000000,9.00,38.4063568,-110.7921677,1375.3000488,0.0,321.2,1.0,0.0,0.0,887,139,0,0,855.21,11.09,29.09,0
16:45:48,0,0,0,0,0,0,0,0,0,0,0,514,0,0,0,0,0.0000000,0.0000000,0.0000000,0.0000000,9.00,38.4063568,-110.7921677,1375.3000488,0.0,306.8,1.1,0.0,0.0,887,134,0,0,855.18,11.08,29.09,0
16:45:49,0,0,0,0,0,0,0,0,0,0,0,515,0,0,0,0,0.0000000,0.0000000,0.0000000,0.0000000,9.00,38.4063568,-110.7921677,1375.3000488,0.0,187.3,1.0,0.0,0.0,887,138,0,0,855.20,11.15,29.06,0
16:45:50,0,0,0,0,0,0,0,0,0,0,0,514,0,0,0,0,0.0000000,0.0000000,0.0000000,0.0000000,9.00,38.4063568,-110.7921677,1375.3000488,0.0,351.4,1.0,0.0,0.0,887,136,0,0,855.15,11.17,29.06,0
16:45:51,0,0,0,0,0,0,0,0,0,0,0,515,0,0,0,0,0.0000000,0.0000000,0.0000000,0.0000000,9.00,38.4063568,-110.7921677,1375.3000488,0.0,317.8,1.0,0.0,0.0,886,138,0,0,855.18,11.14,29.09,0
16:45:52,0,0,0,0,0,0,0,0,0,0,0,515,0,0,0,0,0.0000000,0.0000000,0.0000000,0.0000000,9.00,38.4063568,-110.7921677,1375.3000488,0.0,346.2,1.0,0.0,0.0,887,137,0,0,855.17,11.12,29.11,0
16:45:53,0,0,0,0,0,0,0,0,0,0,0,515,0,0,0,0,0.0000000,0.0000000,0.0000000,0.0000000,9.00,38.4063568,-110.7921677,1375.3000488,0.0,27.3,1.0,0.0,0.0,886,144,0,0,855.15,11.11,29.14,0
16:45:54,0,0,0,0,0,0,0,0,0,0,0,514,0,0,0,0,0.0000000,0.0000000,0.0000000,0.0000000,9.00,38.4063568,-110.7921677,1375.3000488,0.0,61.7,1.1,0.0,0.0,886,138,0,0,855.21,11.09,29.14,0
16:45:55,0,0,0,0,0,0,0,0,0,0,0,514,0,0,0,0,0.0000000,0.0000000,0.0000000,0.0000000,9.00,38.4063568,-110.7921677,1375.3000488,0.0,23.5,1.0,0.0,0.0,887,135,0,0,855.18,11.11,29.15,0
16:45:56,0,0,0,0,0,0,0,0,0,0,0,514,0,0,0,0,0.0000000,0.0000000,0.0000000,0.0000000,9.00,38.4063568,-110.7921677,1375.3000488,0.0,3.8,1.0,0.0,0.0,886,133,0,0,855.19,11.09,29.15,0
16:45:57,0,0,0,0,0,0,0,0,0,0,0,514,0,0,0,0,0.0000000,0.0000000,0.0000000,0.0000000,9.00,38.4063568,-110.7921677,1375.3000488,0.0,120.9,1.0,0.0,0.0,886,133,0,0,855.18,11.08,29.20,0
16:45:58,0,0,0,0,0,0,0,0,0,0,0,515,0,0,0,0,0.0000000,0.0000000,0.0000000,0.0000000,9.00,38.4063568,-110.7921677,1375.1999512,0.0,72.4,1.0,0.0,0.0,886,134,0,0,855.20,11.08,29.15,0
16:45:59,0,0,0,0,0,0,0,0,0,0,0,515,0,0,0,0,0.0000000,0.0000000,0.0000000,0.0000000,9.00,38.4063568,-110.7921677,1375.1999512,0.0,327.3,1.0,0.0,0.0,887,135,0,0,855.17,11.09,29.12,0
16:46:00,0,0,0,0,0,0,0,0,0,0,0,515,0,0,0,0,0.0000000,0.0000000,0.0000000,0.0000000,9.00,38.4063568,-110.7921677,1375.1999512,0.0,330.3,1.0,0.0,0.0,886,137,0,0,855.25,11.11,29.12,0
16:46:01,0,0,0,0,0,0,0,0,0,0,0,515,0,0,0,0,0.0000000,0.0000000,0.0000000,0.0000000,9.00,38.4063568,-110.7921677,1375.0999756,0.0,339.5,1.0,0.0,0.0,886,135,0,0,855.24,11.08,29.14,0
16:46:02,0,0,0,0,0,0,0,0,0,0,0,515,0,0,0,0,0.0000000,0.0000000,0.0000000,0.0000000,9.00,38.4063568,-110.7921677,1375.0000000,0.0,256.0,1.0,0.0,0.0,886,138,0,0,855.20,11.03,29.16,0
16:46:03,0,0,0,0,0,0,0,0,0,0,0,515,0,0,0,0,0.0000000,0.0000000,0.0000000,0.0000000,9.00,38.4063568,-110.7921677,1375.0000000,0.0,304.3,1.0,0.0,0.0,886,142,0,0,855.21,11.02,29.14,0
16:46:04,0,0,0,0,0,0,0,0,0,0,0,514,0,0,0,0,0.0000000,0.0000000,0.0000000,0.0000000,9.00,38.4063568,-110.7921677,1374.9000244,0.0,305.7,1.0,0.0,0.0,887,135,0,0,855.20,10.99,29.08,0
16:46:05,0,0,0,0,0,0,0,0,0,0,0,515,0,0,0,0,0.0000000,0.0000000,0.0000000,0.0000000,9.00,38.4063568,-110.7921677,1374.9000244,0.0,326.3,1.0,0.0,0.0,886,137,0,0,855.20,11.00,29.06,0
16:46:06,0,0,0,0,0,0,0,0,0,0,0,514,0,0,0,0,0.0000000,0.0000000,0.0000000,0.0000000,9.00,38.4063568,-110.7921677,1374.9000244,0.0,2.0,1.0,0.0,0.0,886,139,0,0,855.15,10.97,29.11,0
16:46:07,0,0,0,0,0,0,0,0,0,0,0,514,0,0,0,0,0.0000000,0.0000000,0.0000000,0.0000000,9.00,38.4063568,-110.7921677,1374.9000244,0.0,299.5,1.0,0.0,0.0,887,141,0,0,855.19,10.96,29.11,0
16:46:08,0,0,0,0,0,0,0,0,0,0,0,514,0,0,0,0,0.0000000,0.0000000,0.0000000,0.0000000,9.00,38.4063568,-110.7921677,1374.9000244,0.0,314.8,1.0,0.0,0.0,887,144,0,0,855.23,10.97,29.09,0
16:46:09,0,0,0,0,0,0,0,0,0,0,0,514,0,0,0,0,0.0000000,0.0000000,0.0000000,0.0000000,8.00,38.4063568,-110.7921677,1374.9000244,0.0,344.9,1.1,0.0,0.0,887,144,0,0,855.21,11.00,29.08,0
16:46:10,0,0,0,0,0,0,0,0,0,0,0,514,0,0,0,0,0.0000000,0.0000000,0.0000000,0.0000000,9.00,38.4063568,-110.7921677,1374.9000244,0.0,33.9,1.0,0.0,0.0,887,141,0,0,855.19,10.99,29.05,0
16:46:11,0,0,0,0,0,0,0,0,0,0,0,515,0,0,0,0,0.0000000,0.0000000,0.0000000,0.0000000,9.00,38.4063568,-110.7921677,1374.9000244,0.0,57.9,1.0,0.0,0.0,886,148,0,0,855.18,11.00,29.05,0
16:46:12,0,0,0,0,0,0,0,0,0,0,0,514,0,0,0,0,0.0000000,0.0000000,0.0000000,0.0000000,9.00,38.4063568,-110.7921677,1374.9000244,0.0,49.5,1.0,0.0,0.0,886,145,0,0,855.17,11.00,29.09,0
16:46:13,0,0,0,0,0,0,0,0,0,0,0,515,0,0,0,0,0.0000000,0.0000000,0.0000000,0.0000000,9.00,38.4063568,-110.7921677,1374.9000244,0.0,26.7,1.0,0.0,0.0,886,143,0,0,855.15,11.02,29.08,0
16:46:14,0,0,0,0,0,0,0,0,0,0,0,515,0,0,0,0,0.0000000,0.0000000,0.0000000,0.0000000,9.00,38.4063568,-110.7921677,1374.9000244,0.0,67.9,1.0,0.0,0.0,886,140,0,0,855.16,11.05,29.02,0
16:46:15,0,0,0,0,0,0,0,0,0,0,0,515,0,0,0,0,0.0000000,0.0000000,0.0000000,0.0000000,9.00,38.4063568,-110.7921677,1374.9000244,0.0,63.2,1.0,0.0,0.0,887,141,0,0,855.12,11.03,28.98,0
16:46:16,0,0,0,0,0,0,0,0,0,0,0,515,0,0,0,0,0.0000000,0.0000000,0.0000000,0.0000000,9.00,38.4063568,-110.7921677,1374.9000244,0.0,245.6,1.0,0.0,0.0,886,144,0,0,855.15,11.00,28.96,0
16:46:17,0,0,0,0,0,0,0,0,0,0,0,514,0,0,0,0,0.0000000,0.0000000,0.0000000,0.0000000,9.00,38.4063568,-110.7921677,1374.9000244,0.0,218.2,1.0,0.0,0.0,887,144,0,0,855.19,11.02,28.86,0
16:46:18,0,0,0,0,0,0,0,0,0,0,0,515,0,0,0,0,0.0000000,0.0000000,0.0000000,0.0000000,9.00,38.4063568,-110.7921677,1374.9000244,0.0,194.2,1.0,0.0,0.0,887,144,0,0,855.14,11.06,28.90,0
16:46:19,0,0,0,0,0,0,0,0,0,0,0,515,0,0,0,0,0.0000000,0.0000000,0.0000000,0.0000000,9.00,38.4063568,-110.7921677,1374.9000244,0.0,204.7,1.0,0.0,0.0,887,142,0,0,855.18,11.06,28.98,0
16:46:20,0,0,0,0,0,0,0,0,0,0,0,514,0,0,0,0,0.0000000,0.0000000,0.0000000,0.0000000,9.00,38.4063568,-110.7921677,1374.9000244,0.0,252.7,1.0,0.0,0.0,887,143,0,0,855.20,11.05,29.00,0
16:46:21,0,0,0,0,0,0,0,0,0,0,0,515,0,0,0,0,0.0000000,0.0000000,0.0000000,0.0000000,9.00,38.4063568,-110.7921677,1374.9000244,0.0,244.9,1.0,0.0,0.0,887,143,0,0,855.21,11.06,29.00,0
16:46:22,0,0,0,0,0,0,0,0,0,0,0,515,0,0,0,0,0.0000000,0.0000000,0.0000000,0.0000000,9.00,38.4063568,-110.7921677,1374.8000488,0.0,194.8,1.0,0.0,0.0,886,143,0,0,855.23,11.05,29.06,0
16:46:23,0,0,0,0,0,0,0,0,0,0,0,515,0,0,0,0,0.0000000,0.0000000,0.0000000,0.0000000,9.00,38.4063568,-110.7921677,1374.6999512,0.0,241.0,1.0,0.0,0.0,887,144,0,0,855.16,11.05,29.07,0
16:46:24,0,0,0,0,0,0,0,0,0,0,0,515,0,0,0,0,0.0000000,0.0000000,0.0000000,0.0000000,9.00,38.4063568,-110.7921677,1374.5999756,0.0,250.3,1.0,0.0,0.0,887,139,0,0,855.18,11.05,29.04,0
16:46:25,0,0,0,0,0,0,0,0,0,0,0,515,0,0,0,0,0.0000000,0.0000000,0.0000000,0.0000000,9.00,38.4063568,-110.7921677,1374.4000244,0.0,202.9,1.0,0.0,0.0,886,141,0,0,855.20,11.05,29.06,0
16:46:26,0,0,0,0,0,0,0,0,0,0,0,515,0,0,0,0,0.0000000,0.0000000,0.0000000,0.0000000,9.00,38.4063568,-110.7921677,1374.3000488,0.0,181.1,1.0,0.0,0.0,886,141,0,0,855.23,11.05,29.08,0
16:46:28,0,0,0,0,0,0,0,0,0,0,0,515,0,0,0,0,0.0000000,0.0000000,0.0000000,0.0000000,9.00,38.4063568,-110.7921677,1374.3000488,0.0,244.0,1.0,0.0,0.0,886,144,0,0,855.22,11.05,29.08,0
16:46:29,0,0,0,0,0,0,0,0,0,0,0,515,0,0,0,0,0.0000000,0.0000000,0.0000000,0.0000000,9.00,38.4063568,-110.7921677,1374.3000488,0.0,255.1,1.0,0.0,0.0,886,140,0,0,855.22,11.05,29.10,0
16:46:30,0,0,0,0,0,0,0,0,0,0,0,515,0,0,0,0,0.0000000,0.0000000,0.0000000,0.0000000,9.00,38.4063568,-110.7921677,1374.3000488,0.0,253.7,1.0,0.0,0.0,886,145,0,0,855.15,11.03,29.10,0
16:46:31,0,0,0,0,0,0,0,0,0,0,0,515,0,0,0,0,0.0000000,0.0000000,0.0000000,0.0000000,9.00,38.4063568,-110.7921677,1374.3000488,0.0,234.1,1.0,0.0,0.0,886,135,0,0,855.16,11.05,29.10,0
16:46:32,0,0,0,0,0,0,0,0,0,0,0,514,0,0,0,0,0.0000000,0.0000000,0.0000000,0.0000000,9.00,38.4063568,-110.7921677,1374.3000488,0.0,224.9,1.0,0.0,0.0,887,139,0,0,855.18,11.08,29.10,0
16:46:33,0,0,0,0,0,0,0,0,0,0,0,514,0,0,0,0,0.0000000,0.0000000,0.0000000,0.0000000,9.00,38.4063568,-110.7921677,1374.3000488,0.0,234.1,1.0,0.0,0.0,887,144,0,0,855.23,11.03,29.11,0
16:46:34,0,0,0,0,0,0,0,0,0,0,0,514,0,0,0,0,0.0000000,0.0000000,0.0000000,0.0000000,9.00,38.4063568,-110.7921677,1374.3000488,0.0,246.8,1.0,0.0,0.0,886,139,0,0,855.22,11.03,29.10,0
16:46:35,0,0,0,0,0,0,0,0,0,0,0,514,0,0,0,0,0.0000000,0.0000000,0.0000000,0.0000000,9.00,38.4063568,-110.7921677,1374.3000488,0.0,233.2,1.0,0.0,0.0,887,139,0,0,855.19,11.06,29.10,0
16:46:36,0,0,0,0,0,0,0,0,0,0,0,514,0,0,0,0,0.0000000,0.0000000,0.0000000,0.0000000,9.00,38.4063568,-110.7921677,1374.3000488,0.0,173.0,1.0,0.0,0.0,886,142,0,0,855.21,11.03,29.14,0
16:46:37,0,0,0,0,0,0,0,0,0,0,0,514,0,0,0,0,0.0000000,0.0000000,0.0000000,0.0000000,9.00,38.4063568,-110.7921677,1374.3000488,0.0,232.9,1.0,0.0,0.0,886,142,0,0,855.17,11.02,29.16,0
16:46:38,0,0,0,0,0,0,0,0,0,0,0,515,0,0,0,0,0.0000000,0.0000000,0.0000000,0.0000000,9.00,38.4063568,-110.7921677,1374.3000488,0.0,225.5,1.0,0.0,0.0,887,140,0,0,855.21,11.03,29.17,0
16:46:39,0,0,0,0,0,0,0,0,0,0,0,514,0,0,0,0,0.0000000,0.0000000,0.0000000,0.0000000,9.00,38.4063568,-110.7921677,1374.3000488,0.0,169.4,1.0,0.0,0.0,887,136,0,0,855.19,11.03,29.17,0
16:46:40,0,0,0,0,0,0,0,0,0,0,0,515,0,0,0,0,0.0000000,0.0000000,0.0000000,0.0000000,9.00,38.4063568,-110.7921677,1374.3000488,0.0,263.4,1.0,0.0,0.0,886,142,0,0,855.18,11.00,29.18,0
16:46:41,0,0,0,0,0,0,0,0,0,0,0,514,0,0,0,0,0.0000000,0.0000000,0.0000000,0.0000000,9.00,38.4063568,-110.7921677,1374.3000488,0.0,15.8,1.0,0.0,0.0,887,141,0,0,855.18,11.00,29.16,0
16:46:42,0,0,0,0,0,0,0,0,0,0,0,515,0,0,0,0,0.0000000,0.0000000,0.0000000,0.0000000,9.00,38.4063568,-110.7921677,1374.3000488,0.0,282.9,1.0,0.0,0.0,886,139,0,0,855.17,11.03,29.17,0
16:46:43,0,0,0,0,0,0,0,0,0,0,0,515,0,0,0,0,0.0000000,0.0000000,0.0000000,0.0000000,9.00,38.4063568,-110.7921677,1374.3000488,0.0,189.5,1.0,0.0,0.0,886,140,0,0,855.19,11.03,29.19,0
16:46:44,0,0,0,0,0,0,0,0,0,0,0,515,0,0,0,0,0.0000000,0.0000000,0.0000000,0.0000000,9.00,38.4063568,-110.7921677,1374.3000488,0.0,250.1,1.0,0.0,0.0,887,137,0,0,855.16,11.14,29.20,0
16:46:45,0,0,0,0,0,0,0,0,0,0,0,515,0,0,0,0,0.0000000,0.0000000,0.0000000,0.0000000,9.00,38.4063568,-110.7921677,1374.3000488,0.0,295.6,1.0,0.0,0.0,887,136,0,0,855.14,11.25,29.22,0
16:46:46,0,0,0,0,0,0,0,0,0,0,0,514,0,0,0,0,0.0000000,0.0000000,0.0000000,0.0000000,9.00,38.4063568,-110.7921677,1374.3000488,0.0,249.0,1.0,0.0,0.0,887,138,0,0,855.15,11.40,29.20,0
16:46:47,0,0,0,0,0,0,0,0,0,0,0,514,0,0,0,0,0.0000000,0.0000000,0.0000000,0.0000000,9.00,38.4063568,-110.7921677,1374.3000488,0.0,162.6,1.0,0.0,0.0,886,135,0,0,855.15,11.48,29.20,0
16:46:48,0,0,0,0,0,0,0,0,0,0,0,515,0,0,0,0,0.0000000,0.0000000,0.0000000,0.0000000,9.00,38.4063568,-110.7921677,1374.3000488,0.0,34.9,1.1,0.0,0.0,886,138,0,0,855.17,11.55,29.25,0
16:46:49,0,0,0,0,0,0,0,0,0,0,0,515,0,0,0,0,0.0000000,0.0000000,0.0000000,0.0000000,9.00,38.4063568,-110.7921677,1374.3000488,0.0,83.8,1.0,0.0,0.0,887,135,0,0,855.10,11.63,29.27,0
16:46:50,0,0,0,0,0,0,0,0,0,0,0,514,0,0,0,0,0.0000000,0.0000000,0.0000000,0.0000000,9.00,38.4063568,-110.7921677,1374.3000488,0.0,304.4,1.0,0.0,0.0,886,136,0,0,855.07,11.64,29.29,0
16:46:51,0,0,0,0,0,0,0,0,0,0,0,515,0,0,0,0,0.0000000,0.0000000,0.0000000,0.0000000,9.00,38.4063568,-110.7921677,1374.3000488,0.0,18.4,1.0,0.0,0.0,887,138,0,0,855.10,11.55,29.32,0
16:46:52,0,0,0,0,0,0,0,0,0,0,0,515,0,0,0,0,0.0000000,0.0000000,0.0000000,0.0000000,9.00,38.4063568,-110.7921677,1374.1999512,0.0,68.9,1.0,0.0,0.0,886,136,0,0,855.12,11.38,29.35,0
16:46:53,0,0,0,0,0,0,0,0,0,0,0,514,0,0,0,0,0.0000000,0.0000000,0.0000000,0.0000000,9.00,38.4063568,-110.7921677,1374.1999512,0.0,325.9,1.0,0.0,0.0,886,134,0,0,855.16,11.11,29.35,0
16:46:54,0,0,0,0,0,0,0,0,0,0,0,515,0,0,0,0,0.0000000,0.0000000,0.0000000,0.0000000,9.00,38.4063568,-110.7921677,1374.1999512,0.0,64.9,1.0,0.0,0.0,887,136,0,0,855.18,10.97,29.36,0
16:46:55,0,0,0,0,0,0,0,0,0,0,0,515,0,0,0,0,0.0000000,0.0000000,0.0000000,0.0000000,9.00,38.4063568,-110.7921677,1374.1999512,0.0,63.1,1.0,0.0,0.0,886,138,0,0,855.20,10.96,29.34,0
16:46:56,0,0,0,0,0,0,0,0,0,0,0,514,0,0,0,0,0.0000000,0.0000000,0.0000000,0.0000000,9.00,38.4063568,-110.7921677,1374.1999512,0.0,43.5,1.0,0.0,0.0,886,137,0,0,855.19,10.93,29.33,0
16:46:57,0,0,0,0,0,0,0,0,0,0,0,515,0,0,0,0,0.0000000,0.0000000,0.0000000,0.0000000,9.00,38.4063568,-110.7921677,1374.1999512,0.0,67.6,1.0,0.0,0.0,886,137,0,0,855.14,10.97,29.31,0
16:46:58,0,0,0,0,0,0,0,0,0,0,0,514,0,0,0,0,0.0000000,0.0000000,0.0000000,0.0000000,9.00,38.4063568,-110.7921677,1374.1999512,0.0,94.5,1.0,0.0,0.0,886,139,0,0,855.13,10.99,29.32,0
16:46:59,0,0,0,0,0,0,0,0,0,0,0,515,0,0,0,0,0.0000000,0.0000000,0.0000000,0.0000000,9.00,38.4063568,-110.7921677,1374.1999512,0.0,80.6,1.0,0.0,0.0,887,138,0,0,855.17,10.96,29.33,0
16:47:00,0,0,0,0,0,0,0,0,0,0,0,515,0,0,0,0,0.0000000,0.0000000,0.0000000,0.0000000,9.00,38.4063568,-110.7921677,1374.1999512,0.0,19.2,1.0,0.0,0.0,887,138,0,0,855.17,10.94,29.33,0
16:47:01,0,0,0,0,0,0,0,0,0,0,0,514,0,0,0,0,0.0000000,0.0000000,0.0000000,0.0000000,9.00,38.4063568,-110.7921677,1374.1999512,0.0,47.6,1.0,0.0,0.0,886,139,0,0,855.21,10.99,29.34,0
16:47:02,0,0,0,0,0,0,0,0,0,0,0,515,0,0,0,0,0.0000000,0.0000000,0.0000000,0.0000000,9.00,38.4063568,-110.7921677,1374.1999512,0.0,123.4,1.0,0.0,0.0,886,141,0,0,855.14,10.97,29.40,0
16:47:03,0,0,0,0,0,0,0,0,0,0,0,515,0,0,0,0,0.0000000,0.0000000,0.0000000,0.0000000,9.00,38.4063568,-110.7921677,1374.1999512,0.0,79.6,1.0,0.0,0.0,887,137,0,0,855.18,10.97,29.45,0
16:47:04,0,0,0,0,0,0,0,0,0,0,0,515,0,0,0,0,0.0000000,0.0000000,0.0000000,0.0000000,9.00,38.4063568,-110.7921677,1374.1999512,0.0,87.6,1.0,0.0,0.0,886,137,0,0,855.16,10.97,29.47,0
16:47:05,0,0,0,0,0,0,0,0,0,0,0,515,0,0,0,0,0.0000000,0.0000000,0.0000000,0.0000000,9.00,38.4063568,-110.7921677,1374.1999512,0.0,64.2,1.0,0.0,0.0,886,142,0,0,855.13,10.99,29.49,0
16:47:06,0,0,0,0,0,0,0,0,0,0,0,514,0,0,0,0,0.0000000,0.0000000,0.0000000,0.0000000,9.00,38.4063568,-110.7921677,1374.1999512,0.0,4.3,1.0,0.0,0.0,886,137,0,0,855.16,11.00,29.49,0
16:47:07,0,0,0,0,0,0,0,0,0,0,0,514,0,0,0,0,0.0000000,0.0000000,0.0000000,0.0000000,9.00,38.4063568,-110.7921677,1374.1999512,0.0,30.6,1.0,0.0,0.0,886,138,0,0,855.16,10.97,29.53,0
16:47:08,0,0,0,0,0,0,0,0,0,0,0,515,0,0,0,0,0.0000000,0.0000000,0.0000000,0.0000000,9.00,38.4063568,-110.7921677,1374.1999512,0.0,204.4,1.0,0.0,0.0,886,138,0,0,855.16,10.97,29.53,0
16:47:09,0,0,0,0,0,0,0,0,0,0,0,515,0,0,0,0,0.0000000,0.0000000,0.0000000,0.0000000,9.00,38.4063568,-110.7921677,1374.1999512,0.0,66.8,1.0,0.0,0.0,885,134,0,0,855.10,11.06,29.55,0
16:47:10,0,0,0,0,0,0,0,0,0,0,0,515,0,0,0,0,0.0000000,0.0000000,0.0000000,0.0000000,9.00,38.4063568,-110.7921677,1374.1999512,0.0,103.9,1.0,0.0,0.0,886,136,0,0,855.18,11.20,29.54,0
16:47:11,0,0,0,0,0,0,0,0,0,0,0,515,0,0,0,0,0.0000000,0.0000000,0.0000000,0.0000000,9.00,38.4063568,-110.7921677,1374.1999512,0.0,157.9,1.0,0.0,0.0,886,135,0,0,855.14,11.44,29.49,0
16:47:12,0,0,0,0,0,0,0,0,0,0,0,514,0,0,0,0,0.0000000,0.0000000,0.0000000,0.0000000,9.00,38.4063568,-110.7921677,1374.1999512,0.0,130.3,1.0,0.0,0.0,886,140,0,0,855.08,11.60,29.49,0
16:47:13,0,0,0,0,0,0,0,0,0,0,0,515,0,0,0,0,0.0000000,0.0000000,0.0000000,0.0000000,9.00,38.4063568,-110.7921677,1374.1999512,0.0,65.6,1.0,0.0,0.0,886,140,0,0,855.11,11.64,29.53,0
16:47:14,0,0,0,0,0,0,0,0,0,0,0,514,0,0,0,0,0.0000000,0.0000000,0.0000000,0.0000000,9.00,38.4063568,-110.7921677,1374.1999512,0.0,6.9,1.0,0.0,0.0,887,134,0,0,855.09,11.63,29.59,0
16:47:15,0,0,0,0,0,0,0,0,0,0,0,515,0,0,0,0,0.0000000,0.0000000,0.0000000,0.0000000,9.00,38.4063568,-110.7921677,1374.1999512,0.0,351.5,1.0,0.0,0.0,886,138,0,0,855.06,11.60,29.64,0
16:47:16,0,0,0,0,0,0,0,0,0,0,0,515,0,0,0,0,0.0000000,0.0000000,0.0000000,0.0000000,9.00,38.4063568,-110.7921677,1374.1999512,0.0,1.6,1.0,0.0,0.0,887,138,0,0,855.12,11.40,29.70,0
16:47:17,0,0,0,0,0,0,0,0,0,0,0,515,0,0,0,0,0.0000000,0.0000000,0.0000000,0.0000000,9.00,38.4063568,-110.7921677,1374.1999512,0.0,8.0,1.0,0.0,0.0,886,134,0,0,855.14,11.19,29.77,0
16:47:18,0,0,0,0,0,0,0,0,0,0,0,515,0,0,0,0,0.0000000,0.0000000,0.0000000,0.0000000,9.00,38.4063568,-110.7921677,1374.1999512,0.0,70.0,1.0,0.0,0.0,886,136,0,0,855.11,11.06,29.79,0
16:47:19,0,0,0,0,0,0,0,0,0,0,0,515,0,0,0,0,0.0000000,0.0000000,0.0000000,0.0000000,9.00,38.4063568,-110.7921677,1374.1999512,0.0,83.6,1.0,0.0,0.0,886,135,0,0,855.13,11.02,29.78,0
16:47:20,0,0,0,0,0,0,0,0,0,0,0,515,0,0,0,0,0.0000000,0.0000000,0.0000000,0.0000000,9.00,38.4063568,-110.7921677,1374.1999512,0.0,76.3,1.0,0.0,0.0,886,134,0,0,855.15,10.97,29.83,0
16:47:21,0,0,0,0,0,0,0,0,0,0,0,515,0,0,0,0,0.0000000,0.0000000,0.0000000,0.0000000,9.00,38.4063568,-110.7921677,1374.1999512,0.0,74.3,1.0,0.0,0.0,886,134,0,0,855.17,10.86,29.88,0
16:47:22,0,0,0,0,0,0,0,0,0,0,0,514,0,0,0,0,0.0000000,0.0000000,0.0000000,0.0000000,9.00,38.4063568,-110.7921677,1374.1999512,0.0,179.0,1.0,0.0,0.0,886,138,0,0,855.19,10.80,29.94,0
16:47:23,0,0,0,0,0,0,0,0,0,0,0,514,0,0,0,0,0.0000000,0.0000000,0.0000000,0.0000000,9.00,38.4063568,-110.7921677,1374.1999512,0.0,78.6,1.0,0.0,0.0,886,138,0,0,855.14,10.90,29.97,0
16:47:24,0,0,0,0,0,0,0,0,0,0,0,515,0,0,0,0,0.0000000,0.0000000,0.0000000,0.0000000,9.00,38.4063568,-110.7921677,1374.1999512,0.0,63.7,1.0,0.0,0.0,886,131,0,0,855.10,10.83,30.01,0
16:47:25,0,0,0,0,0,0,0,0,0,0,0,516,0,0,0,0,0.0000000,0.0000000,0.0000000,0.0000000,9.00,38.4063568,-110.7921677,1374.1999512,0.0,106.9,1.0,0.0,0.0,886,133,0,0,855.17,10.85,30.05,0
16:47:26,0,0,0,0,0,0,0,0,0,0,0,514,0,0,0,0,0.0000000,0.0000000,0.0000000,0.0000000,9.00,38.4063568,-110.7921677,1374.1999512,0.0,54.8,1.0,0.0,0.0,886,134,0,0,855.14,10.94,30.07,0
16:47:27,0,0,0,0,0,0,0,0,0,0,0,515,0,0,0,0,0.0000000,0.0000000,0.0000000,0.0000000,9.00,38.4063568,-110.7921677,1374.1999512,0.0,49.8,1.0,0.0,0.0,886,135,0,0,855.08,11.19,30.08,0
16:47:28,0,0,0,0,0,0,0,0,0,0,0,514,0,0,0,0,0.0000000,0.0000000,0.0000000,0.0000000,9.00,38.4063568,-110.7921677,1374.1999512,0.0,104.3,1.0,0.0,0.0,886,130,0,0,855.09,11.34,30.09,0
16:47:29,0,0,0,0,0,0,0,0,0,0,0,515,0,0,0,0,0.0000000,0.0000000,0.0000000,0.0000000,9.00,38.4063568,-110.7921677,1374.1999512,0.0,51.7,1.0,0.0,0.0,886,132,0,0,855.02,11.34,30.16,0
16:47:30,0,0,0,0,0,0,0,0,0,0,0,516,0,0,0,0,0.0000000,0.0000000,0.0000000,0.0000000,9.00,38.4063568,-110.7921677,1374.1999512,0.0,79.9,1.0,0.0,0.0,886,134,0,0,855.08,11.34,30.23,0
16:47:31,0,0,0,0,0,0,0,0,0,0,0,515,0,0,0,0,0.0000000,0.0000000,0.0000000,0.0000000,9.00,38.4063568,-110.7921677,1374.1999512,0.0,24.1,1.0,0.0,0.0,886,129,0,0,855.05,11.26,30.29,0
16:47:32,0,0,0,0,0,0,0,0,0,0,0,515,0,0,0,0,0.0000000,0.0000000,0.0000000,0.0000000,9.00,38.4063568,-110.7921677,1374.1999512,0.0,137.6,1.0,0.0,0.0,886,130,0,0,855.09,11.20,30.36,0
16:47:33,0,0,0,0,0,0,0,0,0,0,0,514,0,0,0,0,0.0000000,0.0000000,0.0000000,0.0000000,9.00,38.4063568,-110.7921677,1374.0999756,0.0,105.9,1.0,0.0,0.0,886,139,0,0,855.06,11.19,30.42,0
16:47:34,0,0,0,0,0,0,0,0,0,0,0,515,0,0,0,0,0.0000000,0.0000000,0.0000000,0.0000000,9.00,38.4063568,-110.7921677,1374.0999756,0.0,350.0,1.0,0.0,0.0,886,131,0,0,855.05,11.20,30.45,0
16:47:35,0,0,0,0,0,0,0,0,0,0,0,514,0,0,0,0,0.0000000,0.0000000,0.0000000,0.0000000,9.00,38.4063568,-110.7921677,1374.0999756,0.0,319.0,1.0,0.0,0.0,887,137,0,0,855.05,11.22,30.47,0
16:47:36,0,0,0,0,0,0,0,0,0,0,0,515,0,0,0,0,0.0000000,0.0000000,0.0000000,0.0000000,9.00,38.4063568,-110.7921677,1374.0999756,0.0,102.7,1.0,0.0,0.0,886,134,0,0,855.08,11.23,30.47,0
16:47:37,0,0,0,0,0,0,0,0,0,0,0,514,0,0,0,0,0.0000000,0.0000000,0.0000000,0.0000000,9.00,38.4063568,-110.7921677,1374.0999756,0.0,332.7,1.0,0.0,0.0,886,136,0,0,855.06,11.25,30.44,0
16:47:38,0,0,0,0,0,0,0,0,0,0,0,515,0,0,0,0,0.0000000,0.0000000,0.0000000,0.0000000,9.00,38.4063568,-110.7921677,1374.0999756,0.0,213.4,1.0,0.0,0.0,886,140,0,0,855.06,11.22,30.45,0
16:47:39,0,0,0,0,0,0,0,0,0,0,0,515,0,0,0,0,0.0000000,0.0000000,0.0000000,0.0000000,9.00,38.4063568,-110.7921677,1374.0999756,0.0,130.2,1.0,0.0,0.0,886,138,0,0,855.03,11.22,30.48,0
16:47:40,0,0,0,0,0,0,0,0,0,0,0,516,0,0,0,0,0.0000000,0.0000000,0.0000000,0.0000000,9.00,38.4063568,-110.7921677,1374.0999756,0.0,315.7,1.0,0.0,0.0,887,141,0,0,855.05,11.20,30.59,0
16:47:41,0,0,0,0,0,0,0,0,0,0,0,516,0,0,0,0,0.0000000,0.0000000,0.0000000,0.0000000,9.00,38.4063568,-110.7921677,1374.0999756,0.0,290.3,1.0,0.0,0.0,886,139,0,0,855.05,11.15,30.64,0
16:47:42,0,0,0,0,0,0,0,0,0,0,0,515,0,0,0,0,0.0000000,0.0000000,0.0000000,0.0000000,9.00,38.4063568,-110.7921677,1374.1999512,0.0,304.7,1.0,0.0,0.0,886,136,0,0,855.03,11.12,30.69,0
16:47:43,0,0,0,0,0,0,0,0,0,0,0,515,0,0,0,0,0.0000000,0.0000000,0.0000000,0.0000000,9.00,38.4063568,-110.7921677,1374.0000000,0.0,45.5,1.0,0.0,0.0,886,138,0,0,855.05,11.12,30.68,0
16:47:44,0,0,0,0,0,0,0,0,0,0,0,515,0,0,0,0,0.0000000,0.0000000,0.0000000,0.0000000,9.00,38.4063568,-110.7921829,1373.6999512,0.0,287.7,1.0,0.0,0.0,886,137,0,0,855.03,11.14,30.71,0
16:47:45,0,0,0,0,0,0,0,0,0,0,0,514,0,0,0,0,0.0000000,0.0000000,0.0000000,0.0000000,9.00,38.4063568,-110.7921829,1373.5000000,0.0,100.2,1.0,0.0,0.0,886,140,0,0,855.01,11.17,30.76,0
16:47:46,0,0,0,0,0,0,0,0,0,0,0,514,0,0,0,0,0.0000000,0.0000000,0.0000000,0.0000000,9.00,38.4063606,-110.7921829,1373.3000488,0.0,40.0,1.0,0.0,0.0,886,137,0,0,855.05,11.22,30.78,0
16:47:47,0,0,0,0,0,0,0,0,0,0,0,514,0,0,0,0,0.0000000,0.0000000,0.0000000,0.0000000,9.00,38.4063568,-110.7921829,1373.3000488,0.0,229.1,1.0,0.0,0.0,886,139,0,0,854.97,11.20,30.85,0
16:47:48,0,0,0,0,0,0,0,0,0,0,0,516,0,0,0,0,0.0000000,0.0000000,0.0000000,0.0000000,9.00,38.4063568,-110.7921829,1373.0000000,0.0,229.1,1.0,0.0,0.0,886,137,0,0,854.99,11.20,30.95,0
16:47:49,0,0,0,0,0,0,0,0,0,0,0,514,0,0,0,0,0.0000000,0.0000000,0.0000000,0.0000000,9.00,38.4063568,-110.7921829,1373.0000000,0.0,221.2,1.0,0.0,0.0,887,137,0,0,855.07,11.15,31.06,0
16:47:50,0,0,0,0,0,0,0,0,0,0,0,516,0,0,0,0,0.0000000,0.0000000,0.0000000,0.0000000,9.00,38.4063530,-110.7921906,1372.8000488,0.0,215.5,1.0,0.0,0.0,886,140,0,0,855.02,11.14,31.12,0
16:47:51,0,0,0,0,0,0,0,0,0,0,0,515,0,0,0,0,0.0000000,0.0000000,0.0000000,0.0000000,9.00,38.4063530,-110.7921906,1372.6999512,0.0,290.5,1.0,0.0,0.0,886,136,0,0,855.03,11.11,31.21,0
16:47:52,0,0,0,0,0,0,0,0,0,0,0,515,0,0,0,0,0.0000000,0.0000000,0.0000000,0.0000000,9.00,38.4063568,-110.7921906,1372.5000000,0.0,342.9,1.0,0.0,0.0,886,138,0,0,855.03,11.06,31.23,0
16:47:53,0,0,0,0,0,0,0,0,0,0,0,514,0,0,0,0,0.0000000,0.0000000,0.0000000,0.0000000,9.00,38.4063568,-110.7921906,1372.4000244,0.0,89.8,1.0,0.0,0.0,886,134,0,0,855.02,11.08,31.31,0
16:47:55,0,0,0,0,0,0,0,0,0,0,0,515,0,0,0,0,0.0000000,0.0000000,0.0000000,0.0000000,9.00,38.4063568,-110.7921906,1372.1999512,0.0,301.0,1.0,0.0,0.0,886,134,0,0,855.02,11.03,31.39,0
16:47:56,0,0,0,0,0,0,0,0,0,0,0,514,0,0,0,0,0.0000000,0.0000000,0.0000000,0.0000000,9.00,38.4063530,-110.7921906,1372.1999512,0.0,58.0,1.0,0.0,0.0,886,134,0,0,855.03,11.00,31.46,0
16:47:57,0,0,0,0,0,0,0,0,0,0,0,514,0,0,0,0,0.0000000,0.0000000,0.0000000,0.0000000,9.00,38.4063530,-110.7921906,1372.0000000,0.0,1.8,1.0,0.0,0.0,887,136,0,0,855.04,10.97,31.55,0
16:47:58,0,0,0,0,0,0,0,0,0,0,0,515,0,0,0,0,0.0000000,0.0000000,0.0000000,0.0000000,9.00,38.4063530,-110.7921906,1371.9000244,0.0,267.8,1.0,0.0,0.0,886,140,0,0,855.05,10.96,31.65,0
16:47:59,0,0,0,0,0,0,0,0,0,0,0,514,0,0,0,0,0.0000000,0.0000000,0.0000000,0.0000000,9.00,38.4063530,-110.7921906,1371.8000488,0.0,241.8,1.0,0.0,0.0,887,132,0,0,855.06,10.96,31.72,0
