Time, Motor A Speed, Motor A Dir, Motor B Speed, Motor B Dir, Servo Rail Current Sensor, Servo Pos - Arm L, Servo Pos - Arm R, Servo Pos - End, Servo Pos - Hopper, Servo Pos - Lid, Servo Pos - Extra, Servo Current, LED - Front L, LED - Front R, LED - Back L, LED - Back R, IMU Pitch, IMU Roll, IMU Yaw, Compass Heading, GPS Sats, GPS Latitude, GPS Longitude, GPS Altitude, GPS Speed, GPS Angle, GPS HDOP, GPS VDOP, GPS PDOP, Battery, Wind, Comm Xbee Latency, Comm Arduino Latency, Pressure, Humidity, Temperature, uRADMonitor
16:03:18,0,0,0,0,0,0,0,0,0,0,0,515,0,0,0,0,0.0000000,0.0000000,0.0000000,0.0000000,7.00,38.4065018,-110.7923355,1350.4000244,0.9,12.5,1.3,0.0,0.0,893,132,0,0,855.87,8.59,31.78,0
16:03:19,0,0,0,0,0,0,0,0,0,0,0,515,0,0,0,0,0.0000000,0.0000000,0.0000000,0.0000000,7.00,38.4065056,-110.7923355,1350.4000244,0.8,12.1,1.3,0.0,0.0,893,132,0,0,855.85,8.61,31.79,0
16:03:20,0,0,0,0,0,0,0,0,0,0,0,514,0,0,0,0,0.0000000,0.0000000,0.0000000,0.0000000,7.00,38.4065094,-110.7923355,1350.4000244,0.8,14.0,1.3,0.0,0.0,893,130,0,0,855.84,8.61,31.78,0
16:03:21,0,0,0,0,0,0,0,0,0,0,0,515,0,0,0,0,0.0000000,0.0000000,0.0000000,0.0000000,7.00,38.4065132,-110.7923203,1350.5000000,0.7,17.2,1.3,0.0,0.0,894,129,0,0,855.85,8.61,31.80,0
16:03:22,0,0,0,0,0,0,0,0,0,0,0,515,0,0,0,0,0.0000000,0.0000000,0.0000000,0.0000000,7.00,38.4065132,-110.7923203,1350.5000000,0.6,20.2,1.2,0.0,0.0,893,128,0,0,855.87,8.58,31.80,0
16:03:23,0,0,0,0,0,0,0,0,0,0,0,514,0,0,0,0,0.0000000,0.0000000,0.0000000,0.0000000,7.00,38.4065208,-110.7923203,1350.5000000,0.7,22.2,1.2,0.0,0.0,894,127,0,0,855.84,8.59,31.80,0
16:03:24,0,0,0,0,0,0,0,0,0,0,0,515,0,0,0,0,0.0000000,0.0000000,0.0000000,0.0000000,7.00,38.4065285,-110.7923203,1350.5999756,0.7,30.0,1.2,0.0,0.0,893,127,0,0,855.81,8.59,31.82,0
16:03:25,0,0,0,0,0,0,0,0,0,0,0,515,0,0,0,0,0.0000000,0.0000000,0.0000000,0.0000000,7.00,38.4065285,-110.7923203,1350.5999756,0.6,39.9,1.2,0.0,0.0,893,130,0,0,855.78,8.59,31.85,0
16:03:26,0,0,0,0,0,0,0,0,0,0,0,515,0,0,0,0,0.0000000,0.0000000,0.0000000,0.0000000,7.00,38.4065323,-110.7923203,1350.5999756,0.6,33.9,1.2,0.0,0.0,893,133,0,0,855.87,8.53,31.84,0
16:03:27,0,0,0,0,0,0,0,0,0,0,0,515,0,0,0,0,0.0000000,0.0000000,0.0000000,0.0000000,7.00,38.4065361,-110.7923203,1350.6999512,0.6,23.4,1.2,0.0,0.0,893,133,0,0,855.88,8.55,31.85,0
16:03:28,0,0,0,0,0,0,0,0,0,0,0,514,0,0,0,0,0.0000000,0.0000000,0.0000000,0.0000000,7.00,38.4065475,-110.7923355,1350.6999512,0.7,15.5,1.2,0.0,0.0,893,130,0,0,855.91,8.56,31.86,0
16:03:29,0,0,0,0,0,0,0,0,0,0,0,515,0,0,0,0,0.0000000,0.0000000,0.0000000,0.0000000,7.00,38.4065552,-110.7923355,1350.6999512,0.7,15.2,1.2,0.0,0.0,893,136,0,0,855.89,8.56,31.88,0
16:03:30,0,0,0,0,0,0,0,0,0,0,0,515,0,0,0,0,0.0000000,0.0000000,0.0000000,0.0000000,7.00,38.4065628,-110.7923203,1350.8000488,0.7,21.7,1.2,0.0,0.0,893,131,0,0,855.90,8.51,31.89,0
16:03:31,0,0,0,0,0,0,0,0,0,0,0,515,0,0,0,0,0.0000000,0.0000000,0.0000000,0.0000000,7.00,38.4065666,-110.7923355,1350.8000488,0.7,19.7,1.2,0.0,0.0,893,132,0,0,855.86,8.51,31.89,0
16:03:32,0,0,0,0,0,0,0,0,0,0,0,515,0,0,0,0,0.0000000,0.0000000,0.0000000,0.0000000,7.00,38.4065742,-110.7923355,1350.8000488,0.7,8.9,1.2,0.0,0.0,893,129,0,0,855.96,8.48,31.90,0
16:03:33,0,0,0,0,0,0,0,0,0,0,0,514,0,0,0,0,0.0000000,0.0000000,0.0000000,0.0000000,7.00,38.4065781,-110.7923355,1350.8000488,0.8,5.7,1.3,0.0,0.0,893,135,0,0,855.89,8.50,31.92,0
16:03:34,0,0,0,0,0,0,0,0,0,0,0,514,0,0,0,0,0.0000000,0.0000000,0.0000000,0.0000000,7.00,38.4065781,-110.7923355,1350.9000244,0.7,9.0,1.3,0.0,0.0,893,129,0,0,855.96,8.51,31.92,0
16:03:35,0,0,0,0,0,0,0,0,0,0,0,515,0,0,0,0,0.0000000,0.0000000,0.0000000,0.0000000,7.00,38.4065742,-110.7923203,1350.9000244,0.7,15.2,1.3,0.0,0.0,893,132,0,0,855.93,8.51,31.93,0
16:03:36,0,0,0,0,0,0,0,0,0,0,0,514,0,0,0,0,0.0000000,0.0000000,0.0000000,0.0000000,7.00,38.4065742,-110.7923050,1350.9000244,0.6,25.1,1.2,0.0,0.0,893,129,0,0,855.86,8.55,31.92,0
16:03:37,0,0,0,0,0,0,0,0,0,0,0,514,0,0,0,0,0.0000000,0.0000000,0.0000000,0.0000000,7.00,38.4065666,-110.7922974,1350.9000244,0.7,30.4,1.2,0.0,0.0,893,131,0,0,855.91,8.48,31.93,0
16:03:38,0,0,0,0,0,0,0,0,0,0,0,515,0,0,0,0,0.0000000,0.0000000,0.0000000,0.0000000,7.00,38.4065552,-110.7922821,1351.0000000,0.6,40.7,1.2,0.0,0.0,893,130,0,0,855.98,8.48,31.95,0
16:03:39,0,0,0,0,0,0,0,0,0,0,0,514,0,0,0,0,0.0000000,0.0000000,0.0000000,0.0000000,7.00,38.4065475,-110.7922668,1351.0000000,0.6,53.1,1.2,0.0,0.0,893,133,0,0,855.92,8.44,31.96,0
16:03:40,0,0,0,0,0,0,0,0,0,0,0,515,0,0,0,0,0.0000000,0.0000000,0.0000000,0.0000000,7.00,38.4065361,-110.7922592,1351.0000000,0.5,64.5,1.2,0.0,0.0,893,133,0,0,855.96,8.45,31.97,0
16:03:41,0,0,0,0,0,0,0,0,0,0,0,515,0,0,0,0,0.0000000,0.0000000,0.0000000,0.0000000,7.00,38.4065208,-110.7922440,1351.0000000,0.5,84.5,1.2,0.0,0.0,893,135,0,0,855.87,8.45,31.96,0
16:03:42,0,0,0,0,0,0,0,0,0,0,0,515,0,0,0,0,0.0000000,0.0000000,0.0000000,0.0000000,6.00,38.4065170,-110.7922287,1351.0000000,0.5,90.6,1.4,0.0,0.0,893,133,0,0,855.89,8.42,31.96,0
16:03:43,0,0,0,0,0,0,0,0,0,0,0,514,0,0,0,0,0.0000000,0.0000000,0.0000000,0.0000000,6.00,38.4065170,-110.7922287,1351.0000000,0.4,93.4,1.4,0.0,0.0,893,133,0,0,855.89,8.44,31.95,0
16:03:44,0,0,0,0,0,0,0,0,0,0,0,514,0,0,0,0,0.0000000,0.0000000,0.0000000,0.0000000,6.00,38.4065170,-110.7922287,1351.0000000,0.4,95.9,1.4,0.0,0.0,893,135,0,0,855.84,8.45,31.95,0
16:03:45,0,0,0,0,0,0,0,0,0,0,0,515,0,0,0,0,0.0000000,0.0000000,0.0000000,0.0000000,7.00,38.4065170,-110.7922211,1351.0000000,0.3,88.9,1.2,0.0,0.0,893,133,0,0,855.86,8.47,31.95,0
16:03:46,0,0,0,0,0,0,0,0,0,0,0,515,0,0,0,0,0.0000000,0.0000000,0.0000000,0.0000000,7.00,38.4065170,-110.7922211,1351.0000000,0.2,87.0,1.2,0.0,0.0,893,133,0,0,855.85,8.45,31.98,0
16:03:47,0,0,0,0,0,0,0,0,0,0,0,515,0,0,0,0,0.0000000,0.0000000,0.0000000,0.0000000,7.00,38.4065170,-110.7922211,1351.0000000,0.1,26.3,1.2,0.0,0.0,893,137,0,0,855.84,8.44,31.98,0
16:03:48,0,0,0,0,0,0,0,0,0,0,0,515,0,0,0,0,0.0000000,0.0000000,0.0000000,0.0000000,7.00,38.4065170,-110.7922211,1351.0000000,0.1,329.4,1.2,0.0,0.0,893,131,0,0,855.85,8.44,32.00,0
16:03:49,0,0,0,0,0,0,0,0,0,0,0,515,0,0,0,0,0.0000000,0.0000000,0.0000000,0.0000000,7.00,38.4065170,-110.7922211,1351.0000000,0.1,247.8,1.2,0.0,0.0,893,135,0,0,855.86,8.44,32.00,0
16:03:50,0,0,0,0,0,0,0,0,0,0,0,515,0,0,0,0,0.0000000,0.0000000,0.0000000,0.0000000,7.00,38.4065170,-110.7922211,1351.0000000,0.1,229.8,1.2,0.0,0.0,893,132,0,0,855.85,8.42,32.01,0
16:03:51,0,0,0,0,0,0,0,0,0,0,0,515,0,0,0,0,0.0000000,0.0000000,0.0000000,0.0000000,7.00,38.4065170,-110.7922211,1351.0000000,0.2,226.0,1.2,0.0,0.0,893,134,0,0,855.81,8.44,32.01,0
16:03:52,0,0,0,0,0,0,0,0,0,0,0,514,0,0,0,0,0.0000000,0.0000000,0.0000000,0.0000000,7.00,38.4065170,-110.7922211,1351.0000000,0.3,202.5,1.2,0.0,0.0,893,132,0,0,855.82,8.41,32.01,0
16:03:53,0,0,0,0,0,0,0,0,0,0,0,514,0,0,0,0,0.0000000,0.0000000,0.0000000,0.0000000,7.00,38.4065132,-110.7922211,1351.0000000,0.4,200.4,1.2,0.0,0.0,893,132,0,0,855.84,8.41,32.02,0
16:03:54,0,0,0,0,0,0,0,0,0,0,0,515,0,0,0,0,0.0000000,0.0000000,0.0000000,0.0000000,7.00,38.4065132,-110.7922211,1351.0000000,0.5,195.6,1.2,0.0,0.0,894,129,0,0,855.86,8.41,32.03,0
16:03:55,0,0,0,0,0,0,0,0,0,0,0,514,0,0,0,0,0.0000000,0.0000000,0.0000000,0.0000000,7.00,38.4065094,-110.7922211,1351.0000000,0.6,199.8,1.2,0.0,0.0,893,133,0,0,855.79,8.42,32.01,0
16:03:56,0,0,0,0,0,0,0,0,0,0,0,515,0,0,0,0,0.0000000,0.0000000,0.0000000,0.0000000,7.00,38.4065056,-110.7922211,1351.0000000,0.6,195.0,1.2,0.0,0.0,893,131,0,0,855.81,8.39,32.03,0
16:03:57,0,0,0,0,0,0,0,0,0,0,0,515,0,0,0,0,0.0000000,0.0000000,0.0000000,0.0000000,7.00,38.4064751,-110.7922058,1351.0999756,0.9,187.1,1.2,0.0,0.0,893,133,0,0,855.84,8.38,32.02,0
16:03:58,0,0,0,0,0,0,0,0,0,0,0,515,0,0,0,0,0.0000000,0.0000000,0.0000000,0.0000000,7.00,38.4064522,-110.7921906,1351.0999756,1.0,185.0,1.2,0.0,0.0,893,133,0,0,855.77,8.39,32.03,0
16:03:59,0,0,0,0,0,0,0,0,0,0,0,514,0,0,0,0,0.0000000,0.0000000,0.0000000,0.0000000,7.00,38.4064255,-110.7921829,1351.0999756,1.1,184.0,1.2,0.0,0.0,893,133,0,0,855.82,8.42,32.04,0
16:04:00,0,0,0,0,0,0,0,0,0,0,0,515,0,0,0,0,0.0000000,0.0000000,0.0000000,0.0000000,6.00,38.4064102,-110.7921524,1351.0999756,1.1,180.2,1.4,0.0,0.0,893,135,0,0,855.87,8.41,32.03,0
16:04:01,0,0,0,0,0,0,0,0,0,0,0,515,0,0,0,0,0.0000000,0.0000000,0.0000000,0.0000000,6.00,38.4064026,-110.7921371,1351.1999512,1.0,176.9,1.4,0.0,0.0,893,131,0,0,855.82,8.38,32.03,0
16:04:02,0,0,0,0,0,0,0,0,0,0,0,515,0,0,0,0,0.0000000,0.0000000,0.0000000,0.0000000,6.00,38.4063950,-110.7921295,1351.1999512,1.0,172.1,1.4,0.0,0.0,893,133,0,0,855.85,8.42,32.04,0
16:04:03,0,0,0,0,0,0,0,0,0,0,0,515,0,0,0,0,0.0000000,0.0000000,0.0000000,0.0000000,7.00,38.4063873,-110.7921295,1351.1999512,1.0,171.7,1.2,0.0,0.0,893,130,0,0,855.85,8.39,32.05,0
16:04:04,0,0,0,0,0,0,0,0,0,0,0,514,0,0,0,0,0.0000000,0.0000000,0.0000000,0.0000000,7.00,38.4063835,-110.7921295,1351.1999512,0.9,171.0,1.2,0.0,0.0,893,129,0,0,855.89,8.44,32.05,0
16:04:05,0,0,0,0,0,0,0,0,0,0,0,515,0,0,0,0,0.0000000,0.0000000,0.0000000,0.0000000,7.00,38.4063759,-110.7921295,1351.1999512,0.8,169.5,1.2,0.0,0.0,893,131,0,0,855.80,8.39,32.06,0
16:04:06,0,0,0,0,0,0,0,0,0,0,0,515,0,0,0,0,0.0000000,0.0000000,0.0000000,0.0000000,7.00,38.4063606,-110.7921143,1351.3000488,0.9,166.4,1.2,0.0,0.0,893,132,0,0,855.79,8.39,32.00,0
16:04:07,0,0,0,0,0,0,0,0,0,0,0,515,0,0,0,0,0.0000000,0.0000000,0.0000000,0.0000000,7.00,38.4063530,-110.7920990,1351.3000488,0.9,162.8,1.2,0.0,0.0,893,129,0,0,855.83,8.41,31.96,0
16:04:08,0,0,0,0,0,0,0,0,0,0,0,515,0,0,0,0,0.0000000,0.0000000,0.0000000,0.0000000,7.00,38.4063454,-110.7920914,1351.3000488,0.9,157.9,1.2,0.0,0.0,893,140,0,0,855.78,8.38,31.93,0
16:04:09,0,0,0,0,0,0,0,0,0,0,0,515,0,0,0,0,0.0000000,0.0000000,0.0000000,0.0000000,7.00,38.4063416,-110.7920914,1351.3000488,0.9,154.8,1.2,0.0,0.0,893,139,0,0,855.82,8.41,31.95,0
16:04:10,0,0,0,0,0,0,0,0,0,0,0,514,0,0,0,0,0.0000000,0.0000000,0.0000000,0.0000000,7.00,38.4063377,-110.7920914,1351.3000488,0.8,148.9,1.2,0.0,0.0,893,143,0,0,855.79,8.41,31.98,0
16:04:11,0,0,0,0,0,0,0,0,0,0,0,516,0,0,0,0,0.0000000,0.0000000,0.0000000,0.0000000,7.00,38.4063339,-110.7920761,1351.3000488,0.8,145.9,1.2,0.0,0.0,893,138,0,0,855.81,8.41,31.99,0
16:04:12,0,0,0,0,0,0,0,0,0,0,0,514,0,0,0,0,0.0000000,0.0000000,0.0000000,0.0000000,7.00,38.4063339,-110.7920761,1351.3000488,0.8,140.1,1.2,0.0,0.0,893,135,0,0,855.78,8.42,31.96,0
16:04:13,0,0,0,0,0,0,0,0,0,0,0,515,0,0,0,0,0.0000000,0.0000000,0.0000000,0.0000000,7.00,38.4063301,-110.7920761,1351.3000488,0.7,137.7,1.2,0.0,0.0,893,132,0,0,855.80,8.41,32.00,0
16:04:14,0,0,0,0,0,0,0,0,0,0,0,515,0,0,0,0,0.0000000,0.0000000,0.0000000,0.0000000,7.00,38.4063263,-110.7920761,1351.3000488,0.6,137.5,1.2,0.0,0.0,894,135,0,0,855.74,8.39,32.00,0
16:04:15,0,0,0,0,0,0,0,0,0,0,0,515,0,0,0,0,0.0000000,0.0000000,0.0000000,0.0000000,7.00,38.4063225,-110.7920609,1351.3000488,0.6,133.4,1.2,0.0,0.0,893,134,0,0,855.77,8.41,32.01,0
16:04:16,0,0,0,0,0,0,0,0,0,0,0,515,0,0,0,0,0.0000000,0.0000000,0.0000000,0.0000000,7.00,38.4063187,-110.7920609,1351.3000488,0.6,132.3,1.2,0.0,0.0,894,135,0,0,855.77,8.38,32.06,0
16:04:17,0,0,0,0,0,0,0,0,0,0,0,515,0,0,0,0,0.0000000,0.0000000,0.0000000,0.0000000,7.00,38.4063148,-110.7920609,1351.3000488,0.5,114.2,1.2,0.0,0.0,893,128,0,0,855.79,8.39,32.08,0
16:04:18,0,0,0,0,0,0,0,0,0,0,0,515,0,0,0,0,0.0000000,0.0000000,0.0000000,0.0000000,7.00,38.4063148,-110.7920532,1351.3000488,0.3,89.8,1.2,0.0,0.0,893,127,0,0,855.83,8.38,32.14,0
16:04:20,0,0,0,0,0,0,0,0,0,0,0,515,0,0,0,0,0.0000000,0.0000000,0.0000000,0.0000000,7.00,38.4063148,-110.7920532,1351.3000488,0.3,51.2,1.2,0.0,0.0,893,127,0,0,855.83,8.41,32.15,0
16:04:21,0,0,0,0,0,0,0,0,0,0,0,514,0,0,0,0,0.0000000,0.0000000,0.0000000,0.0000000,7.00,38.4063148,-110.7920532,1351.3000488,0.2,64.0,1.2,0.0,0.0,893,125,0,0,855.78,8.38,32.15,0
16:04:22,0,0,0,0,0,0,0,0,0,0,0,516,0,0,0,0,0.0000000,0.0000000,0.0000000,0.0000000,7.00,38.4063148,-110.7920532,1351.3000488,0.1,171.2,1.2,0.0,0.0,893,128,0,0,855.81,8.35,32.15,0
16:04:23,0,0,0,0,0,0,0,0,0,0,0,515,0,0,0,0,0.0000000,0.0000000,0.0000000,0.0000000,7.00,38.4063148,-110.7920532,1351.3000488,0.1,182.9,1.2,0.0,0.0,893,127,0,0,855.79,8.36,32.17,0
16:04:24,0,0,0,0,0,0,0,0,0,0,0,514,0,0,0,0,0.0000000,0.0000000,0.0000000,0.0000000,7.00,38.4063148,-110.7920532,1351.3000488,0.2,177.5,1.2,0.0,0.0,893,135,0,0,855.75,8.36,32.17,0
16:04:25,0,0,0,0,0,0,0,0,0,0,0,514,0,0,0,0,0.0000000,0.0000000,0.0000000,0.0000000,7.00,38.4063148,-110.7920532,1351.3000488,0.2,171.4,1.2,0.0,0.0,893,134,0,0,855.80,8.36,32.14,0
16:04:26,0,0,0,0,0,0,0,0,0,0,0,515,0,0,0,0,0.0000000,0.0000000,0.0000000,0.0000000,7.00,38.4063110,-110.7920532,1351.3000488,0.1,179.3,1.2,0.0,0.0,893,135,0,0,855.79,8.35,32.14,0
16:04:27,0,0,0,0,0,0,0,0,0,0,0,514,0,0,0,0,0.0000000,0.0000000,0.0000000,0.0000000,7.00,38.4063110,-110.7920532,1351.3000488,0.2,156.7,1.2,0.0,0.0,893,136,0,0,855.82,8.36,32.13,0
16:04:28,0,0,0,0,0,0,0,0,0,0,0,515,0,0,0,0,0.0000000,0.0000000,0.0000000,0.0000000,7.00,38.4063110,-110.7920532,1351.3000488,0.2,109.8,1.2,0.0,0.0,893,132,0,0,855.81,8.38,32.12,0
16:04:29,0,0,0,0,0,0,0,0,0,0,0,515,0,0,0,0,0.0000000,0.0000000,0.0000000,0.0000000,7.00,38.4063110,-110.7920532,1351.3000488,0.2,100.3,1.2,0.0,0.0,893,131,0,0,855.75,8.38,32.11,0
16:04:30,0,0,0,0,0,0,0,0,0,0,0,515,0,0,0,0,0.0000000,0.0000000,0.0000000,0.0000000,7.00,38.4063110,-110.7920532,1351.3000488,0.2,86.2,1.2,0.0,0.0,893,126,0,0,855.79,8.36,32.11,0
16:04:31,0,0,0,0,0,0,0,0,0,0,0,515,0,0,0,0,0.0000000,0.0000000,0.0000000,0.0000000,7.00,38.4063110,-110.7920532,1351.3000488,0.2,67.5,1.2,0.0,0.0,893,129,0,0,855.77,8.36,32.12,0
16:04:32,0,0,0,0,0,0,0,0,0,0,0,515,0,0,0,0,0.0000000,0.0000000,0.0000000,0.0000000,7.00,38.4063110,-110.7920532,1351.3000488,0.2,61.4,1.2,0.0,0.0,893,130,0,0,855.82,8.38,32.11,0
16:04:33,0,0,0,0,0,0,0,0,0,0,0,515,0,0,0,0,0.0000000,0.0000000,0.0000000,0.0000000,7.00,38.4063110,-110.7920532,1351.3000488,0.2,61.1,1.2,0.0,0.0,893,128,0,0,855.87,8.35,32.10,0
16:04:34,0,0,0,0,0,0,0,0,0,0,0,515,0,0,0,0,0.0000000,0.0000000,0.0000000,0.0000000,7.00,38.4063110,-110.7920380,1351.3000488,0.1,18.4,1.2,0.0,0.0,893,129,0,0,855.84,8.38,32.06,0
16:04:35,0,0,0,0,0,0,0,0,0,0,0,515,0,0,0,0,0.0000000,0.0000000,0.0000000,0.0000000,7.00,38.4063110,-110.7920380,1351.3000488,0.1,331.0,1.2,0.0,0.0,893,133,0,0,855.77,8.36,32.03,0
16:04:36,0,0,0,0,0,0,0,0,0,0,0,515,0,0,0,0,0.0000000,0.0000000,0.0000000,0.0000000,7.00,38.4063110,-110.7920532,1351.3000488,0.1,356.9,1.2,0.0,0.0,893,130,0,0,855.77,8.38,32.04,0
16:04:37,0,0,0,0,0,0,0,0,0,0,0,515,0,0,0,0,0.0000000,0.0000000,0.0000000,0.0000000,7.00,38.4063110,-110.7920532,1351.3000488,0.2,317.8,1.3,0.0,0.0,893,137,0,0,855.80,8.36,32.05,0
16:04:38,0,0,0,0,0,0,0,0,0,0,0,515,0,0,0,0,0.0000000,0.0000000,0.0000000,0.0000000,7.00,38.4063110,-110.7920532,1351.3000488,0.2,283.8,1.2,0.0,0.0,893,134,0,0,855.78,8.39,32.01,0
16:04:39,0,0,0,0,0,0,0,0,0,0,0,515,0,0,0,0,0.0000000,0.0000000,0.0000000,0.0000000,7.00,38.4063148,-110.7920532,1351.3000488,0.3,287.9,1.2,0.0,0.0,893,141,0,0,855.76,8.36,31.92,0
16:04:40,0,0,0,0,0,0,0,0,0,0,0,514,0,0,0,0,0.0000000,0.0000000,0.0000000,0.0000000,7.00,38.4063148,-110.7920532,1351.3000488,0.2,263.6,1.2,0.0,0.0,893,136,0,0,855.82,8.39,31.92,0
16:04:41,0,0,0,0,0,0,0,0,0,0,0,515,0,0,0,0,0.0000000,0.0000000,0.0000000,0.0000000,7.00,38.4063148,-110.7920532,1351.3000488,0.2,167.5,1.2,0.0,0.0,893,139,0,0,855.77,8.39,31.91,0
16:04:42,0,0,0,0,0,0,0,0,0,0,0,515,0,0,0,0,0.0000000,0.0000000,0.0000000,0.0000000,7.00,38.4063110,-110.7920532,1351.3000488,0.3,153.0,1.2,0.0,0.0,893,135,0,0,855.79,8.41,31.92,0
16:04:43,0,0,0,0,0,0,0,0,0,0,0,514,0,0,0,0,0.0000000,0.0000000,0.0000000,0.0000000,7.00,38.4063110,-110.7920532,1351.3000488,0.2,158.9,1.2,0.0,0.0,893,136,0,0,855.78,8.41,31.92,0
16:04:44,0,0,0,0,0,0,0,0,0,0,0,514,0,0,0,0,0.0000000,0.0000000,0.0000000,0.0000000,7.00,38.4063110,-110.7920532,1351.3000488,0.1,160.7,1.2,0.0,0.0,893,138,0,0,855.76,8.41,31.93,0
16:04:45,0,0,0,0,0,0,0,0,0,0,0,515,0,0,0,0,0.0000000,0.0000000,0.0000000,0.0000000,7.00,38.4063072,-110.7920532,1351.3000488,0.1,192.3,1.2,0.0,0.0,893,135,0,0,855.76,8.39,31.91,0
16:04:46,0,0,0,0,0,0,0,0,0,0,0,515,0,0,0,0,0.0000000,0.0000000,0.0000000,0.0000000,7.00,38.4063072,-110.7920532,1351.3000488,0.1,152.1,1.2,0.0,0.0,893,136,0,0,855.81,8.42,31.88,0
16:04:47,0,0,0,0,0,0,0,0,0,0,0,515,0,0,0,0,0.0000000,0.0000000,0.0000000,0.0000000,7.00,38.4063072,-110.7920532,1351.3000488,0.1,135.1,1.2,0.0,0.0,893,136,0,0,855.77,8.44,31.88,0
16:04:48,0,0,0,0,0,0,0,0,0,0,0,514,0,0,0,0,0.0000000,0.0000000,0.0000000,0.0000000,7.00,38.4063072,-110.7920532,1351.3000488,0.0,130.4,1.2,0.0,0.0,893,134,0,0,855.84,8.44,31.85,0
16:04:49,0,0,0,0,0,0,0,0,0,0,0,515,0,0,0,0,0.0000000,0.0000000,0.0000000,0.0000000,7.00,38.4063072,-110.7920532,1351.3000488,0.1,129.3,1.2,0.0,0.0,893,137,0,0,855.81,8.42,31.82,0
16:04:50,0,0,0,0,0,0,0,0,0,0,0,515,0,0,0,0,0.0000000,0.0000000,0.0000000,0.0000000,7.00,38.4063072,-110.7920532,1351.3000488,0.1,119.9,1.2,0.0,0.0,893,132,0,0,855.81,8.45,31.79,0
16:04:51,0,0,0,0,0,0,0,0,0,0,0,514,0,0,0,0,0.0000000,0.0000000,0.0000000,0.0000000,7.00,38.4063072,-110.7920532,1351.3000488,0.2,124.8,1.2,0.0,0.0,893,135,0,0,855.80,8.44,31.75,0
16:04:52,0,0,0,0,0,0,0,0,0,0,0,515,0,0,0,0,0.0000000,0.0000000,0.0000000,0.0000000,7.00,38.4063072,-110.7920532,1351.3000488,0.2,122.6,1.2,0.0,0.0,893,140,0,0,855.78,8.45,31.73,0
16:04:53,0,0,0,0,0,0,0,0,0,0,0,515,0,0,0,0,0.0000000,0.0000000,0.0000000,0.0000000,7.00,38.4063034,-110.7920380,1351.3000488,0.1,111.9,1.2,0.0,0.0,893,134,0,0,855.81,8.48,31.70,0
16:04:54,0,0,0,0,0,0,0,0,0,0,0,516,0,0,0,0,0.0000000,0.0000000,0.0000000,0.0000000,7.00,38.4063034,-110.7920380,1351.3000488,0.2,133.3,1.2,0.0,0.0,893,139,0,0,855.77,8.53,31.68,0
16:04:55,0,0,0,0,0,0,0,0,0,0,0,516,0,0,0,0,0.0000000,0.0000000,0.0000000,0.0000000,7.00,38.4063034,-110.7920380,1351.3000488,0.1,170.5,1.2,0.0,0.0,893,131,0,0,855.81,8.50,31.68,0
16:04:56,0,0,0,0,0,0,0,0,0,0,0,514,0,0,0,0,0.0000000,0.0000000,0.0000000,0.0000000,7.00,38.4063034,-110.7920380,1351.3000488,0.1,151.8,1.2,0.0,0.0,893,138,0,0,855.76,8.51,31.65,0
16:04:57,0,0,0,0,0,0,0,0,0,0,0,514,0,0,0,0,0.0000000,0.0000000,0.0000000,0.0000000,7.00,38.4063034,-110.7920380,1351.3000488,0.3,153.8,1.2,0.0,0.0,893,135,0,0,855.70,8.51,31.63,0
16:04:58,0,0,0,0,0,0,0,0,0,0,0,515,0,0,0,0,0.0000000,0.0000000,0.0000000,0.0000000,7.00,38.4062996,-110.7920380,1351.3000488,0.4,178.5,1.2,0.0,0.0,893,141,0,0,855.77,8.53,31.61,0
16:04:59,0,0,0,0,0,0,0,0,0,0,0,514,0,0,0,0,0.0000000,0.0000000,0.0000000,0.0000000,7.00,38.4062996,-110.7920380,1351.3000488,0.3,219.1,1.2,0.0,0.0,893,132,0,0,855.74,8.53,31.59,0
16:05:00,0,0,0,0,0,0,0,0,0,0,0,515,0,0,0,0,0.0000000,0.0000000,0.0000000,0.0000000,7.00,38.4062958,-110.7920380,1351.3000488,0.2,228.8,1.2,0.0,0.0,893,136,0,0,855.71,8.56,31.59,0
16:05:01,0,0,0,0,0,0,0,0,0,0,0,515,0,0,0,0,0.0000000,0.0000000,0.0000000,0.0000000,7.00,38.4062958,-110.7920380,1351.3000488,0.3,246.4,1.2,0.0,0.0,893,138,0,0,855.73,8.59,31.58,0
16:05:02,0,0,0,0,0,0,0,0,0,0,0,514,0,0,0,0,0.0000000,0.0000000,0.0000000,0.0000000,7.00,38.4062958,-110.7920380,1351.3000488,0.3,236.7,1.2,0.0,0.0,893,135,0,0,855.71,8.59,31.59,0
16:05:03,0,0,0,0,0,0,0,0,0,0,0,515,0,0,0,0,0.0000000,0.0000000,0.0000000,0.0000000,7.00,38.4062958,-110.7920532,1351.3000488,0.4,238.3,1.2,0.0,0.0,893,136,0,0,855.76,8.61,31.59,0
16:05:04,0,0,0,0,0,0,0,0,0,0,0,515,0,0,0,0,0.0000000,0.0000000,0.0000000,0.0000000,7.00,38.4062958,-110.7920532,1351.3000488,0.3,240.0,1.2,0.0,0.0,893,132,0,0,855.75,8.61,31.58,0
16:05:05,0,0,0,0,0,0,0,0,0,0,0,515,0,0,0,0,0.0000000,0.0000000,0.0000000,0.0000000,7.00,38.4062958,-110.7920532,1351.3000488,0.4,241.9,1.2,0.0,0.0,893,137,0,0,855.77,8.62,31.57,0
16:05:06,0,0,0,0,0,0,0,0,0,0,0,515,0,0,0,0,0.0000000,0.0000000,0.0000000,0.0000000,7.00,38.4062958,-110.7920532,1351.3000488,0.5,245.2,1.2,0.0,0.0,893,135,0,0,855.74,8.64,31.58,0
16:05:07,0,0,0,0,0,0,0,0,0,0,0,515,0,0,0,0,0.0000000,0.0000000,0.0000000,0.0000000,7.00,38.4062958,-110.7920532,1351.3000488,0.4,232.6,1.2,0.0,0.0,893,132,0,0,855.80,8.67,31.57,0
16:05:08,0,0,0,0,0,0,0,0,0,0,0,515,0,0,0,0,0.0000000,0.0000000,0.0000000,0.0000000,7.00,38.4062920,-110.7920609,1351.3000488,0.5,246.4,1.2,0.0,0.0,892,136,0,0,855.75,8.68,31.56,0
16:05:09,0,0,0,0,0,0,0,0,0,0,0,515,0,0,0,0,0.0000000,0.0000000,0.0000000,0.0000000,7.00,38.4062920,-110.7920609,1351.3000488,0.4,231.6,1.2,0.0,0.0,893,133,0,0,855.77,8.68,31.57,0
16:05:10,0,0,0,0,0,0,0,0,0,0,0,515,0,0,0,0,0.0000000,0.0000000,0.0000000,0.0000000,7.00,38.4062881,-110.7920609,1351.3000488,0.2,210.2,1.2,0.0,0.0,893,135,0,0,855.75,8.68,31.57,0
16:05:11,0,0,0,0,0,0,0,0,0,0,0,515,0,0,0,0,0.0000000,0.0000000,0.0000000,0.0000000,7.00,38.4062881,-110.7920609,1351.3000488,0.3,159.6,1.2,0.0,0.0,894,131,0,0,855.79,8.67,31.57,0
16:05:12,0,0,0,0,0,0,0,0,0,0,0,515,0,0,0,0,0.0000000,0.0000000,0.0000000,0.0000000,7.00,38.4062881,-110.7920609,1351.3000488,0.1,239.1,1.2,0.0,0.0,893,132,0,0,855.76,8.71,31.55,0
16:05:13,0,0,0,0,0,0,0,0,0,0,0,514,0,0,0,0,0.0000000,0.0000000,0.0000000,0.0000000,7.00,38.4062843,-110.7920609,1351.4000244,0.3,182.8,1.2,0.0,0.0,893,133,0,0,855.79,8.68,31.54,0
16:05:14,0,0,0,0,0,0,0,0,0,0,0,515,0,0,0,0,0.0000000,0.0000000,0.0000000,0.0000000,7.00,38.4062843,-110.7920609,1351.4000244,0.2,169.2,1.2,0.0,0.0,893,134,0,0,855.79,8.68,31.54,0
16:05:15,0,0,0,0,0,0,0,0,0,0,0,515,0,0,0,0,0.0000000,0.0000000,0.0000000,0.0000000,7.00,38.4062843,-110.7920609,1351.4000244,0.3,154.3,1.2,0.0,0.0,893,131,0,0,855.72,8.70,31.51,0
16:05:16,0,0,0,0,0,0,0,0,0,0,0,515,0,0,0,0,0.0000000,0.0000000,0.0000000,0.0000000,7.00,38.4062805,-110.7920609,1351.4000244,0.4,159.6,1.2,0.0,0.0,893,134,0,0,855.79,8.73,31.51,0
16:05:17,0,0,0,0,0,0,0,0,0,0,0,515,0,0,0,0,0.0000000,0.0000000,0.0000000,0.0000000,7.00,38.4062767,-110.7920609,1351.4000244,0.5,164.6,1.2,0.0,0.0,893,138,0,0,855.73,8.67,31.49,0
16:05:18,0,0,0,0,0,0,0,0,0,0,0,514,0,0,0,0,0.0000000,0.0000000,0.0000000,0.0000000,7.00,38.4062767,-110.7920609,1351.4000244,0.3,163.0,1.2,0.0,0.0,893,133,0,0,855.80,8.70,31.48,0
16:05:19,0,0,0,0,0,0,0,0,0,0,0,515,0,0,0,0,0.0000000,0.0000000,0.0000000,0.0000000,7.00,38.4062767,-110.7920609,1351.4000244,0.3,191.8,1.2,0.0,0.0,893,128,0,0,855.78,8.68,31.47,0
16:05:20,0,0,0,0,0,0,0,0,0,0,0,514,0,0,0,0,0.0000000,0.0000000,0.0000000,0.0000000,7.00,38.4062767,-110.7920609,1351.4000244,0.3,205.9,1.2,0.0,0.0,893,131,0,0,855.79,8.73,31.48,0
16:05:21,0,0,0,0,0,0,0,0,0,0,0,515,0,0,0,0,0.0000000,0.0000000,0.0000000,0.0000000,7.00,38.4062729,-110.7920609,1351.4000244,0.2,221.4,1.2,0.0,0.0,893,125,0,0,855.81,8.71,31.47,0
16:05:22,0,0,0,0,0,0,0,0,0,0,0,515,0,0,0,0,0.0000000,0.0000000,0.0000000,0.0000000,7.00,38.4062729,-110.7920609,1351.4000244,0.3,223.0,1.2,0.0,0.0,893,139,0,0,855.78,8.68,31.41,0
16:05:23,0,0,0,0,0,0,0,0,0,0,0,516,0,0,0,0,0.0000000,0.0000000,0.0000000,0.0000000,7.00,38.4062729,-110.7920609,1351.4000244,0.3,186.7,1.2,0.0,0.0,893,140,0,0,855.79,8.73,31.35,0
16:05:24,0,0,0,0,0,0,0,0,0,0,0,515,0,0,0,0,0.0000000,0.0000000,0.0000000,0.0000000,7.00,38.4062691,-110.7920609,1351.4000244,0.3,185.5,1.2,0.0,0.0,893,140,0,0,855.78,8.77,31.32,0
16:05:25,0,0,0,0,0,0,0,0,0,0,0,515,0,0,0,0,0.0000000,0.0000000,0.0000000,0.0000000,7.00,38.4062691,-110.7920609,1351.4000244,0.3,200.3,1.2,0.0,0.0,893,139,0,0,855.79,8.77,31.30,0
16:05:26,0,0,0,0,0,0,0,0,0,0,0,515,0,0,0,0,0.0000000,0.0000000,0.0000000,0.0000000,7.00,38.4062653,-110.7920609,1351.4000244,0.5,212.1,1.2,0.0,0.0,893,139,0,0,855.81,8.79,31.29,0
16:05:27,0,0,0,0,0,0,0,0,0,0,0,515,0,0,0,0,0.0000000,0.0000000,0.0000000,0.0000000,7.00,38.4062653,-110.7920609,1351.4000244,0.5,222.5,1.2,0.0,0.0,893,137,0,0,855.71,8.79,31.27,0
16:05:28,0,0,0,0,0,0,0,0,0,0,0,515,0,0,0,0,0.0000000,0.0000000,0.0000000,0.0000000,7.00,38.4062614,-110.7920761,1351.4000244,0.5,214.8,1.2,0.0,0.0,893,136,0,0,855.77,8.80,31.26,0
16:05:29,0,0,0,0,0,0,0,0,0,0,0,515,0,0,0,0,0.0000000,0.0000000,0.0000000,0.0000000,7.00,38.4062576,-110.7920761,1351.4000244,0.5,189.8,1.2,0.0,0.0,893,135,0,0,855.78,8.84,31.25,0
16:05:30,0,0,0,0,0,0,0,0,0,0,0,515,0,0,0,0,0.0000000,0.0000000,0.0000000,0.0000000,7.00,38.4062576,-110.7920761,1351.4000244,0.4,178.1,1.2,0.0,0.0,893,133,0,0,855.76,8.80,31.24,0
16:05:31,0,0,0,0,0,0,0,0,0,0,0,515,0,0,0,0,0.0000000,0.0000000,0.0000000,0.0000000,7.00,38.4062576,-110.7920761,1351.4000244,0.4,166.0,1.2,0.0,0.0,893,137,0,0,855.77,8.80,31.21,0
16:05:32,0,0,0,0,0,0,0,0,0,0,0,515,0,0,0,0,0.0000000,0.0000000,0.0000000,0.0000000,7.00,38.4062576,-110.7920761,1351.4000244,0.4,157.6,1.2,0.0,0.0,893,135,0,0,855.78,8.80,31.19,0
16:05:33,0,0,0,0,0,0,0,0,0,0,0,515,0,0,0,0,0.0000000,0.0000000,0.0000000,0.0000000,7.00,38.4062538,-110.7920761,1351.4000244,0.4,145.8,1.2,0.0,0.0,893,140,0,0,855.74,8.82,31.19,0
16:05:34,0,0,0,0,0,0,0,0,0,0,0,515,0,0,0,0,0.0000000,0.0000000,0.0000000,0.0000000,7.00,38.4062538,-110.7920609,1351.4000244,0.3,153.3,1.2,0.0,0.0,893,134,0,0,855.78,8.80,31.17,0
16:05:35,0,0,0,0,0,0,0,0,0,0,0,514,0,0,0,0,0.0000000,0.0000000,0.0000000,0.0000000,7.00,38.4062500,-110.7920609,1351.4000244,0.4,165.9,1.2,0.0,0.0,893,135,0,0,855.75,8.82,31.17,0
16:05:36,0,0,0,0,0,0,0,0,0,0,0,515,0,0,0,0,0.0000000,0.0000000,0.0000000,0.0000000,7.00,38.4062500,-110.7920609,1351.4000244,0.4,167.3,1.2,0.0,0.0,893,140,0,0,855.75,8.84,31.15,0
16:05:37,0,0,0,0,0,0,0,0,0,0,0,515,0,0,0,0,0.0000000,0.0000000,0.0000000,0.0000000,7.00,38.4062462,-110.7920609,1351.4000244,0.3,160.8,1.2,0.0,0.0,893,138,0,0,855.76,8.82,31.11,0
16:05:38,0,0,0,0,0,0,0,0,0,0,0,514,0,0,0,0,0.0000000,0.0000000,0.0000000,0.0000000,7.00,38.4062462,-110.7920609,1351.4000244,0.4,180.4,1.2,0.0,0.0,893,129,0,0,855.72,8.90,31.07,0
16:05:39,0,0,0,0,0,0,0,0,0,0,0,515,0,0,0,0,0.0000000,0.0000000,0.0000000,0.0000000,7.00,38.4062424,-110.7920609,1351.4000244,0.5,184.8,1.2,0.0,0.0,893,132,0,0,855.75,8.93,31.04,0
16:05:40,0,0,0,0,0,0,0,0,0,0,0,515,0,0,0,0,0.0000000,0.0000000,0.0000000,0.0000000,7.00,38.4062386,-110.7920609,1351.4000244,0.4,177.6,1.2,0.0,0.0,893,129,0,0,855.78,8.94,31.02,0
16:05:41,0,0,0,0,0,0,0,0,0,0,0,515,0,0,0,0,0.0000000,0.0000000,0.0000000,0.0000000,7.00,38.4062386,-110.7920609,1351.4000244,0.4,183.7,1.2,0.0,0.0,893,141,0,0,855.75,8.96,30.91,0
16:05:42,0,0,0,0,0,0,0,0,0,0,0,515,0,0,0,0,0.0000000,0.0000000,0.0000000,0.0000000,7.00,38.4062386,-110.7920609,1351.4000244,0.4,197.8,1.2,0.0,0.0,893,140,0,0,855.79,8.94,30.87,0
16:05:43,0,0,0,0,0,0,0,0,0,0,0,515,0,0,0,0,0.0000000,0.0000000,0.0000000,0.0000000,7.00,38.4062347,-110.7920609,1351.4000244,0.3,167.6,1.2,0.0,0.0,893,140,0,0,855.72,8.99,30.85,0
16:05:44,0,0,0,0,0,0,0,0,0,0,0,515,0,0,0,0,0.0000000,0.0000000,0.0000000,0.0000000,7.00,38.4062347,-110.7920609,1351.4000244,0.4,151.1,1.2,0.0,0.0,893,136,0,0,855.72,9.00,30.82,0
16:05:45,0,0,0,0,0,0,0,0,0,0,0,515,0,0,0,0,0.0000000,0.0000000,0.0000000,0.0000000,7.00,38.4062309,-110.7920609,1351.4000244,0.4,153.3,1.2,0.0,0.0,893,136,0,0,855.74,9.03,30.80,0
16:05:46,0,0,0,0,0,0,0,0,0,0,0,515,0,0,0,0,0.0000000,0.0000000,0.0000000,0.0000000,7.00,38.4062271,-110.7920609,1351.4000244,0.3,156.5,1.2,0.0,0.0,893,137,0,0,855.69,9.02,30.83,0
16:05:47,0,0,0,0,0,0,0,0,0,0,0,516,0,0,0,0,0.0000000,0.0000000,0.0000000,0.0000000,7.00,38.4062271,-110.7920609,1351.4000244,0.2,168.9,1.2,0.0,0.0,893,132,0,0,855.72,9.06,30.88,0
16:05:49,0,0,0,0,0,0,0,0,0,0,0,515,0,0,0,0,0.0000000,0.0000000,0.0000000,0.0000000,7.00,38.4062271,-110.7920609,1351.4000244,0.2,199.0,1.2,0.0,0.0,893,134,0,0,855.69,9.06,30.87,0
16:05:50,0,0,0,0,0,0,0,0,0,0,0,515,0,0,0,0,0.0000000,0.0000000,0.0000000,0.0000000,7.00,38.4062233,-110.7920609,1351.4000244,0.3,222.5,1.2,0.0,0.0,893,134,0,0,855.75,9.05,30.84,0
16:05:51,0,0,0,0,0,0,0,0,0,0,0,515,0,0,0,0,0.0000000,0.0000000,0.0000000,0.0000000,7.00,38.4062233,-110.7920609,1351.4000244,0.4,245.4,1.2,0.0,0.0,893,133,0,0,855.75,9.11,30.78,0
16:05:52,0,0,0,0,0,0,0,0,0,0,0,515,0,0,0,0,0.0000000,0.0000000,0.0000000,0.0000000,7.00,38.4062233,-110.7920609,1351.4000244,0.7,254.1,1.2,0.0,0.0,893,128,0,0,855.72,9.14,30.78,0
16:05:53,0,0,0,0,0,0,0,0,0,0,0,514,0,0,0,0,0.0000000,0.0000000,0.0000000,0.0000000,7.00,38.4062195,-110.7920914,1351.4000244,0.7,261.0,1.2,0.0,0.0,893,140,0,0,855.79,9.17,30.77,0
16:05:54,0,0,0,0,0,0,0,0,0,0,0,514,0,0,0,0,0.0000000,0.0000000,0.0000000,0.0000000,7.00,38.4062233,-110.7920990,1351.4000244,0.7,266.2,1.2,0.0,0.0,893,144,0,0,855.74,9.16,30.76,0
16:05:55,0,0,0,0,0,0,0,0,0,0,0,515,0,0,0,0,0.0000000,0.0000000,0.0000000,0.0000000,7.00,38.4062195,-110.7921143,1351.5000000,0.7,262.4,1.2,0.0,0.0,893,141,0,0,855.75,9.19,30.76,0
16:05:56,0,0,0,0,0,0,0,0,0,0,0,515,0,0,0,0,0.0000000,0.0000000,0.0000000,0.0000000,7.00,38.4062195,-110.7921295,1351.5000000,0.8,268.1,1.2,0.0,0.0,893,141,0,0,855.73,9.17,30.74,0
16:05:57,0,0,0,0,0,0,0,0,0,0,0,515,0,0,0,0,0.0000000,0.0000000,0.0000000,0.0000000,7.00,38.4062195,-110.7921371,1351.5000000,0.8,262.7,1.2,0.0,0.0,893,138,0,0,855.72,9.17,30.72,0
16:05:58,0,0,0,0,0,0,0,0,0,0,0,515,0,0,0,0,0.0000000,0.0000000,0.0000000,0.0000000,7.00,38.4062195,-110.7921677,1351.5000000,0.8,271.0,1.2,0.0,0.0,893,141,0,0,855.74,9.20,30.71,0
16:05:59,0,0,0,0,0,0,0,0,0,0,0,514,0,0,0,0,0.0000000,0.0000000,0.0000000,0.0000000,7.00,38.4062233,-110.7921829,1351.5000000,0.8,274.3,1.2,0.0,0.0,893,146,0,0,855.72,9.22,30.71,0
16:06:00,0,0,0,0,0,0,0,0,0,0,0,515,0,0,0,0,0.0000000,0.0000000,0.0000000,0.0000000,7.00,38.4062309,-110.7921829,1351.5000000,0.8,280.2,1.2,0.0,0.0,893,139,0,0,855.74,9.20,30.70,0
16:06:01,0,0,0,0,0,0,0,0,0,0,0,515,0,0,0,0,0.0000000,0.0000000,0.0000000,0.0000000,7.00,38.4062347,-110.7921906,1351.4000244,0.8,286.6,1.2,0.0,0.0,893,143,0,0,855.74,9.22,30.68,0
16:06:02,0,0,0,0,0,0,0,0,0,0,0,515,0,0,0,0,0.0000000,0.0000000,0.0000000,0.0000000,7.00,38.4062271,-110.7922287,1351.5999756,0.8,283.6,1.2,0.0,0.0,893,142,0,0,855.72,9.22,30.65,0
16:06:03,0,0,0,0,0,0,0,0,0,0,0,515,0,0,0,0,0.0000000,0.0000000,0.0000000,0.0000000,7.00,38.4062233,-110.7922440,1351.5999756,0.8,287.6,1.2,0.0,0.0,892,140,0,0,855.73,9.23,30.65,0
16:06:04,0,0,0,0,0,0,0,0,0,0,0,515,0,0,0,0,0.0000000,0.0000000,0.0000000,0.0000000,7.00,38.4062195,-110.7922668,1351.6999512,0.7,280.2,1.2,0.0,0.0,892,137,0,0,855.74,9.25,30.64,0
16:06:05,0,0,0,0,0,0,0,0,0,0,0,514,0,0,0,0,0.0000000,0.0000000,0.0000000,0.0000000,7.00,38.4062195,-110.7922668,1351.6999512,0.6,272.2,1.2,0.0,0.0,893,140,0,0,855.69,9.25,30.62,0
16:06:06,0,0,0,0,0,0,0,0,0,0,0,515,0,0,0,0,0.0000000,0.0000000,0.0000000,0.0000000,7.00,38.4062195,-110.7922821,1351.6999512,0.6,268.0,1.2,0.0,0.0,893,138,0,0,855.72,9.25,30.62,0
16:06:07,0,0,0,0,0,0,0,0,0,0,0,514,0,0,0,0,0.0000000,0.0000000,0.0000000,0.0000000,7.00,38.4062195,-110.7922821,1351.6999512,0.6,273.8,1.2,0.0,0.0,893,139,0,0,855.75,9.22,30.60,0
16:06:08,0,0,0,0,0,0,0,0,0,0,0,515,0,0,0,0,0.0000000,0.0000000,0.0000000,0.0000000,7.00,38.4062271,-110.7922974,1351.6999512,0.6,285.7,1.2,0.0,0.0,893,135,0,0,855.73,9.22,30.60,0
16:06:09,0,0,0,0,0,0,0,0,0,0,0,515,0,0,0,0,0.0000000,0.0000000,0.0000000,0.0000000,7.00,38.4062309,-110.7922974,1351.6999512,0.6,290.5,1.2,0.0,0.0,893,141,0,0,855.67,9.23,30.61,0
16:06:10,0,0,0,0,0,0,0,0,0,0,0,514,0,0,0,0,0.0000000,0.0000000,0.0000000,0.0000000,7.00,38.4062347,-110.7923050,1351.6999512,0.6,292.7,1.2,0.0,0.0,893,136,0,0,855.69,9.25,30.59,0
16:06:11,0,0,0,0,0,0,0,0,0,0,0,515,0,0,0,0,0.0000000,0.0000000,0.0000000,0.0000000,7.00,38.4062347,-110.7923050,1351.6999512,0.6,287.9,1.2,0.0,0.0,893,139,0,0,855.73,9.28,30.59,0
16:06:12,0,0,0,0,0,0,0,0,0,0,0,516,0,0,0,0,0.0000000,0.0000000,0.0000000,0.0000000,7.00,38.4062386,-110.7923203,1351.6999512,0.6,290.7,1.2,0.0,0.0,893,138,0,0,855.71,9.29,30.60,0
16:06:13,0,0,0,0,0,0,0,0,0,0,0,514,0,0,0,0,0.0000000,0.0000000,0.0000000,0.0000000,7.00,38.4062424,-110.7923355,1351.6999512,0.7,301.3,1.2,0.0,0.0,893,135,0,0,855.72,9.31,30.60,0
16:06:14,0,0,0,0,0,0,0,0,0,0,0,515,0,0,0,0,0.0000000,0.0000000,0.0000000,0.0000000,7.00,38.4062424,-110.7923431,1351.6999512,0.7,290.1,1.2,0.0,0.0,893,133,0,0,855.73,9.29,30.58,0
16:06:15,0,0,0,0,0,0,0,0,0,0,0,515,0,0,0,0,0.0000000,0.0000000,0.0000000,0.0000000,7.00,38.4062462,-110.7923584,1351.6999512,0.7,287.9,1.2,0.0,0.0,893,134,0,0,855.75,9.31,30.58,0
16:06:16,0,0,0,0,0,0,0,0,0,0,0,515,0,0,0,0,0.0000000,0.0000000,0.0000000,0.0000000,7.00,38.4062500,-110.7923584,1351.8000488,0.7,284.9,1.2,0.0,0.0,893,133,0,0,855.69,9.35,30.58,0
16:06:17,0,0,0,0,0,0,0,0,0,0,0,515,0,0,0,0,0.0000000,0.0000000,0.0000000,0.0000000,7.00,38.4062538,-110.7923737,1351.8000488,0.7,290.0,1.2,0.0,0.0,893,134,0,0,855.69,9.34,30.57,0
16:06:18,0,0,0,0,0,0,0,0,0,0,0,515,0,0,0,0,0.0000000,0.0000000,0.0000000,0.0000000,7.00,38.4062538,-110.7923813,1351.8000488,0.6,287.7,1.2,0.0,0.0,893,125,0,0,855.68,9.37,30.56,0
16:06:19,0,0,0,0,0,0,0,0,0,0,0,515,0,0,0,0,0.0000000,0.0000000,0.0000000,0.0000000,7.00,38.4062576,-110.7923965,1351.9000244,0.7,294.2,1.2,0.0,0.0,893,127,0,0,855.70,9.37,30.58,0
16:06:20,0,0,0,0,0,0,0,0,0,0,0,515,0,0,0,0,0.0000000,0.0000000,0.0000000,0.0000000,7.00,38.4062576,-110.7924118,1351.9000244,0.7,290.7,1.2,0.0,0.0,893,129,0,0,855.67,9.35,30.62,0
16:06:21,0,0,0,0,0,0,0,0,0,0,0,516,0,0,0,0,0.0000000,0.0000000,0.0000000,0.0000000,7.00,38.4062538,-110.7924118,1351.9000244,0.6,263.5,1.2,0.0,0.0,893,132,0,0,855.72,9.37,30.63,0
16:06:22,0,0,0,0,0,0,0,0,0,0,0,515,0,0,0,0,0.0000000,0.0000000,0.0000000,0.0000000,7.00,38.4062538,-110.7924194,1351.9000244,0.5,268.3,1.2,0.0,0.0,893,127,0,0,855.74,9.38,30.60,0
16:06:23,0,0,0,0,0,0,0,0,0,0,0,515,0,0,0,0,0.0000000,0.0000000,0.0000000,0.0000000,7.00,38.4062500,-110.7924194,1351.9000244,0.4,263.0,1.2,0.0,0.0,893,127,0,0,855.71,9.40,30.58,0
16:06:24,0,0,0,0,0,0,0,0,0,0,0,515,0,0,0,0,0.0000000,0.0000000,0.0000000,0.0000000,7.00,38.4062538,-110.7924347,1351.9000244,0.4,272.0,1.2,0.0,0.0,893,131,0,0,855.73,9.37,30.59,0
16:06:25,0,0,0,0,0,0,0,0,0,0,0,515,0,0,0,0,0.0000000,0.0000000,0.0000000,0.0000000,7.00,38.4062538,-110.7924347,1351.9000244,0.4,278.7,1.2,0.0,0.0,893,134,0,0,855.69,9.35,30.61,0
16:06:26,0,0,0,0,0,0,0,0,0,0,0,515,0,0,0,0,0.0000000,0.0000000,0.0000000,0.0000000,7.00,38.4062538,-110.7924347,1351.9000244,0.4,281.5,1.2,0.0,0.0,893,125,0,0,855.78,9.38,30.62,0
16:06:27,0,0,0,0,0,0,0,0,0,0,0,515,0,0,0,0,0.0000000,0.0000000,0.0000000,0.0000000,7.00,38.4062538,-110.7924347,1351.9000244,0.3,272.1,1.2,0.0,0.0,892,127,0,0,855.74,9.37,30.63,0
16:06:28,0,0,0,0,0,0,0,0,0,0,0,515,0,0,0,0,0.0000000,0.0000000,0.0000000,0.0000000,7.00,38.4062538,-110.7924500,1351.9000244,0.3,269.9,1.2,0.0,0.0,893,135,0,0,855.76,9.37,30.63,0
16:06:29,0,0,0,0,0,0,0,0,0,0,0,515,0,0,0,0,0.0000000,0.0000000,0.0000000,0.0000000,7.00,38.4062538,-110.7924500,1351.9000244,0.3,273.4,1.2,0.0,0.0,893,133,0,0,855.73,9.40,30.61,0
16:06:30,0,0,0,0,0,0,0,0,0,0,0,515,0,0,0,0,0.0000000,0.0000000,0.0000000,0.0000000,7.00,38.4062538,-110.7924500,1351.9000244,0.3,283.6,1.2,0.0,0.0,893,132,0,0,855.72,9.37,30.63,0
16:06:31,0,0,0,0,0,0,0,0,0,0,0,515,0,0,0,0,0.0000000,0.0000000,0.0000000,0.0000000,7.00,38.4062538,-110.7924500,1351.9000244,0.3,305.8,1.2,0.0,0.0,893,137,0,0,855.73,9.37,30.62,0
16:06:32,0,0,0,0,0,0,0,0,0,0,0,515,0,0,0,0,0.0000000,0.0000000,0.0000000,0.0000000,7.00,38.4062538,-110.7924500,1351.9000244,0.3,311.7,1.2,0.0,0.0,893,136,0,0,855.64,9.38,30.62,0
16:06:33,0,0,0,0,0,0,0,0,0,0,0,515,0,0,0,0,0.0000000,0.0000000,0.0000000,0.0000000,7.00,38.4062576,-110.7924500,1351.9000244,0.2,309.1,1.2,0.0,0.0,893,131,0,0,855.73,9.38,30.64,0
16:06:34,0,0,0,0,0,0,0,0,0,0,0,515,0,0,0,0,0.0000000,0.0000000,0.0000000,0.0000000,7.00,38.4062576,-110.7924500,1351.9000244,0.3,312.3,1.2,0.0,0.0,893,129,0,0,855.68,9.43,30.65,0
16:06:35,0,0,0,0,0,0,0,0,0,0,0,514,0,0,0,0,0.0000000,0.0000000,0.0000000,0.0000000,7.00,38.4062576,-110.7924500,1351.9000244,0.1,307.8,1.2,0.0,0.0,893,132,0,0,855.70,9.40,30.68,0
16:06:36,0,0,0,0,0,0,0,0,0,0,0,514,0,0,0,0,0.0000000,0.0000000,0.0000000,0.0000000,7.00,38.4062576,-110.7924500,1351.9000244,0.2,311.2,1.2,0.0,0.0,893,137,0,0,855.74,9.37,30.70,0
16:06:37,0,0,0,0,0,0,0,0,0,0,0,515,0,0,0,0,0.0000000,0.0000000,0.0000000,0.0000000,7.00,38.4062576,-110.7924500,1351.9000244,0.3,306.6,1.2,0.0,0.0,893,128,0,0,855.70,9.35,30.71,0
16:06:38,0,0,0,0,0,0,0,0,0,0,0,515,0,0,0,0,0.0000000,0.0000000,0.0000000,0.0000000,7.00,38.4062576,-110.7924576,1351.9000244,0.4,303.7,1.2,0.0,0.0,893,134,0,0,855.68,9.35,30.68,0
16:06:39,0,0,0,0,0,0,0,0,0,0,0,514,0,0,0,0,0.0000000,0.0000000,0.0000000,0.0000000,7.00,38.4062576,-110.7924576,1351.9000244,0.4,305.3,1.2,0.0,0.0,893,134,0,0,855.67,9.32,30.67,0
16:06:40,0,0,0,0,0,0,0,0,0,0,0,515,0,0,0,0,0.0000000,0.0000000,0.0000000,0.0000000,7.00,38.4062576,-110.7924576,1351.9000244,0.3,291.7,1.2,0.0,0.0,893,132,0,0,855.67,9.31,30.67,0
16:06:41,0,0,0,0,0,0,0,0,0,0,0,514,0,0,0,0,0.0000000,0.0000000,0.0000000,0.0000000,7.00,38.4062614,-110.7924576,1351.9000244,0.2,298.8,1.2,0.0,0.0,893,131,0,0,855.70,9.32,30.66,0
16:06:42,0,0,0,0,0,0,0,0,0,0,0,515,0,0,0,0,0.0000000,0.0000000,0.0000000,0.0000000,7.00,38.4062614,-110.7924576,1351.9000244,0.2,286.9,1.2,0.0,0.0,893,131,0,0,855.71,9.32,30.66,0
16:06:43,0,0,0,0,0,0,0,0,0,0,0,515,0,0,0,0,0.0000000,0.0000000,0.0000000,0.0000000,7.00,38.4062614,-110.7924576,1351.9000244,0.3,274.5,1.2,0.0,0.0,893,132,0,0,855.67,9.32,30.66,0
16:06:44,0,0,0,0,0,0,0,0,0,0,0,514,0,0,0,0,0.0000000,0.0000000,0.0000000,0.0000000,7.00,38.4062614,-110.7924576,1351.9000244,0.2,273.0,1.2,0.0,0.0,893,133,0,0,855.71,9.31,30.67,0
16:06:45,0,0,0,0,0,0,0,0,0,0,0,515,0,0,0,0,0.0000000,0.0000000,0.0000000,0.0000000,7.00,38.4062614,-110.7924576,1351.9000244,0.2,281.9,1.2,0.0,0.0,893,134,0,0,855.70,9.29,30.65,0
16:06:46,0,0,0,0,0,0,0,0,0,0,0,515,0,0,0,0,0.0000000,0.0000000,0.0000000,0.0000000,7.00,38.4062614,-110.7924728,1351.9000244,0.3,270.0,1.2,0.0,0.0,893,132,0,0,855.68,9.31,30.65,0
16:06:47,0,0,0,0,0,0,0,0,0,0,0,515,0,0,0,0,0.0000000,0.0000000,0.0000000,0.0000000,7.00,38.4062614,-110.7924728,1351.9000244,0.2,275.3,1.2,0.0,0.0,893,131,0,0,855.69,9.31,30.65,0
16:06:48,0,0,0,0,0,0,0,0,0,0,0,515,0,0,0,0,0.0000000,0.0000000,0.0000000,0.0000000,7.00,38.4062614,-110.7924728,1351.9000244,0.2,263.6,1.2,0.0,0.0,893,130,0,0,855.71,9.34,30.65,0
16:06:49,0,0,0,0,0,0,0,0,0,0,0,515,0,0,0,0,0.0000000,0.0000000,0.0000000,0.0000000,7.00,38.4062614,-110.7924728,1351.9000244,0.2,279.7,1.2,0.0,0.0,893,133,0,0,855.71,9.31,30.64,0
16:06:50,0,0,0,0,0,0,0,0,0,0,0,515,0,0,0,0,0.0000000,0.0000000,0.0000000,0.0000000,7.00,38.4062614,-110.7924728,1351.9000244,0.1,293.9,1.2,0.0,0.0,893,128,0,0,855.72,9.34,30.65,0
16:06:51,0,0,0,0,0,0,0,0,0,0,0,515,0,0,0,0,0.0000000,0.0000000,0.0000000,0.0000000,7.00,38.4062614,-110.7924728,1351.9000244,0.2,310.4,1.2,0.0,0.0,894,131,0,0,855.68,9.32,30.65,0
16:06:52,0,0,0,0,0,0,0,0,0,0,0,514,0,0,0,0,0.0000000,0.0000000,0.0000000,0.0000000,7.00,38.4062614,-110.7924728,1351.9000244,0.2,291.1,1.2,0.0,0.0,893,128,0,0,855.68,9.32,30.66,0
16:06:53,0,0,0,0,0,0,0,0,0,0,0,515,0,0,0,0,0.0000000,0.0000000,0.0000000,0.0000000,7.00,38.4062614,-110.7924728,1351.9000244,0.2,320.2,1.2,0.0,0.0,893,128,0,0,855.68,9.32,30.64,0
16:06:54,0,0,0,0,0,0,0,0,0,0,0,515,0,0,0,0,0.0000000,0.0000000,0.0000000,0.0000000,7.00,38.4062614,-110.7924728,1351.9000244,0.2,340.0,1.2,0.0,0.0,893,129,0,0,855.71,9.31,30.64,0
16:06:55,0,0,0,0,0,0,0,0,0,0,0,515,0,0,0,0,0.0000000,0.0000000,0.0000000,0.0000000,7.00,38.4062653,-110.7924728,1351.9000244,0.2,7.9,1.2,0.0,0.0,894,131,0,0,855.76,9.37,30.61,0
16:06:56,0,0,0,0,0,0,0,0,0,0,0,515,0,0,0,0,0.0000000,0.0000000,0.0000000,0.0000000,7.00,38.4062653,-110.7924728,1351.9000244,0.2,24.6,1.3,0.0,0.0,893,128,0,0,855.67,9.34,30.58,0
16:06:57,0,0,0,0,0,0,0,0,0,0,0,515,0,0,0,0,0.0000000,0.0000000,0.0000000,0.0000000,7.00,38.4062653,-110.7924728,1351.9000244,0.1,29.9,1.2,0.0,0.0,893,137,0,0,855.69,9.34,30.57,0
16:06:58,0,0,0,0,0,0,0,0,0,0,0,515,0,0,0,0,0.0000000,0.0000000,0.0000000,0.0000000,7.00,38.4062653,-110.7924728,1351.9000244,0.0,54.0,1.2,0.0,0.0,893,132,0,0,855.68,9.31,30.56,0
16:06:59,0,0,0,0,0,0,0,0,0,0,0,515,0,0,0,0,0.0000000,0.0000000,0.0000000,0.0000000,7.00,38.4062653,-110.7924728,1351.9000244,0.2,344.3,1.2,0.0,0.0,893,136,0,0,855.68,9.35,30.56,0
16:07:00,0,0,0,0,0,0,0,0,0,0,0,515,0,0,0,0,0.0000000,0.0000000,0.0000000,0.0000000,7.00,38.4062691,-110.7924728,1351.9000244,0.2,356.0,1.2,0.0,0.0,893,130,0,0,855.69,9.35,30.57,0
16:07:01,0,0,0,0,0,0,0,0,0,0,0,515,0,0,0,0,0.0000000,0.0000000,0.0000000,0.0000000,7.00,38.4062691,-110.7924728,1351.9000244,0.1,344.2,1.3,0.0,0.0,893,132,0,0,855.66,9.34,30.55,0
16:07:02,0,0,0,0,0,0,0,0,0,0,0,515,0,0,0,0,0.0000000,0.0000000,0.0000000,0.0000000,7.00,38.4062691,-110.7924728,1351.9000244,0.1,285.3,1.2,0.0,0.0,893,139,0,0,855.73,9.32,30.54,0
16:07:03,0,0,0,0,0,0,0,0,0,0,0,515,0,0,0,0,0.0000000,0.0000000,0.0000000,0.0000000,7.00,38.4062691,-110.7924728,1351.9000244,0.1,274.6,1.2,0.0,0.0,893,129,0,0,855.68,9.34,30.51,0
16:07:04,0,0,0,0,0,0,0,0,0,0,0,515,0,0,0,0,0.0000000,0.0000000,0.0000000,0.0000000,7.00,38.4062691,-110.7924728,1351.9000244,0.1,259.1,1.2,0.0,0.0,892,134,0,0,855.67,9.35,30.50,0
16:07:05,0,0,0,0,0,0,0,0,0,0,0,515,0,0,0,0,0.0000000,0.0000000,0.0000000,0.0000000,7.00,38.4062691,-110.7924728,1351.9000244,0.0,293.0,1.2,0.0,0.0,893,136,0,0,855.66,9.38,30.50,0
16:07:06,0,0,0,0,0,0,0,0,0,0,0,515,0,0,0,0,0.0000000,0.0000000,0.0000000,0.0000000,7.00,38.4062691,-110.7924728,1351.9000244,0.1,239.1,1.2,0.0,0.0,893,138,0,0,855.68,9.42,30.51,0
16:07:07,0,0,0,0,0,0,0,0,0,0,0,514,0,0,0,0,0.0000000,0.0000000,0.0000000,0.0000000,7.00,38.4062691,-110.7924728,1351.9000244,0.0,241.7,1.2,0.0,0.0,893,139,0,0,855.70,9.42,30.52,0
16:07:08,0,0,0,0,0,0,0,0,0,0,0,515,0,0,0,0,0.0000000,0.0000000,0.0000000,0.0000000,7.00,38.4062691,-110.7924728,1351.9000244,0.1,124.0,1.2,0.0,0.0,893,134,0,0,855.68,9.42,30.55,0
16:07:09,0,0,0,0,0,0,0,0,0,0,0,514,0,0,0,0,0.0000000,0.0000000,0.0000000,0.0000000,7.00,38.4062691,-110.7924728,1351.9000244,0.2,112.3,1.2,0.0,0.0,893,128,0,0,855.67,9.40,30.57,0
16:07:10,0,0,0,0,0,0,0,0,0,0,0,515,0,0,0,0,0.0000000,0.0000000,0.0000000,0.0000000,7.00,38.4062691,-110.7924728,1351.9000244,0.3,87.8,1.2,0.0,0.0,892,133,0,0,855.70,9.40,30.60,0
16:07:11,0,0,0,0,0,0,0,0,0,0,0,515,0,0,0,0,0.0000000,0.0000000,0.0000000,0.0000000,7.00,38.4062691,-110.7924728,1351.9000244,0.2,79.7,1.2,0.0,0.0,893,134,0,0,855.67,9.40,30.60,0
16:07:12,0,0,0,0,0,0,0,0,0,0,0,515,0,0,0,0,0.0000000,0.0000000,0.0000000,0.0000000,7.00,38.4062691,-110.7924728,1351.9000244,0.2,22.5,1.2,0.0,0.0,892,135,0,0,855.71,9.38,30.61,0
16:07:13,0,0,0,0,0,0,0,0,0,0,0,515,0,0,0,0,0.0000000,0.0000000,0.0000000,0.0000000,7.00,38.4062691,-110.7924728,1351.9000244,0.0,355.0,1.2,0.0,0.0,893,132,0,0,855.72,9.38,30.62,0
16:07:14,0,0,0,0,0,0,0,0,0,0,0,515,0,0,0,0,0.0000000,0.0000000,0.0000000,0.0000000,7.00,38.4062691,-110.7924728,1351.9000244,0.0,78.4,1.3,0.0,0.0,893,129,0,0,855.67,9.42,30.62,0
16:07:15,0,0,0,0,0,0,0,0,0,0,0,515,0,0,0,0,0.0000000,0.0000000,0.0000000,0.0000000,7.00,38.4062691,-110.7924728,1351.9000244,0.1,20.0,1.2,0.0,0.0,892,130,0,0,855.66,9.42,30.56,0
16:07:16,0,0,0,0,0,0,0,0,0,0,0,515,0,0,0,0,0.0000000,0.0000000,0.0000000,0.0000000,7.00,38.4062691,-110.7924728,1351.9000244,0.1,204.5,1.2,0.0,0.0,893,135,0,0,855.66,9.35,30.59,0
16:07:17,0,0,0,0,0,0,0,0,0,0,0,515,0,0,0,0,0.0000000,0.0000000,0.0000000,0.0000000,7.00,38.4062691,-110.7924728,1351.9000244,0.3,205.6,1.2,0.0,0.0,893,133,0,0,855.66,9.37,30.58,0
16:07:18,0,0,0,0,0,0,0,0,0,0,0,515,0,0,0,0,0.0000000,0.0000000,0.0000000,0.0000000,7.00,38.4062691,-110.7924728,1352.0000000,0.3,198.8,1.2,0.0,0.0,893,133,0,0,855.69,9.34,30.56,0
16:07:19,0,0,0,0,0,0,0,0,0,0,0,515,0,0,0,0,0.0000000,0.0000000,0.0000000,0.0000000,7.00,38.4062653,-110.7924728,1352.0000000,0.2,198.6,1.2,0.0,0.0,893,133,0,0,855.67,9.34,30.55,0
16:07:20,0,0,0,0,0,0,0,0,0,0,0,516,0,0,0,0,0.0000000,0.0000000,0.0000000,0.0000000,7.00,38.4062653,-110.7924728,1352.0000000,0.1,213.3,1.2,0.0,0.0,892,134,0,0,855.68,9.31,30.61,0
16:07:21,0,0,0,0,0,0,0,0,0,0,0,515,0,0,0,0,0.0000000,0.0000000,0.0000000,0.0000000,7.00,38.4062653,-110.7924728,1352.0000000,0.1,334.4,1.2,0.0,0.0,893,132,0,0,855.66,9.31,30.58,0
16:07:22,0,0,0,0,0,0,0,0,0,0,0,514,0,0,0,0,0.0000000,0.0000000,0.0000000,0.0000000,7.00,38.4062653,-110.7924728,1352.0000000,0.1,334.4,1.2,0.0,0.0,893,127,0,0,855.72,9.35,30.52,0
16:07:24,0,0,0,0,0,0,0,0,0,0,0,515,0,0,0,0,0.0000000,0.0000000,0.0000000,0.0000000,7.00,38.4062653,-110.7924728,1352.0000000,0.0,133.1,1.2,0.0,0.0,893,139,0,0,855.70,9.35,30.59,0
16:07:25,0,0,0,0,0,0,0,0,0,0,0,514,0,0,0,0,0.0000000,0.0000000,0.0000000,0.0000000,7.00,38.4062653,-110.7924728,1352.0000000,0.2,331.5,1.2,0.0,0.0,892,138,0,0,855.69,9.38,30.61,0
16:07:26,0,0,0,0,0,0,0,0,0,0,0,515,0,0,0,0,0.0000000,0.0000000,0.0000000,0.0000000,7.00,38.4062653,-110.7924728,1352.0000000,0.3,336.8,1.2,0.0,0.0,893,136,0,0,855.71,9.37,30.63,0
16:07:27,0,0,0,0,0,0,0,0,0,0,0,514,0,0,0,0,0.0000000,0.0000000,0.0000000,0.0000000,7.00,38.4062691,-110.7924728,1352.0000000,0.4,341.2,1.2,0.0,0.0,892,140,0,0,855.69,9.38,30.63,0
16:07:28,0,0,0,0,0,0,0,0,0,0,0,515,0,0,0,0,0.0000000,0.0000000,0.0000000,0.0000000,7.00,38.4062691,-110.7924728,1352.0000000,0.4,341.5,1.2,0.0,0.0,893,135,0,0,855.68,9.35,30.64,0
16:07:29,0,0,0,0,0,0,0,0,0,0,0,515,0,0,0,0,0.0000000,0.0000000,0.0000000,0.0000000,7.00,38.4062729,-110.7924728,1352.0000000,0.5,346.4,1.2,0.0,0.0,893,134,0,0,855.74,9.34,30.64,0
16:07:30,0,0,0,0,0,0,0,0,0,0,0,515,0,0,0,0,0.0000000,0.0000000,0.0000000,0.0000000,7.00,38.4062729,-110.7924728,1352.0000000,0.4,345.8,1.3,0.0,0.0,893,136,0,0,855.72,9.32,30.64,0
16:07:31,0,0,0,0,0,0,0,0,0,0,0,515,0,0,0,0,0.0000000,0.0000000,0.0000000,0.0000000,7.00,38.4062767,-110.7924728,1352.0000000,0.3,337.6,1.3,0.0,0.0,893,133,0,0,855.75,9.32,30.63,0
16:07:32,0,0,0,0,0,0,0,0,0,0,0,515,0,0,0,0,0.0000000,0.0000000,0.0000000,0.0000000,7.00,38.4062767,-110.7924728,1352.0000000,0.3,343.5,1.2,0.0,0.0,893,134,0,0,855.70,9.34,30.62,0
16:07:33,0,0,0,0,0,0,0,0,0,0,0,515,0,0,0,0,0.0000000,0.0000000,0.0000000,0.0000000,7.00,38.4062767,-110.7924728,1352.0000000,0.3,0.9,1.2,0.0,0.0,893,131,0,0,855.73,9.32,30.59,0
16:07:34,0,0,0,0,0,0,0,0,0,0,0,515,0,0,0,0,0.0000000,0.0000000,0.0000000,0.0000000,7.00,38.4062767,-110.7924728,1352.0000000,0.3,4.7,1.3,0.0,0.0,893,132,0,0,855.77,9.32,30.56,0
16:07:35,0,0,0,0,0,0,0,0,0,0,0,515,0,0,0,0,0.0000000,0.0000000,0.0000000,0.0000000,7.00,38.4062805,-110.7924728,1352.0000000,0.3,315.9,1.3,0.0,0.0,893,139,0,0,855.73,9.32,30.56,0
16:07:36,0,0,0,0,0,0,0,0,0,0,0,514,0,0,0,0,0.0000000,0.0000000,0.0000000,0.0000000,7.00,38.4062805,-110.7924881,1352.0000000,0.3,297.1,1.2,0.0,0.0,893,133,0,0,855.71,9.32,30.59,0
16:07:37,0,0,0,0,0,0,0,0,0,0,0,515,0,0,0,0,0.0000000,0.0000000,0.0000000,0.0000000,7.00,38.4062843,-110.7924881,1352.0000000,0.3,264.3,1.2,0.0,0.0,893,140,0,0,855.70,9.32,30.60,0
16:07:38,0,0,0,0,0,0,0,0,0,0,0,515,0,0,0,0,0.0000000,0.0000000,0.0000000,0.0000000,7.00,38.4062843,-110.7924881,1352.0000000,0.3,273.9,1.2,0.0,0.0,893,136,0,0,855.71,9.37,30.61,0
16:07:39,0,0,0,0,0,0,0,0,0,0,0,515,0,0,0,0,0.0000000,0.0000000,0.0000000,0.0000000,7.00,38.4062843,-110.7924881,1352.0000000,0.3,287.9,1.2,0.0,0.0,893,132,0,0,855.73,9.38,30.62,0
16:07:40,0,0,0,0,0,0,0,0,0,0,0,514,0,0,0,0,0.0000000,0.0000000,0.0000000,0.0000000,7.00,38.4062843,-110.7924881,1352.0000000,0.2,307.2,1.2,0.0,0.0,893,133,0,0,855.70,9.43,30.62,0
16:07:41,0,0,0,0,0,0,0,0,0,0,0,515,0,0,0,0,0.0000000,0.0000000,0.0000000,0.0000000,7.00,38.4062843,-110.7924881,1352.0000000,0.3,281.9,1.2,0.0,0.0,893,135,0,0,855.73,9.35,30.64,0
16:07:42,0,0,0,0,0,0,0,0,0,0,0,515,0,0,0,0,0.0000000,0.0000000,0.0000000,0.0000000,7.00,38.4062843,-110.7924728,1352.1999512,0.1,321.6,1.2,0.0,0.0,892,134,0,0,855.68,9.40,30.63,0
16:07:43,0,0,0,0,0,0,0,0,0,0,0,515,0,0,0,0,0.0000000,0.0000000,0.0000000,0.0000000,7.00,38.4062843,-110.7924728,1352.4000244,0.1,187.4,1.2,0.0,0.0,893,133,0,0,855.72,9.45,30.62,0
16:07:44,0,0,0,0,0,0,0,0,0,0,0,515,0,0,0,0,0.0000000,0.0000000,0.0000000,0.0000000,7.00,38.4062843,-110.7924728,1352.6999512,0.1,266.9,1.2,0.0,0.0,893,135,0,0,855.69,9.43,30.63,0
16:07:45,0,0,0,0,0,0,0,0,0,0,0,515,0,0,0,0,0.0000000,0.0000000,0.0000000,0.0000000,7.00,38.4062881,-110.7924728,1352.9000244,0.1,283.0,1.2,0.0,0.0,893,136,0,0,855.74,9.43,30.66,0
16:07:46,0,0,0,0,0,0,0,0,0,0,0,515,0,0,0,0,0.0000000,0.0000000,0.0000000,0.0000000,7.00,38.4062920,-110.7924728,1353.0999756,0.1,316.8,1.2,0.0,0.0,893,137,0,0,855.72,9.49,30.68,0
16:07:47,0,0,0,0,0,0,0,0,0,0,0,515,0,0,0,0,0.0000000,0.0000000,0.0000000,0.0000000,7.00,38.4062920,-110.7924576,1353.3000488,0.1,300.5,1.2,0.0,0.0,893,135,0,0,855.73,9.52,30.70,0
16:07:48,0,0,0,0,0,0,0,0,0,0,0,515,0,0,0,0,0.0000000,0.0000000,0.0000000,0.0000000,7.00,38.4062920,-110.7924576,1353.5000000,0.1,284.4,1.2,0.0,0.0,893,133,0,0,855.72,9.49,30.73,0
16:07:49,0,0,0,0,0,0,0,0,0,0,0,515,0,0,0,0,0.0000000,0.0000000,0.0000000,0.0000000,7.00,38.4062958,-110.7924500,1353.6999512,0.1,349.4,1.2,0.0,0.0,893,139,0,0,855.74,9.46,30.75,0
16:07:50,0,0,0,0,0,0,0,0,0,0,0,515,0,0,0,0,0.0000000,0.0000000,0.0000000,0.0000000,7.00,38.4062958,-110.7924500,1353.9000244,0.1,356.7,1.3,0.0,0.0,893,133,0,0,855.73,9.43,30.77,0
16:07:51,0,0,0,0,0,0,0,0,0,0,0,515,0,0,0,0,0.0000000,0.0000000,0.0000000,0.0000000,7.00,38.4062958,-110.7924347,1354.0999756,0.1,2.1,1.3,0.0,0.0,893,133,0,0,855.72,9.51,30.79,0
16:07:52,0,0,0,0,0,0,0,0,0,0,0,515,0,0,0,0,0.0000000,0.0000000,0.0000000,0.0000000,7.00,38.4062958,-110.7924347,1354.1999512,0.2,326.6,1.3,0.0,0.0,893,134,0,0,855.67,9.71,30.79,0
16:07:53,0,0,0,0,0,0,0,0,0,0,0,515,0,0,0,0,0.0000000,0.0000000,0.0000000,0.0000000,7.00,38.4062958,-110.7924347,1354.3000488,0.1,265.0,1.2,0.0,0.0,893,134,0,0,855.73,9.80,30.81,0
16:07:54,0,0,0,0,0,0,0,0,0,0,0,515,0,0,0,0,0.0000000,0.0000000,0.0000000,0.0000000,7.00,38.4062996,-110.7924194,1354.4000244,0.2,24.1,1.2,0.0,0.0,893,132,0,0,855.71,9.77,30.83,0
16:07:55,0,0,0,0,0,0,0,0,0,0,0,514,0,0,0,0,0.0000000,0.0000000,0.0000000,0.0000000,7.00,38.4062996,-110.7924194,1354.6999512,0.1,323.2,1.2,0.0,0.0,893,132,0,0,855.72,9.63,30.85,0
16:07:56,0,0,0,0,0,0,0,0,0,0,0,514,0,0,0,0,0.0000000,0.0000000,0.0000000,0.0000000,7.00,38.4063034,-110.7924194,1354.9000244,0.2,332.4,1.2,0.0,0.0,893,131,0,0,855.75,9.55,30.87,0
16:07:57,0,0,0,0,0,0,0,0,0,0,0,515,0,0,0,0,0.0000000,0.0000000,0.0000000,0.0000000,7.00,38.4063072,-110.7924194,1355.0999756,0.1,359.1,1.2,0.0,0.0,893,134,0,0,855.72,9.49,30.89,0
16:07:58,0,0,0,0,0,0,0,0,0,0,0,515,0,0,0,0,0.0000000,0.0000000,0.0000000,0.0000000,7.00,38.4063072,-110.7924194,1355.1999512,0.1,22.5,1.3,0.0,0.0,893,131,0,0,855.71,9.43,30.91,0
16:07:59,0,0,0,0,0,0,0,0,0,0,0,514,0,0,0,0,0.0000000,0.0000000,0.0000000,0.0000000,7.00,38.4063072,-110.7924194,1355.1999512,0.1,97.9,1.2,0.0,0.0,893,133,0,0,855.70,9.48,30.91,0
16:08:00,0,0,0,0,0,0,0,0,0,0,0,514,0,0,0,0,0.0000000,0.0000000,0.0000000,0.0000000,7.00,38.4063034,-110.7924118,1355.4000244,0.1,111.7,1.2,0.0,0.0,893,136,0,0,855.71,9.37,30.89,0
16:08:01,0,0,0,0,0,0,0,0,0,0,0,515,0,0,0,0,0.0000000,0.0000000,0.0000000,0.0000000,7.00,38.4063034,-110.7924118,1355.4000244,0.2,109.7,1.2,0.0,0.0,893,135,0,0,855.69,9.29,30.85,0
16:08:02,0,0,0,0,0,0,0,0,0,0,0,515,0,0,0,0,0.0000000,0.0000000,0.0000000,0.0000000,7.00,38.4063034,-110.7924118,1355.4000244,0.3,102.0,1.2,0.0,0.0,893,133,0,0,855.68,9.26,30.83,0
16:08:03,0,0,0,0,0,0,0,0,0,0,0,515,0,0,0,0,0.0000000,0.0000000,0.0000000,0.0000000,7.00,38.4063034,-110.7924118,1355.4000244,0.2,108.2,1.2,0.0,0.0,893,134,0,0,855.74,9.23,30.83,0
16:08:04,0,0,0,0,0,0,0,0,0,0,0,515,0,0,0,0,0.0000000,0.0000000,0.0000000,0.0000000,7.00,38.4063034,-110.7924118,1355.4000244,0.1,32.2,1.2,0.0,0.0,893,135,0,0,855.71,9.20,30.84,0
16:08:05,0,0,0,0,0,0,0,0,0,0,0,515,0,0,0,0,0.0000000,0.0000000,0.0000000,0.0000000,7.00,38.4063034,-110.7924118,1355.4000244,0.1,32.1,1.2,0.0,0.0,893,133,0,0,855.72,9.17,30.84,0
16:08:06,0,0,0,0,0,0,0,0,0,0,0,515,0,0,0,0,0.0000000,0.0000000,0.0000000,0.0000000,7.00,38.4063034,-110.7924118,1355.4000244,0.1,343.2,1.2,0.0,0.0,893,133,0,0,855.70,9.17,30.85,0
16:08:07,0,0,0,0,0,0,0,0,0,0,0,516,0,0,0,0,0.0000000,0.0000000,0.0000000,0.0000000,7.00,38.4063072,-110.7924118,1355.4000244,0.0,5.8,1.2,0.0,0.0,893,133,0,0,855.68,9.14,30.85,0
16:08:08,0,0,0,0,0,0,0,0,0,0,0,514,0,0,0,0,0.0000000,0.0000000,0.0000000,0.0000000,7.00,38.4063072,-110.7924118,1355.4000244,0.1,181.2,1.3,0.0,0.0,893,135,0,0,855.66,9.13,30.83,0
16:08:09,0,0,0,0,0,0,0,0,0,0,0,515,0,0,0,0,0.0000000,0.0000000,0.0000000,0.0000000,7.00,38.4063034,-110.7924118,1355.4000244,0.1,152.9,1.2,0.0,0.0,893,133,0,0,855.72,9.16,30.82,0
16:08:10,0,0,0,0,0,0,0,0,0,0,0,514,0,0,0,0,0.0000000,0.0000000,0.0000000,0.0000000,7.00,38.4063034,-110.7924118,1355.4000244,0.2,118.4,1.2,0.0,0.0,893,131,0,0,855.67,9.14,30.81,0
16:08:11,0,0,0,0,0,0,0,0,0,0,0,515,0,0,0,0,0.0000000,0.0000000,0.0000000,0.0000000,7.00,38.4063034,-110.7924118,1355.4000244,0.2,124.2,1.2,0.0,0.0,892,137,0,0,855.65,9.13,30.80,0
16:08:12,0,0,0,0,0,0,0,0,0,0,0,515,0,0,0,0,0.0000000,0.0000000,0.0000000,0.0000000,7.00,38.4063034,-110.7924118,1355.4000244,0.2,116.2,1.2,0.0,0.0,893,134,0,0,855.61,9.14,30.80,0
16:08:13,0,0,0,0,0,0,0,0,0,0,0,515,0,0,0,0,0.0000000,0.0000000,0.0000000,0.0000000,7.00,38.4063034,-110.7924118,1355.4000244,0.3,106.1,1.2,0.0,0.0,893,131,0,0,855.70,9.11,30.79,0
16:08:14,0,0,0,0,0,0,0,0,0,0,0,514,0,0,0,0,0.0000000,0.0000000,0.0000000,0.0000000,7.00,38.4063034,-110.7923965,1355.4000244,0.2,76.3,1.2,0.0,0.0,893,131,0,0,855.61,9.13,30.76,0
16:08:15,0,0,0,0,0,0,0,0,0,0,0,515,0,0,0,0,0.0000000,0.0000000,0.0000000,0.0000000,7.00,38.4063034,-110.7923965,1355.4000244,0.2,99.0,1.2,0.0,0.0,893,134,0,0,855.69,9.16,30.73,0
16:08:16,0,0,0,0,0,0,0,0,0,0,0,515,0,0,0,0,0.0000000,0.0000000,0.0000000,0.0000000,7.00,38.4063034,-110.7923965,1355.5000000,0.2,98.4,1.2,0.0,0.0,893,132,0,0,855.62,9.17,30.69,0
16:08:17,0,0,0,0,0,0,0,0,0,0,0,516,0,0,0,0,0.0000000,0.0000000,0.0000000,0.0000000,7.00,38.4063034,-110.7923965,1355.5000000,0.2,99.4,1.2,0.0,0.0,893,135,0,0,855.60,9.14,30.66,0
16:08:18,0,0,0,0,0,0,0,0,0,0,0,515,0,0,0,0,0.0000000,0.0000000,0.0000000,0.0000000,7.00,38.4063034,-110.7923965,1355.5000000,0.3,112.8,1.2,0.0,0.0,893,135,0,0,855.66,9.22,30.68,0
16:08:19,0,0,0,0,0,0,0,0,0,0,0,515,0,0,0,0,0.0000000,0.0000000,0.0000000,0.0000000,7.00,38.4063034,-110.7923965,1355.5000000,0.3,125.8,1.2,0.0,0.0,893,131,0,0,855.66,9.23,30.74,0
16:08:20,0,0,0,0,0,0,0,0,0,0,0,515,0,0,0,0,0.0000000,0.0000000,0.0000000,0.0000000,7.00,38.4062996,-110.7923965,1355.5000000,0.2,127.1,1.2,0.0,0.0,893,137,0,0,855.66,9.23,30.79,0
16:08:21,0,0,0,0,0,0,0,0,0,0,0,515,0,0,0,0,0.0000000,0.0000000,0.0000000,0.0000000,7.00,38.4062996,-110.7923965,1355.5000000,0.2,136.4,1.2,0.0,0.0,893,134,0,0,855.63,9.26,30.83,0
16:08:22,0,0,0,0,0,0,0,0,0,0,0,515,0,0,0,0,0.0000000,0.0000000,0.0000000,0.0000000,7.00,38.4062996,-110.7923965,1355.5000000,0.2,121.0,1.2,0.0,0.0,892,131,0,0,855.63,9.23,30.84,0
16:08:23,0,0,0,0,0,0,0,0,0,0,0,515,0,0,0,0,0.0000000,0.0000000,0.0000000,0.0000000,7.00,38.4062958,-110.7923965,1355.6999512,0.1,123.5,1.2,0.0,0.0,893,136,0,0,855.61,9.25,30.86,0
16:08:24,0,0,0,0,0,0,0,0,0,0,0,514,0,0,0,0,0.0000000,0.0000000,0.0000000,0.0000000,7.00,38.4062958,-110.7923813,1355.9000244,0.2,90.9,1.2,0.0,0.0,893,132,0,0,855.58,9.22,30.88,0
16:08:25,0,0,0,0,0,0,0,0,0,0,0,514,0,0,0,0,0.0000000,0.0000000,0.0000000,0.0000000,7.00,38.4062958,-110.7923813,1356.0000000,0.1,56.4,1.2,0.0,0.0,893,131,0,0,855.64,9.25,30.89,0
16:08:26,0,0,0,0,0,0,0,0,0,0,0,514,0,0,0,0,0.0000000,0.0000000,0.0000000,0.0000000,7.00,38.4062920,-110.7923813,1356.3000488,0.1,133.3,1.2,0.0,0.0,893,134,0,0,855.59,9.34,30.90,0
16:08:27,0,0,0,0,0,0,0,0,0,0,0,514,0,0,0,0,0.0000000,0.0000000,0.0000000,0.0000000,7.00,38.4062843,-110.7923737,1356.5000000,0.2,135.9,1.2,0.0,0.0,893,132,0,0,855.57,9.32,30.93,0
16:08:28,0,0,0,0,0,0,0,0,0,0,0,515,0,0,0,0,0.0000000,0.0000000,0.0000000,0.0000000,7.00,38.4062767,-110.7923737,1356.8000488,0.2,103.0,1.2,0.0,0.0,893,132,0,0,855.59,9.35,30.94,0
16:08:29,0,0,0,0,0,0,0,0,0,0,0,515,0,0,0,0,0.0000000,0.0000000,0.0000000,0.0000000,7.00,38.4062691,-110.7923737,1357.0000000,0.3,167.3,1.2,0.0,0.0,892,134,0,0,855.59,9.29,30.96,0
16:08:30,0,0,0,0,0,0,0,0,0,0,0,515,0,0,0,0,0.0000000,0.0000000,0.0000000,0.0000000,7.00,38.4062653,-110.7923584,1357.1999512,0.3,167.8,1.2,0.0,0.0,893,132,0,0,855.57,9.26,30.99,0
16:08:31,0,0,0,0,0,0,0,0,0,0,0,514,0,0,0,0,0.0000000,0.0000000,0.0000000,0.0000000,7.00,38.4062614,-110.7923737,1357.4000244,0.2,182.1,1.2,0.0,0.0,893,131,0,0,855.56,9.25,31.01,0
16:08:32,0,0,0,0,0,0,0,0,0,0,0,514,0,0,0,0,0.0000000,0.0000000,0.0000000,0.0000000,7.00,38.4062614,-110.7923737,1357.5000000,0.1,194.9,1.2,0.0,0.0,893,131,0,0,855.58,9.17,31.03,0
16:08:33,0,0,0,0,0,0,0,0,0,0,0,515,0,0,0,0,0.0000000,0.0000000,0.0000000,0.0000000,7.00,38.4062614,-110.7923737,1357.5000000,0.1,127.2,1.2,0.0,0.0,893,131,0,0,855.58,9.19,31.05,0
16:08:34,0,0,0,0,0,0,0,0,0,0,0,514,0,0,0,0,0.0000000,0.0000000,0.0000000,0.0000000,7.00,38.4062576,-110.7923737,1357.5000000,0.2,172.6,1.2,0.0,0.0,893,134,0,0,855.48,9.20,31.06,0
16:08:35,0,0,0,0,0,0,0,0,0,0,0,515,0,0,0,0,0.0000000,0.0000000,0.0000000,0.0000000,7.00,38.4062576,-110.7923584,1357.6999512,0.2,191.0,1.2,0.0,0.0,893,132,0,0,855.51,9.34,31.07,0
16:08:36,0,0,0,0,0,0,0,0,0,0,0,515,0,0,0,0,0.0000000,0.0000000,0.0000000,0.0000000,7.00,38.4062576,-110.7923584,1357.6999512,0.2,154.6,1.2,0.0,0.0,893,134,0,0,855.51,9.23,30.94,0
16:08:37,0,0,0,0,0,0,0,0,0,0,0,515,0,0,0,0,0.0000000,0.0000000,0.0000000,0.0000000,7.00,38.4062538,-110.7923584,1357.8000488,0.1,173.7,1.2,0.0,0.0,893,132,0,0,855.50,9.22,30.80,0
16:08:38,0,0,0,0,0,0,0,0,0,0,0,514,0,0,0,0,0.0000000,0.0000000,0.0000000,0.0000000,7.00,38.4062500,-110.7923584,1357.9000244,0.2,160.0,1.2,0.0,0.0,893,136,0,0,855.50,9.25,30.71,0
16:08:39,0,0,0,0,0,0,0,0,0,0,0,515,0,0,0,0,0.0000000,0.0000000,0.0000000,0.0000000,7.00,38.4062500,-110.7923584,1357.9000244,0.3,140.7,1.2,0.0,0.0,893,145,0,0,855.47,9.26,30.60,0
16:08:40,0,0,0,0,0,0,0,0,0,0,0,515,0,0,0,0,0.0000000,0.0000000,0.0000000,0.0000000,7.00,38.4062424,-110.7923584,1358.0000000,0.3,162.9,1.2,0.0,0.0,893,147,0,0,855.49,9.29,30.50,0
16:08:41,0,0,0,0,0,0,0,0,0,0,0,515,0,0,0,0,0.0000000,0.0000000,0.0000000,0.0000000,7.00,38.4062386,-110.7923584,1358.0999756,0.3,168.0,1.2,0.0,0.0,893,148,0,0,855.49,9.32,30.47,0
16:08:42,0,0,0,0,0,0,0,0,0,0,0,516,0,0,0,0,0.0000000,0.0000000,0.0000000,0.0000000,7.00,38.4062386,-110.7923584,1358.1999512,0.3,156.9,1.2,0.0,0.0,893,145,0,0,855.53,9.37,30.45,0
16:08:43,0,0,0,0,0,0,0,0,0,0,0,514,0,0,0,0,0.0000000,0.0000000,0.0000000,0.0000000,7.00,38.4062347,-110.7923584,1358.1999512,0.2,129.7,1.2,0.0,0.0,893,150,0,0,855.50,9.37,30.49,0
16:08:44,0,0,0,0,0,0,0,0,0,0,0,515,0,0,0,0,0.0000000,0.0000000,0.0000000,0.0000000,7.00,38.4062347,-110.7923584,1358.1999512,0.2,135.7,1.2,0.0,0.0,892,151,0,0,855.53,9.35,30.52,0
16:08:45,0,0,0,0,0,0,0,0,0,0,0,516,0,0,0,0,0.0000000,0.0000000,0.0000000,0.0000000,7.00,38.4062347,-110.7923584,1358.1999512,0.3,157.8,1.2,0.0,0.0,893,145,0,0,855.53,9.35,30.54,0
16:08:46,0,0,0,0,0,0,0,0,0,0,0,515,0,0,0,0,0.0000000,0.0000000,0.0000000,0.0000000,7.00,38.4062309,-110.7923584,1358.1999512,0.4,157.8,1.2,0.0,0.0,893,145,0,0,855.51,9.34,30.58,0
16:08:47,0,0,0,0,0,0,0,0,0,0,0,515,0,0,0,0,0.0000000,0.0000000,0.0000000,0.0000000,7.00,38.4062309,-110.7923584,1358.1999512,0.2,156.1,1.2,0.0,0.0,893,146,0,0,855.59,9.34,30.63,0
16:08:48,0,0,0,0,0,0,0,0,0,0,0,515,0,0,0,0,0.0000000,0.0000000,0.0000000,0.0000000,7.00,38.4062309,-110.7923584,1358.1999512,0.3,235.9,1.2,0.0,0.0,892,149,0,0,855.56,9.31,30.66,0
16:08:49,0,0,0,0,0,0,0,0,0,0,0,515,0,0,0,0,0.0000000,0.0000000,0.0000000,0.0000000,7.00,38.4062271,-110.7923584,1358.1999512,0.1,184.2,1.2,0.0,0.0,893,141,0,0,855.49,9.26,30.58,0
16:08:50,0,0,0,0,0,0,0,0,0,0,0,515,0,0,0,0,0.0000000,0.0000000,0.0000000,0.0000000,7.00,38.4062271,-110.7923584,1358.3000488,0.1,139.7,1.2,0.0,0.0,892,144,0,0,855.51,9.28,30.58,0
