Time, Motor A Speed, Motor A Dir, Motor B Speed, Motor B Dir, Servo Rail Current Sensor, Servo Pos - Arm L, Servo Pos - Arm R, Servo Pos - End, Servo Pos - Hopper, Servo Pos - Lid, Servo Pos - Extra, Servo Current, LED - Front L, LED - Front R, LED - Back L, LED - Back R, IMU Pitch, IMU Roll, IMU Yaw, Compass Heading, GPS Sats, GPS Latitude, GPS Longitude, GPS Altitude, GPS Speed, GPS Angle, GPS HDOP, GPS VDOP, GPS PDOP, Battery, Wind, Comm Xbee Latency, Comm Arduino Latency, Pressure, Humidity, Temperature, uRADMonitor
15:03:17,0,0,0,0,0,0,0,0,0,0,0,0,0,0,0,0,0.0000000,0.0000000,0.0000000,0.0000000,0.00,0.0000000,0.0000000,0.0000000,0.0,0.0,0.0,0.0,0.0,0,0,0,0,0.00,0.00,0.00,0
15:03:18,0,0,0,0,0,0,0,0,0,0,0,514,0,0,0,0,0.0000000,0.0000000,0.0000000,0.0000000,0.00,0.0000000,0.0000000,0.0000000,0.0,0.0,0.0,0.0,0.0,898,131,0,0,856.95,10.38,29.80,0
15:03:19,0,0,0,0,0,0,0,0,0,0,0,515,0,0,0,0,0.0000000,0.0000000,0.0000000,0.0000000,0.00,0.0000000,0.0000000,0.0000000,0.0,0.0,0.0,0.0,0.0,897,127,0,0,856.95,10.39,29.85,0
15:03:20,0,0,0,0,0,0,0,0,0,0,0,515,0,0,0,0,0.0000000,0.0000000,0.0000000,0.0000000,0.00,0.0000000,0.0000000,0.0000000,0.0,0.0,0.0,0.0,0.0,897,128,0,0,856.99,10.59,29.85,0
15:03:21,0,0,0,0,0,0,0,0,0,0,0,515,0,0,0,0,0.0000000,0.0000000,0.0000000,0.0000000,0.00,0.0000000,0.0000000,0.0000000,0.0,0.0,0.0,0.0,0.0,897,133,0,0,856.98,11.00,29.85,0
15:03:22,0,0,0,0,0,0,0,0,0,0,0,514,0,0,0,0,0.0000000,0.0000000,0.0000000,0.0000000,0.00,0.0000000,0.0000000,0.0000000,0.0,0.0,0.0,0.0,0.0,898,129,0,0,857.01,11.38,29.86,0
15:03:23,0,0,0,0,0,0,0,0,0,0,0,514,0,0,0,0,0.0000000,0.0000000,0.0000000,0.0000000,0.00,0.0000000,0.0000000,0.0000000,0.0,0.0,0.0,0.0,0.0,898,128,0,0,856.99,11.87,29.86,0
15:03:24,0,0,0,0,0,0,0,0,0,0,0,515,0,0,0,0,0.0000000,0.0000000,0.0000000,0.0000000,0.00,0.0000000,0.0000000,0.0000000,0.0,0.0,0.0,0.0,0.0,898,129,0,0,857.02,11.90,29.86,0
15:03:25,0,0,0,0,0,0,0,0,0,0,0,516,0,0,0,0,0.0000000,0.0000000,0.0000000,0.0000000,0.00,0.0000000,0.0000000,0.0000000,0.0,0.0,0.0,0.0,0.0,897,132,0,0,856.98,11.92,29.86,0
15:03:26,0,0,0,0,0,0,0,0,0,0,0,515,0,0,0,0,0.0000000,0.0000000,0.0000000,0.0000000,0.00,0.0000000,0.0000000,0.0000000,0.0,0.0,0.0,0.0,0.0,897,135,0,0,856.97,12.01,29.87,0
15:03:27,0,0,0,0,0,0,0,0,0,0,0,515,0,0,0,0,0.0000000,0.0000000,0.0000000,0.0000000,0.00,0.0000000,0.0000000,0.0000000,0.0,0.0,0.0,0.0,0.0,897,130,0,0,857.01,11.90,29.87,0
15:03:28,0,0,0,0,0,0,0,0,0,0,0,514,0,0,0,0,0.0000000,0.0000000,0.0000000,0.0000000,0.00,0.0000000,0.0000000,0.0000000,0.0,0.0,0.0,0.0,0.0,897,130,0,0,857.04,11.32,29.86,0
15:03:29,0,0,0,0,0,0,0,0,0,0,0,514,0,0,0,0,0.0000000,0.0000000,0.0000000,0.0000000,0.00,0.0000000,0.0000000,0.0000000,0.0,0.0,0.0,0.0,0.0,898,132,0,0,857.09,10.94,29.93,0
15:03:30,0,0,0,0,0,0,0,0,0,0,0,515,0,0,0,0,0.0000000,0.0000000,0.0000000,0.0000000,0.00,0.0000000,0.0000000,0.0000000,0.0,0.0,0.0,0.0,0.0,897,128,0,0,857.04,10.97,29.86,0
15:03:31,0,0,0,0,0,0,0,0,0,0,0,514,0,0,0,0,0.0000000,0.0000000,0.0000000,0.0000000,0.00,0.0000000,0.0000000,0.0000000,0.0,0.0,0.0,0.0,0.0,898,130,0,0,857.07,11.26,29.86,0
15:03:32,0,0,0,0,0,0,0,0,0,0,0,515,0,0,0,0,0.0000000,0.0000000,0.0000000,0.0000000,0.00,0.0000000,0.0000000,0.0000000,0.0,0.0,0.0,0.0,0.0,897,147,0,0,857.07,11.38,29.86,0
15:03:33,0,0,0,0,0,0,0,0,0,0,0,515,0,0,0,0,0.0000000,0.0000000,0.0000000,0.0000000,0.00,0.0000000,0.0000000,0.0000000,0.0,0.0,0.0,0.0,0.0,897,163,0,0,857.08,10.79,29.80,0
15:03:34,0,0,0,0,0,0,0,0,0,0,0,515,0,0,0,0,0.0000000,0.0000000,0.0000000,0.0000000,0.00,0.0000000,0.0000000,0.0000000,0.0,0.0,0.0,0.0,0.0,898,165,0,0,857.10,10.50,29.68,0
15:03:35,0,0,0,0,0,0,0,0,0,0,0,514,0,0,0,0,0.0000000,0.0000000,0.0000000,0.0000000,0.00,0.0000000,0.0000000,0.0000000,0.0,0.0,0.0,0.0,0.0,897,164,0,0,857.04,10.44,29.65,0
15:03:36,0,0,0,0,0,0,0,0,0,0,0,514,0,0,0,0,0.0000000,0.0000000,0.0000000,0.0000000,0.00,0.0000000,0.0000000,0.0000000,0.0,0.0,0.0,0.0,0.0,898,164,0,0,857.05,10.67,29.68,0
15:03:37,0,0,0,0,0,0,0,0,0,0,0,514,0,0,0,0,0.0000000,0.0000000,0.0000000,0.0000000,0.00,0.0000000,0.0000000,0.0000000,0.0,0.0,0.0,0.0,0.0,897,160,0,0,857.06,10.71,29.72,0
15:03:38,0,0,0,0,0,0,0,0,0,0,0,515,0,0,0,0,0.0000000,0.0000000,0.0000000,0.0000000,0.00,0.0000000,0.0000000,0.0000000,0.0,0.0,0.0,0.0,0.0,897,155,0,0,857.04,10.65,29.73,0
15:03:39,0,0,0,0,0,0,0,0,0,0,0,514,0,0,0,0,0.0000000,0.0000000,0.0000000,0.0000000,0.00,0.0000000,0.0000000,0.0000000,0.0,0.0,0.0,0.0,0.0,897,154,0,0,857.01,10.32,29.66,0
15:03:40,0,0,0,0,0,0,0,0,0,0,0,514,0,0,0,0,0.0000000,0.0000000,0.0000000,0.0000000,0.00,0.0000000,0.0000000,0.0000000,0.0,0.0,0.0,0.0,0.0,897,152,0,0,857.04,10.21,29.61,0
15:03:41,0,0,0,0,0,0,0,0,0,0,0,515,0,0,0,0,0.0000000,0.0000000,0.0000000,0.0000000,0.00,0.0000000,0.0000000,0.0000000,0.0,0.0,0.0,0.0,0.0,898,152,0,0,857.08,10.13,29.58,0
15:03:42,0,0,0,0,0,0,0,0,0,0,0,515,0,0,0,0,0.0000000,0.0000000,0.0000000,0.0000000,0.00,0.0000000,0.0000000,0.0000000,0.0,0.0,0.0,0.0,0.0,897,149,0,0,857.03,10.16,29.55,0
15:03:43,0,0,0,0,0,0,0,0,0,0,0,515,0,0,0,0,0.0000000,0.0000000,0.0000000,0.0000000,0.00,0.0000000,0.0000000,0.0000000,0.0,0.0,0.0,0.0,0.0,897,149,0,0,857.03,10.09,29.51,0
15:03:44,0,0,0,0,0,0,0,0,0,0,0,514,0,0,0,0,0.0000000,0.0000000,0.0000000,0.0000000,0.00,0.0000000,0.0000000,0.0000000,0.0,0.0,0.0,0.0,0.0,897,146,0,0,857.05,10.07,29.49,0
15:03:45,0,0,0,0,0,0,0,0,0,0,0,514,0,0,0,0,0.0000000,0.0000000,0.0000000,0.0000000,0.00,0.0000000,0.0000000,0.0000000,0.0,0.0,0.0,0.0,0.0,897,141,0,0,857.05,10.07,29.46,0
15:03:46,0,0,0,0,0,0,0,0,0,0,0,514,0,0,0,0,0.0000000,0.0000000,0.0000000,0.0000000,0.00,0.0000000,0.0000000,0.0000000,0.0,0.0,0.0,0.0,0.0,897,144,0,0,856.98,10.10,29.43,0
15:03:47,0,0,0,0,0,0,0,0,0,0,0,515,0,0,0,0,0.0000000,0.0000000,0.0000000,0.0000000,0.00,0.0000000,0.0000000,0.0000000,0.0,0.0,0.0,0.0,0.0,897,148,0,0,857.02,10.09,29.43,0
15:03:48,0,0,0,0,0,0,0,0,0,0,0,515,0,0,0,0,0.0000000,0.0000000,0.0000000,0.0000000,0.00,0.0000000,0.0000000,0.0000000,0.0,0.0,0.0,0.0,0.0,898,143,0,0,856.99,10.09,29.45,0
15:03:49,0,0,0,0,0,0,0,0,0,0,0,515,0,0,0,0,0.0000000,0.0000000,0.0000000,0.0000000,0.00,0.0000000,0.0000000,0.0000000,0.0,0.0,0.0,0.0,0.0,897,143,0,0,856.98,10.07,29.45,0
15:03:50,0,0,0,0,0,0,0,0,0,0,0,512,0,0,0,0,0.0000000,0.0000000,0.0000000,0.0000000,0.00,0.0000000,0.0000000,0.0000000,0.0,0.0,0.0,0.0,0.0,897,142,0,0,857.07,10.07,29.38,0
15:03:51,0,0,0,0,0,0,0,0,0,0,0,514,0,0,0,0,0.0000000,0.0000000,0.0000000,0.0000000,0.00,0.0000000,0.0000000,0.0000000,0.0,0.0,0.0,0.0,0.0,897,144,0,0,857.07,10.06,29.31,0
15:03:52,0,0,0,0,0,0,0,0,0,0,0,514,0,0,0,0,0.0000000,0.0000000,0.0000000,0.0000000,0.00,0.0000000,0.0000000,0.0000000,0.0,0.0,0.0,0.0,0.0,897,156,0,0,857.06,10.06,29.25,0
15:03:53,0,0,0,0,0,0,0,0,0,0,0,514,0,0,0,0,0.0000000,0.0000000,0.0000000,0.0000000,0.00,0.0000000,0.0000000,0.0000000,0.0,0.0,0.0,0.0,0.0,898,159,0,0,857.02,10.10,29.19,0
15:03:54,0,0,0,0,0,0,0,0,0,0,0,514,0,0,0,0,0.0000000,0.0000000,0.0000000,0.0000000,0.00,0.0000000,0.0000000,0.0000000,0.0,0.0,0.0,0.0,0.0,898,165,0,0,857.00,10.13,29.11,0
15:03:55,0,0,0,0,0,0,0,0,0,0,0,515,0,0,0,0,0.0000000,0.0000000,0.0000000,0.0000000,0.00,0.0000000,0.0000000,0.0000000,0.0,0.0,0.0,0.0,0.0,897,167,0,0,857.03,10.13,29.06,0
15:03:56,0,0,0,0,0,0,0,0,0,0,0,514,0,0,0,0,0.0000000,0.0000000,0.0000000,0.0000000,0.00,0.0000000,0.0000000,0.0000000,0.0,0.0,0.0,0.0,0.0,897,170,0,0,857.00,10.21,29.03,0
15:03:57,0,0,0,0,0,0,0,0,0,0,0,514,0,0,0,0,0.0000000,0.0000000,0.0000000,0.0000000,0.00,0.0000000,0.0000000,0.0000000,0.0,0.0,0.0,0.0,0.0,897,169,0,0,857.01,10.24,28.99,0
15:03:58,0,0,0,0,0,0,0,0,0,0,0,515,0,0,0,0,0.0000000,0.0000000,0.0000000,0.0000000,0.00,0.0000000,0.0000000,0.0000000,0.0,0.0,0.0,0.0,0.0,898,169,0,0,857.09,10.24,28.94,0
15:03:59,0,0,0,0,0,0,0,0,0,0,0,514,0,0,0,0,0.0000000,0.0000000,0.0000000,0.0000000,0.00,0.0000000,0.0000000,0.0000000,0.0,0.0,0.0,0.0,0.0,897,169,0,0,857.06,10.25,28.92,0
15:04:00,0,0,0,0,0,0,0,0,0,0,0,513,0,0,0,0,0.0000000,0.0000000,0.0000000,0.0000000,0.00,0.0000000,0.0000000,0.0000000,0.0,0.0,0.0,0.0,0.0,897,164,0,0,857.05,10.30,28.92,0
15:04:01,0,0,0,0,0,0,0,0,0,0,0,514,0,0,0,0,0.0000000,0.0000000,0.0000000,0.0000000,0.00,0.0000000,0.0000000,0.0000000,0.0,0.0,0.0,0.0,0.0,897,163,0,0,856.99,10.30,28.84,0
15:04:02,0,0,0,0,0,0,0,0,0,0,0,515,0,0,0,0,0.0000000,0.0000000,0.0000000,0.0000000,0.00,0.0000000,0.0000000,0.0000000,0.0,0.0,0.0,0.0,0.0,897,155,0,0,857.04,10.33,28.80,0
15:04:03,0,0,0,0,0,0,0,0,0,0,0,514,0,0,0,0,0.0000000,0.0000000,0.0000000,0.0000000,0.00,0.0000000,0.0000000,0.0000000,0.0,0.0,0.0,0.0,0.0,897,155,0,0,857.06,10.32,28.76,0
15:04:04,0,0,0,0,0,0,0,0,0,0,0,514,0,0,0,0,0.0000000,0.0000000,0.0000000,0.0000000,0.00,0.0000000,0.0000000,0.0000000,0.0,0.0,0.0,0.0,0.0,898,155,0,0,857.02,10.35,28.74,0
15:04:05,0,0,0,0,0,0,0,0,0,0,0,514,0,0,0,0,0.0000000,0.0000000,0.0000000,0.0000000,0.00,0.0000000,0.0000000,0.0000000,0.0,0.0,0.0,0.0,0.0,897,153,0,0,857.01,10.39,28.74,0
15:04:06,0,0,0,0,0,0,0,0,0,0,0,514,0,0,0,0,0.0000000,0.0000000,0.0000000,0.0000000,0.00,0.0000000,0.0000000,0.0000000,0.0,0.0,0.0,0.0,0.0,897,151,0,0,857.03,10.42,28.73,0
15:04:07,0,0,0,0,0,0,0,0,0,0,0,515,0,0,0,0,0.0000000,0.0000000,0.0000000,0.0000000,0.00,0.0000000,0.0000000,0.0000000,0.0,0.0,0.0,0.0,0.0,897,149,0,0,857.02,10.41,28.71,0
15:04:08,0,0,0,0,0,0,0,0,0,0,0,514,0,0,0,0,0.0000000,0.0000000,0.0000000,0.0000000,0.00,0.0000000,0.0000000,0.0000000,0.0,0.0,0.0,0.0,0.0,897,149,0,0,857.02,10.45,28.59,0
15:04:09,0,0,0,0,0,0,0,0,0,0,0,515,0,0,0,0,0.0000000,0.0000000,0.0000000,0.0000000,0.00,0.0000000,0.0000000,0.0000000,0.0,0.0,0.0,0.0,0.0,897,141,0,0,856.96,10.50,28.58,0
15:04:10,0,0,0,0,0,0,0,0,0,0,0,515,0,0,0,0,0.0000000,0.0000000,0.0000000,0.0000000,0.00,0.0000000,0.0000000,0.0000000,0.0,0.0,0.0,0.0,0.0,897,145,0,0,857.07,10.48,28.61,0
15:04:11,0,0,0,0,0,0,0,0,0,0,0,515,0,0,0,0,0.0000000,0.0000000,0.0000000,0.0000000,0.00,0.0000000,0.0000000,0.0000000,0.0,0.0,0.0,0.0,0.0,897,145,0,0,857.06,10.50,28.62,0
15:04:12,0,0,0,0,0,0,0,0,0,0,0,515,0,0,0,0,0.0000000,0.0000000,0.0000000,0.0000000,0.00,0.0000000,0.0000000,0.0000000,0.0,0.0,0.0,0.0,0.0,897,143,0,0,856.99,10.53,28.58,0
15:04:13,0,0,0,0,0,0,0,0,0,0,0,515,0,0,0,0,0.0000000,0.0000000,0.0000000,0.0000000,0.00,0.0000000,0.0000000,0.0000000,0.0,0.0,0.0,0.0,0.0,897,150,0,0,856.98,10.53,28.54,0
15:04:14,0,0,0,0,0,0,0,0,0,0,0,514,0,0,0,0,0.0000000,0.0000000,0.0000000,0.0000000,0.00,0.0000000,0.0000000,0.0000000,0.0,0.0,0.0,0.0,0.0,898,151,0,0,856.99,10.57,28.52,0
15:04:15,0,0,0,0,0,0,0,0,0,0,0,514,0,0,0,0,0.0000000,0.0000000,0.0000000,0.0000000,0.00,0.0000000,0.0000000,0.0000000,0.0,0.0,0.0,0.0,0.0,897,156,0,0,857.00,10.59,28.51,0
15:04:16,0,0,0,0,0,0,0,0,0,0,0,514,0,0,0,0,0.0000000,0.0000000,0.0000000,0.0000000,0.00,0.0000000,0.0000000,0.0000000,0.0,0.0,0.0,0.0,0.0,898,155,0,0,857.01,10.59,28.50,0
15:04:17,0,0,0,0,0,0,0,0,0,0,0,514,0,0,0,0,0.0000000,0.0000000,0.0000000,0.0000000,0.00,0.0000000,0.0000000,0.0000000,0.0,0.0,0.0,0.0,0.0,897,154,0,0,856.95,10.62,28.48,0
15:04:18,0,0,0,0,0,0,0,0,0,0,0,515,0,0,0,0,0.0000000,0.0000000,0.0000000,0.0000000,0.00,0.0000000,0.0000000,0.0000000,0.0,0.0,0.0,0.0,0.0,897,152,0,0,856.99,10.65,28.45,0
15:04:19,0,0,0,0,0,0,0,0,0,0,0,515,0,0,0,0,0.0000000,0.0000000,0.0000000,0.0000000,0.00,0.0000000,0.0000000,0.0000000,0.0,0.0,0.0,0.0,0.0,897,163,0,0,856.93,10.67,28.45,0
15:04:20,0,0,0,0,0,0,0,0,0,0,0,514,0,0,0,0,0.0000000,0.0000000,0.0000000,0.0000000,0.00,0.0000000,0.0000000,0.0000000,0.0,0.0,0.0,0.0,0.0,897,162,0,0,856.93,10.67,28.44,0
15:04:21,0,0,0,0,0,0,0,0,0,0,0,514,0,0,0,0,0.0000000,0.0000000,0.0000000,0.0000000,0.00,0.0000000,0.0000000,0.0000000,0.0,0.0,0.0,0.0,0.0,897,157,0,0,857.04,10.65,28.44,0
15:04:22,0,0,0,0,0,0,0,0,0,0,0,515,0,0,0,0,0.0000000,0.0000000,0.0000000,0.0000000,0.00,0.0000000,0.0000000,0.0000000,0.0,0.0,0.0,0.0,0.0,897,158,0,0,857.03,10.67,28.43,0
15:04:23,0,0,0,0,0,0,0,0,0,0,0,515,0,0,0,0,0.0000000,0.0000000,0.0000000,0.0000000,0.00,0.0000000,0.0000000,0.0000000,0.0,0.0,0.0,0.0,0.0,898,155,0,0,857.00,10.71,28.35,0
15:04:24,0,0,0,0,0,0,0,0,0,0,0,514,0,0,0,0,0.0000000,0.0000000,0.0000000,0.0000000,0.00,0.0000000,0.0000000,0.0000000,0.0,0.0,0.0,0.0,0.0,897,153,0,0,856.97,10.71,28.36,0
15:04:25,0,0,0,0,0,0,0,0,0,0,0,515,0,0,0,0,0.0000000,0.0000000,0.0000000,0.0000000,0.00,0.0000000,0.0000000,0.0000000,0.0,0.0,0.0,0.0,0.0,897,151,0,0,857.03,10.73,28.37,0
15:04:27,0,0,0,0,0,0,0,0,0,0,0,514,0,0,0,0,0.0000000,0.0000000,0.0000000,0.0000000,0.00,0.0000000,0.0000000,0.0000000,0.0,0.0,0.0,0.0,0.0,897,149,0,0,856.96,10.73,28.36,0
15:04:28,0,0,0,0,0,0,0,0,0,0,0,515,0,0,0,0,0.0000000,0.0000000,0.0000000,0.0000000,0.00,0.0000000,0.0000000,0.0000000,0.0,0.0,0.0,0.0,0.0,897,149,0,0,857.07,10.74,28.31,0
15:04:29,0,0,0,0,0,0,0,0,0,0,0,514,0,0,0,0,0.0000000,0.0000000,0.0000000,0.0000000,0.00,0.0000000,0.0000000,0.0000000,0.0,0.0,0.0,0.0,0.0,897,153,0,0,857.01,10.77,28.28,0
15:04:30,0,0,0,0,0,0,0,0,0,0,0,514,0,0,0,0,0.0000000,0.0000000,0.0000000,0.0000000,0.00,0.0000000,0.0000000,0.0000000,0.0,0.0,0.0,0.0,0.0,897,158,0,0,856.99,10.80,28.28,0
15:04:31,0,0,0,0,0,0,0,0,0,0,0,514,0,0,0,0,0.0000000,0.0000000,0.0000000,0.0000000,0.00,0.0000000,0.0000000,0.0000000,0.0,0.0,0.0,0.0,0.0,897,161,0,0,857.01,10.77,28.28,0
15:04:32,0,0,0,0,0,0,0,0,0,0,0,515,0,0,0,0,0.0000000,0.0000000,0.0000000,0.0000000,0.00,0.0000000,0.0000000,0.0000000,0.0,0.0,0.0,0.0,0.0,898,159,0,0,856.99,10.77,28.26,0
15:04:33,0,0,0,0,0,0,0,0,0,0,0,515,0,0,0,0,0.0000000,0.0000000,0.0000000,0.0000000,0.00,0.0000000,0.0000000,0.0000000,0.0,0.0,0.0,0.0,0.0,897,160,0,0,856.99,10.79,28.25,0
15:04:34,0,0,0,0,0,0,0,0,0,0,0,515,0,0,0,0,0.0000000,0.0000000,0.0000000,0.0000000,0.00,0.0000000,0.0000000,0.0000000,0.0,0.0,0.0,0.0,0.0,897,154,0,0,857.01,10.82,28.23,0
15:04:35,0,0,0,0,0,0,0,0,0,0,0,515,0,0,0,0,0.0000000,0.0000000,0.0000000,0.0000000,0.00,0.0000000,0.0000000,0.0000000,0.0,0.0,0.0,0.0,0.0,897,149,0,0,857.01,10.80,28.22,0
15:04:36,0,0,0,0,0,0,0,0,0,0,0,515,0,0,0,0,0.0000000,0.0000000,0.0000000,0.0000000,0.00,0.0000000,0.0000000,0.0000000,0.0,0.0,0.0,0.0,0.0,897,142,0,0,857.00,10.85,28.21,0
15:04:37,0,0,0,0,0,0,0,0,0,0,0,514,0,0,0,0,0.0000000,0.0000000,0.0000000,0.0000000,0.00,0.0000000,0.0000000,0.0000000,0.0,0.0,0.0,0.0,0.0,898,143,0,0,856.98,10.85,28.21,0
15:04:38,0,0,0,0,0,0,0,0,0,0,0,515,0,0,0,0,0.0000000,0.0000000,0.0000000,0.0000000,0.00,0.0000000,0.0000000,0.0000000,0.0,0.0,0.0,0.0,0.0,897,145,0,0,856.97,10.85,28.19,0
15:04:39,0,0,0,0,0,0,0,0,0,0,0,515,0,0,0,0,0.0000000,0.0000000,0.0000000,0.0000000,0.00,0.0000000,0.0000000,0.0000000,0.0,0.0,0.0,0.0,0.0,898,144,0,0,857.02,10.86,28.19,0
15:04:40,0,0,0,0,0,0,0,0,0,0,0,514,0,0,0,0,0.0000000,0.0000000,0.0000000,0.0000000,0.00,0.0000000,0.0000000,0.0000000,0.0,0.0,0.0,0.0,0.0,898,148,0,0,857.00,10.88,28.16,0
15:04:41,0,0,0,0,0,0,0,0,0,0,0,514,0,0,0,0,0.0000000,0.0000000,0.0000000,0.0000000,0.00,0.0000000,0.0000000,0.0000000,0.0,0.0,0.0,0.0,0.0,897,151,0,0,856.96,10.93,28.14,0
15:04:42,0,0,0,0,0,0,0,0,0,0,0,515,0,0,0,0,0.0000000,0.0000000,0.0000000,0.0000000,0.00,0.0000000,0.0000000,0.0000000,0.0,0.0,0.0,0.0,0.0,897,151,0,0,856.99,10.90,28.14,0
15:04:43,0,0,0,0,0,0,0,0,0,0,0,514,0,0,0,0,0.0000000,0.0000000,0.0000000,0.0000000,0.00,0.0000000,0.0000000,0.0000000,0.0,0.0,0.0,0.0,0.0,897,148,0,0,856.95,10.90,28.13,0
15:04:44,0,0,0,0,0,0,0,0,0,0,0,515,0,0,0,0,0.0000000,0.0000000,0.0000000,0.0000000,0.00,0.0000000,0.0000000,0.0000000,0.0,0.0,0.0,0.0,0.0,897,145,0,0,856.98,10.90,28.13,0
15:04:45,0,0,0,0,0,0,0,0,0,0,0,515,0,0,0,0,0.0000000,0.0000000,0.0000000,0.0000000,0.00,0.0000000,0.0000000,0.0000000,0.0,0.0,0.0,0.0,0.0,897,145,0,0,856.97,10.86,28.10,0
15:04:46,0,0,0,0,0,0,0,0,0,0,0,514,0,0,0,0,0.0000000,0.0000000,0.0000000,0.0000000,0.00,0.0000000,0.0000000,0.0000000,0.0,0.0,0.0,0.0,0.0,897,145,0,0,856.95,10.93,28.09,0
15:04:47,0,0,0,0,0,0,0,0,0,0,0,515,0,0,0,0,0.0000000,0.0000000,0.0000000,0.0000000,0.00,0.0000000,0.0000000,0.0000000,0.0,0.0,0.0,0.0,0.0,898,144,0,0,856.93,10.94,28.09,0
15:04:48,0,0,0,0,0,0,0,0,0,0,0,515,0,0,0,0,0.0000000,0.0000000,0.0000000,0.0000000,0.00,0.0000000,0.0000000,0.0000000,0.0,0.0,0.0,0.0,0.0,897,143,0,0,856.91,10.96,28.11,0
15:04:49,0,0,0,0,0,0,0,0,0,0,0,515,0,0,0,0,0.0000000,0.0000000,0.0000000,0.0000000,0.00,0.0000000,0.0000000,0.0000000,0.0,0.0,0.0,0.0,0.0,897,142,0,0,856.93,10.96,28.11,0
15:04:50,0,0,0,0,0,0,0,0,0,0,0,515,0,0,0,0,0.0000000,0.0000000,0.0000000,0.0000000,0.00,0.0000000,0.0000000,0.0000000,0.0,0.0,0.0,0.0,0.0,898,147,0,0,856.90,10.97,28.07,0
15:04:51,0,0,0,0,0,0,0,0,0,0,0,515,0,0,0,0,0.0000000,0.0000000,0.0000000,0.0000000,0.00,0.0000000,0.0000000,0.0000000,0.0,0.0,0.0,0.0,0.0,898,142,0,0,856.94,10.97,28.03,0
15:04:52,0,0,0,0,0,0,0,0,0,0,0,514,0,0,0,0,0.0000000,0.0000000,0.0000000,0.0000000,0.00,0.0000000,0.0000000,0.0000000,0.0,0.0,0.0,0.0,0.0,898,141,0,0,856.93,10.99,28.01,0
15:04:53,0,0,0,0,0,0,0,0,0,0,0,515,0,0,0,0,0.0000000,0.0000000,0.0000000,0.0000000,0.00,0.0000000,0.0000000,0.0000000,0.0,0.0,0.0,0.0,0.0,897,141,0,0,856.93,10.99,28.01,0
15:04:54,0,0,0,0,0,0,0,0,0,0,0,515,0,0,0,0,0.0000000,0.0000000,0.0000000,0.0000000,0.00,0.0000000,0.0000000,0.0000000,0.0,0.0,0.0,0.0,0.0,898,140,0,0,856.95,11.00,28.03,0
15:04:55,0,0,0,0,0,0,0,0,0,0,0,516,0,0,0,0,0.0000000,0.0000000,0.0000000,0.0000000,0.00,0.0000000,0.0000000,0.0000000,0.0,0.0,0.0,0.0,0.0,897,142,0,0,856.94,10.99,28.04,0
15:04:56,0,0,0,0,0,0,0,0,0,0,0,515,0,0,0,0,0.0000000,0.0000000,0.0000000,0.0000000,0.00,0.0000000,0.0000000,0.0000000,0.0,0.0,0.0,0.0,0.0,898,140,0,0,856.93,10.99,28.02,0
15:04:57,0,0,0,0,0,0,0,0,0,0,0,515,0,0,0,0,0.0000000,0.0000000,0.0000000,0.0000000,0.00,0.0000000,0.0000000,0.0000000,0.0,0.0,0.0,0.0,0.0,897,138,0,0,856.93,10.99,28.02,0
15:04:58,0,0,0,0,0,0,0,0,0,0,0,515,0,0,0,0,0.0000000,0.0000000,0.0000000,0.0000000,0.00,0.0000000,0.0000000,0.0000000,0.0,0.0,0.0,0.0,0.0,898,137,0,0,856.94,10.99,28.03,0
15:04:59,0,0,0,0,0,0,0,0,0,0,0,514,0,0,0,0,0.0000000,0.0000000,0.0000000,0.0000000,0.00,0.0000000,0.0000000,0.0000000,0.0,0.0,0.0,0.0,0.0,898,140,0,0,856.96,10.99,28.10,0
15:05:00,0,0,0,0,0,0,0,0,0,0,0,514,0,0,0,0,0.0000000,0.0000000,0.0000000,0.0000000,0.00,0.0000000,0.0000000,0.0000000,0.0,0.0,0.0,0.0,0.0,897,144,0,0,856.91,11.00,28.02,0
15:05:01,0,0,0,0,0,0,0,0,0,0,0,514,0,0,0,0,0.0000000,0.0000000,0.0000000,0.0000000,0.00,0.0000000,0.0000000,0.0000000,0.0,0.0,0.0,0.0,0.0,897,144,0,0,856.92,11.03,28.03,0
15:05:02,0,0,0,0,0,0,0,0,0,0,0,514,0,0,0,0,0.0000000,0.0000000,0.0000000,0.0000000,0.00,0.0000000,0.0000000,0.0000000,0.0,0.0,0.0,0.0,0.0,898,143,0,0,856.92,10.99,28.04,0
15:05:03,0,0,0,0,0,0,0,0,0,0,0,514,0,0,0,0,0.0000000,0.0000000,0.0000000,0.0000000,0.00,0.0000000,0.0000000,0.0000000,0.0,0.0,0.0,0.0,0.0,897,142,0,0,856.93,11.02,28.02,0
15:05:04,0,0,0,0,0,0,0,0,0,0,0,514,0,0,0,0,0.0000000,0.0000000,0.0000000,0.0000000,0.00,0.0000000,0.0000000,0.0000000,0.0,0.0,0.0,0.0,0.0,898,142,0,0,856.94,11.03,28.02,0
15:05:05,0,0,0,0,0,0,0,0,0,0,0,514,0,0,0,0,0.0000000,0.0000000,0.0000000,0.0000000,0.00,0.0000000,0.0000000,0.0000000,0.0,0.0,0.0,0.0,0.0,898,145,0,0,856.96,11.05,28.10,0
15:05:06,0,0,0,0,0,0,0,0,0,0,0,515,0,0,0,0,0.0000000,0.0000000,0.0000000,0.0000000,0.00,0.0000000,0.0000000,0.0000000,0.0,0.0,0.0,0.0,0.0,897,144,0,0,856.97,11.02,28.04,0
15:05:07,0,0,0,0,0,0,0,0,0,0,0,514,0,0,0,0,0.0000000,0.0000000,0.0000000,0.0000000,0.00,0.0000000,0.0000000,0.0000000,0.0,0.0,0.0,0.0,0.0,897,150,0,0,856.95,11.06,28.04,0
15:05:08,0,0,0,0,0,0,0,0,0,0,0,515,0,0,0,0,0.0000000,0.0000000,0.0000000,0.0000000,0.00,0.0000000,0.0000000,0.0000000,0.0,0.0,0.0,0.0,0.0,897,144,0,0,856.97,11.02,28.06,0
15:05:09,0,0,0,0,0,0,0,0,0,0,0,513,0,0,0,0,0.0000000,0.0000000,0.0000000,0.0000000,0.00,0.0000000,0.0000000,0.0000000,0.0,0.0,0.0,0.0,0.0,897,145,0,0,856.98,11.02,28.04,0
15:05:10,0,0,0,0,0,0,0,0,0,0,0,514,0,0,0,0,0.0000000,0.0000000,0.0000000,0.0000000,0.00,0.0000000,0.0000000,0.0000000,0.0,0.0,0.0,0.0,0.0,897,146,0,0,856.99,11.03,28.03,0
15:05:11,0,0,0,0,0,0,0,0,0,0,0,514,0,0,0,0,0.0000000,0.0000000,0.0000000,0.0000000,0.00,0.0000000,0.0000000,0.0000000,0.0,0.0,0.0,0.0,0.0,897,141,0,0,856.94,11.06,28.05,0
15:05:12,0,0,0,0,0,0,0,0,0,0,0,515,0,0,0,0,0.0000000,0.0000000,0.0000000,0.0000000,0.00,0.0000000,0.0000000,0.0000000,0.0,0.0,0.0,0.0,0.0,897,142,0,0,856.91,11.05,28.04,0
15:05:13,0,0,0,0,0,0,0,0,0,0,0,515,0,0,0,0,0.0000000,0.0000000,0.0000000,0.0000000,0.00,0.0000000,0.0000000,0.0000000,0.0,0.0,0.0,0.0,0.0,897,139,0,0,856.97,11.05,28.05,0
15:05:14,0,0,0,0,0,0,0,0,0,0,0,514,0,0,0,0,0.0000000,0.0000000,0.0000000,0.0000000,0.00,0.0000000,0.0000000,0.0000000,0.0,0.0,0.0,0.0,0.0,897,141,0,0,856.95,11.03,28.04,0
15:05:15,0,0,0,0,0,0,0,0,0,0,0,514,0,0,0,0,0.0000000,0.0000000,0.0000000,0.0000000,0.00,0.0000000,0.0000000,0.0000000,0.0,0.0,0.0,0.0,0.0,897,142,0,0,856.98,11.03,28.04,0
15:05:16,0,0,0,0,0,0,0,0,0,0,0,514,0,0,0,0,0.0000000,0.0000000,0.0000000,0.0000000,0.00,0.0000000,0.0000000,0.0000000,0.0,0.0,0.0,0.0,0.0,897,143,0,0,856.92,11.06,28.06,0
15:05:17,0,0,0,0,0,0,0,0,0,0,0,515,0,0,0,0,0.0000000,0.0000000,0.0000000,0.0000000,0.00,0.0000000,0.0000000,0.0000000,0.0,0.0,0.0,0.0,0.0,898,142,0,0,856.95,11.06,28.07,0
15:05:18,0,0,0,0,0,0,0,0,0,0,0,515,0,0,0,0,0.0000000,0.0000000,0.0000000,0.0000000,0.00,0.0000000,0.0000000,0.0000000,0.0,0.0,0.0,0.0,0.0,898,134,0,0,856.94,11.05,28.07,0
15:05:19,0,0,0,0,0,0,0,0,0,0,0,514,0,0,0,0,0.0000000,0.0000000,0.0000000,0.0000000,0.00,0.0000000,0.0000000,0.0000000,0.0,0.0,0.0,0.0,0.0,897,137,0,0,856.93,11.08,28.04,0
15:05:20,0,0,0,0,0,0,0,0,0,0,0,515,0,0,0,0,0.0000000,0.0000000,0.0000000,0.0000000,0.00,0.0000000,0.0000000,0.0000000,0.0,0.0,0.0,0.0,0.0,897,138,0,0,856.97,11.05,28.05,0
15:05:21,0,0,0,0,0,0,0,0,0,0,0,514,0,0,0,0,0.0000000,0.0000000,0.0000000,0.0000000,0.00,0.0000000,0.0000000,0.0000000,0.0,0.0,0.0,0.0,0.0,898,142,0,0,856.97,11.05,28.07,0
15:05:22,0,0,0,0,0,0,0,0,0,0,0,515,0,0,0,0,0.0000000,0.0000000,0.0000000,0.0000000,0.00,0.0000000,0.0000000,0.0000000,0.0,0.0,0.0,0.0,0.0,898,141,0,0,856.98,11.06,28.09,0
15:05:23,0,0,0,0,0,0,0,0,0,0,0,514,0,0,0,0,0.0000000,0.0000000,0.0000000,0.0000000,0.00,0.0000000,0.0000000,0.0000000,0.0,0.0,0.0,0.0,0.0,897,135,0,0,856.97,11.05,28.11,0
15:05:24,0,0,0,0,0,0,0,0,0,0,0,514,0,0,0,0,0.0000000,0.0000000,0.0000000,0.0000000,0.00,0.0000000,0.0000000,0.0000000,0.0,0.0,0.0,0.0,0.0,898,141,0,0,856.95,11.06,28.13,0
15:05:25,0,0,0,0,0,0,0,0,0,0,0,515,0,0,0,0,0.0000000,0.0000000,0.0000000,0.0000000,0.00,0.0000000,0.0000000,0.0000000,0.0,0.0,0.0,0.0,0.0,897,136,0,0,856.92,11.06,28.14,0
15:05:26,0,0,0,0,0,0,0,0,0,0,0,515,0,0,0,0,0.0000000,0.0000000,0.0000000,0.0000000,0.00,0.0000000,0.0000000,0.0000000,0.0,0.0,0.0,0.0,0.0,897,137,0,0,856.96,11.06,28.16,0
15:05:27,0,0,0,0,0,0,0,0,0,0,0,515,0,0,0,0,0.0000000,0.0000000,0.0000000,0.0000000,0.00,0.0000000,0.0000000,0.0000000,0.0,0.0,0.0,0.0,0.0,897,133,0,0,856.95,11.03,28.17,0
15:05:28,0,0,0,0,0,0,0,0,0,0,0,515,0,0,0,0,0.0000000,0.0000000,0.0000000,0.0000000,0.00,0.0000000,0.0000000,0.0000000,0.0,0.0,0.0,0.0,0.0,898,136,0,0,856.99,11.03,28.19,0
15:05:29,0,0,0,0,0,0,0,0,0,0,0,514,0,0,0,0,0.0000000,0.0000000,0.0000000,0.0000000,0.00,0.0000000,0.0000000,0.0000000,0.0,0.0,0.0,0.0,0.0,897,133,0,0,856.97,11.02,28.21,0
15:05:30,0,0,0,0,0,0,0,0,0,0,0,515,0,0,0,0,0.0000000,0.0000000,0.0000000,0.0000000,0.00,0.0000000,0.0000000,0.0000000,0.0,0.0,0.0,0.0,0.0,897,137,0,0,856.97,11.00,28.21,0
15:05:31,0,0,0,0,0,0,0,0,0,0,0,514,0,0,0,0,0.0000000,0.0000000,0.0000000,0.0000000,0.00,0.0000000,0.0000000,0.0000000,0.0,0.0,0.0,0.0,0.0,898,137,0,0,857.00,11.00,28.22,0
15:05:32,0,0,0,0,0,0,0,0,0,0,0,516,0,0,0,0,0.0000000,0.0000000,0.0000000,0.0000000,0.00,0.0000000,0.0000000,0.0000000,0.0,0.0,0.0,0.0,0.0,898,136,0,0,856.97,10.99,28.22,0
15:05:33,0,0,0,0,0,0,0,0,0,0,0,514,0,0,0,0,0.0000000,0.0000000,0.0000000,0.0000000,0.00,0.0000000,0.0000000,0.0000000,0.0,0.0,0.0,0.0,0.0,897,141,0,0,856.92,10.99,28.22,0
15:05:34,0,0,0,0,0,0,0,0,0,0,0,515,0,0,0,0,0.0000000,0.0000000,0.0000000,0.0000000,0.00,0.0000000,0.0000000,0.0000000,0.0,0.0,0.0,0.0,0.0,897,139,0,0,856.98,11.00,28.23,0
15:05:35,0,0,0,0,0,0,0,0,0,0,0,515,0,0,0,0,0.0000000,0.0000000,0.0000000,0.0000000,0.00,0.0000000,0.0000000,0.0000000,0.0,0.0,0.0,0.0,0.0,897,142,0,0,857.06,10.96,28.31,0
15:05:36,0,0,0,0,0,0,0,0,0,0,0,516,0,0,0,0,0.0000000,0.0000000,0.0000000,0.0000000,0.00,0.0000000,0.0000000,0.0000000,0.0,0.0,0.0,0.0,0.0,898,141,0,0,857.02,10.96,28.24,0
15:05:37,0,0,0,0,0,0,0,0,0,0,0,514,0,0,0,0,0.0000000,0.0000000,0.0000000,0.0000000,0.00,0.0000000,0.0000000,0.0000000,0.0,0.0,0.0,0.0,0.0,897,143,0,0,857.04,10.94,28.23,0
15:05:38,0,0,0,0,0,0,0,0,0,0,0,515,0,0,0,0,0.0000000,0.0000000,0.0000000,0.0000000,0.00,0.0000000,0.0000000,0.0000000,0.0,0.0,0.0,0.0,0.0,897,141,0,0,857.03,10.94,28.24,0
15:05:39,0,0,0,0,0,0,0,0,0,0,0,514,0,0,0,0,0.0000000,0.0000000,0.0000000,0.0000000,0.00,0.0000000,0.0000000,0.0000000,0.0,0.0,0.0,0.0,0.0,898,138,0,0,856.96,10.91,28.24,0
15:05:40,0,0,0,0,0,0,0,0,0,0,0,515,0,0,0,0,0.0000000,0.0000000,0.0000000,0.0000000,0.00,0.0000000,0.0000000,0.0000000,0.0,0.0,0.0,0.0,0.0,897,138,0,0,856.99,10.93,28.27,0
15:05:41,0,0,0,0,0,0,0,0,0,0,0,514,0,0,0,0,0.0000000,0.0000000,0.0000000,0.0000000,0.00,0.0000000,0.0000000,0.0000000,0.0,0.0,0.0,0.0,0.0,897,144,0,0,856.97,10.91,28.28,0
15:05:42,0,0,0,0,0,0,0,0,0,0,0,515,0,0,0,0,0.0000000,0.0000000,0.0000000,0.0000000,0.00,0.0000000,0.0000000,0.0000000,0.0,0.0,0.0,0.0,0.0,898,138,0,0,857.01,10.88,28.29,0
15:05:43,0,0,0,0,0,0,0,0,0,0,0,514,0,0,0,0,0.0000000,0.0000000,0.0000000,0.0000000,0.00,0.0000000,0.0000000,0.0000000,0.0,0.0,0.0,0.0,0.0,898,138,0,0,856.95,10.93,28.32,0
15:05:44,0,0,0,0,0,0,0,0,0,0,0,514,0,0,0,0,0.0000000,0.0000000,0.0000000,0.0000000,0.00,0.0000000,0.0000000,0.0000000,0.0,0.0,0.0,0.0,0.0,898,139,0,0,856.96,10.91,28.32,0
15:05:45,0,0,0,0,0,0,0,0,0,0,0,515,0,0,0,0,0.0000000,0.0000000,0.0000000,0.0000000,0.00,0.0000000,0.0000000,0.0000000,0.0,0.0,0.0,0.0,0.0,898,140,0,0,857.01,10.96,28.30,0
15:05:46,0,0,0,0,0,0,0,0,0,0,0,514,0,0,0,0,0.0000000,0.0000000,0.0000000,0.0000000,0.00,0.0000000,0.0000000,0.0000000,0.0,0.0,0.0,0.0,0.0,897,141,0,0,856.95,10.93,28.33,0
15:05:47,0,0,0,0,0,0,0,0,0,0,0,515,0,0,0,0,0.0000000,0.0000000,0.0000000,0.0000000,0.00,0.0000000,0.0000000,0.0000000,0.0,0.0,0.0,0.0,0.0,898,145,0,0,856.99,10.91,28.40,0
15:05:48,0,0,0,0,0,0,0,0,0,0,0,514,0,0,0,0,0.0000000,0.0000000,0.0000000,0.0000000,0.00,0.0000000,0.0000000,0.0000000,0.0,0.0,0.0,0.0,0.0,897,155,0,0,857.01,10.86,28.32,0
15:05:49,0,0,0,0,0,0,0,0,0,0,0,515,0,0,0,0,0.0000000,0.0000000,0.0000000,0.0000000,0.00,0.0000000,0.0000000,0.0000000,0.0,0.0,0.0,0.0,0.0,898,151,0,0,857.02,10.85,28.31,0
15:05:50,0,0,0,0,0,0,0,0,0,0,0,514,0,0,0,0,0.0000000,0.0000000,0.0000000,0.0000000,0.00,0.0000000,0.0000000,0.0000000,0.0,0.0,0.0,0.0,0.0,898,146,0,0,857.05,10.83,28.32,0
15:05:51,0,0,0,0,0,0,0,0,0,0,0,514,0,0,0,0,0.0000000,0.0000000,0.0000000,0.0000000,0.00,0.0000000,0.0000000,0.0000000,0.0,0.0,0.0,0.0,0.0,898,149,0,0,856.99,10.83,28.32,0
15:05:52,0,0,0,0,0,0,0,0,0,0,0,514,0,0,0,0,0.0000000,0.0000000,0.0000000,0.0000000,0.00,0.0000000,0.0000000,0.0000000,0.0,0.0,0.0,0.0,0.0,898,145,0,0,856.97,10.77,28.33,0
15:05:53,0,0,0,0,0,0,0,0,0,0,0,515,0,0,0,0,0.0000000,0.0000000,0.0000000,0.0000000,0.00,0.0000000,0.0000000,0.0000000,0.0,0.0,0.0,0.0,0.0,898,144,0,0,857.02,10.80,28.33,0
15:05:54,0,0,0,0,0,0,0,0,0,0,0,514,0,0,0,0,0.0000000,0.0000000,0.0000000,0.0000000,0.00,0.0000000,0.0000000,0.0000000,0.0,0.0,0.0,0.0,0.0,897,140,0,0,856.99,10.82,28.33,0
15:05:55,0,0,0,0,0,0,0,0,0,0,0,514,0,0,0,0,0.0000000,0.0000000,0.0000000,0.0000000,0.00,0.0000000,0.0000000,0.0000000,0.0,0.0,0.0,0.0,0.0,897,141,0,0,857.06,10.79,28.35,0
15:05:56,0,0,0,0,0,0,0,0,0,0,0,514,0,0,0,0,0.0000000,0.0000000,0.0000000,0.0000000,0.00,0.0000000,0.0000000,0.0000000,0.0,0.0,0.0,0.0,0.0,897,139,0,0,857.04,10.80,28.37,0
15:05:57,0,0,0,0,0,0,0,0,0,0,0,515,0,0,0,0,0.0000000,0.0000000,0.0000000,0.0000000,0.00,0.0000000,0.0000000,0.0000000,0.0,0.0,0.0,0.0,0.0,897,138,0,0,857.00,10.82,28.30,0
15:05:58,0,0,0,0,0,0,0,0,0,0,0,515,0,0,0,0,0.0000000,0.0000000,0.0000000,0.0000000,0.00,0.0000000,0.0000000,0.0000000,0.0,0.0,0.0,0.0,0.0,897,135,0,0,856.98,10.82,28.32,0
15:05:59,0,0,0,0,0,0,0,0,0,0,0,515,0,0,0,0,0.0000000,0.0000000,0.0000000,0.0000000,0.00,0.0000000,0.0000000,0.0000000,0.0,0.0,0.0,0.0,0.0,898,137,0,0,856.95,10.77,28.38,0
15:06:00,0,0,0,0,0,0,0,0,0,0,0,515,0,0,0,0,0.0000000,0.0000000,0.0000000,0.0000000,0.00,0.0000000,0.0000000,0.0000000,0.0,0.0,0.0,0.0,0.0,896,134,0,0,856.95,10.79,28.40,0
15:06:01,0,0,0,0,0,0,0,0,0,0,0,514,0,0,0,0,0.0000000,0.0000000,0.0000000,0.0000000,0.00,0.0000000,0.0000000,0.0000000,0.0,0.0,0.0,0.0,0.0,898,136,0,0,856.97,10.79,28.46,0
15:06:03,0,0,0,0,0,0,0,0,0,0,0,515,0,0,0,0,0.0000000,0.0000000,0.0000000,0.0000000,0.00,0.0000000,0.0000000,0.0000000,0.0,0.0,0.0,0.0,0.0,897,141,0,0,856.98,10.79,28.48,0
15:06:04,0,0,0,0,0,0,0,0,0,0,0,514,0,0,0,0,0.0000000,0.0000000,0.0000000,0.0000000,0.00,0.0000000,0.0000000,0.0000000,0.0,0.0,0.0,0.0,0.0,897,137,0,0,856.99,10.80,28.49,0
15:06:05,0,0,0,0,0,0,0,0,0,0,0,515,0,0,0,0,0.0000000,0.0000000,0.0000000,0.0000000,0.00,0.0000000,0.0000000,0.0000000,0.0,0.0,0.0,0.0,0.0,898,136,0,0,857.00,10.79,28.51,0
15:06:06,0,0,0,0,0,0,0,0,0,0,0,515,0,0,0,0,0.0000000,0.0000000,0.0000000,0.0000000,0.00,0.0000000,0.0000000,0.0000000,0.0,0.0,0.0,0.0,0.0,898,143,0,0,857.01,10.77,28.53,0
15:06:07,0,0,0,0,0,0,0,0,0,0,0,515,0,0,0,0,0.0000000,0.0000000,0.0000000,0.0000000,0.00,0.0000000,0.0000000,0.0000000,0.0,0.0,0.0,0.0,0.0,897,137,0,0,856.97,10.74,28.55,0
15:06:08,0,0,0,0,0,0,0,0,0,0,0,515,0,0,0,0,0.0000000,0.0000000,0.0000000,0.0000000,0.00,0.0000000,0.0000000,0.0000000,0.0,0.0,0.0,0.0,0.0,897,139,0,0,856.99,10.73,28.57,0
15:06:09,0,0,0,0,0,0,0,0,0,0,0,514,0,0,0,0,0.0000000,0.0000000,0.0000000,0.0000000,0.00,0.0000000,0.0000000,0.0000000,0.0,0.0,0.0,0.0,0.0,898,137,0,0,856.99,10.73,28.59,0
15:06:10,0,0,0,0,0,0,0,0,0,0,0,514,0,0,0,0,0.0000000,0.0000000,0.0000000,0.0000000,0.00,0.0000000,0.0000000,0.0000000,0.0,0.0,0.0,0.0,0.0,897,137,0,0,856.94,10.73,28.60,0
15:06:11,0,0,0,0,0,0,0,0,0,0,0,515,0,0,0,0,0.0000000,0.0000000,0.0000000,0.0000000,0.00,0.0000000,0.0000000,0.0000000,0.0,0.0,0.0,0.0,0.0,897,138,0,0,856.95,10.76,28.67,0
15:06:12,0,0,0,0,0,0,0,0,0,0,0,514,0,0,0,0,0.0000000,0.0000000,0.0000000,0.0000000,0.00,0.0000000,0.0000000,0.0000000,0.0,0.0,0.0,0.0,0.0,897,136,0,0,856.97,10.71,28.59,0
15:06:13,0,0,0,0,0,0,0,0,0,0,0,515,0,0,0,0,0.0000000,0.0000000,0.0000000,0.0000000,0.00,0.0000000,0.0000000,0.0000000,0.0,0.0,0.0,0.0,0.0,897,135,0,0,856.93,10.64,28.64,0
15:06:14,0,0,0,0,0,0,0,0,0,0,0,515,0,0,0,0,0.0000000,0.0000000,0.0000000,0.0000000,0.00,0.0000000,0.0000000,0.0000000,0.0,0.0,0.0,0.0,0.0,898,135,0,0,857.00,10.62,28.64,0
15:06:15,0,0,0,0,0,0,0,0,0,0,0,515,0,0,0,0,0.0000000,0.0000000,0.0000000,0.0000000,0.00,0.0000000,0.0000000,0.0000000,0.0,0.0,0.0,0.0,0.0,898,136,0,0,856.93,10.62,28.66,0
15:06:16,0,0,0,0,0,0,0,0,0,0,0,515,0,0,0,0,0.0000000,0.0000000,0.0000000,0.0000000,0.00,0.0000000,0.0000000,0.0000000,0.0,0.0,0.0,0.0,0.0,898,134,0,0,857.00,10.59,28.68,0
15:06:17,0,0,0,0,0,0,0,0,0,0,0,515,0,0,0,0,0.0000000,0.0000000,0.0000000,0.0000000,0.00,0.0000000,0.0000000,0.0000000,0.0,0.0,0.0,0.0,0.0,898,138,0,0,856.96,10.57,28.69,0
15:06:18,0,0,0,0,0,0,0,0,0,0,0,514,0,0,0,0,0.0000000,0.0000000,0.0000000,0.0000000,0.00,0.0000000,0.0000000,0.0000000,0.0,0.0,0.0,0.0,0.0,898,135,0,0,856.89,10.57,28.68,0
15:06:19,0,0,0,0,0,0,0,0,0,0,0,514,0,0,0,0,0.0000000,0.0000000,0.0000000,0.0000000,0.00,0.0000000,0.0000000,0.0000000,0.0,0.0,0.0,0.0,0.0,897,138,0,0,856.92,10.51,28.66,0
15:06:20,0,0,0,0,0,0,0,0,0,0,0,514,0,0,0,0,0.0000000,0.0000000,0.0000000,0.0000000,0.00,0.0000000,0.0000000,0.0000000,0.0,0.0,0.0,0.0,0.0,897,139,0,0,856.95,10.44,28.67,0
15:06:21,0,0,0,0,0,0,0,0,0,0,0,514,0,0,0,0,0.0000000,0.0000000,0.0000000,0.0000000,0.00,0.0000000,0.0000000,0.0000000,0.0,0.0,0.0,0.0,0.0,897,138,0,0,856.97,10.35,28.67,0
15:06:22,0,0,0,0,0,0,0,0,0,0,0,514,0,0,0,0,0.0000000,0.0000000,0.0000000,0.0000000,0.00,0.0000000,0.0000000,0.0000000,0.0,0.0,0.0,0.0,0.0,897,141,0,0,856.95,10.30,28.66,0
15:06:23,0,0,0,0,0,0,0,0,0,0,0,515,0,0,0,0,0.0000000,0.0000000,0.0000000,0.0000000,3.00,0.0000000,0.0000000,0.0000000,0.0,0.0,0.0,0.0,0.0,897,139,0,0,856.97,10.33,28.68,0
15:06:24,0,0,0,0,0,0,0,0,0,0,0,514,0,0,0,0,0.0000000,0.0000000,0.0000000,0.0000000,3.00,0.0000000,0.0000000,0.0000000,0.0,0.0,0.0,0.0,0.0,897,133,0,0,856.96,10.38,28.70,0
15:06:25,0,0,0,0,0,0,0,0,0,0,0,515,0,0,0,0,0.0000000,0.0000000,0.0000000,0.0000000,3.00,0.0000000,0.0000000,0.0000000,0.0,0.0,0.0,0.0,0.0,898,134,0,0,856.94,10.35,28.71,0
15:06:26,0,0,0,0,0,0,0,0,0,0,0,515,0,0,0,0,0.0000000,0.0000000,0.0000000,0.0000000,3.00,0.0000000,0.0000000,0.0000000,1.5,154.5,0.0,0.0,0.0,897,135,0,0,856.96,10.38,28.74,0
15:06:27,0,0,0,0,0,0,0,0,0,0,0,516,0,0,0,0,0.0000000,0.0000000,0.0000000,0.0000000,3.00,0.0000000,0.0000000,0.0000000,0.1,323.1,0.0,0.0,0.0,897,140,0,0,856.95,10.36,28.76,0
15:06:28,0,0,0,0,0,0,0,0,0,0,0,514,0,0,0,0,0.0000000,0.0000000,0.0000000,0.0000000,3.00,0.0000000,0.0000000,0.0000000,0.1,342.9,0.0,0.0,0.0,898,136,0,0,856.99,10.35,28.77,0
15:06:29,0,0,0,0,0,0,0,0,0,0,0,514,0,0,0,0,0.0000000,0.0000000,0.0000000,0.0000000,3.00,0.0000000,0.0000000,0.0000000,0.1,126.5,0.0,0.0,0.0,898,135,0,0,856.98,10.36,28.79,0
15:06:30,0,0,0,0,0,0,0,0,0,0,0,515,0,0,0,0,0.0000000,0.0000000,0.0000000,0.0000000,3.00,0.0000000,0.0000000,0.0000000,0.2,131.7,0.0,0.0,0.0,897,135,0,0,856.92,10.33,28.79,0
15:06:31,0,0,0,0,0,0,0,0,0,0,0,515,0,0,0,0,0.0000000,0.0000000,0.0000000,0.0000000,3.00,0.0000000,0.0000000,0.0000000,0.1,133.1,0.0,0.0,0.0,897,135,0,0,856.93,10.33,28.80,0
15:06:32,0,0,0,0,0,0,0,0,0,0,0,515,0,0,0,0,0.0000000,0.0000000,0.0000000,0.0000000,3.00,0.0000000,0.0000000,0.0000000,0.1,339.7,0.0,0.0,0.0,897,131,0,0,856.95,10.32,28.82,0
15:06:33,0,0,0,0,0,0,0,0,0,0,0,515,0,0,0,0,0.0000000,0.0000000,0.0000000,0.0000000,3.00,0.0000000,0.0000000,0.0000000,0.0,337.9,0.0,0.0,0.0,897,128,0,0,856.96,10.32,28.84,0
15:06:34,0,0,0,0,0,0,0,0,0,0,0,515,0,0,0,0,0.0000000,0.0000000,0.0000000,0.0000000,3.00,0.0000000,0.0000000,0.0000000,0.0,3.4,0.0,0.0,0.0,897,133,0,0,856.96,10.35,28.85,0
15:06:35,0,0,0,0,0,0,0,0,0,0,0,514,0,0,0,0,0.0000000,0.0000000,0.0000000,0.0000000,3.00,0.0000000,0.0000000,0.0000000,0.1,117.0,0.0,0.0,0.0,897,136,0,0,856.96,10.38,28.87,0
15:06:36,0,0,0,0,0,0,0,0,0,0,0,514,0,0,0,0,0.0000000,0.0000000,0.0000000,0.0000000,3.00,0.0000000,0.0000000,0.0000000,0.1,331.3,0.0,0.0,0.0,897,135,0,0,856.91,10.41,28.88,0
15:06:37,0,0,0,0,0,0,0,0,0,0,0,515,0,0,0,0,0.0000000,0.0000000,0.0000000,0.0000000,3.00,0.0000000,0.0000000,0.0000000,0.1,332.0,0.0,0.0,0.0,898,139,0,0,856.96,10.42,28.90,0
15:06:38,0,0,0,0,0,0,0,0,0,0,0,515,0,0,0,0,0.0000000,0.0000000,0.0000000,0.0000000,3.00,0.0000000,0.0000000,0.0000000,0.2,323.7,0.0,0.0,0.0,898,135,0,0,856.90,10.42,28.91,0
15:06:39,0,0,0,0,0,0,0,0,0,0,0,514,0,0,0,0,0.0000000,0.0000000,0.0000000,0.0000000,3.00,0.0000000,0.0000000,0.0000000,0.1,328.8,0.0,0.0,0.0,898,136,0,0,856.96,10.41,28.92,0
15:06:40,0,0,0,0,0,0,0,0,0,0,0,514,0,0,0,0,0.0000000,0.0000000,0.0000000,0.0000000,3.00,0.0000000,0.0000000,0.0000000,0.1,326.6,0.0,0.0,0.0,897,138,0,0,856.88,10.42,28.94,0
15:06:41,0,0,0,0,0,0,0,0,0,0,0,515,0,0,0,0,0.0000000,0.0000000,0.0000000,0.0000000,3.00,0.0000000,0.0000000,0.0000000,0.2,322.0,0.0,0.0,0.0,897,135,0,0,856.92,10.41,28.96,0
15:06:42,0,0,0,0,0,0,0,0,0,0,0,516,0,0,0,0,0.0000000,0.0000000,0.0000000,0.0000000,3.00,0.0000000,0.0000000,0.0000000,0.3,320.4,0.0,0.0,0.0,898,137,0,0,856.92,10.39,28.97,0
15:06:43,0,0,0,0,0,0,0,0,0,0,0,514,0,0,0,0,0.0000000,0.0000000,0.0000000,0.0000000,3.00,0.0000000,0.0000000,0.0000000,0.0,142.9,0.0,0.0,0.0,897,134,0,0,856.93,10.38,28.99,0
15:06:44,0,0,0,0,0,0,0,0,0,0,0,515,0,0,0,0,0.0000000,0.0000000,0.0000000,0.0000000,3.00,0.0000000,0.0000000,0.0000000,0.1,137.6,0.0,0.0,0.0,898,135,0,0,856.89,10.42,28.99,0
15:06:45,0,0,0,0,0,0,0,0,0,0,0,515,0,0,0,0,0.0000000,0.0000000,0.0000000,0.0000000,3.00,0.0000000,0.0000000,0.0000000,0.1,142.4,0.0,0.0,0.0,898,134,0,0,856.98,10.42,29.01,0
15:06:46,0,0,0,0,0,0,0,0,0,0,0,515,0,0,0,0,0.0000000,0.0000000,0.0000000,0.0000000,3.00,0.0000000,0.0000000,0.0000000,0.3,141.2,0.0,0.0,0.0,897,136,0,0,856.91,10.36,29.03,0
15:06:47,0,0,0,0,0,0,0,0,0,0,0,515,0,0,0,0,0.0000000,0.0000000,0.0000000,0.0000000,3.00,0.0000000,0.0000000,0.0000000,0.2,139.2,0.0,0.0,0.0,897,143,0,0,856.92,10.38,29.05,0
15:06:48,0,0,0,0,0,0,0,0,0,0,0,515,0,0,0,0,0.0000000,0.0000000,0.0000000,0.0000000,3.00,0.0000000,0.0000000,0.0000000,0.1,143.3,0.0,0.0,0.0,897,133,0,0,856.92,10.38,29.06,0
15:06:49,0,0,0,0,0,0,0,0,0,0,0,515,0,0,0,0,0.0000000,0.0000000,0.0000000,0.0000000,3.00,0.0000000,0.0000000,0.0000000,0.3,318.7,0.0,0.0,0.0,897,139,0,0,856.89,10.32,29.08,0
15:06:50,0,0,0,0,0,0,0,0,0,0,0,514,0,0,0,0,0.0000000,0.0000000,0.0000000,0.0000000,3.00,0.0000000,0.0000000,0.0000000,0.0,184.4,0.0,0.0,0.0,898,140,0,0,856.95,10.33,29.09,0
15:06:51,0,0,0,0,0,0,0,0,0,0,0,514,0,0,0,0,0.0000000,0.0000000,0.0000000,0.0000000,3.00,0.0000000,0.0000000,0.0000000,0.1,153.3,0.0,0.0,0.0,898,141,0,0,856.92,10.33,29.11,0
15:06:52,0,0,0,0,0,0,0,0,0,0,0,514,0,0,0,0,0.0000000,0.0000000,0.0000000,0.0000000,3.00,0.0000000,0.0000000,0.0000000,0.2,143.9,0.0,0.0,0.0,897,143,0,0,856.96,10.30,29.12,0
15:06:53,0,0,0,0,0,0,0,0,0,0,0,514,0,0,0,0,0.0000000,0.0000000,0.0000000,0.0000000,3.00,0.0000000,0.0000000,0.0000000,0.3,142.6,0.0,0.0,0.0,897,143,0,0,856.97,10.28,29.13,0
15:06:54,0,0,0,0,0,0,0,0,0,0,0,515,0,0,0,0,0.0000000,0.0000000,0.0000000,0.0000000,3.00,0.0000000,0.0000000,0.0000000,0.1,139.1,0.0,0.0,0.0,898,138,0,0,856.94,10.27,29.14,0
15:06:55,0,0,0,0,0,0,0,0,0,0,0,515,0,0,0,0,0.0000000,0.0000000,0.0000000,0.0000000,3.00,0.0000000,0.0000000,0.0000000,0.2,138.8,0.0,0.0,0.0,897,141,0,0,856.92,10.25,29.16,0
15:06:56,0,0,0,0,0,0,0,0,0,0,0,515,0,0,0,0,0.0000000,0.0000000,0.0000000,0.0000000,3.00,0.0000000,0.0000000,0.0000000,0.2,139.3,0.0,0.0,0.0,897,141,0,0,856.92,10.24,29.18,0
15:06:57,0,0,0,0,0,0,0,0,0,0,0,515,0,0,0,0,0.0000000,0.0000000,0.0000000,0.0000000,3.00,0.0000000,0.0000000,0.0000000,0.0,126.3,0.0,0.0,0.0,897,138,0,0,856.95,10.22,29.18,0
15:06:58,0,0,0,0,0,0,0,0,0,0,0,515,0,0,0,0,0.0000000,0.0000000,0.0000000,0.0000000,3.00,0.0000000,0.0000000,0.0000000,0.1,136.4,0.0,0.0,0.0,898,140,0,0,856.91,10.21,29.19,0
15:06:59,0,0,0,0,0,0,0,0,0,0,0,516,0,0,0,0,0.0000000,0.0000000,0.0000000,0.0000000,3.00,0.0000000,0.0000000,0.0000000,0.0,121.6,0.0,0.0,0.0,898,141,0,0,856.98,10.18,29.21,0
15:07:00,0,0,0,0,0,0,0,0,0,0,0,515,0,0,0,0,0.0000000,0.0000000,0.0000000,0.0000000,3.00,0.0000000,0.0000000,0.0000000,0.0,4.9,0.0,0.0,0.0,898,137,0,0,856.93,10.18,29.22,0
15:07:01,0,0,0,0,0,0,0,0,0,0,0,514,0,0,0,0,0.0000000,0.0000000,0.0000000,0.0000000,3.00,0.0000000,0.0000000,0.0000000,0.1,133.6,0.0,0.0,0.0,897,139,0,0,856.96,10.18,29.24,0
15:07:02,0,0,0,0,0,0,0,0,0,0,0,514,0,0,0,0,0.0000000,0.0000000,0.0000000,0.0000000,3.00,0.0000000,0.0000000,0.0000000,0.1,337.7,0.0,0.0,0.0,898,142,0,0,856.92,10.16,29.26,0
15:07:03,0,0,0,0,0,0,0,0,0,0,0,515,0,0,0,0,0.0000000,0.0000000,0.0000000,0.0000000,3.00,0.0000000,0.0000000,0.0000000,0.2,134.1,0.0,0.0,0.0,897,142,0,0,856.90,10.21,29.28,0
15:07:04,0,0,0,0,0,0,0,0,0,0,0,515,0,0,0,0,0.0000000,0.0000000,0.0000000,0.0000000,3.00,0.0000000,0.0000000,0.0000000,0.1,121.7,0.0,0.0,0.0,898,141,0,0,856.89,10.16,29.29,0
15:07:05,0,0,0,0,0,0,0,0,0,0,0,515,0,0,0,0,0.0000000,0.0000000,0.0000000,0.0000000,3.00,0.0000000,0.0000000,0.0000000,0.1,348.4,0.0,0.0,0.0,897,139,0,0,856.94,10.12,29.31,0
15:07:06,0,0,0,0,0,0,0,0,0,0,0,514,0,0,0,0,0.0000000,0.0000000,0.0000000,0.0000000,3.00,0.0000000,0.0000000,0.0000000,0.0,130.0,0.0,0.0,0.0,897,142,0,0,856.86,10.13,29.32,0
15:07:07,0,0,0,0,0,0,0,0,0,0,0,514,0,0,0,0,0.0000000,0.0000000,0.0000000,0.0000000,3.00,0.0000000,0.0000000,0.0000000,0.0,159.4,0.0,0.0,0.0,897,143,0,0,856.93,10.06,29.34,0
15:07:08,0,0,0,0,0,0,0,0,0,0,0,515,0,0,0,0,0.0000000,0.0000000,0.0000000,0.0000000,3.00,0.0000000,0.0000000,0.0000000,0.1,320.1,0.0,0.0,0.0,898,135,0,0,856.90,10.06,29.35,0
15:07:09,0,0,0,0,0,0,0,0,0,0,0,514,0,0,0,0,0.0000000,0.0000000,0.0000000,0.0000000,3.00,0.0000000,0.0000000,0.0000000,0.0,58.5,0.0,0.0,0.0,897,134,0,0,856.90,10.07,29.37,0
15:07:10,0,0,0,0,0,0,0,0,0,0,0,515,0,0,0,0,0.0000000,0.0000000,0.0000000,0.0000000,3.00,0.0000000,0.0000000,0.0000000,0.2,137.8,0.0,0.0,0.0,897,138,0,0,856.89,10.09,29.38,0
15:07:11,0,0,0,0,0,0,0,0,0,0,0,514,0,0,0,0,0.0000000,0.0000000,0.0000000,0.0000000,3.00,0.0000000,0.0000000,0.0000000,0.0,139.6,0.0,0.0,0.0,897,140,0,0,856.87,10.07,29.40,0
15:07:12,0,0,0,0,0,0,0,0,0,0,0,515,0,0,0,0,0.0000000,0.0000000,0.0000000,0.0000000,3.00,0.0000000,0.0000000,0.0000000,0.0,330.2,0.0,0.0,0.0,897,138,0,0,856.94,10.06,29.42,0
15:07:13,0,0,0,0,0,0,0,0,0,0,0,515,0,0,0,0,0.0000000,0.0000000,0.0000000,0.0000000,3.00,0.0000000,0.0000000,0.0000000,0.1,323.5,0.0,0.0,0.0,898,139,0,0,856.86,10.03,29.42,0
15:07:14,0,0,0,0,0,0,0,0,0,0,0,514,0,0,0,0,0.0000000,0.0000000,0.0000000,0.0000000,3.00,0.0000000,0.0000000,0.0000000,0.0,318.9,0.0,0.0,0.0,897,139,0,0,856.91,10.03,29.43,0
15:07:15,0,0,0,0,0,0,0,0,0,0,0,515,0,0,0,0,0.0000000,0.0000000,0.0000000,0.0000000,3.00,0.0000000,0.0000000,0.0000000,0.2,139.6,0.0,0.0,0.0,898,134,0,0,856.90,10.03,29.45,0
15:07:16,0,0,0,0,0,0,0,0,0,0,0,515,0,0,0,0,0.0000000,0.0000000,0.0000000,0.0000000,3.00,0.0000000,0.0000000,0.0000000,0.2,139.7,0.0,0.0,0.0,898,139,0,0,856.90,10.01,29.47,0
15:07:17,0,0,0,0,0,0,0,0,0,0,0,515,0,0,0,0,0.0000000,0.0000000,0.0000000,0.0000000,3.00,0.0000000,0.0000000,0.0000000,0.2,139.2,0.0,0.0,0.0,898,140,0,0,856.91,10.06,29.49,0
15:07:18,0,0,0,0,0,0,0,0,0,0,0,515,0,0,0,0,0.0000000,0.0000000,0.0000000,0.0000000,3.00,0.0000000,0.0000000,0.0000000,0.0,308.9,0.0,0.0,0.0,897,142,0,0,856.85,10.06,29.50,0
15:07:19,0,0,0,0,0,0,0,0,0,0,0,514,0,0,0,0,0.0000000,0.0000000,0.0000000,0.0000000,3.00,0.0000000,0.0000000,0.0000000,0.1,322.3,0.0,0.0,0.0,898,141,0,0,856.93,10.00,29.52,0
15:07:20,0,0,0,0,0,0,0,0,0,0,0,514,0,0,0,0,0.0000000,0.0000000,0.0000000,0.0000000,3.00,0.0000000,0.0000000,0.0000000,0.1,135.5,0.0,0.0,0.0,897,140,0,0,856.89,9.93,29.52,0
15:07:21,0,0,0,0,0,0,0,0,0,0,0,514,0,0,0,0,0.0000000,0.0000000,0.0000000,0.0000000,3.00,0.0000000,0.0000000,0.0000000,0.1,134.6,0.0,0.0,0.0,898,139,0,0,856.89,9.83,29.44,0
15:07:22,0,0,0,0,0,0,0,0,0,0,0,514,0,0,0,0,0.0000000,0.0000000,0.0000000,0.0000000,3.00,0.0000000,0.0000000,0.0000000,0.1,131.2,0.0,0.0,0.0,898,138,0,0,856.90,9.87,29.46,0
15:07:23,0,0,0,0,0,0,0,0,0,0,0,514,0,0,0,0,0.0000000,0.0000000,0.0000000,0.0000000,3.00,0.0000000,0.0000000,0.0000000,0.2,317.6,0.0,0.0,0.0,898,132,0,0,856.91,9.87,29.53,0
15:07:24,0,0,0,0,0,0,0,0,0,0,0,515,0,0,0,0,0.0000000,0.0000000,0.0000000,0.0000000,3.00,0.0000000,0.0000000,0.0000000,0.0,35.4,0.0,0.0,0.0,898,135,0,0,856.94,9.89,29.58,0
15:07:25,0,0,0,0,0,0,0,0,0,0,0,515,0,0,0,0,0.0000000,0.0000000,0.0000000,0.0000000,3.00,0.0000000,0.0000000,0.0000000,0.0,110.7,0.0,0.0,0.0,897,140,0,0,856.92,9.90,29.60,0
15:07:26,0,0,0,0,0,0,0,0,0,0,0,515,0,0,0,0,0.0000000,0.0000000,0.0000000,0.0000000,3.00,0.0000000,0.0000000,0.0000000,0.2,131.3,0.0,0.0,0.0,898,139,0,0,856.93,9.80,29.61,0
15:07:27,0,0,0,0,0,0,0,0,0,0,0,515,0,0,0,0,0.0000000,0.0000000,0.0000000,0.0000000,3.00,0.0000000,0.0000000,0.0000000,0.1,131.1,0.0,0.0,0.0,898,142,0,0,856.92,9.78,29.63,0
15:07:28,0,0,0,0,0,0,0,0,0,0,0,514,0,0,0,0,0.0000000,0.0000000,0.0000000,0.0000000,3.00,0.0000000,0.0000000,0.0000000,0.2,136.5,0.0,0.0,0.0,898,136,0,0,856.91,9.66,29.64,0
15:07:30,0,0,0,0,0,0,0,0,0,0,0,514,0,0,0,0,0.0000000,0.0000000,0.0000000,0.0000000,3.00,0.0000000,0.0000000,0.0000000,0.2,136.5,0.0,0.0,0.0,898,136,0,0,856.91,9.66,29.64,0
15:07:31,0,0,0,0,0,0,0,0,0,0,0,514,0,0,0,0,0.0000000,0.0000000,0.0000000,0.0000000,3.00,0.0000000,0.0000000,0.0000000,0.1,134.7,0.0,0.0,0.0,898,137,0,0,856.91,9.63,29.65,0
15:07:32,0,0,0,0,0,0,0,0,0,0,0,514,0,0,0,0,0.0000000,0.0000000,0.0000000,0.0000000,3.00,0.0000000,0.0000000,0.0000000,0.0,114.1,0.0,0.0,0.0,898,134,0,0,856.94,9.60,29.66,0
15:07:33,0,0,0,0,0,0,0,0,0,0,0,515,0,0,0,0,0.0000000,0.0000000,0.0000000,0.0000000,3.00,0.0000000,0.0000000,0.0000000,0.1,118.1,0.0,0.0,0.0,898,134,0,0,856.93,9.61,29.69,0
15:07:34,0,0,0,0,0,0,0,0,0,0,0,515,0,0,0,0,0.0000000,0.0000000,0.0000000,0.0000000,3.00,0.0000000,0.0000000,0.0000000,0.2,134.1,0.0,0.0,0.0,897,141,0,0,856.94,9.69,29.70,0
15:07:35,0,0,0,0,0,0,0,0,0,0,0,514,0,0,0,0,0.0000000,0.0000000,0.0000000,0.0000000,3.00,0.0000000,0.0000000,0.0000000,0.2,126.5,0.0,0.0,0.0,898,139,0,0,856.96,9.61,29.74,0
15:07:36,0,0,0,0,0,0,0,0,0,0,0,514,0,0,0,0,0.0000000,0.0000000,0.0000000,0.0000000,3.00,0.0000000,0.0000000,0.0000000,0.2,126.5,0.0,0.0,0.0,898,146,0,0,856.85,9.61,29.69,0
15:07:37,0,0,0,0,0,0,0,0,0,0,0,515,0,0,0,0,0.0000000,0.0000000,0.0000000,0.0000000,3.00,0.0000000,0.0000000,0.0000000,0.0,118.2,0.0,0.0,0.0,897,138,0,0,856.88,9.52,29.70,0
15:07:38,0,0,0,0,0,0,0,0,0,0,0,515,0,0,0,0,0.0000000,0.0000000,0.0000000,0.0000000,3.00,0.0000000,0.0000000,0.0000000,0.0,111.1,0.0,0.0,0.0,897,138,0,0,856.92,9.52,29.76,0
15:07:39,0,0,0,0,0,0,0,0,0,0,0,515,0,0,0,0,0.0000000,0.0000000,0.0000000,0.0000000,3.00,0.0000000,0.0000000,0.0000000,0.1,125.5,0.0,0.0,0.0,898,143,0,0,856.93,9.55,29.78,0
15:07:40,0,0,0,0,0,0,0,0,0,0,0,515,0,0,0,0,0.0000000,0.0000000,0.0000000,0.0000000,3.00,0.0000000,0.0000000,0.0000000,0.1,128.9,0.0,0.0,0.0,897,153,0,0,856.95,9.58,29.80,0
15:07:41,0,0,0,0,0,0,0,0,0,0,0,515,0,0,0,0,0.0000000,0.0000000,0.0000000,0.0000000,3.00,0.0000000,0.0000000,0.0000000,0.0,151.5,0.0,0.0,0.0,897,146,0,0,856.96,9.55,29.81,0
15:07:42,0,0,0,0,0,0,0,0,0,0,0,515,0,0,0,0,0.0000000,0.0000000,0.0000000,0.0000000,3.00,0.0000000,0.0000000,0.0000000,0.1,145.9,0.0,0.0,0.0,898,146,0,0,856.88,9.46,29.80,0
15:07:43,0,0,0,0,0,0,0,0,0,0,0,514,0,0,0,0,0.0000000,0.0000000,0.0000000,0.0000000,3.00,0.0000000,0.0000000,0.0000000,0.1,135.9,0.0,0.0,0.0,897,146,0,0,856.97,9.40,29.79,0
15:07:44,0,0,0,0,0,0,0,0,0,0,0,514,0,0,0,0,0.0000000,0.0000000,0.0000000,0.0000000,3.00,0.0000000,0.0000000,0.0000000,0.1,318.0,0.0,0.0,0.0,898,144,0,0,856.92,9.38,29.79,0
15:07:45,0,0,0,0,0,0,0,0,0,0,0,514,0,0,0,0,0.0000000,0.0000000,0.0000000,0.0000000,3.00,0.0000000,0.0000000,0.0000000,0.1,323.6,0.0,0.0,0.0,898,142,0,0,856.90,9.38,29.81,0
15:07:46,0,0,0,0,0,0,0,0,0,0,0,513,0,0,0,0,0.0000000,0.0000000,0.0000000,0.0000000,3.00,0.0000000,0.0000000,0.0000000,0.1,129.3,0.0,0.0,0.0,898,139,0,0,856.91,9.35,29.81,0
15:07:47,0,0,0,0,0,0,0,0,0,0,0,514,0,0,0,0,0.0000000,0.0000000,0.0000000,0.0000000,3.00,0.0000000,0.0000000,0.0000000,0.1,121.3,0.0,0.0,0.0,897,140,0,0,856.92,9.34,29.82,0
15:07:48,0,0,0,0,0,0,0,0,0,0,0,514,0,0,0,0,0.0000000,0.0000000,0.0000000,0.0000000,3.00,0.0000000,0.0000000,0.0000000,0.0,78.0,0.0,0.0,0.0,897,139,0,0,856.98,9.28,29.83,0
15:07:49,0,0,0,0,0,0,0,0,0,0,0,515,0,0,0,0,0.0000000,0.0000000,0.0000000,0.0000000,3.00,0.0000000,0.0000000,0.0000000,0.0,119.9,0.0,0.0,0.0,897,139,0,0,857.00,9.29,29.82,0
15:07:50,0,0,0,0,0,0,0,0,0,0,0,514,0,0,0,0,0.0000000,0.0000000,0.0000000,0.0000000,3.00,0.0000000,0.0000000,0.0000000,0.2,131.0,0.0,0.0,0.0,898,140,0,0,857.02,9.31,29.84,0
15:07:51,0,0,0,0,0,0,0,0,0,0,0,515,0,0,0,0,0.0000000,0.0000000,0.0000000,0.0000000,3.00,0.0000000,0.0000000,0.0000000,0.1,132.7,0.0,0.0,0.0,898,141,0,0,856.98,9.28,29.85,0
15:07:52,0,0,0,0,0,0,0,0,0,0,0,514,0,0,0,0,0.0000000,0.0000000,0.0000000,0.0000000,3.00,0.0000000,0.0000000,0.0000000,0.0,116.1,0.0,0.0,0.0,897,139,0,0,856.96,9.28,29.88,0
15:07:53,0,0,0,0,0,0,0,0,0,0,0,515,0,0,0,0,0.0000000,0.0000000,0.0000000,0.0000000,3.00,0.0000000,0.0000000,0.0000000,0.1,131.4,0.0,0.0,0.0,897,138,0,0,856.94,9.29,29.89,0
15:07:54,0,0,0,0,0,0,0,0,0,0,0,514,0,0,0,0,0.0000000,0.0000000,0.0000000,0.0000000,3.00,0.0000000,0.0000000,0.0000000,0.1,117.9,0.0,0.0,0.0,897,138,0,0,856.94,9.25,29.91,0
15:07:55,0,0,0,0,0,0,0,0,0,0,0,515,0,0,0,0,0.0000000,0.0000000,0.0000000,0.0000000,3.00,0.0000000,0.0000000,0.0000000,0.1,129.9,0.0,0.0,0.0,898,139,0,0,857.02,9.25,29.93,0
15:07:56,0,0,0,0,0,0,0,0,0,0,0,515,0,0,0,0,0.0000000,0.0000000,0.0000000,0.0000000,3.00,0.0000000,0.0000000,0.0000000,0.0,338.1,0.0,0.0,0.0,897,137,0,0,856.97,9.23,29.94,0
15:07:57,0,0,0,0,0,0,0,0,0,0,0,514,0,0,0,0,0.0000000,0.0000000,0.0000000,0.0000000,3.00,0.0000000,0.0000000,0.0000000,0.1,130.5,0.0,0.0,0.0,897,135,0,0,856.96,9.23,29.95,0
15:07:58,0,0,0,0,0,0,0,0,0,0,0,515,0,0,0,0,0.0000000,0.0000000,0.0000000,0.0000000,3.00,0.0000000,0.0000000,0.0000000,0.1,116.1,0.0,0.0,0.0,897,137,0,0,856.96,9.28,29.96,0
15:07:59,0,0,0,0,0,0,0,0,0,0,0,515,0,0,0,0,0.0000000,0.0000000,0.0000000,0.0000000,3.00,0.0000000,0.0000000,0.0000000,0.1,327.8,0.0,0.0,0.0,897,139,0,0,856.92,9.26,29.97,0
15:08:00,0,0,0,0,0,0,0,0,0,0,0,514,0,0,0,0,0.0000000,0.0000000,0.0000000,0.0000000,3.00,0.0000000,0.0000000,0.0000000,0.1,317.0,0.0,0.0,0.0,897,135,0,0,856.93,9.32,29.97,0
15:08:01,0,0,0,0,0,0,0,0,0,0,0,514,0,0,0,0,0.0000000,0.0000000,0.0000000,0.0000000,3.00,0.0000000,0.0000000,0.0000000,0.2,321.2,0.0,0.0,0.0,897,141,0,0,857.00,9.28,29.99,0
15:08:02,0,0,0,0,0,0,0,0,0,0,0,514,0,0,0,0,0.0000000,0.0000000,0.0000000,0.0000000,3.00,0.0000000,0.0000000,0.0000000,0.1,326.2,0.0,0.0,0.0,898,139,0,0,856.96,9.29,30.00,0
15:08:03,0,0,0,0,0,0,0,0,0,0,0,514,0,0,0,0,0.0000000,0.0000000,0.0000000,0.0000000,3.00,0.0000000,0.0000000,0.0000000,0.0,332.6,0.0,0.0,0.0,897,139,0,0,856.99,9.31,30.00,0
15:08:04,0,0,0,0,0,0,0,0,0,0,0,514,0,0,0,0,0.0000000,0.0000000,0.0000000,0.0000000,3.00,0.0000000,0.0000000,0.0000000,0.0,345.5,0.0,0.0,0.0,897,137,0,0,856.94,9.29,30.01,0
15:08:05,0,0,0,0,0,0,0,0,0,0,0,514,0,0,0,0,0.0000000,0.0000000,0.0000000,0.0000000,3.00,0.0000000,0.0000000,0.0000000,0.1,126.5,0.0,0.0,0.0,897,136,0,0,856.89,9.26,30.02,0
15:08:06,0,0,0,0,0,0,0,0,0,0,0,515,0,0,0,0,0.0000000,0.0000000,0.0000000,0.0000000,3.00,0.0000000,0.0000000,0.0000000,0.0,35.3,0.0,0.0,0.0,897,137,0,0,856.95,9.19,30.01,0
15:08:07,0,0,0,0,0,0,0,0,0,0,0,514,0,0,0,0,0.0000000,0.0000000,0.0000000,0.0000000,3.00,0.0000000,0.0000000,0.0000000,0.0,21.5,0.0,0.0,0.0,897,136,0,0,856.97,9.14,30.00,0
15:08:08,0,0,0,0,0,0,0,0,0,0,0,514,0,0,0,0,0.0000000,0.0000000,0.0000000,0.0000000,3.00,0.0000000,0.0000000,0.0000000,0.0,112.5,0.0,0.0,0.0,898,133,0,0,856.94,9.14,30.02,0
15:08:09,0,0,0,0,0,0,0,0,0,0,0,515,0,0,0,0,0.0000000,0.0000000,0.0000000,0.0000000,3.00,0.0000000,0.0000000,0.0000000,0.1,135.2,0.0,0.0,0.0,897,131,0,0,856.89,9.17,30.03,0
15:08:10,0,0,0,0,0,0,0,0,0,0,0,514,0,0,0,0,0.0000000,0.0000000,0.0000000,0.0000000,3.00,0.0000000,0.0000000,0.0000000,0.1,134.1,0.0,0.0,0.0,897,132,0,0,856.92,9.17,30.03,0
15:08:11,0,0,0,0,0,0,0,0,0,0,0,514,0,0,0,0,0.0000000,0.0000000,0.0000000,0.0000000,3.00,0.0000000,0.0000000,0.0000000,0.1,325.8,0.0,0.0,0.0,898,130,0,0,856.93,9.19,30.04,0
15:08:12,0,0,0,0,0,0,0,0,0,0,0,515,0,0,0,0,0.0000000,0.0000000,0.0000000,0.0000000,3.00,0.0000000,0.0000000,0.0000000,0.2,323.9,0.0,0.0,0.0,898,130,0,0,856.95,9.19,30.05,0
15:08:13,0,0,0,0,0,0,0,0,0,0,0,515,0,0,0,0,0.0000000,0.0000000,0.0000000,0.0000000,3.00,0.0000000,0.0000000,0.0000000,0.1,327.1,0.0,0.0,0.0,897,134,0,0,856.91,9.22,30.06,0
15:08:14,0,0,0,0,0,0,0,0,0,0,0,515,0,0,0,0,0.0000000,0.0000000,0.0000000,0.0000000,3.00,0.0000000,0.0000000,0.0000000,0.0,256.0,0.0,0.0,0.0,897,139,0,0,856.94,9.22,30.07,0
15:08:15,0,0,0,0,0,0,0,0,0,0,0,515,0,0,0,0,0.0000000,0.0000000,0.0000000,0.0000000,3.00,0.0000000,0.0000000,0.0000000,0.1,321.0,0.0,0.0,0.0,897,142,0,0,856.91,9.22,30.09,0
15:08:16,0,0,0,0,0,0,0,0,0,0,0,514,0,0,0,0,0.0000000,0.0000000,0.0000000,0.0000000,3.00,0.0000000,0.0000000,0.0000000,0.1,136.8,0.0,0.0,0.0,897,145,0,0,856.95,9.19,30.10,0
15:08:17,0,0,0,0,0,0,0,0,0,0,0,515,0,0,0,0,0.0000000,0.0000000,0.0000000,0.0000000,3.00,0.0000000,0.0000000,0.0000000,0.1,137.2,0.0,0.0,0.0,897,144,0,0,856.93,9.19,30.10,0
15:08:18,0,0,0,0,0,0,0,0,0,0,0,515,0,0,0,0,0.0000000,0.0000000,0.0000000,0.0000000,3.00,0.0000000,0.0000000,0.0000000,0.1,138.0,0.0,0.0,0.0,897,143,0,0,856.92,9.22,30.12,0
15:08:19,0,0,0,0,0,0,0,0,0,0,0,514,0,0,0,0,0.0000000,0.0000000,0.0000000,0.0000000,3.00,0.0000000,0.0000000,0.0000000,0.0,139.9,0.0,0.0,0.0,898,141,0,0,856.94,9.22,30.12,0
15:08:20,0,0,0,0,0,0,0,0,0,0,0,515,0,0,0,0,0.0000000,0.0000000,0.0000000,0.0000000,3.00,0.0000000,0.0000000,0.0000000,0.0,130.1,0.0,0.0,0.0,897,137,0,0,856.89,9.19,30.14,0
15:08:21,0,0,0,0,0,0,0,0,0,0,0,515,0,0,0,0,0.0000000,0.0000000,0.0000000,0.0000000,3.00,0.0000000,0.0000000,0.0000000,0.1,128.9,0.0,0.0,0.0,897,143,0,0,856.88,9.20,30.13,0
15:08:22,0,0,0,0,0,0,0,0,0,0,0,514,0,0,0,0,0.0000000,0.0000000,0.0000000,0.0000000,3.00,0.0000000,0.0000000,0.0000000,0.1,131.7,0.0,0.0,0.0,897,141,0,0,856.87,9.17,30.13,0
15:08:23,0,0,0,0,0,0,0,0,0,0,0,514,0,0,0,0,0.0000000,0.0000000,0.0000000,0.0000000,3.00,0.0000000,0.0000000,0.0000000,0.3,135.3,0.0,0.0,0.0,897,143,0,0,856.89,9.17,30.14,0
15:08:24,0,0,0,0,0,0,0,0,0,0,0,514,0,0,0,0,0.0000000,0.0000000,0.0000000,0.0000000,3.00,0.0000000,0.0000000,0.0000000,0.2,136.2,0.0,0.0,0.0,897,143,0,0,856.87,9.17,30.15,0
15:08:25,0,0,0,0,0,0,0,0,0,0,0,514,0,0,0,0,0.0000000,0.0000000,0.0000000,0.0000000,3.00,0.0000000,0.0000000,0.0000000,0.3,137.9,0.0,0.0,0.0,897,146,0,0,856.87,9.17,30.16,0
15:08:26,0,0,0,0,0,0,0,0,0,0,0,515,0,0,0,0,0.0000000,0.0000000,0.0000000,0.0000000,3.00,0.0000000,0.0000000,0.0000000,0.2,131.6,0.0,0.0,0.0,897,140,0,0,856.95,9.16,30.17,0
15:08:27,0,0,0,0,0,0,0,0,0,0,0,515,0,0,0,0,0.0000000,0.0000000,0.0000000,0.0000000,3.00,0.0000000,0.0000000,0.0000000,0.2,134.1,0.0,0.0,0.0,898,140,0,0,856.93,9.19,30.18,0
15:08:28,0,0,0,0,0,0,0,0,0,0,0,514,0,0,0,0,0.0000000,0.0000000,0.0000000,0.0000000,3.00,0.0000000,0.0000000,0.0000000,0.1,122.1,0.0,0.0,0.0,897,138,0,0,856.87,9.17,30.19,0
15:08:29,0,0,0,0,0,0,0,0,0,0,0,515,0,0,0,0,0.0000000,0.0000000,0.0000000,0.0000000,3.00,0.0000000,0.0000000,0.0000000,0.2,133.8,0.0,0.0,0.0,897,145,0,0,856.88,9.16,30.20,0
15:08:30,0,0,0,0,0,0,0,0,0,0,0,515,0,0,0,0,0.0000000,0.0000000,0.0000000,0.0000000,3.00,0.0000000,0.0000000,0.0000000,0.0,359.3,0.0,0.0,0.0,898,139,0,0,856.88,9.14,30.20,0
15:08:31,0,0,0,0,0,0,0,0,0,0,0,515,0,0,0,0,0.0000000,0.0000000,0.0000000,0.0000000,3.00,0.0000000,0.0000000,0.0000000,0.1,326.4,0.0,0.0,0.0,897,140,0,0,856.87,9.09,30.17,0
15:08:32,0,0,0,0,0,0,0,0,0,0,0,515,0,0,0,0,0.0000000,0.0000000,0.0000000,0.0000000,3.00,0.0000000,0.0000000,0.0000000,0.0,98.5,0.0,0.0,0.0,897,141,0,0,856.92,9.14,30.16,0
15:08:33,0,0,0,0,0,0,0,0,0,0,0,515,0,0,0,0,0.0000000,0.0000000,0.0000000,0.0000000,3.00,0.0000000,0.0000000,0.0000000,0.1,124.4,0.0,0.0,0.0,897,147,0,0,856.91,9.13,30.17,0
15:08:34,0,0,0,0,0,0,0,0,0,0,0,514,0,0,0,0,0.0000000,0.0000000,0.0000000,0.0000000,3.00,0.0000000,0.0000000,0.0000000,0.0,347.4,0.0,0.0,0.0,897,146,0,0,856.94,9.13,30.19,0
15:08:35,0,0,0,0,0,0,0,0,0,0,0,515,0,0,0,0,0.0000000,0.0000000,0.0000000,0.0000000,3.00,0.0000000,0.0000000,0.0000000,0.0,352.3,0.0,0.0,0.0,897,145,0,0,856.90,9.14,30.21,0
15:08:36,0,0,0,0,0,0,0,0,0,0,0,514,0,0,0,0,0.0000000,0.0000000,0.0000000,0.0000000,3.00,0.0000000,0.0000000,0.0000000,0.0,2.0,0.0,0.0,0.0,897,143,0,0,856.93,9.13,30.22,0
15:08:37,0,0,0,0,0,0,0,0,0,0,0,514,0,0,0,0,0.0000000,0.0000000,0.0000000,0.0000000,3.00,0.0000000,0.0000000,0.0000000,0.1,331.3,0.0,0.0,0.0,897,141,0,0,856.95,9.13,30.22,0
15:08:38,0,0,0,0,0,0,0,0,0,0,0,515,0,0,0,0,0.0000000,0.0000000,0.0000000,0.0000000,3.00,0.0000000,0.0000000,0.0000000,0.3,330.5,0.0,0.0,0.0,897,139,0,0,856.93,9.16,30.21,0
15:08:39,0,0,0,0,0,0,0,0,0,0,0,514,0,0,0,0,0.0000000,0.0000000,0.0000000,0.0000000,3.00,0.0000000,0.0000000,0.0000000,0.1,352.9,0.0,0.0,0.0,897,139,0,0,856.92,9.16,30.23,0
15:08:40,0,0,0,0,0,0,0,0,0,0,0,515,0,0,0,0,0.0000000,0.0000000,0.0000000,0.0000000,3.00,0.0000000,0.0000000,0.0000000,0.1,324.9,0.0,0.0,0.0,897,143,0,0,856.94,9.17,30.25,0
15:08:41,0,0,0,0,0,0,0,0,0,0,0,515,0,0,0,0,0.0000000,0.0000000,0.0000000,0.0000000,3.00,0.0000000,0.0000000,0.0000000,0.1,341.5,0.0,0.0,0.0,897,144,0,0,856.89,9.14,30.26,0
15:08:42,0,0,0,0,0,0,0,0,0,0,0,515,0,0,0,0,0.0000000,0.0000000,0.0000000,0.0000000,3.00,0.0000000,0.0000000,0.0000000,0.1,100.8,0.0,0.0,0.0,897,146,0,0,856.91,9.13,30.27,0
15:08:43,0,0,0,0,0,0,0,0,0,0,0,515,0,0,0,0,0.0000000,0.0000000,0.0000000,0.0000000,3.00,0.0000000,0.0000000,0.0000000,0.1,132.2,0.0,0.0,0.0,897,145,0,0,856.87,9.11,30.19,0
15:08:44,0,0,0,0,0,0,0,0,0,0,0,514,0,0,0,0,0.0000000,0.0000000,0.0000000,0.0000000,3.00,0.0000000,0.0000000,0.0000000,0.1,132.2,0.0,0.0,0.0,897,146,0,0,856.88,9.09,30.26,0
15:08:45,0,0,0,0,0,0,0,0,0,0,0,515,0,0,0,0,0.0000000,0.0000000,0.0000000,0.0000000,3.00,0.0000000,0.0000000,0.0000000,0.1,116.6,0.0,0.0,0.0,897,152,0,0,856.90,9.13,30.33,0
15:08:46,0,0,0,0,0,0,0,0,0,0,0,515,0,0,0,0,0.0000000,0.0000000,0.0000000,0.0000000,3.00,0.0000000,0.0000000,0.0000000,0.1,116.6,0.0,0.0,0.0,897,152,0,0,856.92,9.13,30.30,0
15:08:48,0,0,0,0,0,0,0,0,0,0,0,515,0,0,0,0,0.0000000,0.0000000,0.0000000,0.0000000,3.00,0.0000000,0.0000000,0.0000000,0.1,91.6,0.0,0.0,0.0,897,150,0,0,856.96,9.11,30.36,0
15:08:49,0,0,0,0,0,0,0,0,0,0,0,514,0,0,0,0,0.0000000,0.0000000,0.0000000,0.0000000,3.00,0.0000000,0.0000000,0.0000000,0.2,325.8,0.0,0.0,0.0,897,143,0,0,856.94,9.11,30.37,0
15:08:50,0,0,0,0,0,0,0,0,0,0,0,515,0,0,0,0,0.0000000,0.0000000,0.0000000,0.0000000,3.00,0.0000000,0.0000000,0.0000000,0.2,322.0,0.0,0.0,0.0,897,143,0,0,856.92,9.08,30.38,0
15:08:51,0,0,0,0,0,0,0,0,0,0,0,514,0,0,0,0,0.0000000,0.0000000,0.0000000,0.0000000,3.00,0.0000000,0.0000000,0.0000000,0.2,323.4,0.0,0.0,0.0,897,147,0,0,856.86,9.06,30.36,0
15:08:52,0,0,0,0,0,0,0,0,0,0,0,515,0,0,0,0,0.0000000,0.0000000,0.0000000,0.0000000,3.00,0.0000000,0.0000000,0.0000000,0.0,111.3,0.0,0.0,0.0,897,141,0,0,856.93,9.08,30.38,0
15:08:53,0,0,0,0,0,0,0,0,0,0,0,515,0,0,0,0,0.0000000,0.0000000,0.0000000,0.0000000,3.00,0.0000000,0.0000000,0.0000000,0.1,128.1,0.0,0.0,0.0,897,140,0,0,856.90,9.09,30.40,0
15:08:54,0,0,0,0,0,0,0,0,0,0,0,515,0,0,0,0,0.0000000,0.0000000,0.0000000,0.0000000,3.00,0.0000000,0.0000000,0.0000000,0.1,128.1,0.0,0.0,0.0,897,142,0,0,856.85,9.03,30.30,0
15:08:55,0,0,0,0,0,0,0,0,0,0,0,515,0,0,0,0,0.0000000,0.0000000,0.0000000,0.0000000,3.00,0.0000000,0.0000000,0.0000000,0.3,130.7,0.0,0.0,0.0,897,143,0,0,856.85,9.03,30.37,0
15:08:56,0,0,0,0,0,0,0,0,0,0,0,514,0,0,0,0,0.0000000,0.0000000,0.0000000,0.0000000,3.00,0.0000000,0.0000000,0.0000000,0.2,131.6,0.0,0.0,0.0,897,147,0,0,856.88,9.08,30.39,0
15:08:57,0,0,0,0,0,0,0,0,0,0,0,515,0,0,0,0,0.0000000,0.0000000,0.0000000,0.0000000,3.00,0.0000000,0.0000000,0.0000000,0.2,333.9,0.0,0.0,0.0,897,144,0,0,856.85,9.02,30.43,0
15:08:58,0,0,0,0,0,0,0,0,0,0,0,515,0,0,0,0,0.0000000,0.0000000,0.0000000,0.0000000,3.00,0.0000000,0.0000000,0.0000000,0.1,333.8,0.0,0.0,0.0,897,147,0,0,856.91,9.03,30.42,0
15:08:59,0,0,0,0,0,0,0,0,0,0,0,515,0,0,0,0,0.0000000,0.0000000,0.0000000,0.0000000,3.00,0.0000000,0.0000000,0.0000000,0.1,127.2,0.0,0.0,0.0,898,147,0,0,856.92,9.02,30.44,0
15:09:00,0,0,0,0,0,0,0,0,0,0,0,516,0,0,0,0,0.0000000,0.0000000,0.0000000,0.0000000,3.00,0.0000000,0.0000000,0.0000000,0.0,58.7,0.0,0.0,0.0,897,145,0,0,856.90,9.03,30.45,0
15:09:01,0,0,0,0,0,0,0,0,0,0,0,514,0,0,0,0,0.0000000,0.0000000,0.0000000,0.0000000,3.00,0.0000000,0.0000000,0.0000000,0.2,324.3,0.0,0.0,0.0,897,146,0,0,856.94,9.03,30.47,0
15:09:02,0,0,0,0,0,0,0,0,0,0,0,515,0,0,0,0,0.0000000,0.0000000,0.0000000,0.0000000,3.00,0.0000000,0.0000000,0.0000000,0.1,138.8,0.0,0.0,0.0,898,138,0,0,856.90,8.99,30.49,0
15:09:03,0,0,0,0,0,0,0,0,0,0,0,515,0,0,0,0,0.0000000,0.0000000,0.0000000,0.0000000,3.00,0.0000000,0.0000000,0.0000000,0.0,124.4,0.0,0.0,0.0,897,139,0,0,856.92,8.99,30.50,0
15:09:04,0,0,0,0,0,0,0,0,0,0,0,515,0,0,0,0,0.0000000,0.0000000,0.0000000,0.0000000,3.00,0.0000000,0.0000000,0.0000000,0.2,137.2,0.0,0.0,0.0,897,139,0,0,856.92,9.00,30.52,0
