Time, Motor A Speed, Motor A Dir, Motor B Speed, Motor B Dir, Servo Rail Current Sensor, Servo Pos - Arm L, Servo Pos - Arm R, Servo Pos - End, Servo Pos - Hopper, Servo Pos - Lid, Servo Pos - Extra, Servo Current, LED - Front L, LED - Front R, LED - Back L, LED - Back R, IMU Pitch, IMU Roll, IMU Yaw, Compass Heading, GPS Sats, GPS Latitude, GPS Longitude, GPS Altitude, GPS Speed, GPS Angle, GPS HDOP, GPS VDOP, GPS PDOP, Battery, Wind, Comm Xbee Latency, Comm Arduino Latency, Pressure, Humidity, Temperature, uRADMonitor
9:18:39,0,0,0,0,0,0,0,0,0,0,0,514,0,0,0,0,0.0000000,0.0000000,0.0000000,0.0000000,9.00,38.4133759,-110.7724533,1360.6999512,0.0,28.5,1.0,0.0,0.0,858,164,0,0,861.11,28.47,16.78,# data time:4500,pm2.5:6.445,pm10:5.704,O2:0.000,NO2:0.000,SO2:0.000,NH3:5.536
9:18:40,0,0,0,0,0,0,0,0,0,0,0,514,0,0,0,0,0.0000000,0.0000000,0.0000000,0.0000000,9.00,38.4133759,-110.7724533,1360.6999512,0.0,28.5,1.0,0.0,0.0,857,163,0,0,861.06,28.46,16.80,# data time:4500,pm2.5:6.445,pm10:5.704,O2:0.000,NO2:0.000,SO2:0.000,NH3:5.536
9:18:41,0,0,0,0,0,0,0,0,0,0,0,514,0,0,0,0,0.0000000,0.0000000,0.0000000,0.0000000,9.00,38.4133759,-110.7724533,1360.6999512,0.0,28.5,1.0,0.0,0.0,858,167,0,0,861.10,28.44,16.80,# data time:4500,pm2.5:6.445,pm10:5.704,O2:0.000,NO2:0.000,SO2:0.000,NH3:5.536
9:18:42,0,0,0,0,0,0,0,0,0,0,0,514,0,0,0,0,0.0000000,0.0000000,0.0000000,0.0000000,9.00,38.4133759,-110.7724533,1360.6999512,0.0,28.5,1.0,0.0,0.0,858,168,0,0,861.08,28.41,16.83,# data time:4500,pm2.5:6.445,pm10:5.704,O2:0.000,NO2:0.000,SO2:0.000,NH3:5.536
9:18:43,0,0,0,0,0,0,0,0,0,0,0,514,0,0,0,0,0.0000000,0.0000000,0.0000000,0.0000000,9.00,38.4133759,-110.7724533,1360.6999512,0.0,28.5,1.0,0.0,0.0,858,170,0,0,861.07,28.41,16.84,# data time:4500,pm2.5:6.445,pm10:5.704,O2:0.000,NO2:0.000,SO2:0.000,NH3:5.536
9:18:44,0,0,0,0,0,0,0,0,0,0,0,514,0,0,0,0,0.0000000,0.0000000,0.0000000,0.0000000,9.00,38.4133759,-110.7724533,1360.6999512,0.0,28.5,1.0,0.0,0.0,858,162,0,0,861.05,28.37,16.86,# data time:4510,pm2.5:6.445,pm10:5.704,O2:0.000,NO2:0.000,SO2:0.000,NH3:5.536
9:18:45,0,0,0,0,0,0,0,0,0,0,0,514,0,0,0,0,0.0000000,0.0000000,0.0000000,0.0000000,9.00,38.4133759,-110.7724533,1360.6999512,0.0,28.5,1.0,0.0,0.0,858,160,0,0,861.07,28.37,16.89,# data time:4510,pm2.5:6.445,pm10:5.704,O2:0.000,NO2:0.000,SO2:0.000,NH3:5.536
9:18:46,0,0,0,0,0,0,0,0,0,0,0,514,0,0,0,0,0.0000000,0.0000000,0.0000000,0.0000000,9.00,38.4133759,-110.7724533,1360.6999512,0.0,28.5,1.0,0.0,0.0,857,154,0,0,861.10,28.34,16.91,# data time:4510,pm2.5:6.445,pm10:5.704,O2:0.000,NO2:0.000,SO2:0.000,NH3:5.536
9:18:47,0,0,0,0,0,0,0,0,0,0,0,514,0,0,0,0,0.0000000,0.0000000,0.0000000,0.0000000,9.00,38.4133759,-110.7724533,1360.6999512,0.0,28.5,1.0,0.0,0.0,857,153,0,0,861.05,28.29,16.93,# data time:4510,pm2.5:6.445,pm10:5.704,O2:0.000,NO2:0.000,SO2:0.000,NH3:5.536
9:18:48,0,0,0,0,0,0,0,0,0,0,0,514,0,0,0,0,0.0000000,0.0000000,0.0000000,0.0000000,9.00,38.4133759,-110.7724533,1360.6999512,0.0,28.5,1.0,0.0,0.0,858,166,0,0,861.09,28.29,16.94,# data time:4510,pm2.5:6.445,pm10:5.704,O2:0.000,NO2:0.000,SO2:0.000,NH3:5.536
9:18:49,0,0,0,0,0,0,0,0,0,0,0,514,0,0,0,0,0.0000000,0.0000000,0.0000000,0.0000000,9.00,38.4133759,-110.7724533,1360.6999512,0.0,28.5,1.0,0.0,0.0,858,171,0,0,861.05,28.24,16.95,# data time:4510,pm2.5:6.445,pm10:5.704,O2:0.000,NO2:0.000,SO2:0.000,NH3:5.536
9:18:50,0,0,0,0,0,0,0,0,0,0,0,514,0,0,0,0,0.0000000,0.0000000,0.0000000,0.0000000,9.00,38.4133759,-110.7724533,1360.6999512,0.0,28.5,1.0,0.0,0.0,858,172,0,0,861.07,28.20,16.96,# data time:4510,pm2.5:6.445,pm10:5.704,O2:0.000,NO2:0.000,SO2:0.000,NH3:5.536
9:18:51,0,0,0,0,0,0,0,0,0,0,0,514,0,0,0,0,0.0000000,0.0000000,0.0000000,0.0000000,9.00,38.4133759,-110.7724533,1360.6999512,0.0,28.5,1.0,0.0,0.0,858,169,0,0,861.03,28.21,16.96,# data time:4510,pm2.5:6.445,pm10:5.704,O2:0.000,NO2:0.000,SO2:0.000,NH3:5.536
9:18:52,0,0,0,0,0,0,0,0,0,0,0,515,0,0,0,0,0.0000000,0.0000000,0.0000000,0.0000000,9.00,38.4133759,-110.7724533,1360.6999512,0.0,28.5,1.0,0.0,0.0,857,179,0,0,860.97,28.17,16.96,# data time:4510,pm2.5:6.445,pm10:5.704,O2:0.000,NO2:0.000,SO2:0.000,NH3:5.536
9:18:53,0,0,0,0,0,0,0,0,0,0,0,515,0,0,0,0,0.0000000,0.0000000,0.0000000,0.0000000,9.00,38.4133759,-110.7724533,1360.6999512,0.1,28.5,1.0,0.0,0.0,858,179,0,0,861.04,28.12,16.96,# data time:4510,pm2.5:6.445,pm10:5.704,O2:0.000,NO2:0.000,SO2:0.000,NH3:5.536
9:18:54,0,0,0,0,0,0,0,0,0,0,0,514,0,0,0,0,0.0000000,0.0000000,0.0000000,0.0000000,9.00,38.4133759,-110.7724533,1360.6999512,0.1,28.5,1.0,0.0,0.0,857,182,0,0,860.99,28.09,16.87,# data time:4520,pm2.5:6.445,pm10:5.704,O2:0.000,NO2:0.000,SO2:0.000,NH3:5.536
9:18:55,0,0,0,0,0,0,0,0,0,0,0,514,0,0,0,0,0.0000000,0.0000000,0.0000000,0.0000000,9.00,38.4133759,-110.7724533,1360.6999512,0.0,28.5,1.0,0.0,0.0,858,192,0,0,861.06,28.09,16.96,# data time:4520,pm2.5:6.445,pm10:5.704,O2:0.000,NO2:0.000,SO2:0.000,NH3:5.536
9:18:56,0,0,0,0,0,0,0,0,0,0,0,515,0,0,0,0,0.0000000,0.0000000,0.0000000,0.0000000,9.00,38.4133759,-110.7724533,1360.6999512,0.0,28.5,1.0,0.0,0.0,857,193,0,0,861.03,28.08,16.95,# data time:4520,pm2.5:6.445,pm10:5.704,O2:0.000,NO2:0.000,SO2:0.000,NH3:5.536
9:18:57,0,0,0,0,0,0,0,0,0,0,0,515,0,0,0,0,0.0000000,0.0000000,0.0000000,0.0000000,9.00,38.4133759,-110.7724533,1360.6999512,0.0,28.5,1.0,0.0,0.0,858,186,0,0,861.04,28.09,16.96,# data time:4520,pm2.5:6.445,pm10:5.704,O2:0.000,NO2:0.000,SO2:0.000,NH3:5.536
9:18:58,0,0,0,0,0,0,0,0,0,0,0,513,0,0,0,0,0.0000000,0.0000000,0.0000000,0.0000000,9.00,38.4133759,-110.7724533,1360.6999512,0.0,28.5,1.0,0.0,0.0,858,178,0,0,861.07,28.03,16.97,# data time:4520,pm2.5:6.445,pm10:5.704,O2:0.000,NO2:0.000,SO2:0.000,NH3:5.536
9:18:59,0,0,0,0,0,0,0,0,0,0,0,514,0,0,0,0,0.0000000,0.0000000,0.0000000,0.0000000,9.00,38.4133759,-110.7724533,1360.6999512,0.0,28.5,1.0,0.0,0.0,858,170,0,0,861.08,28.05,16.99,# data time:4520,pm2.5:6.445,pm10:5.704,O2:0.000,NO2:0.000,SO2:0.000,NH3:5.536
9:19:00,0,0,0,0,0,0,0,0,0,0,0,514,0,0,0,0,0.0000000,0.0000000,0.0000000,0.0000000,9.00,38.4133759,-110.7724533,1360.6999512,0.0,28.5,1.0,0.0,0.0,857,169,0,0,861.06,28.05,17.01,# data time:4520,pm2.5:6.445,pm10:5.704,O2:0.000,NO2:0.000,SO2:0.000,NH3:5.536
9:19:01,0,0,0,0,0,0,0,0,0,0,0,514,0,0,0,0,0.0000000,0.0000000,0.0000000,0.0000000,9.00,38.4133759,-110.7724533,1360.6999512,0.0,28.5,1.0,0.0,0.0,858,165,0,0,861.09,28.05,17.02,# data time:4520,pm2.5:6.445,pm10:5.704,O2:0.000,NO2:0.000,SO2:0.000,NH3:5.536
9:19:02,0,0,0,0,0,0,0,0,0,0,0,514,0,0,0,0,0.0000000,0.0000000,0.0000000,0.0000000,9.00,38.4133759,-110.7724533,1360.6999512,0.0,28.5,1.0,0.0,0.0,858,164,0,0,861.02,28.03,17.04,# data time:4520,pm2.5:6.445,pm10:5.704,O2:0.000,NO2:0.000,SO2:0.000,NH3:5.536
9:19:03,0,0,0,0,0,0,0,0,0,0,0,514,0,0,0,0,0.0000000,0.0000000,0.0000000,0.0000000,9.00,38.4133759,-110.7724533,1360.6999512,0.0,28.5,1.0,0.0,0.0,858,171,0,0,861.07,27.99,17.02,# data time:4520,pm2.5:6.445,pm10:5.704,O2:0.000,NO2:0.000,SO2:0.000,NH3:5.536
9:19:04,0,0,0,0,0,0,0,0,0,0,0,514,0,0,0,0,0.0000000,0.0000000,0.0000000,0.0000000,9.00,38.4133759,-110.7724533,1360.6999512,0.0,28.5,1.0,0.0,0.0,858,171,0,0,861.01,28.02,16.90,# data time:4530,pm2.5:6.445,pm10:5.704,O2:0.000,NO2:0.000,SO2:0.000,NH3:5.536
9:19:05,0,0,0,0,0,0,0,0,0,0,0,514,0,0,0,0,0.0000000,0.0000000,0.0000000,0.0000000,9.00,38.4133759,-110.7724533,1360.6999512,0.0,28.5,1.0,0.0,0.0,857,168,0,0,860.98,27.99,17.03,# data time:4530,pm2.5:6.445,pm10:5.704,O2:0.000,NO2:0.000,SO2:0.000,NH3:5.536
9:19:06,0,0,0,0,0,0,0,0,0,0,0,514,0,0,0,0,0.0000000,0.0000000,0.0000000,0.0000000,9.00,38.4133759,-110.7724533,1360.6999512,0.0,28.5,1.0,0.0,0.0,857,178,0,0,861.03,27.99,17.03,# data time:4530,pm2.5:6.445,pm10:5.704,O2:0.000,NO2:0.000,SO2:0.000,NH3:5.536
9:19:07,0,0,0,0,0,0,0,0,0,0,0,514,0,0,0,0,0.0000000,0.0000000,0.0000000,0.0000000,9.00,38.4133759,-110.7724533,1360.6999512,0.0,28.5,1.0,0.0,0.0,858,175,0,0,861.00,27.94,17.03,# data time:4530,pm2.5:6.445,pm10:5.704,O2:0.000,NO2:0.000,SO2:0.000,NH3:5.536
9:19:08,0,0,0,0,0,0,0,0,0,0,0,515,0,0,0,0,0.0000000,0.0000000,0.0000000,0.0000000,9.00,38.4133759,-110.7724533,1360.6999512,0.0,28.5,1.0,0.0,0.0,857,171,0,0,861.06,27.95,17.04,# data time:4530,pm2.5:6.445,pm10:5.704,O2:0.000,NO2:0.000,SO2:0.000,NH3:5.536
9:19:09,0,0,0,0,0,0,0,0,0,0,0,514,0,0,0,0,0.0000000,0.0000000,0.0000000,0.0000000,9.00,38.4133759,-110.7724533,1360.6999512,0.0,28.5,1.0,0.0,0.0,858,170,0,0,861.08,27.95,17.05,# data time:4530,pm2.5:6.445,pm10:5.704,O2:0.000,NO2:0.000,SO2:0.000,NH3:5.536
9:19:10,0,0,0,0,0,0,0,0,0,0,0,515,0,0,0,0,0.0000000,0.0000000,0.0000000,0.0000000,9.00,38.4133759,-110.7724533,1360.6999512,0.0,28.5,1.0,0.0,0.0,857,176,0,0,861.10,27.89,17.05,# data time:4530,pm2.5:6.445,pm10:5.704,O2:0.000,NO2:0.000,SO2:0.000,NH3:5.536
9:19:11,0,0,0,0,0,0,0,0,0,0,0,514,0,0,0,0,0.0000000,0.0000000,0.0000000,0.0000000,9.00,38.4133759,-110.7724533,1360.6999512,0.0,28.5,1.0,0.0,0.0,857,171,0,0,861.02,27.91,17.06,# data time:4530,pm2.5:6.445,pm10:5.704,O2:0.000,NO2:0.000,SO2:0.000,NH3:5.536
9:19:12,0,0,0,0,0,0,0,0,0,0,0,515,0,0,0,0,0.0000000,0.0000000,0.0000000,0.0000000,9.00,38.4133759,-110.7724533,1360.6999512,0.0,28.5,1.0,0.0,0.0,858,178,0,0,861.04,27.89,17.04,# data time:4530,pm2.5:6.445,pm10:5.704,O2:0.000,NO2:0.000,SO2:0.000,NH3:5.536
9:19:13,0,0,0,0,0,0,0,0,0,0,0,514,0,0,0,0,0.0000000,0.0000000,0.0000000,0.0000000,9.00,38.4133759,-110.7724533,1360.6999512,0.0,28.5,1.0,0.0,0.0,858,185,0,0,861.06,27.91,17.04,# data time:4530,pm2.5:6.445,pm10:5.704,O2:0.000,NO2:0.000,SO2:0.000,NH3:5.536
9:19:14,0,0,0,0,0,0,0,0,0,0,0,515,0,0,0,0,0.0000000,0.0000000,0.0000000,0.0000000,9.00,38.4133759,-110.7724533,1360.6999512,0.0,28.5,1.0,0.0,0.0,857,176,0,0,861.06,27.89,16.96,# data time:4540,pm2.5:6.445,pm10:5.704,O2:0.000,NO2:0.000,SO2:0.000,NH3:5.536
9:19:15,0,0,0,0,0,0,0,0,0,0,0,515,0,0,0,0,0.0000000,0.0000000,0.0000000,0.0000000,9.00,38.4133759,-110.7724533,1360.6999512,0.0,28.5,1.0,0.0,0.0,858,168,0,0,861.07,27.88,17.07,# data time:4540,pm2.5:6.445,pm10:5.704,O2:0.000,NO2:0.000,SO2:0.000,NH3:5.536
9:19:16,0,0,0,0,0,0,0,0,0,0,0,514,0,0,0,0,0.0000000,0.0000000,0.0000000,0.0000000,9.00,38.4133759,-110.7724533,1360.6999512,0.0,28.5,1.0,0.0,0.0,857,167,0,0,861.09,27.88,17.09,# data time:4540,pm2.5:6.445,pm10:5.704,O2:0.000,NO2:0.000,SO2:0.000,NH3:5.536
9:19:17,0,0,0,0,0,0,0,0,0,0,0,514,0,0,0,0,0.0000000,0.0000000,0.0000000,0.0000000,9.00,38.4133759,-110.7724533,1360.6999512,0.0,28.5,1.0,0.0,0.0,858,172,0,0,861.03,27.86,17.08,# data time:4540,pm2.5:6.445,pm10:5.704,O2:0.000,NO2:0.000,SO2:0.000,NH3:5.536
9:19:18,0,0,0,0,0,0,0,0,0,0,0,514,0,0,0,0,0.0000000,0.0000000,0.0000000,0.0000000,9.00,38.4133759,-110.7724533,1360.6999512,0.0,28.5,1.0,0.0,0.0,857,173,0,0,861.08,27.88,17.09,# data time:4540,pm2.5:6.445,pm10:5.704,O2:0.000,NO2:0.000,SO2:0.000,NH3:5.536
9:19:19,0,0,0,0,0,0,0,0,0,0,0,514,0,0,0,0,0.0000000,0.0000000,0.0000000,0.0000000,9.00,38.4133759,-110.7724533,1360.6999512,0.0,28.5,1.0,0.0,0.0,857,178,0,0,861.05,27.88,17.07,# data time:4540,pm2.5:6.445,pm10:5.704,O2:0.000,NO2:0.000,SO2:0.000,NH3:5.536
9:19:20,0,0,0,0,0,0,0,0,0,0,0,516,0,0,0,0,0.0000000,0.0000000,0.0000000,0.0000000,9.00,38.4133759,-110.7724533,1360.6999512,0.0,28.5,1.0,0.0,0.0,857,179,0,0,861.06,27.89,17.06,# data time:4540,pm2.5:6.445,pm10:5.704,O2:0.000,NO2:0.000,SO2:0.000,NH3:5.536
9:19:21,0,0,0,0,0,0,0,0,0,0,0,514,0,0,0,0,0.0000000,0.0000000,0.0000000,0.0000000,9.00,38.4133759,-110.7724533,1360.6999512,0.0,28.5,1.0,0.0,0.0,858,180,0,0,861.09,27.89,17.08,# data time:4540,pm2.5:6.445,pm10:5.704,O2:0.000,NO2:0.000,SO2:0.000,NH3:5.536
9:19:22,0,0,0,0,0,0,0,0,0,0,0,514,0,0,0,0,0.0000000,0.0000000,0.0000000,0.0000000,9.00,38.4133759,-110.7724533,1360.6999512,0.0,28.5,1.0,0.0,0.0,857,173,0,0,861.05,27.91,17.08,# data time:4540,pm2.5:6.445,pm10:5.704,O2:0.000,NO2:0.000,SO2:0.000,NH3:5.536
9:19:23,0,0,0,0,0,0,0,0,0,0,0,513,0,0,0,0,0.0000000,0.0000000,0.0000000,0.0000000,9.00,38.4133759,-110.7724533,1360.6999512,0.0,28.5,1.0,0.0,0.0,858,167,0,0,861.09,27.88,17.10,# data time:4550,pm2.5:6.445,pm10:5.704,O2:0.000,NO2:0.000,SO2:0.000,NH3:5.536
9:19:25,0,0,0,0,0,0,0,0,0,0,0,514,0,0,0,0,0.0000000,0.0000000,0.0000000,0.0000000,9.00,38.4133759,-110.7724533,1360.6999512,0.0,28.5,1.0,0.0,0.0,858,162,0,0,861.06,27.86,17.01,# data time:4550,pm2.5:6.445,pm10:5.704,O2:0.000,NO2:0.000,SO2:0.000,NH3:5.536
9:19:26,0,0,0,0,0,0,0,0,0,0,0,515,0,0,0,0,0.0000000,0.0000000,0.0000000,0.0000000,9.00,38.4133759,-110.7724533,1360.6999512,0.0,28.5,1.0,0.0,0.0,857,162,0,0,861.01,27.86,17.01,# data time:4550,pm2.5:6.445,pm10:5.704,O2:0.000,NO2:0.000,SO2:0.000,NH3:5.536
9:19:27,0,0,0,0,0,0,0,0,0,0,0,515,0,0,0,0,0.0000000,0.0000000,0.0000000,0.0000000,9.00,38.4133759,-110.7724533,1360.6999512,0.0,28.5,1.0,0.0,0.0,858,173,0,0,861.06,27.83,17.07,# data time:4550,pm2.5:6.445,pm10:5.704,O2:0.000,NO2:0.000,SO2:0.000,NH3:5.536
9:19:28,0,0,0,0,0,0,0,0,0,0,0,514,0,0,0,0,0.0000000,0.0000000,0.0000000,0.0000000,9.00,38.4133759,-110.7724533,1360.6999512,0.0,28.5,1.0,0.0,0.0,858,169,0,0,861.01,27.83,17.10,# data time:4550,pm2.5:6.445,pm10:5.704,O2:0.000,NO2:0.000,SO2:0.000,NH3:5.536
9:19:29,0,0,0,0,0,0,0,0,0,0,0,514,0,0,0,0,0.0000000,0.0000000,0.0000000,0.0000000,9.00,38.4133759,-110.7724533,1360.5999756,0.0,28.5,1.0,0.0,0.0,858,183,0,0,861.00,27.85,17.09,# data time:4550,pm2.5:6.445,pm10:5.704,O2:0.000,NO2:0.000,SO2:0.000,NH3:5.536
9:19:30,0,0,0,0,0,0,0,0,0,0,0,514,0,0,0,0,0.0000000,0.0000000,0.0000000,0.0000000,9.00,38.4133759,-110.7724533,1360.5999756,0.0,28.5,1.0,0.0,0.0,858,197,0,0,861.06,27.85,17.07,# data time:4550,pm2.5:6.445,pm10:5.704,O2:0.000,NO2:0.000,SO2:0.000,NH3:5.536
9:19:31,0,0,0,0,0,0,0,0,0,0,0,514,0,0,0,0,0.0000000,0.0000000,0.0000000,0.0000000,9.00,38.4133759,-110.7724533,1360.5999756,0.0,28.5,1.0,0.0,0.0,858,183,0,0,861.05,27.85,17.07,# data time:4550,pm2.5:6.445,pm10:5.704,O2:0.000,NO2:0.000,SO2:0.000,NH3:5.536
9:19:32,0,0,0,0,0,0,0,0,0,0,0,514,0,0,0,0,0.0000000,0.0000000,0.0000000,0.0000000,9.00,38.4133759,-110.7724533,1360.5999756,0.0,28.5,1.0,0.0,0.0,857,187,0,0,860.99,27.86,17.08,# data time:4550,pm2.5:6.445,pm10:5.704,O2:0.000,NO2:0.000,SO2:0.000,NH3:5.536
9:19:33,0,0,0,0,0,0,0,0,0,0,0,514,0,0,0,0,0.0000000,0.0000000,0.0000000,0.0000000,9.00,38.4133759,-110.7724533,1360.5999756,0.0,28.5,1.0,0.0,0.0,858,195,0,0,860.98,27.85,17.07,# data time:4550,pm2.5:6.445,pm10:5.704,O2:0.000,NO2:0.000,SO2:0.000,NH3:5.536
9:19:34,0,0,0,0,0,0,0,0,0,0,0,515,0,0,0,0,0.0000000,0.0000000,0.0000000,0.0000000,9.00,38.4133759,-110.7724533,1360.5999756,0.0,28.5,1.0,0.0,0.0,858,195,0,0,860.99,27.85,16.95,# data time:4560,pm2.5:6.445,pm10:5.704,O2:0.000,NO2:0.000,SO2:0.000,NH3:5.536
9:19:35,0,0,0,0,0,0,0,0,0,0,0,514,0,0,0,0,0.0000000,0.0000000,0.0000000,0.0000000,9.00,38.4133759,-110.7724533,1360.5999756,0.0,28.5,1.0,0.0,0.0,858,187,0,0,861.07,27.88,17.04,# data time:4560,pm2.5:6.445,pm10:5.704,O2:0.000,NO2:0.000,SO2:0.000,NH3:5.536
9:19:36,0,0,0,0,0,0,0,0,0,0,0,514,0,0,0,0,0.0000000,0.0000000,0.0000000,0.0000000,9.00,38.4133759,-110.7724533,1360.5999756,0.0,28.5,1.0,0.0,0.0,858,177,0,0,861.01,27.88,17.06,# data time:4560,pm2.5:6.445,pm10:5.704,O2:0.000,NO2:0.000,SO2:0.000,NH3:5.536
9:19:37,0,0,0,0,0,0,0,0,0,0,0,514,0,0,0,0,0.0000000,0.0000000,0.0000000,0.0000000,9.00,38.4133759,-110.7724533,1360.5999756,0.0,28.5,1.0,0.0,0.0,858,185,0,0,861.06,27.88,17.06,# data time:4560,pm2.5:6.445,pm10:5.704,O2:0.000,NO2:0.000,SO2:0.000,NH3:5.536
9:19:38,0,0,0,0,0,0,0,0,0,0,0,514,0,0,0,0,0.0000000,0.0000000,0.0000000,0.0000000,9.00,38.4133759,-110.7724533,1360.5999756,0.0,28.5,1.0,0.0,0.0,858,184,0,0,861.06,27.85,17.08,# data time:4560,pm2.5:6.445,pm10:5.704,O2:0.000,NO2:0.000,SO2:0.000,NH3:5.536
9:19:39,0,0,0,0,0,0,0,0,0,0,0,514,0,0,0,0,0.0000000,0.0000000,0.0000000,0.0000000,9.00,38.4133759,-110.7724533,1360.5999756,0.0,28.5,1.0,0.0,0.0,857,181,0,0,861.07,27.85,17.09,# data time:4560,pm2.5:6.445,pm10:5.704,O2:0.000,NO2:0.000,SO2:0.000,NH3:5.536
9:19:40,0,0,0,0,0,0,0,0,0,0,0,514,0,0,0,0,0.0000000,0.0000000,0.0000000,0.0000000,9.00,38.4133759,-110.7724533,1360.5999756,0.0,28.5,1.0,0.0,0.0,858,181,0,0,861.07,27.83,17.09,# data time:4560,pm2.5:6.445,pm10:5.704,O2:0.000,NO2:0.000,SO2:0.000,NH3:5.536
9:19:41,0,0,0,0,0,0,0,0,0,0,0,514,0,0,0,0,0.0000000,0.0000000,0.0000000,0.0000000,9.00,38.4133759,-110.7724533,1360.5999756,0.0,28.5,1.0,0.0,0.0,857,178,0,0,861.08,27.83,17.10,# data time:4560,pm2.5:6.445,pm10:5.704,O2:0.000,NO2:0.000,SO2:0.000,NH3:5.536
9:19:42,0,0,0,0,0,0,0,0,0,0,0,514,0,0,0,0,0.0000000,0.0000000,0.0000000,0.0000000,9.00,38.4133759,-110.7724533,1360.5999756,0.0,28.5,1.0,0.0,0.0,857,172,0,0,861.05,27.82,17.11,# data time:4560,pm2.5:6.445,pm10:5.704,O2:0.000,NO2:0.000,SO2:0.000,NH3:5.536
9:19:43,0,0,0,0,0,0,0,0,0,0,0,514,0,0,0,0,0.0000000,0.0000000,0.0000000,0.0000000,9.00,38.4133759,-110.7724533,1360.5999756,0.0,28.5,1.0,0.0,0.0,858,161,0,0,861.07,27.79,17.13,# data time:4560,pm2.5:6.445,pm10:5.704,O2:0.000,NO2:0.000,SO2:0.000,NH3:5.536
9:19:44,0,0,0,0,0,0,0,0,0,0,0,514,0,0,0,0,0.0000000,0.0000000,0.0000000,0.0000000,9.00,38.4133759,-110.7724533,1360.5999756,0.1,28.5,1.0,0.0,0.0,857,166,0,0,861.11,27.80,17.13,# data time:4570,pm2.5:6.445,pm10:5.704,O2:0.000,NO2:0.000,SO2:0.000,NH3:5.536
9:19:45,0,0,0,0,0,0,0,0,0,0,0,515,0,0,0,0,0.0000000,0.0000000,0.0000000,0.0000000,9.00,38.4133759,-110.7724533,1360.5999756,0.0,28.5,1.0,0.0,0.0,858,165,0,0,861.09,27.79,17.12,# data time:4570,pm2.5:6.445,pm10:5.704,O2:0.000,NO2:0.000,SO2:0.000,NH3:5.536
9:19:46,0,0,0,0,0,0,0,0,0,0,0,514,0,0,0,0,0.0000000,0.0000000,0.0000000,0.0000000,9.00,38.4133759,-110.7724533,1360.5999756,0.0,28.5,1.0,0.0,0.0,858,174,0,0,861.08,27.79,17.10,# data time:4570,pm2.5:6.445,pm10:5.704,O2:0.000,NO2:0.000,SO2:0.000,NH3:5.536
9:19:47,0,0,0,0,0,0,0,0,0,0,0,514,0,0,0,0,0.0000000,0.0000000,0.0000000,0.0000000,9.00,38.4133759,-110.7724533,1360.5999756,0.0,28.5,1.0,0.0,0.0,858,173,0,0,861.12,27.79,17.08,# data time:4570,pm2.5:6.445,pm10:5.704,O2:0.000,NO2:0.000,SO2:0.000,NH3:5.536
9:19:48,0,0,0,0,0,0,0,0,0,0,0,515,0,0,0,0,0.0000000,0.0000000,0.0000000,0.0000000,9.00,38.4133759,-110.7724533,1360.5999756,0.0,28.5,1.0,0.0,0.0,858,173,0,0,861.07,27.79,17.08,# data time:4570,pm2.5:6.445,pm10:5.704,O2:0.000,NO2:0.000,SO2:0.000,NH3:5.536
9:19:49,0,0,0,0,0,0,0,0,0,0,0,515,0,0,0,0,0.0000000,0.0000000,0.0000000,0.0000000,9.00,38.4133759,-110.7724533,1360.5999756,0.0,28.5,1.0,0.0,0.0,857,184,0,0,861.06,27.77,17.05,# data time:4570,pm2.5:6.445,pm10:5.704,O2:0.000,NO2:0.000,SO2:0.000,NH3:5.536
9:19:50,0,0,0,0,0,0,0,0,0,0,0,514,0,0,0,0,0.0000000,0.0000000,0.0000000,0.0000000,9.00,38.4133759,-110.7724533,1360.5999756,0.0,28.5,1.0,0.0,0.0,857,183,0,0,861.09,27.80,17.07,# data time:4570,pm2.5:6.445,pm10:5.704,O2:0.000,NO2:0.000,SO2:0.000,NH3:5.536
9:19:51,0,0,0,0,0,0,0,0,0,0,0,515,0,0,0,0,0.0000000,0.0000000,0.0000000,0.0000000,9.00,38.4133759,-110.7724533,1360.5999756,0.0,28.5,1.0,0.0,0.0,857,170,0,0,861.07,27.80,17.08,# data time:4570,pm2.5:6.445,pm10:5.704,O2:0.000,NO2:0.000,SO2:0.000,NH3:5.536
9:19:52,0,0,0,0,0,0,0,0,0,0,0,515,0,0,0,0,0.0000000,0.0000000,0.0000000,0.0000000,9.00,38.4133759,-110.7724533,1360.5999756,0.0,28.5,1.0,0.0,0.0,857,170,0,0,861.08,27.80,17.10,# data time:4570,pm2.5:6.445,pm10:5.704,O2:0.000,NO2:0.000,SO2:0.000,NH3:5.536
9:19:53,0,0,0,0,0,0,0,0,0,0,0,514,0,0,0,0,0.0000000,0.0000000,0.0000000,0.0000000,9.00,38.4133759,-110.7724533,1360.5999756,0.0,28.5,1.0,0.0,0.0,857,175,0,0,861.09,27.80,17.11,# data time:4570,pm2.5:6.445,pm10:5.704,O2:0.000,NO2:0.000,SO2:0.000,NH3:5.536
9:19:54,0,0,0,0,0,0,0,0,0,0,0,514,0,0,0,0,0.0000000,0.0000000,0.0000000,0.0000000,9.00,38.4133759,-110.7724533,1360.5999756,0.0,28.5,1.0,0.0,0.0,857,172,0,0,861.06,27.82,17.12,# data time:4580,pm2.5:6.445,pm10:5.704,O2:0.000,NO2:0.000,SO2:0.000,NH3:5.536
9:19:55,0,0,0,0,0,0,0,0,0,0,0,514,0,0,0,0,0.0000000,0.0000000,0.0000000,0.0000000,9.00,38.4133759,-110.7724533,1360.5999756,0.0,28.5,1.0,0.0,0.0,858,171,0,0,861.03,27.79,17.13,# data time:4580,pm2.5:6.445,pm10:5.704,O2:0.000,NO2:0.000,SO2:0.000,NH3:5.536
9:19:56,0,0,0,0,0,0,0,0,0,0,0,514,0,0,0,0,0.0000000,0.0000000,0.0000000,0.0000000,9.00,38.4133759,-110.7724533,1360.5999756,0.0,28.5,1.0,0.0,0.0,857,170,0,0,861.06,27.79,17.15,# data time:4580,pm2.5:6.445,pm10:5.704,O2:0.000,NO2:0.000,SO2:0.000,NH3:5.536
9:19:57,0,0,0,0,0,0,0,0,0,0,0,514,0,0,0,0,0.0000000,0.0000000,0.0000000,0.0000000,9.00,38.4133759,-110.7724533,1360.5999756,0.0,28.5,1.0,0.0,0.0,857,170,0,0,861.08,27.73,17.16,# data time:4580,pm2.5:6.445,pm10:5.704,O2:0.000,NO2:0.000,SO2:0.000,NH3:5.536
9:19:58,0,0,0,0,0,0,0,0,0,0,0,515,0,0,0,0,0.0000000,0.0000000,0.0000000,0.0000000,9.00,38.4133759,-110.7724533,1360.5999756,0.0,28.5,1.0,0.0,0.0,857,173,0,0,861.06,27.71,17.17,# data time:4580,pm2.5:6.445,pm10:5.704,O2:0.000,NO2:0.000,SO2:0.000,NH3:5.536
9:19:59,0,0,0,0,0,0,0,0,0,0,0,514,0,0,0,0,0.0000000,0.0000000,0.0000000,0.0000000,9.00,38.4133759,-110.7724533,1360.5999756,0.0,28.5,1.0,0.0,0.0,858,168,0,0,861.04,27.68,17.18,# data time:4580,pm2.5:6.445,pm10:5.704,O2:0.000,NO2:0.000,SO2:0.000,NH3:5.536
9:20:00,0,0,0,0,0,0,0,0,0,0,0,514,0,0,0,0,0.0000000,0.0000000,0.0000000,0.0000000,9.00,38.4133759,-110.7724533,1360.5999756,0.0,28.5,1.0,0.0,0.0,858,169,0,0,861.08,27.73,17.20,# data time:4580,pm2.5:6.445,pm10:5.704,O2:0.000,NO2:0.000,SO2:0.000,NH3:5.536
9:20:01,0,0,0,0,0,0,0,0,0,0,0,514,0,0,0,0,0.0000000,0.0000000,0.0000000,0.0000000,9.00,38.4133759,-110.7724533,1360.5999756,0.0,28.5,1.0,0.0,0.0,858,162,0,0,861.08,27.68,17.21,# data time:4580,pm2.5:6.445,pm10:5.704,O2:0.000,NO2:0.000,SO2:0.000,NH3:5.536
9:20:02,0,0,0,0,0,0,0,0,0,0,0,515,0,0,0,0,0.0000000,0.0000000,0.0000000,0.0000000,9.00,38.4133759,-110.7724533,1360.5999756,0.0,28.5,1.0,0.0,0.0,858,167,0,0,861.10,27.68,17.23,# data time:4580,pm2.5:6.445,pm10:5.704,O2:0.000,NO2:0.000,SO2:0.000,NH3:5.536
9:20:03,0,0,0,0,0,0,0,0,0,0,0,514,0,0,0,0,0.0000000,0.0000000,0.0000000,0.0000000,9.00,38.4133759,-110.7724533,1360.5999756,0.0,28.5,1.0,0.0,0.0,857,161,0,0,861.08,27.66,17.24,# data time:4580,pm2.5:6.445,pm10:5.704,O2:0.000,NO2:0.000,SO2:0.000,NH3:5.536
9:20:04,0,0,0,0,0,0,0,0,0,0,0,514,0,0,0,0,0.0000000,0.0000000,0.0000000,0.0000000,9.00,38.4133759,-110.7724533,1360.5999756,0.0,28.5,1.0,0.0,0.0,857,160,0,0,861.08,27.68,17.24,# data time:4590,pm2.5:6.445,pm10:5.704,O2:0.000,NO2:0.000,SO2:0.000,NH3:5.536
9:20:05,0,0,0,0,0,0,0,0,0,0,0,514,0,0,0,0,0.0000000,0.0000000,0.0000000,0.0000000,9.00,38.4133759,-110.7724533,1360.5999756,0.0,28.5,1.0,0.0,0.0,857,163,0,0,861.01,27.68,17.22,# data time:4590,pm2.5:6.445,pm10:5.704,O2:0.000,NO2:0.000,SO2:0.000,NH3:5.536
9:20:06,0,0,0,0,0,0,0,0,0,0,0,514,0,0,0,0,0.0000000,0.0000000,0.0000000,0.0000000,9.00,38.4133759,-110.7724533,1360.5999756,0.0,28.5,1.0,0.0,0.0,858,168,0,0,861.06,27.65,17.22,# data time:4590,pm2.5:6.445,pm10:5.704,O2:0.000,NO2:0.000,SO2:0.000,NH3:5.536
9:20:07,0,0,0,0,0,0,0,0,0,0,0,515,0,0,0,0,0.0000000,0.0000000,0.0000000,0.0000000,9.00,38.4133759,-110.7724533,1360.5999756,0.0,28.5,1.0,0.0,0.0,858,176,0,0,861.07,27.63,17.23,# data time:4590,pm2.5:6.445,pm10:5.704,O2:0.000,NO2:0.000,SO2:0.000,NH3:5.536
9:20:08,0,0,0,0,0,0,0,0,0,0,0,514,0,0,0,0,0.0000000,0.0000000,0.0000000,0.0000000,9.00,38.4133759,-110.7724533,1360.5999756,0.0,28.5,1.0,0.0,0.0,858,179,0,0,861.06,27.65,17.23,# data time:4590,pm2.5:6.445,pm10:5.704,O2:0.000,NO2:0.000,SO2:0.000,NH3:5.536
9:20:09,0,0,0,0,0,0,0,0,0,0,0,514,0,0,0,0,0.0000000,0.0000000,0.0000000,0.0000000,9.00,38.4133759,-110.7724533,1360.5999756,0.0,28.5,1.0,0.0,0.0,858,177,0,0,861.07,27.65,17.24,# data time:4590,pm2.5:6.445,pm10:5.704,O2:0.000,NO2:0.000,SO2:0.000,NH3:5.536
9:20:10,0,0,0,0,0,0,0,0,0,0,0,515,0,0,0,0,0.0000000,0.0000000,0.0000000,0.0000000,9.00,38.4133759,-110.7724533,1360.5999756,0.0,28.5,1.0,0.0,0.0,858,171,0,0,861.03,27.62,17.25,# data time:4590,pm2.5:6.445,pm10:5.704,O2:0.000,NO2:0.000,SO2:0.000,NH3:5.536
9:20:11,0,0,0,0,0,0,0,0,0,0,0,514,0,0,0,0,0.0000000,0.0000000,0.0000000,0.0000000,9.00,38.4133759,-110.7724533,1360.5999756,0.0,28.5,1.0,0.0,0.0,857,177,0,0,861.05,27.62,17.26,# data time:4590,pm2.5:6.445,pm10:5.704,O2:0.000,NO2:0.000,SO2:0.000,NH3:5.536
9:20:12,0,0,0,0,0,0,0,0,0,0,0,515,0,0,0,0,0.0000000,0.0000000,0.0000000,0.0000000,9.00,38.4133759,-110.7724533,1360.5999756,0.0,28.5,1.0,0.0,0.0,858,173,0,0,861.05,27.59,17.27,# data time:4590,pm2.5:6.445,pm10:5.704,O2:0.000,NO2:0.000,SO2:0.000,NH3:5.536
9:20:13,0,0,0,0,0,0,0,0,0,0,0,514,0,0,0,0,0.0000000,0.0000000,0.0000000,0.0000000,9.00,38.4133759,-110.7724533,1360.5999756,0.0,28.5,1.0,0.0,0.0,857,176,0,0,861.05,27.59,17.27,# data time:4600,pm2.5:5.640,pm10:4.991,O2:0.000,NO2:0.000,SO2:0.000,NH3:5.536
9:20:15,0,0,0,0,0,0,0,0,0,0,0,515,0,0,0,0,0.0000000,0.0000000,0.0000000,0.0000000,9.00,38.4133759,-110.7724533,1360.5999756,0.0,28.5,1.0,0.0,0.0,857,170,0,0,861.04,27.57,17.20,# data time:4600,pm2.5:5.640,pm10:4.991,O2:0.000,NO2:0.000,SO2:0.000,NH3:5.536
9:20:16,0,0,0,0,0,0,0,0,0,0,0,514,0,0,0,0,0.0000000,0.0000000,0.0000000,0.0000000,9.00,38.4133759,-110.7724533,1360.5999756,0.0,28.5,1.0,0.0,0.0,857,171,0,0,861.02,27.54,17.21,# data time:4600,pm2.5:5.640,pm10:4.991,O2:0.000,NO2:0.000,SO2:0.000,NH3:5.536
9:20:17,0,0,0,0,0,0,0,0,0,0,0,515,0,0,0,0,0.0000000,0.0000000,0.0000000,0.0000000,9.00,38.4133759,-110.7724533,1360.5999756,0.0,28.5,1.0,0.0,0.0,857,177,0,0,861.04,27.51,17.21,# data time:4600,pm2.5:5.640,pm10:4.991,O2:0.000,NO2:0.000,SO2:0.000,NH3:5.536
9:20:18,0,0,0,0,0,0,0,0,0,0,0,514,0,0,0,0,0.0000000,0.0000000,0.0000000,0.0000000,9.00,38.4133759,-110.7724533,1360.5999756,0.0,28.5,1.0,0.0,0.0,857,176,0,0,861.03,27.53,17.20,# data time:4600,pm2.5:5.640,pm10:4.991,O2:0.000,NO2:0.000,SO2:0.000,NH3:5.536
9:20:19,0,0,0,0,0,0,0,0,0,0,0,514,0,0,0,0,0.0000000,0.0000000,0.0000000,0.0000000,9.00,38.4133759,-110.7724533,1360.5999756,0.0,28.5,1.0,0.0,0.0,858,175,0,0,861.02,27.51,17.25,# data time:4600,pm2.5:5.640,pm10:4.991,O2:0.000,NO2:0.000,SO2:0.000,NH3:5.536
9:20:20,0,0,0,0,0,0,0,0,0,0,0,514,0,0,0,0,0.0000000,0.0000000,0.0000000,0.0000000,9.00,38.4133759,-110.7724533,1360.5999756,0.0,28.5,1.0,0.0,0.0,857,177,0,0,861.05,27.53,17.30,# data time:4600,pm2.5:5.640,pm10:4.991,O2:0.000,NO2:0.000,SO2:0.000,NH3:5.536
9:20:21,0,0,0,0,0,0,0,0,0,0,0,514,0,0,0,0,0.0000000,0.0000000,0.0000000,0.0000000,9.00,38.4133759,-110.7724533,1360.5999756,0.0,28.5,1.0,0.0,0.0,858,177,0,0,861.07,27.53,17.30,# data time:4600,pm2.5:5.640,pm10:4.991,O2:0.000,NO2:0.000,SO2:0.000,NH3:5.536
9:20:22,0,0,0,0,0,0,0,0,0,0,0,515,0,0,0,0,0.0000000,0.0000000,0.0000000,0.0000000,9.00,38.4133759,-110.7724533,1360.5999756,0.0,28.5,1.0,0.0,0.0,858,172,0,0,861.12,27.54,17.32,# data time:4600,pm2.5:5.640,pm10:4.991,O2:0.000,NO2:0.000,SO2:0.000,NH3:5.536
9:20:23,0,0,0,0,0,0,0,0,0,0,0,515,0,0,0,0,0.0000000,0.0000000,0.0000000,0.0000000,9.00,38.4133759,-110.7724533,1360.5999756,0.0,28.5,1.0,0.0,0.0,858,165,0,0,861.05,27.54,17.30,# data time:4600,pm2.5:5.640,pm10:4.991,O2:0.000,NO2:0.000,SO2:0.000,NH3:5.536
9:20:24,0,0,0,0,0,0,0,0,0,0,0,515,0,0,0,0,0.0000000,0.0000000,0.0000000,0.0000000,9.00,38.4133759,-110.7724533,1360.5999756,0.0,28.5,1.0,0.0,0.0,857,172,0,0,861.04,27.57,17.30,# data time:4610,pm2.5:6.445,pm10:5.704,O2:0.000,NO2:0.000,SO2:0.000,NH3:5.536
9:20:25,0,0,0,0,0,0,0,0,0,0,0,514,0,0,0,0,0.0000000,0.0000000,0.0000000,0.0000000,9.00,38.4133759,-110.7724533,1360.5999756,0.0,28.5,1.0,0.0,0.0,858,182,0,0,861.07,27.57,17.30,# data time:4610,pm2.5:6.445,pm10:5.704,O2:0.000,NO2:0.000,SO2:0.000,NH3:5.536
9:20:26,0,0,0,0,0,0,0,0,0,0,0,514,0,0,0,0,0.0000000,0.0000000,0.0000000,0.0000000,9.00,38.4133759,-110.7724533,1360.5999756,0.0,28.5,1.0,0.0,0.0,857,179,0,0,861.07,27.59,17.30,# data time:4610,pm2.5:6.445,pm10:5.704,O2:0.000,NO2:0.000,SO2:0.000,NH3:5.536
9:20:27,0,0,0,0,0,0,0,0,0,0,0,514,0,0,0,0,0.0000000,0.0000000,0.0000000,0.0000000,9.00,38.4133759,-110.7724533,1360.5999756,0.0,28.5,1.0,0.0,0.0,857,173,0,0,861.09,27.57,17.32,# data time:4610,pm2.5:6.445,pm10:5.704,O2:0.000,NO2:0.000,SO2:0.000,NH3:5.536
9:20:28,0,0,0,0,0,0,0,0,0,0,0,514,0,0,0,0,0.0000000,0.0000000,0.0000000,0.0000000,9.00,38.4133759,-110.7724533,1360.5999756,0.0,28.5,1.0,0.0,0.0,857,167,0,0,861.09,27.54,17.32,# data time:4610,pm2.5:6.445,pm10:5.704,O2:0.000,NO2:0.000,SO2:0.000,NH3:5.536
9:20:29,0,0,0,0,0,0,0,0,0,0,0,515,0,0,0,0,0.0000000,0.0000000,0.0000000,0.0000000,9.00,38.4133759,-110.7724533,1360.5999756,0.0,28.5,1.0,0.0,0.0,858,176,0,0,860.99,27.54,17.33,# data time:4610,pm2.5:6.445,pm10:5.704,O2:0.000,NO2:0.000,SO2:0.000,NH3:5.536
9:20:30,0,0,0,0,0,0,0,0,0,0,0,514,0,0,0,0,0.0000000,0.0000000,0.0000000,0.0000000,9.00,38.4133759,-110.7724533,1360.5999756,0.0,28.5,1.0,0.0,0.0,858,181,0,0,861.02,27.56,17.33,# data time:4610,pm2.5:6.445,pm10:5.704,O2:0.000,NO2:0.000,SO2:0.000,NH3:5.536
9:20:31,0,0,0,0,0,0,0,0,0,0,0,514,0,0,0,0,0.0000000,0.0000000,0.0000000,0.0000000,9.00,38.4133759,-110.7724533,1360.5999756,0.0,28.5,1.0,0.0,0.0,857,185,0,0,861.02,27.51,17.32,# data time:4610,pm2.5:6.445,pm10:5.704,O2:0.000,NO2:0.000,SO2:0.000,NH3:5.536
9:20:32,0,0,0,0,0,0,0,0,0,0,0,514,0,0,0,0,0.0000000,0.0000000,0.0000000,0.0000000,9.00,38.4133759,-110.7724533,1360.5999756,0.0,28.5,1.0,0.0,0.0,858,189,0,0,861.03,27.53,17.30,# data time:4610,pm2.5:6.445,pm10:5.704,O2:0.000,NO2:0.000,SO2:0.000,NH3:5.536
9:20:33,0,0,0,0,0,0,0,0,0,0,0,514,0,0,0,0,0.0000000,0.0000000,0.0000000,0.0000000,9.00,38.4133759,-110.7724533,1360.5999756,0.0,28.5,1.0,0.0,0.0,858,186,0,0,860.99,27.51,17.29,# data time:4610,pm2.5:6.445,pm10:5.704,O2:0.000,NO2:0.000,SO2:0.000,NH3:5.536
9:20:34,0,0,0,0,0,0,0,0,0,0,0,514,0,0,0,0,0.0000000,0.0000000,0.0000000,0.0000000,9.00,38.4133759,-110.7724533,1360.5999756,0.0,28.5,1.0,0.0,0.0,858,188,0,0,861.06,27.53,17.29,# data time:4620,pm2.5:6.445,pm10:5.704,O2:0.000,NO2:0.000,SO2:0.000,NH3:5.536
9:20:35,0,0,0,0,0,0,0,0,0,0,0,514,0,0,0,0,0.0000000,0.0000000,0.0000000,0.0000000,9.00,38.4133759,-110.7724533,1360.5999756,0.0,28.5,1.0,0.0,0.0,858,183,0,0,861.02,27.51,17.27,# data time:4620,pm2.5:6.445,pm10:5.704,O2:0.000,NO2:0.000,SO2:0.000,NH3:5.536
9:20:36,0,0,0,0,0,0,0,0,0,0,0,514,0,0,0,0,0.0000000,0.0000000,0.0000000,0.0000000,9.00,38.4133759,-110.7724533,1360.5999756,0.0,28.5,1.0,0.0,0.0,857,189,0,0,860.99,27.53,17.25,# data time:4620,pm2.5:6.445,pm10:5.704,O2:0.000,NO2:0.000,SO2:0.000,NH3:5.536
9:20:37,0,0,0,0,0,0,0,0,0,0,0,515,0,0,0,0,0.0000000,0.0000000,0.0000000,0.0000000,9.00,38.4133759,-110.7724533,1360.5999756,0.0,28.5,1.0,0.0,0.0,857,191,0,0,861.02,27.57,17.25,# data time:4620,pm2.5:6.445,pm10:5.704,O2:0.000,NO2:0.000,SO2:0.000,NH3:5.536
9:20:38,0,0,0,0,0,0,0,0,0,0,0,515,0,0,0,0,0.0000000,0.0000000,0.0000000,0.0000000,9.00,38.4133759,-110.7724533,1360.5999756,0.0,28.5,1.0,0.0,0.0,857,188,0,0,860.99,27.56,17.25,# data time:4620,pm2.5:6.445,pm10:5.704,O2:0.000,NO2:0.000,SO2:0.000,NH3:5.536
9:20:39,0,0,0,0,0,0,0,0,0,0,0,515,0,0,0,0,0.0000000,0.0000000,0.0000000,0.0000000,9.00,38.4133759,-110.7724533,1360.5999756,0.0,28.5,1.0,0.0,0.0,858,192,0,0,861.08,27.56,17.25,# data time:4620,pm2.5:6.445,pm10:5.704,O2:0.000,NO2:0.000,SO2:0.000,NH3:5.536
9:20:40,0,0,0,0,0,0,0,0,0,0,0,515,0,0,0,0,0.0000000,0.0000000,0.0000000,0.0000000,9.00,38.4133759,-110.7724533,1360.5999756,0.0,28.5,1.0,0.0,0.0,857,185,0,0,861.03,27.54,17.21,# data time:4620,pm2.5:6.445,pm10:5.704,O2:0.000,NO2:0.000,SO2:0.000,NH3:5.536
9:20:41,0,0,0,0,0,0,0,0,0,0,0,513,0,0,0,0,0.0000000,0.0000000,0.0000000,0.0000000,9.00,38.4133759,-110.7724533,1360.5999756,0.0,28.5,1.0,0.0,0.0,858,184,0,0,861.00,27.54,17.21,# data time:4620,pm2.5:6.445,pm10:5.704,O2:0.000,NO2:0.000,SO2:0.000,NH3:5.536
9:20:42,0,0,0,0,0,0,0,0,0,0,0,514,0,0,0,0,0.0000000,0.0000000,0.0000000,0.0000000,9.00,38.4133759,-110.7724533,1360.5999756,0.0,28.5,1.0,0.0,0.0,857,183,0,0,861.02,27.59,17.22,# data time:4620,pm2.5:6.445,pm10:5.704,O2:0.000,NO2:0.000,SO2:0.000,NH3:5.536
9:20:43,0,0,0,0,0,0,0,0,0,0,0,514,0,0,0,0,0.0000000,0.0000000,0.0000000,0.0000000,9.00,38.4133759,-110.7724533,1360.5999756,0.0,28.5,1.0,0.0,0.0,857,183,0,0,860.95,27.59,17.19,# data time:4620,pm2.5:6.445,pm10:5.704,O2:0.000,NO2:0.000,SO2:0.000,NH3:5.536
9:20:44,0,0,0,0,0,0,0,0,0,0,0,515,0,0,0,0,0.0000000,0.0000000,0.0000000,0.0000000,9.00,38.4133759,-110.7724533,1360.5999756,0.0,28.5,1.0,0.0,0.0,857,183,0,0,861.04,27.57,17.13,# data time:4630,pm2.5:6.445,pm10:5.704,O2:0.000,NO2:0.000,SO2:0.000,NH3:5.536
9:20:45,0,0,0,0,0,0,0,0,0,0,0,514,0,0,0,0,0.0000000,0.0000000,0.0000000,0.0000000,9.00,38.4133759,-110.7724533,1360.5999756,0.0,28.5,1.0,0.0,0.0,857,176,0,0,861.00,27.60,17.15,# data time:4630,pm2.5:6.445,pm10:5.704,O2:0.000,NO2:0.000,SO2:0.000,NH3:5.536
9:20:46,0,0,0,0,0,0,0,0,0,0,0,514,0,0,0,0,0.0000000,0.0000000,0.0000000,0.0000000,9.00,38.4133759,-110.7724533,1360.5999756,0.0,28.5,1.0,0.0,0.0,857,180,0,0,861.04,27.62,17.14,# data time:4630,pm2.5:6.445,pm10:5.704,O2:0.000,NO2:0.000,SO2:0.000,NH3:5.536
9:20:47,0,0,0,0,0,0,0,0,0,0,0,515,0,0,0,0,0.0000000,0.0000000,0.0000000,0.0000000,9.00,38.4133759,-110.7724533,1360.5999756,0.0,28.5,1.0,0.0,0.0,857,180,0,0,860.99,27.62,17.14,# data time:4630,pm2.5:6.445,pm10:5.704,O2:0.000,NO2:0.000,SO2:0.000,NH3:5.536
9:20:48,0,0,0,0,0,0,0,0,0,0,0,515,0,0,0,0,0.0000000,0.0000000,0.0000000,0.0000000,9.00,38.4133759,-110.7724533,1360.5999756,0.0,28.5,1.0,0.0,0.0,856,171,0,0,861.03,27.68,17.15,# data time:4630,pm2.5:6.445,pm10:5.704,O2:0.000,NO2:0.000,SO2:0.000,NH3:5.536
9:20:49,0,0,0,0,0,0,0,0,0,0,0,514,0,0,0,0,0.0000000,0.0000000,0.0000000,0.0000000,9.00,38.4133759,-110.7724533,1360.5999756,0.0,28.5,1.0,0.0,0.0,858,176,0,0,861.05,27.66,17.17,# data time:4630,pm2.5:6.445,pm10:5.704,O2:0.000,NO2:0.000,SO2:0.000,NH3:5.536
9:20:50,0,0,0,0,0,0,0,0,0,0,0,514,0,0,0,0,0.0000000,0.0000000,0.0000000,0.0000000,9.00,38.4133759,-110.7724533,1360.5999756,0.0,28.5,1.0,0.0,0.0,858,174,0,0,861.05,27.66,17.19,# data time:4630,pm2.5:6.445,pm10:5.704,O2:0.000,NO2:0.000,SO2:0.000,NH3:5.536
9:20:51,0,0,0,0,0,0,0,0,0,0,0,515,0,0,0,0,0.0000000,0.0000000,0.0000000,0.0000000,9.00,38.4133759,-110.7724533,1360.5999756,0.0,28.5,1.0,0.0,0.0,857,174,0,0,861.07,27.63,17.21,# data time:4630,pm2.5:6.445,pm10:5.704,O2:0.000,NO2:0.000,SO2:0.000,NH3:5.536
9:20:52,0,0,0,0,0,0,0,0,0,0,0,514,0,0,0,0,0.0000000,0.0000000,0.0000000,0.0000000,9.00,38.4133759,-110.7724533,1360.5999756,0.0,28.5,1.0,0.0,0.0,857,178,0,0,861.03,27.65,17.20,# data time:4630,pm2.5:6.445,pm10:5.704,O2:0.000,NO2:0.000,SO2:0.000,NH3:5.536
9:20:53,0,0,0,0,0,0,0,0,0,0,0,515,0,0,0,0,0.0000000,0.0000000,0.0000000,0.0000000,9.00,38.4133759,-110.7724533,1360.5999756,0.0,28.5,1.0,0.0,0.0,857,180,0,0,861.06,27.63,17.20,# data time:4630,pm2.5:6.445,pm10:5.704,O2:0.000,NO2:0.000,SO2:0.000,NH3:5.536
9:20:54,0,0,0,0,0,0,0,0,0,0,0,514,0,0,0,0,0.0000000,0.0000000,0.0000000,0.0000000,9.00,38.4133759,-110.7724533,1360.5999756,0.0,28.5,1.0,0.0,0.0,858,181,0,0,861.02,27.59,17.20,# data time:4640,pm2.5:6.445,pm10:5.704,O2:0.000,NO2:0.000,SO2:0.000,NH3:5.536
9:20:55,0,0,0,0,0,0,0,0,0,0,0,515,0,0,0,0,0.0000000,0.0000000,0.0000000,0.0000000,9.00,38.4133759,-110.7724533,1360.5999756,0.0,28.5,1.0,0.0,0.0,858,184,0,0,861.06,27.62,17.19,# data time:4640,pm2.5:6.445,pm10:5.704,O2:0.000,NO2:0.000,SO2:0.000,NH3:5.536
9:20:56,0,0,0,0,0,0,0,0,0,0,0,515,0,0,0,0,0.0000000,0.0000000,0.0000000,0.0000000,9.00,38.4133759,-110.7724533,1360.5999756,0.0,28.5,1.0,0.0,0.0,858,179,0,0,861.03,27.60,17.18,# data time:4640,pm2.5:6.445,pm10:5.704,O2:0.000,NO2:0.000,SO2:0.000,NH3:5.536
9:20:57,0,0,0,0,0,0,0,0,0,0,0,514,0,0,0,0,0.0000000,0.0000000,0.0000000,0.0000000,9.00,38.4133759,-110.7724533,1360.5999756,0.0,28.5,1.0,0.0,0.0,857,177,0,0,861.04,27.60,17.20,# data time:4640,pm2.5:6.445,pm10:5.704,O2:0.000,NO2:0.000,SO2:0.000,NH3:5.536
9:20:58,0,0,0,0,0,0,0,0,0,0,0,515,0,0,0,0,0.0000000,0.0000000,0.0000000,0.0000000,9.00,38.4133759,-110.7724533,1360.5999756,0.0,28.5,1.0,0.0,0.0,858,172,0,0,861.05,27.62,17.20,# data time:4640,pm2.5:6.445,pm10:5.704,O2:0.000,NO2:0.000,SO2:0.000,NH3:5.536
9:20:59,0,0,0,0,0,0,0,0,0,0,0,514,0,0,0,0,0.0000000,0.0000000,0.0000000,0.0000000,9.00,38.4133759,-110.7724533,1360.5999756,0.0,28.5,1.0,0.0,0.0,857,174,0,0,861.08,27.62,17.20,# data time:4640,pm2.5:6.445,pm10:5.704,O2:0.000,NO2:0.000,SO2:0.000,NH3:5.536
9:21:00,0,0,0,0,0,0,0,0,0,0,0,514,0,0,0,0,0.0000000,0.0000000,0.0000000,0.0000000,9.00,38.4133759,-110.7724533,1360.5999756,0.0,28.5,1.0,0.0,0.0,857,170,0,0,861.04,27.60,17.21,# data time:4640,pm2.5:6.445,pm10:5.704,O2:0.000,NO2:0.000,SO2:0.000,NH3:5.536
9:21:01,0,0,0,0,0,0,0,0,0,0,0,515,0,0,0,0,0.0000000,0.0000000,0.0000000,0.0000000,9.00,38.4133759,-110.7724533,1360.5999756,0.0,28.5,1.0,0.0,0.0,858,174,0,0,861.03,27.60,17.22,# data time:4640,pm2.5:6.445,pm10:5.704,O2:0.000,NO2:0.000,SO2:0.000,NH3:5.536
9:21:02,0,0,0,0,0,0,0,0,0,0,0,515,0,0,0,0,0.0000000,0.0000000,0.0000000,0.0000000,9.00,38.4133759,-110.7724533,1360.5999756,0.0,28.5,1.0,0.0,0.0,858,178,0,0,861.03,27.62,17.24,# data time:4640,pm2.5:6.445,pm10:5.704,O2:0.000,NO2:0.000,SO2:0.000,NH3:5.536
9:21:03,0,0,0,0,0,0,0,0,0,0,0,514,0,0,0,0,0.0000000,0.0000000,0.0000000,0.0000000,9.00,38.4133759,-110.7724533,1360.5999756,0.0,28.5,1.0,0.0,0.0,858,171,0,0,861.02,27.59,17.23,# data time:4640,pm2.5:6.445,pm10:5.704,O2:0.000,NO2:0.000,SO2:0.000,NH3:5.536
9:21:04,0,0,0,0,0,0,0,0,0,0,0,514,0,0,0,0,0.0000000,0.0000000,0.0000000,0.0000000,9.00,38.4133759,-110.7724533,1360.5999756,0.0,28.5,1.0,0.0,0.0,857,173,0,0,861.05,27.60,17.23,# data time:4650,pm2.5:6.445,pm10:5.704,O2:0.000,NO2:0.000,SO2:0.000,NH3:5.536
9:21:05,0,0,0,0,0,0,0,0,0,0,0,514,0,0,0,0,0.0000000,0.0000000,0.0000000,0.0000000,9.00,38.4133759,-110.7724533,1360.5999756,0.0,28.5,1.0,0.0,0.0,857,164,0,0,861.02,27.63,17.23,# data time:4650,pm2.5:6.445,pm10:5.704,O2:0.000,NO2:0.000,SO2:0.000,NH3:5.536
9:21:06,0,0,0,0,0,0,0,0,0,0,0,515,0,0,0,0,0.0000000,0.0000000,0.0000000,0.0000000,9.00,38.4133759,-110.7724533,1360.5999756,0.0,28.5,1.0,0.0,0.0,857,161,0,0,861.00,27.65,17.24,# data time:4650,pm2.5:6.445,pm10:5.704,O2:0.000,NO2:0.000,SO2:0.000,NH3:5.536
9:21:07,0,0,0,0,0,0,0,0,0,0,0,514,0,0,0,0,0.0000000,0.0000000,0.0000000,0.0000000,9.00,38.4133759,-110.7724533,1360.5999756,0.0,28.5,1.0,0.0,0.0,858,174,0,0,861.02,27.65,17.21,# data time:4650,pm2.5:6.445,pm10:5.704,O2:0.000,NO2:0.000,SO2:0.000,NH3:5.536
9:21:08,0,0,0,0,0,0,0,0,0,0,0,515,0,0,0,0,0.0000000,0.0000000,0.0000000,0.0000000,9.00,38.4133759,-110.7724533,1360.5999756,0.0,28.5,1.0,0.0,0.0,857,180,0,0,861.01,27.63,17.21,# data time:4650,pm2.5:6.445,pm10:5.704,O2:0.000,NO2:0.000,SO2:0.000,NH3:5.536
9:21:09,0,0,0,0,0,0,0,0,0,0,0,514,0,0,0,0,0.0000000,0.0000000,0.0000000,0.0000000,9.00,38.4133759,-110.7724533,1360.5999756,0.0,28.5,1.0,0.0,0.0,857,179,0,0,861.03,27.66,17.19,# data time:4650,pm2.5:6.445,pm10:5.704,O2:0.000,NO2:0.000,SO2:0.000,NH3:5.536
9:21:10,0,0,0,0,0,0,0,0,0,0,0,513,0,0,0,0,0.0000000,0.0000000,0.0000000,0.0000000,9.00,38.4133759,-110.7724533,1360.5999756,0.0,28.5,1.0,0.0,0.0,857,172,0,0,861.05,27.70,17.20,# data time:4650,pm2.5:6.445,pm10:5.704,O2:0.000,NO2:0.000,SO2:0.000,NH3:5.536
9:21:11,0,0,0,0,0,0,0,0,0,0,0,514,0,0,0,0,0.0000000,0.0000000,0.0000000,0.0000000,9.00,38.4133759,-110.7724533,1360.5999756,0.0,28.5,1.0,0.0,0.0,857,172,0,0,861.04,27.70,17.22,# data time:4650,pm2.5:6.445,pm10:5.704,O2:0.000,NO2:0.000,SO2:0.000,NH3:5.536
9:21:12,0,0,0,0,0,0,0,0,0,0,0,514,0,0,0,0,0.0000000,0.0000000,0.0000000,0.0000000,9.00,38.4133759,-110.7724533,1360.5999756,0.0,28.5,1.0,0.0,0.0,857,171,0,0,861.04,27.68,17.24,# data time:4650,pm2.5:6.445,pm10:5.704,O2:0.000,NO2:0.000,SO2:0.000,NH3:5.536
9:21:13,0,0,0,0,0,0,0,0,0,0,0,515,0,0,0,0,0.0000000,0.0000000,0.0000000,0.0000000,9.00,38.4133759,-110.7724533,1360.5999756,0.0,28.5,1.0,0.0,0.0,857,162,0,0,860.99,27.66,17.24,# data time:4660,pm2.5:6.445,pm10:5.704,O2:0.000,NO2:0.000,SO2:0.000,NH3:5.536
9:21:15,0,0,0,0,0,0,0,0,0,0,0,514,0,0,0,0,0.0000000,0.0000000,0.0000000,0.0000000,9.00,38.4133759,-110.7724533,1360.5999756,0.0,28.5,1.0,0.0,0.0,857,173,0,0,861.00,27.65,17.16,# data time:4660,pm2.5:6.445,pm10:5.704,O2:0.000,NO2:0.000,SO2:0.000,NH3:5.536
9:21:16,0,0,0,0,0,0,0,0,0,0,0,514,0,0,0,0,0.0000000,0.0000000,0.0000000,0.0000000,9.00,38.4133759,-110.7724533,1360.5999756,0.0,28.5,1.0,0.0,0.0,858,167,0,0,860.99,27.62,17.14,# data time:4660,pm2.5:6.445,pm10:5.704,O2:0.000,NO2:0.000,SO2:0.000,NH3:5.536
9:21:17,0,0,0,0,0,0,0,0,0,0,0,514,0,0,0,0,0.0000000,0.0000000,0.0000000,0.0000000,9.00,38.4133759,-110.7724533,1360.5999756,0.0,28.5,1.0,0.0,0.0,857,168,0,0,861.01,27.60,17.14,# data time:4660,pm2.5:6.445,pm10:5.704,O2:0.000,NO2:0.000,SO2:0.000,NH3:5.536
9:21:18,0,0,0,0,0,0,0,0,0,0,0,514,0,0,0,0,0.0000000,0.0000000,0.0000000,0.0000000,9.00,38.4133759,-110.7724533,1360.5999756,0.0,28.5,1.0,0.0,0.0,857,171,0,0,861.05,27.60,17.20,# data time:4660,pm2.5:6.445,pm10:5.704,O2:0.000,NO2:0.000,SO2:0.000,NH3:5.536
9:21:19,0,0,0,0,0,0,0,0,0,0,0,514,0,0,0,0,0.0000000,0.0000000,0.0000000,0.0000000,9.00,38.4133759,-110.7724533,1360.5000000,0.0,28.5,1.0,0.0,0.0,858,171,0,0,861.07,27.59,17.20,# data time:4660,pm2.5:6.445,pm10:5.704,O2:0.000,NO2:0.000,SO2:0.000,NH3:5.536
9:21:20,0,0,0,0,0,0,0,0,0,0,0,515,0,0,0,0,0.0000000,0.0000000,0.0000000,0.0000000,9.00,38.4133759,-110.7724533,1360.5000000,0.0,28.5,1.0,0.0,0.0,858,166,0,0,861.01,27.60,17.24,# data time:4660,pm2.5:6.445,pm10:5.704,O2:0.000,NO2:0.000,SO2:0.000,NH3:5.536
9:21:21,0,0,0,0,0,0,0,0,0,0,0,514,0,0,0,0,0.0000000,0.0000000,0.0000000,0.0000000,9.00,38.4133759,-110.7724533,1360.5000000,0.0,28.5,1.0,0.0,0.0,857,179,0,0,860.99,27.59,17.22,# data time:4660,pm2.5:6.445,pm10:5.704,O2:0.000,NO2:0.000,SO2:0.000,NH3:5.536
9:21:22,0,0,0,0,0,0,0,0,0,0,0,514,0,0,0,0,0.0000000,0.0000000,0.0000000,0.0000000,9.00,38.4133759,-110.7724533,1360.5000000,0.0,28.5,1.0,0.0,0.0,858,188,0,0,860.94,27.60,17.20,# data time:4660,pm2.5:6.445,pm10:5.704,O2:0.000,NO2:0.000,SO2:0.000,NH3:5.536
9:21:23,0,0,0,0,0,0,0,0,0,0,0,515,0,0,0,0,0.0000000,0.0000000,0.0000000,0.0000000,9.00,38.4133759,-110.7724533,1360.5000000,0.0,28.5,1.0,0.0,0.0,858,195,0,0,861.01,27.62,17.19,# data time:4660,pm2.5:6.445,pm10:5.704,O2:0.000,NO2:0.000,SO2:0.000,NH3:5.536
9:21:24,0,0,0,0,0,0,0,0,0,0,0,514,0,0,0,0,0.0000000,0.0000000,0.0000000,0.0000000,9.00,38.4133759,-110.7724533,1360.5000000,0.0,28.5,1.0,0.0,0.0,857,194,0,0,860.97,27.65,17.16,# data time:4670,pm2.5:6.445,pm10:5.704,O2:0.000,NO2:0.000,SO2:0.000,NH3:5.536
9:21:25,0,0,0,0,0,0,0,0,0,0,0,514,0,0,0,0,0.0000000,0.0000000,0.0000000,0.0000000,9.00,38.4133759,-110.7724533,1360.5000000,0.0,28.5,1.0,0.0,0.0,857,189,0,0,860.91,27.65,17.17,# data time:4670,pm2.5:6.445,pm10:5.704,O2:0.000,NO2:0.000,SO2:0.000,NH3:5.536
9:21:26,0,0,0,0,0,0,0,0,0,0,0,515,0,0,0,0,0.0000000,0.0000000,0.0000000,0.0000000,9.00,38.4133759,-110.7724533,1360.5000000,0.0,28.5,1.0,0.0,0.0,858,194,0,0,861.00,27.65,17.17,# data time:4670,pm2.5:6.445,pm10:5.704,O2:0.000,NO2:0.000,SO2:0.000,NH3:5.536
9:21:27,0,0,0,0,0,0,0,0,0,0,0,514,0,0,0,0,0.0000000,0.0000000,0.0000000,0.0000000,9.00,38.4133759,-110.7724533,1360.5000000,0.0,28.5,1.0,0.0,0.0,857,197,0,0,860.97,27.65,17.18,# data time:4670,pm2.5:6.445,pm10:5.704,O2:0.000,NO2:0.000,SO2:0.000,NH3:5.536
9:21:28,0,0,0,0,0,0,0,0,0,0,0,514,0,0,0,0,0.0000000,0.0000000,0.0000000,0.0000000,9.00,38.4133759,-110.7724533,1360.5000000,0.0,28.5,1.0,0.0,0.0,857,186,0,0,861.01,27.63,17.19,# data time:4670,pm2.5:6.445,pm10:5.704,O2:0.000,NO2:0.000,SO2:0.000,NH3:5.536
9:21:29,0,0,0,0,0,0,0,0,0,0,0,514,0,0,0,0,0.0000000,0.0000000,0.0000000,0.0000000,9.00,38.4133759,-110.7724533,1360.5000000,0.0,28.5,1.0,0.0,0.0,857,184,0,0,861.02,27.63,17.20,# data time:4670,pm2.5:6.445,pm10:5.704,O2:0.000,NO2:0.000,SO2:0.000,NH3:5.536
9:21:30,0,0,0,0,0,0,0,0,0,0,0,514,0,0,0,0,0.0000000,0.0000000,0.0000000,0.0000000,9.00,38.4133759,-110.7724533,1360.5000000,0.0,28.5,1.0,0.0,0.0,857,177,0,0,861.05,27.63,17.21,# data time:4670,pm2.5:6.445,pm10:5.704,O2:0.000,NO2:0.000,SO2:0.000,NH3:5.536
9:21:31,0,0,0,0,0,0,0,0,0,0,0,514,0,0,0,0,0.0000000,0.0000000,0.0000000,0.0000000,9.00,38.4133759,-110.7724533,1360.5000000,0.0,28.5,1.0,0.0,0.0,857,172,0,0,861.06,27.66,17.22,# data time:4670,pm2.5:6.445,pm10:5.704,O2:0.000,NO2:0.000,SO2:0.000,NH3:5.536
9:21:32,0,0,0,0,0,0,0,0,0,0,0,514,0,0,0,0,0.0000000,0.0000000,0.0000000,0.0000000,9.00,38.4133759,-110.7724533,1360.5000000,0.0,28.5,1.0,0.0,0.0,858,171,0,0,861.05,27.66,17.23,# data time:4670,pm2.5:6.445,pm10:5.704,O2:0.000,NO2:0.000,SO2:0.000,NH3:5.536
9:21:33,0,0,0,0,0,0,0,0,0,0,0,515,0,0,0,0,0.0000000,0.0000000,0.0000000,0.0000000,9.00,38.4133759,-110.7724533,1360.5000000,0.0,28.5,1.0,0.0,0.0,857,174,0,0,861.06,27.66,17.23,# data time:4670,pm2.5:6.445,pm10:5.704,O2:0.000,NO2:0.000,SO2:0.000,NH3:5.536
9:21:34,0,0,0,0,0,0,0,0,0,0,0,514,0,0,0,0,0.0000000,0.0000000,0.0000000,0.0000000,9.00,38.4133759,-110.7724533,1360.5000000,0.0,28.5,1.0,0.0,0.0,857,182,0,0,861.05,27.62,17.23,# data time:4680,pm2.5:6.445,pm10:5.704,O2:0.000,NO2:0.000,SO2:0.000,NH3:5.536
9:21:35,0,0,0,0,0,0,0,0,0,0,0,514,0,0,0,0,0.0000000,0.0000000,0.0000000,0.0000000,9.00,38.4133759,-110.7724533,1360.5000000,0.0,28.5,1.0,0.0,0.0,857,179,0,0,861.05,27.62,17.19,# data time:4680,pm2.5:6.445,pm10:5.704,O2:0.000,NO2:0.000,SO2:0.000,NH3:5.536
9:21:36,0,0,0,0,0,0,0,0,0,0,0,513,0,0,0,0,0.0000000,0.0000000,0.0000000,0.0000000,9.00,38.4133759,-110.7724533,1360.5000000,0.0,28.5,1.0,0.0,0.0,858,171,0,0,861.09,27.62,17.20,# data time:4680,pm2.5:6.445,pm10:5.704,O2:0.000,NO2:0.000,SO2:0.000,NH3:5.536
9:21:37,0,0,0,0,0,0,0,0,0,0,0,514,0,0,0,0,0.0000000,0.0000000,0.0000000,0.0000000,9.00,38.4133759,-110.7724533,1360.5000000,0.0,28.5,1.0,0.0,0.0,857,170,0,0,861.06,27.65,17.21,# data time:4680,pm2.5:6.445,pm10:5.704,O2:0.000,NO2:0.000,SO2:0.000,NH3:5.536
9:21:38,0,0,0,0,0,0,0,0,0,0,0,514,0,0,0,0,0.0000000,0.0000000,0.0000000,0.0000000,9.00,38.4133759,-110.7724533,1360.5000000,0.0,28.5,1.0,0.0,0.0,857,172,0,0,861.03,27.66,17.20,# data time:4680,pm2.5:6.445,pm10:5.704,O2:0.000,NO2:0.000,SO2:0.000,NH3:5.536
9:21:39,0,0,0,0,0,0,0,0,0,0,0,514,0,0,0,0,0.0000000,0.0000000,0.0000000,0.0000000,9.00,38.4133759,-110.7724533,1360.5000000,0.0,28.5,1.0,0.0,0.0,857,178,0,0,861.05,27.63,17.20,# data time:4680,pm2.5:6.445,pm10:5.704,O2:0.000,NO2:0.000,SO2:0.000,NH3:5.536
9:21:40,0,0,0,0,0,0,0,0,0,0,0,514,0,0,0,0,0.0000000,0.0000000,0.0000000,0.0000000,9.00,38.4133759,-110.7724533,1360.5000000,0.0,28.5,1.0,0.0,0.0,857,177,0,0,861.05,27.63,17.19,# data time:4680,pm2.5:6.445,pm10:5.704,O2:0.000,NO2:0.000,SO2:0.000,NH3:5.536
9:21:41,0,0,0,0,0,0,0,0,0,0,0,514,0,0,0,0,0.0000000,0.0000000,0.0000000,0.0000000,9.00,38.4133759,-110.7724533,1360.5000000,0.0,28.5,1.0,0.0,0.0,857,171,0,0,861.07,27.63,17.21,# data time:4680,pm2.5:6.445,pm10:5.704,O2:0.000,NO2:0.000,SO2:0.000,NH3:5.536
9:21:42,0,0,0,0,0,0,0,0,0,0,0,514,0,0,0,0,0.0000000,0.0000000,0.0000000,0.0000000,9.00,38.4133759,-110.7724533,1360.5000000,0.0,28.5,1.0,0.0,0.0,857,172,0,0,861.09,27.65,17.21,# data time:4680,pm2.5:6.445,pm10:5.704,O2:0.000,NO2:0.000,SO2:0.000,NH3:5.536
9:21:43,0,0,0,0,0,0,0,0,0,0,0,515,0,0,0,0,0.0000000,0.0000000,0.0000000,0.0000000,9.00,38.4133759,-110.7724533,1360.5000000,0.0,28.5,1.0,0.0,0.0,857,170,0,0,861.11,27.68,17.22,# data time:4680,pm2.5:6.445,pm10:5.704,O2:0.000,NO2:0.000,SO2:0.000,NH3:5.536
9:21:44,0,0,0,0,0,0,0,0,0,0,0,514,0,0,0,0,0.0000000,0.0000000,0.0000000,0.0000000,9.00,38.4133759,-110.7724533,1360.5000000,0.0,28.5,1.0,0.0,0.0,857,160,0,0,861.05,27.65,17.23,# data time:4690,pm2.5:6.445,pm10:5.704,O2:0.000,NO2:0.000,SO2:0.000,NH3:5.536
9:21:45,0,0,0,0,0,0,0,0,0,0,0,514,0,0,0,0,0.0000000,0.0000000,0.0000000,0.0000000,9.00,38.4133759,-110.7724533,1360.5000000,0.0,28.5,1.0,0.0,0.0,857,159,0,0,861.08,27.68,17.25,# data time:4690,pm2.5:6.445,pm10:5.704,O2:0.000,NO2:0.000,SO2:0.000,NH3:5.536
9:21:46,0,0,0,0,0,0,0,0,0,0,0,515,0,0,0,0,0.0000000,0.0000000,0.0000000,0.0000000,9.00,38.4133759,-110.7724533,1360.5000000,0.0,28.5,1.0,0.0,0.0,858,156,0,0,861.04,27.65,17.26,# data time:4690,pm2.5:6.445,pm10:5.704,O2:0.000,NO2:0.000,SO2:0.000,NH3:5.536
9:21:47,0,0,0,0,0,0,0,0,0,0,0,515,0,0,0,0,0.0000000,0.0000000,0.0000000,0.0000000,9.00,38.4133759,-110.7724533,1360.5000000,0.0,28.5,1.0,0.0,0.0,857,156,0,0,861.07,27.62,17.29,# data time:4690,pm2.5:6.445,pm10:5.704,O2:0.000,NO2:0.000,SO2:0.000,NH3:5.536
9:21:48,0,0,0,0,0,0,0,0,0,0,0,514,0,0,0,0,0.0000000,0.0000000,0.0000000,0.0000000,9.00,38.4133759,-110.7724533,1360.5000000,0.0,28.5,1.0,0.0,0.0,858,155,0,0,861.04,27.60,17.29,# data time:4690,pm2.5:6.445,pm10:5.704,O2:0.000,NO2:0.000,SO2:0.000,NH3:5.536
9:21:49,0,0,0,0,0,0,0,0,0,0,0,515,0,0,0,0,0.0000000,0.0000000,0.0000000,0.0000000,9.00,38.4133759,-110.7724533,1360.5000000,0.0,28.5,1.0,0.0,0.0,857,166,0,0,861.09,27.62,17.29,# data time:4690,pm2.5:6.445,pm10:5.704,O2:0.000,NO2:0.000,SO2:0.000,NH3:5.536
9:21:50,0,0,0,0,0,0,0,0,0,0,0,514,0,0,0,0,0.0000000,0.0000000,0.0000000,0.0000000,9.00,38.4133759,-110.7724533,1360.5000000,0.0,28.5,1.0,0.0,0.0,858,169,0,0,861.09,27.59,17.31,# data time:4690,pm2.5:6.445,pm10:5.704,O2:0.000,NO2:0.000,SO2:0.000,NH3:5.536
9:21:51,0,0,0,0,0,0,0,0,0,0,0,514,0,0,0,0,0.0000000,0.0000000,0.0000000,0.0000000,9.00,38.4133759,-110.7724533,1360.5000000,0.0,28.5,1.0,0.0,0.0,858,166,0,0,861.09,27.62,17.32,# data time:4690,pm2.5:6.445,pm10:5.704,O2:0.000,NO2:0.000,SO2:0.000,NH3:5.536
9:21:52,0,0,0,0,0,0,0,0,0,0,0,515,0,0,0,0,0.0000000,0.0000000,0.0000000,0.0000000,9.00,38.4133759,-110.7724533,1360.5000000,0.0,28.5,1.0,0.0,0.0,857,161,0,0,861.07,27.57,17.33,# data time:4690,pm2.5:6.445,pm10:5.704,O2:0.000,NO2:0.000,SO2:0.000,NH3:5.536
9:21:53,0,0,0,0,0,0,0,0,0,0,0,514,0,0,0,0,0.0000000,0.0000000,0.0000000,0.0000000,9.00,38.4133759,-110.7724533,1360.5000000,0.0,28.5,1.0,0.0,0.0,857,156,0,0,861.08,27.54,17.34,# data time:4690,pm2.5:6.445,pm10:5.704,O2:0.000,NO2:0.000,SO2:0.000,NH3:5.536
9:21:54,0,0,0,0,0,0,0,0,0,0,0,514,0,0,0,0,0.0000000,0.0000000,0.0000000,0.0000000,9.00,38.4133759,-110.7724533,1360.5000000,0.0,28.5,1.0,0.0,0.0,857,157,0,0,861.05,27.51,17.36,# data time:4700,pm2.5:6.445,pm10:5.704,O2:0.000,NO2:0.000,SO2:0.000,NH3:5.536
9:21:55,0,0,0,0,0,0,0,0,0,0,0,515,0,0,0,0,0.0000000,0.0000000,0.0000000,0.0000000,9.00,38.4133759,-110.7724533,1360.5000000,0.0,28.5,1.0,0.0,0.0,857,156,0,0,861.10,27.47,17.39,# data time:4700,pm2.5:6.445,pm10:5.704,O2:0.000,NO2:0.000,SO2:0.000,NH3:5.536
9:21:56,0,0,0,0,0,0,0,0,0,0,0,514,0,0,0,0,0.0000000,0.0000000,0.0000000,0.0000000,9.00,38.4133759,-110.7724533,1360.5000000,0.0,28.5,1.0,0.0,0.0,858,152,0,0,861.06,27.44,17.42,# data time:4700,pm2.5:6.445,pm10:5.704,O2:0.000,NO2:0.000,SO2:0.000,NH3:5.536
9:21:57,0,0,0,0,0,0,0,0,0,0,0,515,0,0,0,0,0.0000000,0.0000000,0.0000000,0.0000000,9.00,38.4133759,-110.7724533,1360.5000000,0.0,28.5,1.0,0.0,0.0,858,160,0,0,861.07,27.41,17.41,# data time:4700,pm2.5:6.445,pm10:5.704,O2:0.000,NO2:0.000,SO2:0.000,NH3:5.536
9:21:58,0,0,0,0,0,0,0,0,0,0,0,514,0,0,0,0,0.0000000,0.0000000,0.0000000,0.0000000,9.00,38.4133759,-110.7724533,1360.5000000,0.0,28.5,1.0,0.0,0.0,857,160,0,0,861.07,27.39,17.44,# data time:4700,pm2.5:6.445,pm10:5.704,O2:0.000,NO2:0.000,SO2:0.000,NH3:5.536
9:21:59,0,0,0,0,0,0,0,0,0,0,0,514,0,0,0,0,0.0000000,0.0000000,0.0000000,0.0000000,9.00,38.4133759,-110.7724533,1360.5000000,0.0,28.5,1.0,0.0,0.0,857,162,0,0,861.03,27.39,17.45,# data time:4700,pm2.5:6.445,pm10:5.704,O2:0.000,NO2:0.000,SO2:0.000,NH3:5.536
9:22:00,0,0,0,0,0,0,0,0,0,0,0,514,0,0,0,0,0.0000000,0.0000000,0.0000000,0.0000000,9.00,38.4133759,-110.7724533,1360.5000000,0.0,28.5,1.0,0.0,0.0,857,162,0,0,861.05,27.36,17.43,# data time:4700,pm2.5:6.445,pm10:5.704,O2:0.000,NO2:0.000,SO2:0.000,NH3:5.536
9:22:01,0,0,0,0,0,0,0,0,0,0,0,515,0,0,0,0,0.0000000,0.0000000,0.0000000,0.0000000,9.00,38.4133759,-110.7724533,1360.5000000,0.0,28.5,1.0,0.0,0.0,857,166,0,0,861.04,27.36,17.43,# data time:4700,pm2.5:6.445,pm10:5.704,O2:0.000,NO2:0.000,SO2:0.000,NH3:5.536
9:22:02,0,0,0,0,0,0,0,0,0,0,0,515,0,0,0,0,0.0000000,0.0000000,0.0000000,0.0000000,9.00,38.4133759,-110.7724533,1360.5000000,0.0,28.5,1.0,0.0,0.0,857,164,0,0,861.09,27.36,17.44,# data time:4700,pm2.5:6.445,pm10:5.704,O2:0.000,NO2:0.000,SO2:0.000,NH3:5.536
9:22:03,0,0,0,0,0,0,0,0,0,0,0,514,0,0,0,0,0.0000000,0.0000000,0.0000000,0.0000000,9.00,38.4133759,-110.7724533,1360.5000000,0.0,28.5,1.0,0.0,0.0,857,167,0,0,861.08,27.33,17.44,# data time:4710,pm2.5:6.445,pm10:5.704,O2:0.000,NO2:0.000,SO2:0.000,NH3:5.536
9:22:04,0,0,0,0,0,0,0,0,0,0,0,514,0,0,0,0,0.0000000,0.0000000,0.0000000,0.0000000,9.00,38.4133759,-110.7724533,1360.5000000,0.0,28.5,1.0,0.0,0.0,857,167,0,0,861.07,27.31,17.45,# data time:4710,pm2.5:6.445,pm10:5.704,O2:0.000,NO2:0.000,SO2:0.000,NH3:5.536
9:22:06,0,0,0,0,0,0,0,0,0,0,0,514,0,0,0,0,0.0000000,0.0000000,0.0000000,0.0000000,9.00,38.4133759,-110.7724533,1360.5000000,0.0,28.5,1.0,0.0,0.0,857,160,0,0,861.06,27.31,17.47,# data time:4710,pm2.5:6.445,pm10:5.704,O2:0.000,NO2:0.000,SO2:0.000,NH3:5.536
9:22:07,0,0,0,0,0,0,0,0,0,0,0,514,0,0,0,0,0.0000000,0.0000000,0.0000000,0.0000000,9.00,38.4133759,-110.7724533,1360.5000000,0.0,28.5,1.0,0.0,0.0,857,162,0,0,861.10,27.30,17.45,# data time:4710,pm2.5:6.445,pm10:5.704,O2:0.000,NO2:0.000,SO2:0.000,NH3:5.536
9:22:08,0,0,0,0,0,0,0,0,0,0,0,515,0,0,0,0,0.0000000,0.0000000,0.0000000,0.0000000,9.00,38.4133759,-110.7724533,1360.5000000,0.0,28.5,1.0,0.0,0.0,857,169,0,0,860.96,27.27,17.34,# data time:4710,pm2.5:6.445,pm10:5.704,O2:0.000,NO2:0.000,SO2:0.000,NH3:5.536
9:22:09,0,0,0,0,0,0,0,0,0,0,0,514,0,0,0,0,0.0000000,0.0000000,0.0000000,0.0000000,9.00,38.4133759,-110.7724533,1360.5000000,0.0,28.5,1.0,0.0,0.0,857,171,0,0,861.03,27.31,17.33,# data time:4710,pm2.5:6.445,pm10:5.704,O2:0.000,NO2:0.000,SO2:0.000,NH3:5.536
9:22:10,0,0,0,0,0,0,0,0,0,0,0,514,0,0,0,0,0.0000000,0.0000000,0.0000000,0.0000000,9.00,38.4133759,-110.7724533,1360.5000000,0.0,28.5,1.0,0.0,0.0,857,172,0,0,861.03,27.28,17.33,# data time:4710,pm2.5:6.445,pm10:5.704,O2:0.000,NO2:0.000,SO2:0.000,NH3:5.536
9:22:11,0,0,0,0,0,0,0,0,0,0,0,514,0,0,0,0,0.0000000,0.0000000,0.0000000,0.0000000,9.00,38.4133759,-110.7724533,1360.5000000,0.0,28.5,1.0,0.0,0.0,857,168,0,0,861.03,27.28,17.38,# data time:4710,pm2.5:6.445,pm10:5.704,O2:0.000,NO2:0.000,SO2:0.000,NH3:5.536
9:22:12,0,0,0,0,0,0,0,0,0,0,0,514,0,0,0,0,0.0000000,0.0000000,0.0000000,0.0000000,9.00,38.4133759,-110.7724533,1360.5000000,0.0,28.5,1.0,0.0,0.0,857,163,0,0,861.00,27.28,17.33,# data time:4710,pm2.5:6.445,pm10:5.704,O2:0.000,NO2:0.000,SO2:0.000,NH3:5.536
9:22:13,0,0,0,0,0,0,0,0,0,0,0,514,0,0,0,0,0.0000000,0.0000000,0.0000000,0.0000000,9.00,38.4133759,-110.7724533,1360.5000000,0.0,28.5,1.0,0.0,0.0,857,163,0,0,861.04,27.28,17.43,# data time:4710,pm2.5:6.445,pm10:5.704,O2:0.000,NO2:0.000,SO2:0.000,NH3:5.536
9:22:14,0,0,0,0,0,0,0,0,0,0,0,515,0,0,0,0,0.0000000,0.0000000,0.0000000,0.0000000,9.00,38.4133759,-110.7724533,1360.5000000,0.0,28.5,1.0,0.0,0.0,858,164,0,0,861.06,27.25,17.43,# data time:4720,pm2.5:6.445,pm10:5.704,O2:0.000,NO2:0.000,SO2:0.000,NH3:5.536
9:22:15,0,0,0,0,0,0,0,0,0,0,0,515,0,0,0,0,0.0000000,0.0000000,0.0000000,0.0000000,9.00,38.4133759,-110.7724533,1360.5000000,0.0,28.5,1.0,0.0,0.0,857,170,0,0,861.02,27.25,17.44,# data time:4720,pm2.5:6.445,pm10:5.704,O2:0.000,NO2:0.000,SO2:0.000,NH3:5.536
9:22:16,0,0,0,0,0,0,0,0,0,0,0,514,0,0,0,0,0.0000000,0.0000000,0.0000000,0.0000000,9.00,38.4133759,-110.7724533,1360.5000000,0.0,28.5,1.0,0.0,0.0,857,170,0,0,861.02,27.22,17.45,# data time:4720,pm2.5:6.445,pm10:5.704,O2:0.000,NO2:0.000,SO2:0.000,NH3:5.536
9:22:17,0,0,0,0,0,0,0,0,0,0,0,515,0,0,0,0,0.0000000,0.0000000,0.0000000,0.0000000,9.00,38.4133759,-110.7724533,1360.5000000,0.0,28.5,1.0,0.0,0.0,858,169,0,0,861.06,27.22,17.46,# data time:4720,pm2.5:6.445,pm10:5.704,O2:0.000,NO2:0.000,SO2:0.000,NH3:5.536
9:22:18,0,0,0,0,0,0,0,0,0,0,0,516,0,0,0,0,0.0000000,0.0000000,0.0000000,0.0000000,9.00,38.4133759,-110.7724533,1360.5000000,0.0,28.5,1.0,0.0,0.0,857,169,0,0,861.06,27.22,17.45,# data time:4720,pm2.5:6.445,pm10:5.704,O2:0.000,NO2:0.000,SO2:0.000,NH3:5.536
9:22:19,0,0,0,0,0,0,0,0,0,0,0,514,0,0,0,0,0.0000000,0.0000000,0.0000000,0.0000000,9.00,38.4133759,-110.7724533,1360.5000000,0.0,28.5,1.0,0.0,0.0,857,168,0,0,861.01,27.19,17.45,# data time:4720,pm2.5:6.445,pm10:5.704,O2:0.000,NO2:0.000,SO2:0.000,NH3:5.536
9:22:20,0,0,0,0,0,0,0,0,0,0,0,515,0,0,0,0,0.0000000,0.0000000,0.0000000,0.0000000,9.00,38.4133759,-110.7724533,1360.5000000,0.0,28.5,1.0,0.0,0.0,857,180,0,0,861.04,27.18,17.44,# data time:4720,pm2.5:6.445,pm10:5.704,O2:0.000,NO2:0.000,SO2:0.000,NH3:5.536
9:22:21,0,0,0,0,0,0,0,0,0,0,0,514,0,0,0,0,0.0000000,0.0000000,0.0000000,0.0000000,9.00,38.4133759,-110.7724533,1360.5000000,0.0,28.5,1.0,0.0,0.0,857,176,0,0,861.02,27.18,17.46,# data time:4720,pm2.5:6.445,pm10:5.704,O2:0.000,NO2:0.000,SO2:0.000,NH3:5.536
9:22:22,0,0,0,0,0,0,0,0,0,0,0,515,0,0,0,0,0.0000000,0.0000000,0.0000000,0.0000000,9.00,38.4133759,-110.7724533,1360.5000000,0.0,28.5,1.0,0.0,0.0,857,173,0,0,861.02,27.16,17.46,# data time:4720,pm2.5:6.445,pm10:5.704,O2:0.000,NO2:0.000,SO2:0.000,NH3:5.536
9:22:23,0,0,0,0,0,0,0,0,0,0,0,515,0,0,0,0,0.0000000,0.0000000,0.0000000,0.0000000,9.00,38.4133759,-110.7724533,1360.5000000,0.0,28.5,1.0,0.0,0.0,857,171,0,0,861.03,27.19,17.47,# data time:4720,pm2.5:6.445,pm10:5.704,O2:0.000,NO2:0.000,SO2:0.000,NH3:5.536
9:22:24,0,0,0,0,0,0,0,0,0,0,0,515,0,0,0,0,0.0000000,0.0000000,0.0000000,0.0000000,9.00,38.4133759,-110.7724533,1360.5000000,0.0,28.5,1.0,0.0,0.0,857,151,0,0,861.07,27.21,17.48,# data time:4730,pm2.5:6.445,pm10:5.704,O2:0.000,NO2:0.000,SO2:0.000,NH3:5.536
9:22:25,0,0,0,0,0,0,0,0,0,0,0,514,0,0,0,0,0.0000000,0.0000000,0.0000000,0.0000000,9.00,38.4133759,-110.7724533,1360.5000000,0.0,28.5,1.0,0.0,0.0,858,160,0,0,861.00,27.16,17.49,# data time:4730,pm2.5:6.445,pm10:5.704,O2:0.000,NO2:0.000,SO2:0.000,NH3:5.536
9:22:26,0,0,0,0,0,0,0,0,0,0,0,514,0,0,0,0,0.0000000,0.0000000,0.0000000,0.0000000,9.00,38.4133759,-110.7724533,1360.5000000,0.0,28.5,1.0,0.0,0.0,858,161,0,0,861.02,27.18,17.50,# data time:4730,pm2.5:6.445,pm10:5.704,O2:0.000,NO2:0.000,SO2:0.000,NH3:5.536
9:22:27,0,0,0,0,0,0,0,0,0,0,0,514,0,0,0,0,0.0000000,0.0000000,0.0000000,0.0000000,9.00,38.4133759,-110.7724533,1360.5000000,0.0,28.5,1.0,0.0,0.0,857,165,0,0,861.01,27.15,17.51,# data time:4730,pm2.5:6.445,pm10:5.704,O2:0.000,NO2:0.000,SO2:0.000,NH3:5.536
9:22:28,0,0,0,0,0,0,0,0,0,0,0,514,0,0,0,0,0.0000000,0.0000000,0.0000000,0.0000000,9.00,38.4133759,-110.7724533,1360.5000000,0.0,28.5,1.0,0.0,0.0,857,166,0,0,861.07,27.13,17.52,# data time:4730,pm2.5:6.445,pm10:5.704,O2:0.000,NO2:0.000,SO2:0.000,NH3:5.536
9:22:29,0,0,0,0,0,0,0,0,0,0,0,515,0,0,0,0,0.0000000,0.0000000,0.0000000,0.0000000,9.00,38.4133759,-110.7724533,1360.5000000,0.0,28.5,1.0,0.0,0.0,857,168,0,0,861.01,27.13,17.53,# data time:4730,pm2.5:6.445,pm10:5.704,O2:0.000,NO2:0.000,SO2:0.000,NH3:5.536
9:22:30,0,0,0,0,0,0,0,0,0,0,0,515,0,0,0,0,0.0000000,0.0000000,0.0000000,0.0000000,9.00,38.4133759,-110.7724533,1360.5000000,0.0,28.5,1.0,0.0,0.0,857,163,0,0,861.02,27.12,17.52,# data time:4730,pm2.5:6.445,pm10:5.704,O2:0.000,NO2:0.000,SO2:0.000,NH3:5.536
9:22:31,0,0,0,0,0,0,0,0,0,0,0,514,0,0,0,0,0.0000000,0.0000000,0.0000000,0.0000000,9.00,38.4133759,-110.7724533,1360.5000000,0.0,28.5,1.0,0.0,0.0,857,166,0,0,861.05,27.10,17.52,# data time:4730,pm2.5:6.445,pm10:5.704,O2:0.000,NO2:0.000,SO2:0.000,NH3:5.536
9:22:32,0,0,0,0,0,0,0,0,0,0,0,514,0,0,0,0,0.0000000,0.0000000,0.0000000,0.0000000,9.00,38.4133759,-110.7724533,1360.5000000,0.0,28.5,1.0,0.0,0.0,857,166,0,0,861.06,27.10,17.52,# data time:4730,pm2.5:6.445,pm10:5.704,O2:0.000,NO2:0.000,SO2:0.000,NH3:5.536
9:22:33,0,0,0,0,0,0,0,0,0,0,0,514,0,0,0,0,0.0000000,0.0000000,0.0000000,0.0000000,9.00,38.4133759,-110.7724533,1360.5000000,0.0,28.5,1.0,0.0,0.0,857,167,0,0,861.11,27.12,17.53,# data time:4730,pm2.5:6.445,pm10:5.704,O2:0.000,NO2:0.000,SO2:0.000,NH3:5.536
9:22:34,0,0,0,0,0,0,0,0,0,0,0,515,0,0,0,0,0.0000000,0.0000000,0.0000000,0.0000000,9.00,38.4133759,-110.7724533,1360.5000000,0.0,28.5,1.0,0.0,0.0,857,169,0,0,861.05,27.12,17.54,# data time:4740,pm2.5:6.445,pm10:5.704,O2:0.000,NO2:0.000,SO2:0.000,NH3:5.536
