Time, Motor A Speed, Motor A Dir, Motor B Speed, Motor B Dir, Servo Rail Current Sensor, Servo Pos - Arm L, Servo Pos - Arm R, Servo Pos - End, Servo Pos - Hopper, Servo Pos - Lid, Servo Pos - Extra, Servo Current, LED - Front L, LED - Front R, LED - Back L, LED - Back R, IMU Pitch, IMU Roll, IMU Yaw, Compass Heading, GPS Sats, GPS Latitude, GPS Longitude, GPS Altitude, GPS Speed, GPS Angle, GPS HDOP, GPS VDOP, GPS PDOP, Battery, Wind, Comm Xbee Latency, Comm Arduino Latency, Pressure, Humidity, Temperature, uRADMonitor
8:33:38,0,0,0,0,0,0,0,0,0,0,0,513,0,0,0,0,0.0000000,0.0000000,0.0000000,0.0000000,10.00,38.4133186,-110.7824249,1364.6999512,0.0,36.9,0.8,0.0,0.0,864,137,0,0,860.46,27.95,15.08,# data time:1800,pm2.5:6.445,pm10:5.704,O2:0.000,NO2:0.000,SO2:0.000,NH3:5.536
8:33:39,0,0,0,0,0,0,0,0,0,0,0,514,0,0,0,0,0.0000000,0.0000000,0.0000000,0.0000000,10.00,38.4133186,-110.7824249,1364.6999512,0.0,36.9,0.8,0.0,0.0,863,138,0,0,860.46,27.99,15.07,# data time:1800,pm2.5:6.445,pm10:5.704,O2:0.000,NO2:0.000,SO2:0.000,NH3:5.536
8:33:40,0,0,0,0,0,0,0,0,0,0,0,514,0,0,0,0,0.0000000,0.0000000,0.0000000,0.0000000,10.00,38.4133186,-110.7824249,1364.6999512,0.1,36.9,0.8,0.0,0.0,864,137,0,0,860.49,28.02,15.07,# data time:1800,pm2.5:6.445,pm10:5.704,O2:0.000,NO2:0.000,SO2:0.000,NH3:5.536
8:33:41,0,0,0,0,0,0,0,0,0,0,0,513,0,0,0,0,0.0000000,0.0000000,0.0000000,0.0000000,10.00,38.4133186,-110.7824249,1364.6999512,0.1,36.9,0.8,0.0,0.0,863,137,0,0,860.48,28.05,15.05,# data time:1800,pm2.5:6.445,pm10:5.704,O2:0.000,NO2:0.000,SO2:0.000,NH3:5.536
8:33:42,0,0,0,0,0,0,0,0,0,0,0,514,0,0,0,0,0.0000000,0.0000000,0.0000000,0.0000000,10.00,38.4133186,-110.7824249,1364.6999512,0.0,36.9,0.8,0.0,0.0,864,146,0,0,860.48,28.09,15.05,# data time:1800,pm2.5:6.445,pm10:5.704,O2:0.000,NO2:0.000,SO2:0.000,NH3:5.536
8:33:43,0,0,0,0,0,0,0,0,0,0,0,514,0,0,0,0,0.0000000,0.0000000,0.0000000,0.0000000,10.00,38.4133186,-110.7824249,1364.6999512,0.0,36.9,0.8,0.0,0.0,864,137,0,0,860.52,28.12,15.05,# data time:1800,pm2.5:6.445,pm10:5.704,O2:0.000,NO2:0.000,SO2:0.000,NH3:5.536
8:33:44,0,0,0,0,0,0,0,0,0,0,0,514,0,0,0,0,0.0000000,0.0000000,0.0000000,0.0000000,10.00,38.4133186,-110.7824097,1364.6999512,0.1,36.9,0.8,0.0,0.0,864,143,0,0,860.49,28.14,15.05,# data time:1800,pm2.5:6.445,pm10:5.704,O2:0.000,NO2:0.000,SO2:0.000,NH3:5.536
8:33:45,0,0,0,0,0,0,0,0,0,0,0,514,0,0,0,0,0.0000000,0.0000000,0.0000000,0.0000000,10.00,38.4133186,-110.7824097,1364.6999512,0.1,36.9,0.8,0.0,0.0,864,141,0,0,860.47,28.18,15.04,# data time:1810,pm2.5:6.445,pm10:5.704,O2:0.000,NO2:0.000,SO2:0.000,NH3:5.536
8:33:47,0,0,0,0,0,0,0,0,0,0,0,513,0,0,0,0,0.0000000,0.0000000,0.0000000,0.0000000,10.00,38.4133186,-110.7824249,1364.6999512,0.1,36.9,0.8,0.0,0.0,864,142,0,0,860.47,28.24,15.04,# data time:1810,pm2.5:6.445,pm10:5.704,O2:0.000,NO2:0.000,SO2:0.000,NH3:5.536
8:33:48,0,0,0,0,0,0,0,0,0,0,0,514,0,0,0,0,0.0000000,0.0000000,0.0000000,0.0000000,10.00,38.4133186,-110.7824249,1364.6999512,0.1,36.9,0.8,0.0,0.0,864,141,0,0,860.49,28.28,15.03,# data time:1810,pm2.5:6.445,pm10:5.704,O2:0.000,NO2:0.000,SO2:0.000,NH3:5.536
8:33:49,0,0,0,0,0,0,0,0,0,0,0,514,0,0,0,0,0.0000000,0.0000000,0.0000000,0.0000000,10.00,38.4133186,-110.7824249,1364.6999512,0.1,36.9,0.8,0.0,0.0,864,138,0,0,860.52,28.32,15.03,# data time:1810,pm2.5:6.445,pm10:5.704,O2:0.000,NO2:0.000,SO2:0.000,NH3:5.536
8:33:50,0,0,0,0,0,0,0,0,0,0,0,514,0,0,0,0,0.0000000,0.0000000,0.0000000,0.0000000,10.00,38.4133186,-110.7824249,1364.6999512,0.0,36.9,0.8,0.0,0.0,864,137,0,0,860.49,28.35,15.04,# data time:1810,pm2.5:6.445,pm10:5.704,O2:0.000,NO2:0.000,SO2:0.000,NH3:5.536
8:33:51,0,0,0,0,0,0,0,0,0,0,0,515,0,0,0,0,0.0000000,0.0000000,0.0000000,0.0000000,10.00,38.4133186,-110.7824249,1364.6999512,0.1,36.9,0.8,0.0,0.0,864,136,0,0,860.51,28.38,15.04,# data time:1810,pm2.5:6.445,pm10:5.704,O2:0.000,NO2:0.000,SO2:0.000,NH3:5.536
8:33:52,0,0,0,0,0,0,0,0,0,0,0,513,0,0,0,0,0.0000000,0.0000000,0.0000000,0.0000000,10.00,38.4133186,-110.7824249,1364.6999512,0.0,36.9,0.8,0.0,0.0,864,137,0,0,860.49,28.40,15.04,# data time:1810,pm2.5:6.445,pm10:5.704,O2:0.000,NO2:0.000,SO2:0.000,NH3:5.536
8:33:53,0,0,0,0,0,0,0,0,0,0,0,514,0,0,0,0,0.0000000,0.0000000,0.0000000,0.0000000,10.00,38.4133186,-110.7824249,1364.6999512,0.0,36.9,0.8,0.0,0.0,864,135,0,0,860.51,28.38,15.05,# data time:1810,pm2.5:6.445,pm10:5.704,O2:0.000,NO2:0.000,SO2:0.000,NH3:5.536
8:33:54,0,0,0,0,0,0,0,0,0,0,0,514,0,0,0,0,0.0000000,0.0000000,0.0000000,0.0000000,10.00,38.4133186,-110.7824249,1364.6999512,0.0,36.9,0.8,0.0,0.0,863,132,0,0,860.49,28.40,15.05,# data time:1810,pm2.5:6.445,pm10:5.704,O2:0.000,NO2:0.000,SO2:0.000,NH3:5.536
8:33:55,0,0,0,0,0,0,0,0,0,0,0,514,0,0,0,0,0.0000000,0.0000000,0.0000000,0.0000000,10.00,38.4133186,-110.7824249,1364.6999512,0.0,36.9,0.8,0.0,0.0,864,133,0,0,860.50,28.40,15.04,# data time:1810,pm2.5:6.445,pm10:5.704,O2:0.000,NO2:0.000,SO2:0.000,NH3:5.536
8:33:56,0,0,0,0,0,0,0,0,0,0,0,513,0,0,0,0,0.0000000,0.0000000,0.0000000,0.0000000,9.00,38.4133186,-110.7824249,1364.6999512,0.0,36.9,0.9,0.0,0.0,864,139,0,0,860.49,28.40,14.94,# data time:1820,pm2.5:6.445,pm10:5.704,O2:0.000,NO2:0.000,SO2:0.000,NH3:5.536
8:33:57,0,0,0,0,0,0,0,0,0,0,0,514,0,0,0,0,0.0000000,0.0000000,0.0000000,0.0000000,9.00,38.4133186,-110.7824249,1364.6999512,0.0,36.9,0.9,0.0,0.0,864,134,0,0,860.47,28.40,14.94,# data time:1820,pm2.5:6.445,pm10:5.704,O2:0.000,NO2:0.000,SO2:0.000,NH3:5.536
8:33:58,0,0,0,0,0,0,0,0,0,0,0,513,0,0,0,0,0.0000000,0.0000000,0.0000000,0.0000000,9.00,38.4133186,-110.7824249,1364.6999512,0.0,36.9,0.9,0.0,0.0,864,136,0,0,860.48,28.40,14.94,# data time:1820,pm2.5:6.445,pm10:5.704,O2:0.000,NO2:0.000,SO2:0.000,NH3:5.536
8:33:59,0,0,0,0,0,0,0,0,0,0,0,513,0,0,0,0,0.0000000,0.0000000,0.0000000,0.0000000,9.00,38.4133186,-110.7824249,1364.6999512,0.0,36.9,0.9,0.0,0.0,864,134,0,0,860.47,28.38,14.93,# data time:1820,pm2.5:6.445,pm10:5.704,O2:0.000,NO2:0.000,SO2:0.000,NH3:5.536
8:34:00,0,0,0,0,0,0,0,0,0,0,0,514,0,0,0,0,0.0000000,0.0000000,0.0000000,0.0000000,9.00,38.4133186,-110.7824249,1364.6999512,0.0,36.9,0.9,0.0,0.0,864,134,0,0,860.46,28.40,14.94,# data time:1820,pm2.5:6.445,pm10:5.704,O2:0.000,NO2:0.000,SO2:0.000,NH3:5.536
8:34:01,0,0,0,0,0,0,0,0,0,0,0,514,0,0,0,0,0.0000000,0.0000000,0.0000000,0.0000000,9.00,38.4133186,-110.7824249,1364.6999512,0.0,36.9,0.9,0.0,0.0,864,137,0,0,860.53,28.40,15.02,# data time:1820,pm2.5:6.445,pm10:5.704,O2:0.000,NO2:0.000,SO2:0.000,NH3:5.536
8:34:02,0,0,0,0,0,0,0,0,0,0,0,514,0,0,0,0,0.0000000,0.0000000,0.0000000,0.0000000,9.00,38.4133186,-110.7824249,1364.6999512,0.0,36.9,0.9,0.0,0.0,864,140,0,0,860.51,28.43,15.02,# data time:1820,pm2.5:6.445,pm10:5.704,O2:0.000,NO2:0.000,SO2:0.000,NH3:5.536
8:34:03,0,0,0,0,0,0,0,0,0,0,0,514,0,0,0,0,0.0000000,0.0000000,0.0000000,0.0000000,9.00,38.4133186,-110.7824249,1364.6999512,0.0,36.9,0.9,0.0,0.0,864,138,0,0,860.54,28.43,15.02,# data time:1820,pm2.5:6.445,pm10:5.704,O2:0.000,NO2:0.000,SO2:0.000,NH3:5.536
8:34:04,0,0,0,0,0,0,0,0,0,0,0,513,0,0,0,0,0.0000000,0.0000000,0.0000000,0.0000000,9.00,38.4133186,-110.7824249,1364.6999512,0.0,36.9,0.9,0.0,0.0,864,138,0,0,860.55,28.47,15.01,# data time:1820,pm2.5:6.445,pm10:5.704,O2:0.000,NO2:0.000,SO2:0.000,NH3:5.536
8:34:05,0,0,0,0,0,0,0,0,0,0,0,513,0,0,0,0,0.0000000,0.0000000,0.0000000,0.0000000,9.00,38.4133186,-110.7824249,1364.6999512,0.0,36.9,0.9,0.0,0.0,864,144,0,0,860.52,28.49,14.98,# data time:1820,pm2.5:6.445,pm10:5.704,O2:0.000,NO2:0.000,SO2:0.000,NH3:5.536
8:34:06,0,0,0,0,0,0,0,0,0,0,0,513,0,0,0,0,0.0000000,0.0000000,0.0000000,0.0000000,10.00,38.4133186,-110.7824249,1364.6999512,0.0,36.9,0.8,0.0,0.0,864,141,0,0,860.48,28.56,14.97,# data time:1830,pm2.5:6.445,pm10:5.704,O2:0.000,NO2:0.000,SO2:0.000,NH3:5.536
8:34:07,0,0,0,0,0,0,0,0,0,0,0,513,0,0,0,0,0.0000000,0.0000000,0.0000000,0.0000000,10.00,38.4133186,-110.7824249,1364.6999512,0.0,36.9,0.8,0.0,0.0,864,136,0,0,860.49,28.61,14.95,# data time:1830,pm2.5:6.445,pm10:5.704,O2:0.000,NO2:0.000,SO2:0.000,NH3:5.536
8:34:08,0,0,0,0,0,0,0,0,0,0,0,514,0,0,0,0,0.0000000,0.0000000,0.0000000,0.0000000,10.00,38.4133186,-110.7824249,1364.6999512,0.0,36.9,0.8,0.0,0.0,864,138,0,0,860.46,28.61,14.94,# data time:1830,pm2.5:6.445,pm10:5.704,O2:0.000,NO2:0.000,SO2:0.000,NH3:5.536
8:34:09,0,0,0,0,0,0,0,0,0,0,0,514,0,0,0,0,0.0000000,0.0000000,0.0000000,0.0000000,10.00,38.4133186,-110.7824249,1364.6999512,0.0,36.9,0.8,0.0,0.0,864,136,0,0,860.47,28.66,14.93,# data time:1830,pm2.5:6.445,pm10:5.704,O2:0.000,NO2:0.000,SO2:0.000,NH3:5.536
8:34:10,0,0,0,0,0,0,0,0,0,0,0,513,0,0,0,0,0.0000000,0.0000000,0.0000000,0.0000000,10.00,38.4133186,-110.7824249,1364.6999512,0.0,36.9,0.8,0.0,0.0,864,134,0,0,860.48,28.70,14.93,# data time:1830,pm2.5:6.445,pm10:5.704,O2:0.000,NO2:0.000,SO2:0.000,NH3:5.536
8:34:11,0,0,0,0,0,0,0,0,0,0,0,513,0,0,0,0,0.0000000,0.0000000,0.0000000,0.0000000,10.00,38.4133186,-110.7824249,1364.6999512,0.0,36.9,0.8,0.0,0.0,864,136,0,0,860.43,28.70,14.94,# data time:1830,pm2.5:6.445,pm10:5.704,O2:0.000,NO2:0.000,SO2:0.000,NH3:5.536
8:34:12,0,0,0,0,0,0,0,0,0,0,0,513,0,0,0,0,0.0000000,0.0000000,0.0000000,0.0000000,10.00,38.4133186,-110.7824249,1364.6999512,0.0,36.9,0.8,0.0,0.0,864,133,0,0,860.36,28.69,14.93,# data time:1830,pm2.5:6.445,pm10:5.704,O2:0.000,NO2:0.000,SO2:0.000,NH3:5.536
8:34:13,0,0,0,0,0,0,0,0,0,0,0,513,0,0,0,0,0.0000000,0.0000000,0.0000000,0.0000000,10.00,38.4133186,-110.7824249,1364.6999512,0.0,36.9,0.8,0.0,0.0,864,136,0,0,860.49,28.69,14.94,# data time:1830,pm2.5:6.445,pm10:5.704,O2:0.000,NO2:0.000,SO2:0.000,NH3:5.536
8:34:14,0,0,0,0,0,0,0,0,0,0,0,513,0,0,0,0,0.0000000,0.0000000,0.0000000,0.0000000,10.00,38.4133186,-110.7824249,1364.6999512,0.0,36.9,0.8,0.0,0.0,864,136,0,0,860.40,28.67,14.94,# data time:1830,pm2.5:6.445,pm10:5.704,O2:0.000,NO2:0.000,SO2:0.000,NH3:5.536
8:34:15,0,0,0,0,0,0,0,0,0,0,0,514,0,0,0,0,0.0000000,0.0000000,0.0000000,0.0000000,10.00,38.4133186,-110.7824249,1364.6999512,0.0,36.9,0.8,0.0,0.0,864,134,0,0,860.43,28.66,14.96,# data time:1840,pm2.5:6.445,pm10:5.704,O2:0.000,NO2:0.000,SO2:0.000,NH3:5.762
8:34:16,0,0,0,0,0,0,0,0,0,0,0,513,0,0,0,0,0.0000000,0.0000000,0.0000000,0.0000000,10.00,38.4133186,-110.7824249,1364.6999512,0.0,36.9,0.8,0.0,0.0,864,138,0,0,860.42,28.72,14.95,# data time:1840,pm2.5:6.445,pm10:5.704,O2:0.000,NO2:0.000,SO2:0.000,NH3:5.762
8:34:17,0,0,0,0,0,0,0,0,0,0,0,513,0,0,0,0,0.0000000,0.0000000,0.0000000,0.0000000,10.00,38.4133186,-110.7824249,1364.6999512,0.0,36.9,0.8,0.0,0.0,864,141,0,0,860.45,28.75,14.92,# data time:1840,pm2.5:6.445,pm10:5.704,O2:0.000,NO2:0.000,SO2:0.000,NH3:5.762
8:34:18,0,0,0,0,0,0,0,0,0,0,0,514,0,0,0,0,0.0000000,0.0000000,0.0000000,0.0000000,10.00,38.4133186,-110.7824249,1364.6999512,0.0,36.9,0.8,0.0,0.0,864,138,0,0,860.41,28.84,14.84,# data time:1840,pm2.5:6.445,pm10:5.704,O2:0.000,NO2:0.000,SO2:0.000,NH3:5.762
8:34:19,0,0,0,0,0,0,0,0,0,0,0,514,0,0,0,0,0.0000000,0.0000000,0.0000000,0.0000000,10.00,38.4133186,-110.7824249,1364.6999512,0.0,36.9,0.8,0.0,0.0,864,138,0,0,860.44,28.95,14.82,# data time:1840,pm2.5:6.445,pm10:5.704,O2:0.000,NO2:0.000,SO2:0.000,NH3:5.762
8:34:20,0,0,0,0,0,0,0,0,0,0,0,514,0,0,0,0,0.0000000,0.0000000,0.0000000,0.0000000,10.00,38.4133186,-110.7824249,1364.6999512,0.0,36.9,0.8,0.0,0.0,864,134,0,0,860.47,29.01,14.80,# data time:1840,pm2.5:6.445,pm10:5.704,O2:0.000,NO2:0.000,SO2:0.000,NH3:5.762
8:34:21,0,0,0,0,0,0,0,0,0,0,0,514,0,0,0,0,0.0000000,0.0000000,0.0000000,0.0000000,10.00,38.4133186,-110.7824249,1364.6999512,0.0,36.9,0.8,0.0,0.0,864,135,0,0,860.43,29.07,14.74,# data time:1840,pm2.5:6.445,pm10:5.704,O2:0.000,NO2:0.000,SO2:0.000,NH3:5.762
8:34:22,0,0,0,0,0,0,0,0,0,0,0,514,0,0,0,0,0.0000000,0.0000000,0.0000000,0.0000000,10.00,38.4133186,-110.7824249,1364.6999512,0.0,36.9,0.8,0.0,0.0,864,135,0,0,860.50,29.16,14.71,# data time:1840,pm2.5:6.445,pm10:5.704,O2:0.000,NO2:0.000,SO2:0.000,NH3:5.762
8:34:23,0,0,0,0,0,0,0,0,0,0,0,514,0,0,0,0,0.0000000,0.0000000,0.0000000,0.0000000,10.00,38.4133186,-110.7824249,1364.6999512,0.0,36.9,0.8,0.0,0.0,864,134,0,0,860.49,29.19,14.73,# data time:1840,pm2.5:6.445,pm10:5.704,O2:0.000,NO2:0.000,SO2:0.000,NH3:5.762
8:34:24,0,0,0,0,0,0,0,0,0,0,0,514,0,0,0,0,0.0000000,0.0000000,0.0000000,0.0000000,10.00,38.4133186,-110.7824249,1364.6999512,0.0,36.9,0.8,0.0,0.0,864,138,0,0,860.46,29.21,14.77,# data time:1840,pm2.5:6.445,pm10:5.704,O2:0.000,NO2:0.000,SO2:0.000,NH3:5.762
8:34:25,0,0,0,0,0,0,0,0,0,0,0,513,0,0,0,0,0.0000000,0.0000000,0.0000000,0.0000000,10.00,38.4133186,-110.7824249,1364.6999512,0.0,36.9,0.8,0.0,0.0,864,135,0,0,860.49,29.22,14.78,# data time:1850,pm2.5:5.640,pm10:4.991,O2:0.000,NO2:0.000,SO2:0.000,NH3:5.988
8:34:26,0,0,0,0,0,0,0,0,0,0,0,514,0,0,0,0,0.0000000,0.0000000,0.0000000,0.0000000,10.00,38.4133186,-110.7824249,1364.6999512,0.0,36.9,0.8,0.0,0.0,864,138,0,0,860.46,29.24,14.79,# data time:1850,pm2.5:5.640,pm10:4.991,O2:0.000,NO2:0.000,SO2:0.000,NH3:5.988
8:34:27,0,0,0,0,0,0,0,0,0,0,0,514,0,0,0,0,0.0000000,0.0000000,0.0000000,0.0000000,10.00,38.4133186,-110.7824249,1364.6999512,0.0,36.9,0.8,0.0,0.0,864,135,0,0,860.46,29.24,14.81,# data time:1850,pm2.5:5.640,pm10:4.991,O2:0.000,NO2:0.000,SO2:0.000,NH3:5.988
8:34:28,0,0,0,0,0,0,0,0,0,0,0,513,0,0,0,0,0.0000000,0.0000000,0.0000000,0.0000000,10.00,38.4133186,-110.7824249,1364.6999512,0.0,36.9,0.8,0.0,0.0,864,132,0,0,860.46,29.21,14.82,# data time:1850,pm2.5:5.640,pm10:4.991,O2:0.000,NO2:0.000,SO2:0.000,NH3:5.988
8:34:29,0,0,0,0,0,0,0,0,0,0,0,513,0,0,0,0,0.0000000,0.0000000,0.0000000,0.0000000,10.00,38.4133186,-110.7824249,1364.6999512,0.0,36.9,0.8,0.0,0.0,864,135,0,0,860.53,29.22,14.83,# data time:1850,pm2.5:5.640,pm10:4.991,O2:0.000,NO2:0.000,SO2:0.000,NH3:5.988
8:34:30,0,0,0,0,0,0,0,0,0,0,0,513,0,0,0,0,0.0000000,0.0000000,0.0000000,0.0000000,10.00,38.4133186,-110.7824249,1364.6999512,0.0,36.9,0.8,0.0,0.0,864,133,0,0,860.50,29.24,14.82,# data time:1850,pm2.5:5.640,pm10:4.991,O2:0.000,NO2:0.000,SO2:0.000,NH3:5.988
8:34:31,0,0,0,0,0,0,0,0,0,0,0,514,0,0,0,0,0.0000000,0.0000000,0.0000000,0.0000000,10.00,38.4133186,-110.7824249,1364.6999512,0.0,36.9,0.8,0.0,0.0,864,134,0,0,860.49,29.25,14.82,# data time:1850,pm2.5:5.640,pm10:4.991,O2:0.000,NO2:0.000,SO2:0.000,NH3:5.988
8:34:32,0,0,0,0,0,0,0,0,0,0,0,514,0,0,0,0,0.0000000,0.0000000,0.0000000,0.0000000,10.00,38.4133186,-110.7824249,1364.6999512,0.0,36.9,0.8,0.0,0.0,864,137,0,0,860.50,29.25,14.83,# data time:1850,pm2.5:5.640,pm10:4.991,O2:0.000,NO2:0.000,SO2:0.000,NH3:5.988
8:34:33,0,0,0,0,0,0,0,0,0,0,0,514,0,0,0,0,0.0000000,0.0000000,0.0000000,0.0000000,10.00,38.4133186,-110.7824249,1364.6999512,0.0,36.9,0.8,0.0,0.0,864,140,0,0,860.46,29.25,14.85,# data time:1850,pm2.5:5.640,pm10:4.991,O2:0.000,NO2:0.000,SO2:0.000,NH3:5.988
8:34:34,0,0,0,0,0,0,0,0,0,0,0,513,0,0,0,0,0.0000000,0.0000000,0.0000000,0.0000000,10.00,38.4133186,-110.7824249,1364.6999512,0.0,36.9,0.8,0.0,0.0,864,138,0,0,860.48,29.27,14.86,# data time:1850,pm2.5:5.640,pm10:4.991,O2:0.000,NO2:0.000,SO2:0.000,NH3:5.988
8:34:35,0,0,0,0,0,0,0,0,0,0,0,513,0,0,0,0,0.0000000,0.0000000,0.0000000,0.0000000,10.00,38.4133186,-110.7824249,1364.6999512,0.0,36.9,0.8,0.0,0.0,864,139,0,0,860.49,29.25,14.86,# data time:1860,pm2.5:6.445,pm10:5.704,O2:0.000,NO2:0.000,SO2:0.000,NH3:5.988
8:34:36,0,0,0,0,0,0,0,0,0,0,0,513,0,0,0,0,0.0000000,0.0000000,0.0000000,0.0000000,10.00,38.4133186,-110.7824249,1364.6999512,0.0,36.9,0.8,0.0,0.0,864,137,0,0,860.46,29.25,14.87,# data time:1860,pm2.5:6.445,pm10:5.704,O2:0.000,NO2:0.000,SO2:0.000,NH3:5.988
8:34:37,0,0,0,0,0,0,0,0,0,0,0,513,0,0,0,0,0.0000000,0.0000000,0.0000000,0.0000000,10.00,38.4133186,-110.7824249,1364.6999512,0.0,36.9,0.8,0.0,0.0,864,134,0,0,860.49,29.22,14.88,# data time:1860,pm2.5:6.445,pm10:5.704,O2:0.000,NO2:0.000,SO2:0.000,NH3:5.988
8:34:38,0,0,0,0,0,0,0,0,0,0,0,513,0,0,0,0,0.0000000,0.0000000,0.0000000,0.0000000,10.00,38.4133186,-110.7824249,1364.6999512,0.0,36.9,0.8,0.0,0.0,864,138,0,0,860.53,29.24,14.89,# data time:1860,pm2.5:6.445,pm10:5.704,O2:0.000,NO2:0.000,SO2:0.000,NH3:5.988
8:34:39,0,0,0,0,0,0,0,0,0,0,0,513,0,0,0,0,0.0000000,0.0000000,0.0000000,0.0000000,10.00,38.4133186,-110.7824249,1364.6999512,0.0,36.9,0.8,0.0,0.0,863,137,0,0,860.51,29.24,14.89,# data time:1860,pm2.5:6.445,pm10:5.704,O2:0.000,NO2:0.000,SO2:0.000,NH3:5.988
8:34:40,0,0,0,0,0,0,0,0,0,0,0,514,0,0,0,0,0.0000000,0.0000000,0.0000000,0.0000000,10.00,38.4133186,-110.7824249,1364.6999512,0.0,36.9,0.8,0.0,0.0,865,140,0,0,860.48,29.22,14.90,# data time:1860,pm2.5:6.445,pm10:5.704,O2:0.000,NO2:0.000,SO2:0.000,NH3:5.988
8:34:42,0,0,0,0,0,0,0,0,0,0,0,513,0,0,0,0,0.0000000,0.0000000,0.0000000,0.0000000,10.00,38.4133186,-110.7824249,1364.6999512,0.0,36.9,0.8,0.0,0.0,863,138,0,0,860.53,29.24,14.91,# data time:1860,pm2.5:6.445,pm10:5.704,O2:0.000,NO2:0.000,SO2:0.000,NH3:5.988
8:34:43,0,0,0,0,0,0,0,0,0,0,0,514,0,0,0,0,0.0000000,0.0000000,0.0000000,0.0000000,10.00,38.4133186,-110.7824249,1364.6999512,0.0,36.9,0.8,0.0,0.0,864,130,0,0,860.49,29.21,14.91,# data time:1860,pm2.5:6.445,pm10:5.704,O2:0.000,NO2:0.000,SO2:0.000,NH3:5.988
8:34:44,0,0,0,0,0,0,0,0,0,0,0,513,0,0,0,0,0.0000000,0.0000000,0.0000000,0.0000000,10.00,38.4133186,-110.7824249,1364.6999512,0.0,36.9,0.8,0.0,0.0,864,142,0,0,860.52,29.22,14.90,# data time:1860,pm2.5:6.445,pm10:5.704,O2:0.000,NO2:0.000,SO2:0.000,NH3:5.988
8:34:45,0,0,0,0,0,0,0,0,0,0,0,514,0,0,0,0,0.0000000,0.0000000,0.0000000,0.0000000,10.00,38.4133186,-110.7824249,1364.6999512,0.0,36.9,0.8,0.0,0.0,864,142,0,0,860.50,29.22,14.91,# data time:1860,pm2.5:6.445,pm10:5.704,O2:0.000,NO2:0.000,SO2:0.000,NH3:5.988
8:34:46,0,0,0,0,0,0,0,0,0,0,0,513,0,0,0,0,0.0000000,0.0000000,0.0000000,0.0000000,10.00,38.4133186,-110.7824249,1364.6999512,0.0,36.9,0.8,0.0,0.0,864,140,0,0,860.51,29.22,14.90,# data time:1870,pm2.5:6.445,pm10:5.704,O2:0.000,NO2:0.000,SO2:0.000,NH3:5.988
8:34:47,0,0,0,0,0,0,0,0,0,0,0,513,0,0,0,0,0.0000000,0.0000000,0.0000000,0.0000000,10.00,38.4133186,-110.7824249,1364.6999512,0.0,36.9,0.8,0.0,0.0,864,139,0,0,860.51,29.22,14.91,# data time:1870,pm2.5:6.445,pm10:5.704,O2:0.000,NO2:0.000,SO2:0.000,NH3:5.988
8:34:48,0,0,0,0,0,0,0,0,0,0,0,514,0,0,0,0,0.0000000,0.0000000,0.0000000,0.0000000,10.00,38.4133186,-110.7824249,1364.6999512,0.0,36.9,0.8,0.0,0.0,863,143,0,0,860.48,29.19,14.92,# data time:1870,pm2.5:6.445,pm10:5.704,O2:0.000,NO2:0.000,SO2:0.000,NH3:5.988
8:34:49,0,0,0,0,0,0,0,0,0,0,0,513,0,0,0,0,0.0000000,0.0000000,0.0000000,0.0000000,10.00,38.4133186,-110.7824249,1364.6999512,0.0,36.9,0.8,0.0,0.0,864,141,0,0,860.55,29.24,14.91,# data time:1870,pm2.5:6.445,pm10:5.704,O2:0.000,NO2:0.000,SO2:0.000,NH3:5.988
8:34:50,0,0,0,0,0,0,0,0,0,0,0,513,0,0,0,0,0.0000000,0.0000000,0.0000000,0.0000000,10.00,38.4133186,-110.7824249,1364.6999512,0.0,36.9,0.8,0.0,0.0,864,138,0,0,860.49,29.21,14.84,# data time:1870,pm2.5:6.445,pm10:5.704,O2:0.000,NO2:0.000,SO2:0.000,NH3:5.988
8:34:51,0,0,0,0,0,0,0,0,0,0,0,513,0,0,0,0,0.0000000,0.0000000,0.0000000,0.0000000,10.00,38.4133186,-110.7824249,1364.6999512,0.0,36.9,0.8,0.0,0.0,864,141,0,0,860.49,29.21,14.85,# data time:1870,pm2.5:6.445,pm10:5.704,O2:0.000,NO2:0.000,SO2:0.000,NH3:5.988
8:34:52,0,0,0,0,0,0,0,0,0,0,0,514,0,0,0,0,0.0000000,0.0000000,0.0000000,0.0000000,10.00,38.4133186,-110.7824249,1364.8000488,0.0,36.9,0.8,0.0,0.0,864,144,0,0,860.46,29.19,14.86,# data time:1870,pm2.5:6.445,pm10:5.704,O2:0.000,NO2:0.000,SO2:0.000,NH3:5.988
8:34:53,0,0,0,0,0,0,0,0,0,0,0,513,0,0,0,0,0.0000000,0.0000000,0.0000000,0.0000000,10.00,38.4133186,-110.7824249,1364.8000488,0.0,36.9,0.8,0.0,0.0,864,142,0,0,860.45,29.21,14.92,# data time:1870,pm2.5:6.445,pm10:5.704,O2:0.000,NO2:0.000,SO2:0.000,NH3:5.988
8:34:54,0,0,0,0,0,0,0,0,0,0,0,514,0,0,0,0,0.0000000,0.0000000,0.0000000,0.0000000,10.00,38.4133186,-110.7824249,1364.8000488,0.0,36.9,0.8,0.0,0.0,864,142,0,0,860.47,29.19,14.86,# data time:1870,pm2.5:6.445,pm10:5.704,O2:0.000,NO2:0.000,SO2:0.000,NH3:5.988
8:34:55,0,0,0,0,0,0,0,0,0,0,0,514,0,0,0,0,0.0000000,0.0000000,0.0000000,0.0000000,10.00,38.4133186,-110.7824249,1364.8000488,0.0,36.9,0.8,0.0,0.0,864,142,0,0,860.45,29.14,14.92,# data time:1870,pm2.5:6.445,pm10:5.704,O2:0.000,NO2:0.000,SO2:0.000,NH3:5.988
8:34:56,0,0,0,0,0,0,0,0,0,0,0,513,0,0,0,0,0.0000000,0.0000000,0.0000000,0.0000000,10.00,38.4133186,-110.7824249,1364.8000488,0.0,36.9,0.8,0.0,0.0,863,142,0,0,860.47,29.16,14.97,# data time:1880,pm2.5:5.640,pm10:4.991,O2:0.000,NO2:0.000,SO2:0.000,NH3:5.988
8:34:57,0,0,0,0,0,0,0,0,0,0,0,514,0,0,0,0,0.0000000,0.0000000,0.0000000,0.0000000,10.00,38.4133186,-110.7824249,1364.8000488,0.0,36.9,0.8,0.0,0.0,864,140,0,0,860.49,29.14,14.97,# data time:1880,pm2.5:5.640,pm10:4.991,O2:0.000,NO2:0.000,SO2:0.000,NH3:5.988
8:34:58,0,0,0,0,0,0,0,0,0,0,0,513,0,0,0,0,0.0000000,0.0000000,0.0000000,0.0000000,10.00,38.4133186,-110.7824249,1364.8000488,0.0,36.9,0.8,0.0,0.0,864,139,0,0,860.48,29.10,14.99,# data time:1880,pm2.5:5.640,pm10:4.991,O2:0.000,NO2:0.000,SO2:0.000,NH3:5.988
8:34:59,0,0,0,0,0,0,0,0,0,0,0,513,0,0,0,0,0.0000000,0.0000000,0.0000000,0.0000000,10.00,38.4133186,-110.7824249,1364.8000488,0.0,36.9,0.8,0.0,0.0,864,143,0,0,860.53,29.10,14.99,# data time:1880,pm2.5:5.640,pm10:4.991,O2:0.000,NO2:0.000,SO2:0.000,NH3:5.988
8:35:00,0,0,0,0,0,0,0,0,0,0,0,514,0,0,0,0,0.0000000,0.0000000,0.0000000,0.0000000,10.00,38.4133186,-110.7824249,1364.8000488,0.0,36.9,0.8,0.0,0.0,864,144,0,0,860.51,29.10,15.00,# data time:1880,pm2.5:5.640,pm10:4.991,O2:0.000,NO2:0.000,SO2:0.000,NH3:5.988
8:35:01,0,0,0,0,0,0,0,0,0,0,0,515,0,0,0,0,0.0000000,0.0000000,0.0000000,0.0000000,10.00,38.4133186,-110.7824249,1364.8000488,0.0,36.9,0.8,0.0,0.0,864,142,0,0,860.53,29.10,15.02,# data time:1880,pm2.5:5.640,pm10:4.991,O2:0.000,NO2:0.000,SO2:0.000,NH3:5.988
8:35:02,0,0,0,0,0,0,0,0,0,0,0,514,0,0,0,0,0.0000000,0.0000000,0.0000000,0.0000000,10.00,38.4133186,-110.7824249,1364.8000488,0.0,36.9,0.8,0.0,0.0,864,141,0,0,860.52,29.05,15.03,# data time:1880,pm2.5:5.640,pm10:4.991,O2:0.000,NO2:0.000,SO2:0.000,NH3:5.988
8:35:03,0,0,0,0,0,0,0,0,0,0,0,514,0,0,0,0,0.0000000,0.0000000,0.0000000,0.0000000,10.00,38.4133186,-110.7824249,1364.8000488,0.0,36.9,0.8,0.0,0.0,864,144,0,0,860.51,29.04,15.05,# data time:1880,pm2.5:5.640,pm10:4.991,O2:0.000,NO2:0.000,SO2:0.000,NH3:5.988
8:35:04,0,0,0,0,0,0,0,0,0,0,0,514,0,0,0,0,0.0000000,0.0000000,0.0000000,0.0000000,10.00,38.4133186,-110.7824249,1364.8000488,0.0,36.9,0.8,0.0,0.0,864,139,0,0,860.46,29.02,15.04,# data time:1880,pm2.5:5.640,pm10:4.991,O2:0.000,NO2:0.000,SO2:0.000,NH3:5.988
8:35:05,0,0,0,0,0,0,0,0,0,0,0,514,0,0,0,0,0.0000000,0.0000000,0.0000000,0.0000000,10.00,38.4133186,-110.7824249,1364.8000488,0.0,36.9,0.8,0.0,0.0,863,138,0,0,860.52,29.01,15.03,# data time:1890,pm2.5:6.445,pm10:5.704,O2:0.000,NO2:0.000,SO2:0.000,NH3:5.988
8:35:06,0,0,0,0,0,0,0,0,0,0,0,513,0,0,0,0,0.0000000,0.0000000,0.0000000,0.0000000,10.00,38.4133186,-110.7824249,1364.8000488,0.0,36.9,0.8,0.0,0.0,864,140,0,0,860.51,29.01,15.04,# data time:1890,pm2.5:6.445,pm10:5.704,O2:0.000,NO2:0.000,SO2:0.000,NH3:5.988
8:35:07,0,0,0,0,0,0,0,0,0,0,0,514,0,0,0,0,0.0000000,0.0000000,0.0000000,0.0000000,10.00,38.4133186,-110.7824249,1364.8000488,0.0,36.9,0.8,0.0,0.0,864,134,0,0,860.50,28.99,15.04,# data time:1890,pm2.5:6.445,pm10:5.704,O2:0.000,NO2:0.000,SO2:0.000,NH3:5.988
8:35:08,0,0,0,0,0,0,0,0,0,0,0,514,0,0,0,0,0.0000000,0.0000000,0.0000000,0.0000000,10.00,38.4133186,-110.7824249,1364.8000488,0.0,36.9,0.8,0.0,0.0,864,139,0,0,860.53,28.96,15.05,# data time:1890,pm2.5:6.445,pm10:5.704,O2:0.000,NO2:0.000,SO2:0.000,NH3:5.988
8:35:09,0,0,0,0,0,0,0,0,0,0,0,514,0,0,0,0,0.0000000,0.0000000,0.0000000,0.0000000,10.00,38.4133186,-110.7824249,1364.8000488,0.0,36.9,0.8,0.0,0.0,864,133,0,0,860.51,28.96,15.04,# data time:1890,pm2.5:6.445,pm10:5.704,O2:0.000,NO2:0.000,SO2:0.000,NH3:5.988
8:35:10,0,0,0,0,0,0,0,0,0,0,0,513,0,0,0,0,0.0000000,0.0000000,0.0000000,0.0000000,10.00,38.4133186,-110.7824249,1364.8000488,0.0,36.9,0.8,0.0,0.0,864,139,0,0,860.51,28.95,15.06,# data time:1890,pm2.5:6.445,pm10:5.704,O2:0.000,NO2:0.000,SO2:0.000,NH3:5.988
8:35:11,0,0,0,0,0,0,0,0,0,0,0,514,0,0,0,0,0.0000000,0.0000000,0.0000000,0.0000000,10.00,38.4133186,-110.7824249,1364.8000488,0.0,36.9,0.8,0.0,0.0,864,141,0,0,860.52,28.96,15.08,# data time:1890,pm2.5:6.445,pm10:5.704,O2:0.000,NO2:0.000,SO2:0.000,NH3:5.988
8:35:12,0,0,0,0,0,0,0,0,0,0,0,513,0,0,0,0,0.0000000,0.0000000,0.0000000,0.0000000,10.00,38.4133186,-110.7824249,1364.8000488,0.0,36.9,0.8,0.0,0.0,864,139,0,0,860.58,28.93,15.08,# data time:1890,pm2.5:6.445,pm10:5.704,O2:0.000,NO2:0.000,SO2:0.000,NH3:5.988
8:35:13,0,0,0,0,0,0,0,0,0,0,0,514,0,0,0,0,0.0000000,0.0000000,0.0000000,0.0000000,10.00,38.4133186,-110.7824249,1364.8000488,0.0,36.9,0.8,0.0,0.0,864,139,0,0,860.53,28.93,15.09,# data time:1890,pm2.5:6.445,pm10:5.704,O2:0.000,NO2:0.000,SO2:0.000,NH3:5.988
8:35:14,0,0,0,0,0,0,0,0,0,0,0,513,0,0,0,0,0.0000000,0.0000000,0.0000000,0.0000000,10.00,38.4133186,-110.7824249,1364.8000488,0.0,36.9,0.8,0.0,0.0,864,142,0,0,860.54,28.95,15.09,# data time:1890,pm2.5:6.445,pm10:5.704,O2:0.000,NO2:0.000,SO2:0.000,NH3:5.988
8:35:15,0,0,0,0,0,0,0,0,0,0,0,514,0,0,0,0,0.0000000,0.0000000,0.0000000,0.0000000,10.00,38.4133186,-110.7824249,1364.8000488,0.0,36.9,0.8,0.0,0.0,864,142,0,0,860.54,28.92,15.09,# data time:1900,pm2.5:6.445,pm10:5.704,O2:0.000,NO2:0.000,SO2:0.000,NH3:5.988
8:35:16,0,0,0,0,0,0,0,0,0,0,0,514,0,0,0,0,0.0000000,0.0000000,0.0000000,0.0000000,10.00,38.4133186,-110.7824249,1364.8000488,0.0,36.9,0.8,0.0,0.0,864,140,0,0,860.55,28.95,15.09,# data time:1900,pm2.5:6.445,pm10:5.704,O2:0.000,NO2:0.000,SO2:0.000,NH3:5.988
8:35:17,0,0,0,0,0,0,0,0,0,0,0,514,0,0,0,0,0.0000000,0.0000000,0.0000000,0.0000000,10.00,38.4133186,-110.7824249,1364.8000488,0.0,36.9,0.8,0.0,0.0,864,142,0,0,860.51,28.93,15.08,# data time:1900,pm2.5:6.445,pm10:5.704,O2:0.000,NO2:0.000,SO2:0.000,NH3:5.988
8:35:18,0,0,0,0,0,0,0,0,0,0,0,513,0,0,0,0,0.0000000,0.0000000,0.0000000,0.0000000,10.00,38.4133186,-110.7824249,1364.8000488,0.0,36.9,0.8,0.0,0.0,863,141,0,0,860.53,28.96,15.09,# data time:1900,pm2.5:6.445,pm10:5.704,O2:0.000,NO2:0.000,SO2:0.000,NH3:5.988
8:35:19,0,0,0,0,0,0,0,0,0,0,0,513,0,0,0,0,0.0000000,0.0000000,0.0000000,0.0000000,10.00,38.4133186,-110.7824249,1364.8000488,0.0,36.9,0.8,0.0,0.0,864,135,0,0,860.50,28.95,15.08,# data time:1900,pm2.5:6.445,pm10:5.704,O2:0.000,NO2:0.000,SO2:0.000,NH3:5.988
8:35:20,0,0,0,0,0,0,0,0,0,0,0,513,0,0,0,0,0.0000000,0.0000000,0.0000000,0.0000000,10.00,38.4133186,-110.7824249,1364.8000488,0.0,36.9,0.8,0.0,0.0,864,139,0,0,860.48,28.95,15.09,# data time:1900,pm2.5:6.445,pm10:5.704,O2:0.000,NO2:0.000,SO2:0.000,NH3:5.988
8:35:21,0,0,0,0,0,0,0,0,0,0,0,513,0,0,0,0,0.0000000,0.0000000,0.0000000,0.0000000,10.00,38.4133186,-110.7824249,1364.8000488,0.0,36.9,0.8,0.0,0.0,864,136,0,0,860.48,28.95,15.11,# data time:1900,pm2.5:6.445,pm10:5.704,O2:0.000,NO2:0.000,SO2:0.000,NH3:5.988
8:35:22,0,0,0,0,0,0,0,0,0,0,0,514,0,0,0,0,0.0000000,0.0000000,0.0000000,0.0000000,10.00,38.4133186,-110.7824249,1364.8000488,0.0,36.9,0.8,0.0,0.0,864,139,0,0,860.46,28.92,15.11,# data time:1900,pm2.5:6.445,pm10:5.704,O2:0.000,NO2:0.000,SO2:0.000,NH3:5.988
8:35:23,0,0,0,0,0,0,0,0,0,0,0,513,0,0,0,0,0.0000000,0.0000000,0.0000000,0.0000000,10.00,38.4133186,-110.7824249,1364.8000488,0.0,36.9,0.8,0.0,0.0,863,135,0,0,860.46,28.93,15.12,# data time:1900,pm2.5:6.445,pm10:5.704,O2:0.000,NO2:0.000,SO2:0.000,NH3:5.988
8:35:24,0,0,0,0,0,0,0,0,0,0,0,514,0,0,0,0,0.0000000,0.0000000,0.0000000,0.0000000,10.00,38.4133186,-110.7824249,1364.8000488,0.0,36.9,0.8,0.0,0.0,864,138,0,0,860.51,28.90,15.12,# data time:1900,pm2.5:6.445,pm10:5.704,O2:0.000,NO2:0.000,SO2:0.000,NH3:5.988
8:35:25,0,0,0,0,0,0,0,0,0,0,0,514,0,0,0,0,0.0000000,0.0000000,0.0000000,0.0000000,10.00,38.4133186,-110.7824249,1364.8000488,0.0,36.9,0.8,0.0,0.0,863,137,0,0,860.49,28.95,15.12,# data time:1910,pm2.5:6.445,pm10:5.704,O2:0.000,NO2:0.000,SO2:0.000,NH3:5.988
8:35:26,0,0,0,0,0,0,0,0,0,0,0,514,0,0,0,0,0.0000000,0.0000000,0.0000000,0.0000000,10.00,38.4133186,-110.7824249,1364.8000488,0.0,36.9,0.8,0.0,0.0,864,135,0,0,860.50,28.92,15.13,# data time:1910,pm2.5:6.445,pm10:5.704,O2:0.000,NO2:0.000,SO2:0.000,NH3:5.988
8:35:27,0,0,0,0,0,0,0,0,0,0,0,513,0,0,0,0,0.0000000,0.0000000,0.0000000,0.0000000,10.00,38.4133186,-110.7824249,1364.8000488,0.0,36.9,0.8,0.0,0.0,864,138,0,0,860.49,28.92,15.12,# data time:1910,pm2.5:6.445,pm10:5.704,O2:0.000,NO2:0.000,SO2:0.000,NH3:5.988
8:35:28,0,0,0,0,0,0,0,0,0,0,0,513,0,0,0,0,0.0000000,0.0000000,0.0000000,0.0000000,10.00,38.4133186,-110.7824249,1364.8000488,0.0,36.9,0.8,0.0,0.0,864,139,0,0,860.47,28.90,15.13,# data time:1910,pm2.5:6.445,pm10:5.704,O2:0.000,NO2:0.000,SO2:0.000,NH3:5.988
8:35:29,0,0,0,0,0,0,0,0,0,0,0,513,0,0,0,0,0.0000000,0.0000000,0.0000000,0.0000000,10.00,38.4133186,-110.7824249,1364.8000488,0.3,36.9,0.8,0.0,0.0,864,139,0,0,860.54,28.90,15.14,# data time:1910,pm2.5:6.445,pm10:5.704,O2:0.000,NO2:0.000,SO2:0.000,NH3:5.988
8:35:30,0,0,0,0,0,0,0,0,0,0,0,513,0,0,0,0,0.0000000,0.0000000,0.0000000,0.0000000,10.00,38.4133186,-110.7824249,1364.8000488,0.5,36.9,0.8,0.0,0.0,864,140,0,0,860.52,28.89,15.14,# data time:1910,pm2.5:6.445,pm10:5.704,O2:0.000,NO2:0.000,SO2:0.000,NH3:5.988
8:35:31,0,0,0,0,0,0,0,0,0,0,0,515,0,0,0,0,0.0000000,0.0000000,0.0000000,0.0000000,10.00,38.4133186,-110.7824249,1364.8000488,0.9,36.9,0.8,0.0,0.0,864,139,0,0,860.52,28.92,15.15,# data time:1910,pm2.5:6.445,pm10:5.704,O2:0.000,NO2:0.000,SO2:0.000,NH3:5.988
8:35:32,0,0,0,0,0,0,0,0,0,0,0,513,0,0,0,0,0.0000000,0.0000000,0.0000000,0.0000000,10.00,38.4133186,-110.7824249,1364.8000488,0.5,36.9,0.8,0.0,0.0,864,136,0,0,860.53,28.90,15.15,# data time:1910,pm2.5:6.445,pm10:5.704,O2:0.000,NO2:0.000,SO2:0.000,NH3:5.988
8:35:33,0,0,0,0,0,0,0,0,0,0,0,514,0,0,0,0,0.0000000,0.0000000,0.0000000,0.0000000,10.00,38.4133148,-110.7824249,1364.8000488,0.3,36.9,0.8,0.0,0.0,864,137,0,0,860.51,28.89,15.16,# data time:1910,pm2.5:6.445,pm10:5.704,O2:0.000,NO2:0.000,SO2:0.000,NH3:5.988
8:35:35,0,0,0,0,0,0,0,0,0,0,0,514,0,0,0,0,0.0000000,0.0000000,0.0000000,0.0000000,10.00,38.4133148,-110.7824402,1364.8000488,0.2,36.9,0.8,0.0,0.0,864,136,0,0,860.49,28.90,15.15,# data time:1910,pm2.5:6.445,pm10:5.704,O2:0.000,NO2:0.000,SO2:0.000,NH3:5.988
8:35:36,0,0,0,0,0,0,0,0,0,0,0,514,0,0,0,0,0.0000000,0.0000000,0.0000000,0.0000000,10.00,38.4133148,-110.7824402,1364.8000488,0.2,36.9,0.8,0.0,0.0,864,139,0,0,860.52,28.85,15.16,# data time:1920,pm2.5:5.640,pm10:4.991,O2:0.000,NO2:0.000,SO2:0.000,NH3:5.988
8:35:37,0,0,0,0,0,0,0,0,0,0,0,513,0,0,0,0,0.0000000,0.0000000,0.0000000,0.0000000,10.00,38.4133148,-110.7824402,1364.8000488,0.2,36.9,0.8,0.0,0.0,864,138,0,0,860.55,28.87,15.17,# data time:1920,pm2.5:5.640,pm10:4.991,O2:0.000,NO2:0.000,SO2:0.000,NH3:5.988
8:35:38,0,0,0,0,0,0,0,0,0,0,0,514,0,0,0,0,0.0000000,0.0000000,0.0000000,0.0000000,10.00,38.4133110,-110.7824402,1364.9000244,0.1,36.9,0.8,0.0,0.0,864,144,0,0,860.47,28.87,15.13,# data time:1920,pm2.5:5.640,pm10:4.991,O2:0.000,NO2:0.000,SO2:0.000,NH3:5.988
8:35:39,0,0,0,0,0,0,0,0,0,0,0,513,0,0,0,0,0.0000000,0.0000000,0.0000000,0.0000000,10.00,38.4133110,-110.7824402,1364.9000244,0.1,36.9,0.8,0.0,0.0,864,141,0,0,860.48,28.90,15.14,# data time:1920,pm2.5:5.640,pm10:4.991,O2:0.000,NO2:0.000,SO2:0.000,NH3:5.988
8:35:40,0,0,0,0,0,0,0,0,0,0,0,514,0,0,0,0,0.0000000,0.0000000,0.0000000,0.0000000,10.00,38.4133110,-110.7824402,1364.9000244,0.1,36.9,0.8,0.0,0.0,864,143,0,0,860.46,28.90,15.15,# data time:1920,pm2.5:5.640,pm10:4.991,O2:0.000,NO2:0.000,SO2:0.000,NH3:5.988
8:35:41,0,0,0,0,0,0,0,0,0,0,0,514,0,0,0,0,0.0000000,0.0000000,0.0000000,0.0000000,10.00,38.4133110,-110.7824402,1364.9000244,0.1,36.9,0.8,0.0,0.0,864,145,0,0,860.44,28.87,15.07,# data time:1920,pm2.5:5.640,pm10:4.991,O2:0.000,NO2:0.000,SO2:0.000,NH3:5.988
8:35:42,0,0,0,0,0,0,0,0,0,0,0,514,0,0,0,0,0.0000000,0.0000000,0.0000000,0.0000000,10.00,38.4133110,-110.7824402,1364.9000244,0.1,36.9,0.8,0.0,0.0,864,139,0,0,860.46,28.89,15.07,# data time:1920,pm2.5:5.640,pm10:4.991,O2:0.000,NO2:0.000,SO2:0.000,NH3:5.988
8:35:43,0,0,0,0,0,0,0,0,0,0,0,514,0,0,0,0,0.0000000,0.0000000,0.0000000,0.0000000,10.00,38.4133110,-110.7824402,1364.9000244,0.1,36.9,0.8,0.0,0.0,864,145,0,0,860.49,28.85,15.07,# data time:1920,pm2.5:5.640,pm10:4.991,O2:0.000,NO2:0.000,SO2:0.000,NH3:5.988
8:35:44,0,0,0,0,0,0,0,0,0,0,0,513,0,0,0,0,0.0000000,0.0000000,0.0000000,0.0000000,10.00,38.4133110,-110.7824402,1365.0000000,0.1,36.9,0.8,0.0,0.0,864,141,0,0,860.48,28.85,15.08,# data time:1920,pm2.5:5.640,pm10:4.991,O2:0.000,NO2:0.000,SO2:0.000,NH3:5.988
8:35:45,0,0,0,0,0,0,0,0,0,0,0,514,0,0,0,0,0.0000000,0.0000000,0.0000000,0.0000000,10.00,38.4133072,-110.7824402,1365.0000000,0.1,36.9,0.8,0.0,0.0,864,140,0,0,860.46,28.84,15.14,# data time:1920,pm2.5:5.640,pm10:4.991,O2:0.000,NO2:0.000,SO2:0.000,NH3:5.988
8:35:46,0,0,0,0,0,0,0,0,0,0,0,513,0,0,0,0,0.0000000,0.0000000,0.0000000,0.0000000,10.00,38.4133072,-110.7824402,1365.0000000,0.1,36.9,0.8,0.0,0.0,863,139,0,0,860.44,28.87,15.17,# data time:1930,pm2.5:6.445,pm10:5.704,O2:0.000,NO2:0.000,SO2:0.000,NH3:5.988
8:35:47,0,0,0,0,0,0,0,0,0,0,0,513,0,0,0,0,0.0000000,0.0000000,0.0000000,0.0000000,10.00,38.4133072,-110.7824402,1365.0999756,0.1,36.9,0.8,0.0,0.0,864,141,0,0,860.49,28.84,15.17,# data time:1930,pm2.5:6.445,pm10:5.704,O2:0.000,NO2:0.000,SO2:0.000,NH3:5.988
8:35:48,0,0,0,0,0,0,0,0,0,0,0,514,0,0,0,0,0.0000000,0.0000000,0.0000000,0.0000000,10.00,38.4133072,-110.7824402,1365.0999756,0.1,36.9,0.8,0.0,0.0,864,145,0,0,860.51,28.84,15.18,# data time:1930,pm2.5:6.445,pm10:5.704,O2:0.000,NO2:0.000,SO2:0.000,NH3:5.988
8:35:49,0,0,0,0,0,0,0,0,0,0,0,513,0,0,0,0,0.0000000,0.0000000,0.0000000,0.0000000,10.00,38.4133072,-110.7824402,1365.0999756,0.1,36.9,0.8,0.0,0.0,864,143,0,0,860.50,28.84,15.18,# data time:1930,pm2.5:6.445,pm10:5.704,O2:0.000,NO2:0.000,SO2:0.000,NH3:5.988
8:35:50,0,0,0,0,0,0,0,0,0,0,0,514,0,0,0,0,0.0000000,0.0000000,0.0000000,0.0000000,10.00,38.4133072,-110.7824249,1365.0999756,0.1,36.9,0.8,0.0,0.0,864,139,0,0,860.49,28.82,15.19,# data time:1930,pm2.5:6.445,pm10:5.704,O2:0.000,NO2:0.000,SO2:0.000,NH3:5.988
8:35:51,0,0,0,0,0,0,0,0,0,0,0,514,0,0,0,0,0.0000000,0.0000000,0.0000000,0.0000000,10.00,38.4133072,-110.7824249,1365.0999756,0.0,36.9,0.8,0.0,0.0,864,149,0,0,860.52,28.81,15.21,# data time:1930,pm2.5:6.445,pm10:5.704,O2:0.000,NO2:0.000,SO2:0.000,NH3:5.988
8:35:52,0,0,0,0,0,0,0,0,0,0,0,514,0,0,0,0,0.0000000,0.0000000,0.0000000,0.0000000,10.00,38.4133072,-110.7824249,1365.0999756,0.0,36.9,0.8,0.0,0.0,864,148,0,0,860.53,28.78,15.21,# data time:1930,pm2.5:6.445,pm10:5.704,O2:0.000,NO2:0.000,SO2:0.000,NH3:5.988
8:35:53,0,0,0,0,0,0,0,0,0,0,0,514,0,0,0,0,0.0000000,0.0000000,0.0000000,0.0000000,10.00,38.4133072,-110.7824249,1365.0999756,0.0,36.9,0.8,0.0,0.0,864,143,0,0,860.53,28.78,15.22,# data time:1930,pm2.5:6.445,pm10:5.704,O2:0.000,NO2:0.000,SO2:0.000,NH3:5.988
8:35:54,0,0,0,0,0,0,0,0,0,0,0,513,0,0,0,0,0.0000000,0.0000000,0.0000000,0.0000000,10.00,38.4133072,-110.7824249,1365.0999756,0.0,36.9,0.8,0.0,0.0,864,144,0,0,860.52,28.79,15.21,# data time:1930,pm2.5:6.445,pm10:5.704,O2:0.000,NO2:0.000,SO2:0.000,NH3:5.988
8:35:55,0,0,0,0,0,0,0,0,0,0,0,514,0,0,0,0,0.0000000,0.0000000,0.0000000,0.0000000,10.00,38.4133072,-110.7824249,1365.0999756,0.0,36.9,0.8,0.0,0.0,864,142,0,0,860.52,28.78,15.22,# data time:1940,pm2.5:5.640,pm10:4.991,O2:0.000,NO2:0.000,SO2:0.000,NH3:5.988
8:35:56,0,0,0,0,0,0,0,0,0,0,0,513,0,0,0,0,0.0000000,0.0000000,0.0000000,0.0000000,10.00,38.4133072,-110.7824249,1365.0999756,0.0,36.9,0.8,0.0,0.0,864,138,0,0,860.51,28.81,15.22,# data time:1940,pm2.5:5.640,pm10:4.991,O2:0.000,NO2:0.000,SO2:0.000,NH3:5.988
8:35:57,0,0,0,0,0,0,0,0,0,0,0,513,0,0,0,0,0.0000000,0.0000000,0.0000000,0.0000000,10.00,38.4133072,-110.7824249,1365.0999756,0.0,36.9,0.8,0.0,0.0,864,136,0,0,860.54,28.78,15.22,# data time:1940,pm2.5:5.640,pm10:4.991,O2:0.000,NO2:0.000,SO2:0.000,NH3:5.988
8:35:58,0,0,0,0,0,0,0,0,0,0,0,514,0,0,0,0,0.0000000,0.0000000,0.0000000,0.0000000,10.00,38.4133072,-110.7824249,1365.0999756,0.0,36.9,0.8,0.0,0.0,864,139,0,0,860.54,28.78,15.22,# data time:1940,pm2.5:5.640,pm10:4.991,O2:0.000,NO2:0.000,SO2:0.000,NH3:5.988
8:35:59,0,0,0,0,0,0,0,0,0,0,0,513,0,0,0,0,0.0000000,0.0000000,0.0000000,0.0000000,10.00,38.4133072,-110.7824249,1365.0999756,0.0,36.9,0.8,0.0,0.0,864,136,0,0,860.55,28.81,15.21,# data time:1940,pm2.5:5.640,pm10:4.991,O2:0.000,NO2:0.000,SO2:0.000,NH3:5.988
8:36:00,0,0,0,0,0,0,0,0,0,0,0,514,0,0,0,0,0.0000000,0.0000000,0.0000000,0.0000000,10.00,38.4133072,-110.7824249,1365.1999512,0.0,36.9,0.8,0.0,0.0,863,138,0,0,860.56,28.81,15.22,# data time:1940,pm2.5:5.640,pm10:4.991,O2:0.000,NO2:0.000,SO2:0.000,NH3:5.988
8:36:01,0,0,0,0,0,0,0,0,0,0,0,514,0,0,0,0,0.0000000,0.0000000,0.0000000,0.0000000,10.00,38.4133072,-110.7824249,1365.1999512,0.0,36.9,0.8,0.0,0.0,864,139,0,0,860.55,28.79,15.23,# data time:1940,pm2.5:5.640,pm10:4.991,O2:0.000,NO2:0.000,SO2:0.000,NH3:5.988
8:36:02,0,0,0,0,0,0,0,0,0,0,0,514,0,0,0,0,0.0000000,0.0000000,0.0000000,0.0000000,10.00,38.4133072,-110.7824249,1365.1999512,0.0,36.9,0.8,0.0,0.0,864,137,0,0,860.51,28.81,15.23,# data time:1940,pm2.5:5.640,pm10:4.991,O2:0.000,NO2:0.000,SO2:0.000,NH3:5.988
8:36:03,0,0,0,0,0,0,0,0,0,0,0,513,0,0,0,0,0.0000000,0.0000000,0.0000000,0.0000000,10.00,38.4133072,-110.7824249,1365.1999512,0.0,36.9,0.8,0.0,0.0,864,135,0,0,860.51,28.78,15.23,# data time:1940,pm2.5:5.640,pm10:4.991,O2:0.000,NO2:0.000,SO2:0.000,NH3:5.988
8:36:04,0,0,0,0,0,0,0,0,0,0,0,514,0,0,0,0,0.0000000,0.0000000,0.0000000,0.0000000,10.00,38.4133072,-110.7824249,1365.1999512,0.0,36.9,0.8,0.0,0.0,863,132,0,0,860.55,28.78,15.23,# data time:1940,pm2.5:5.640,pm10:4.991,O2:0.000,NO2:0.000,SO2:0.000,NH3:5.988
8:36:05,0,0,0,0,0,0,0,0,0,0,0,513,0,0,0,0,0.0000000,0.0000000,0.0000000,0.0000000,10.00,38.4133072,-110.7824249,1365.1999512,0.0,36.9,0.8,0.0,0.0,864,133,0,0,860.53,28.75,15.23,# data time:1950,pm2.5:6.445,pm10:5.704,O2:0.000,NO2:0.000,SO2:0.000,NH3:5.988
8:36:06,0,0,0,0,0,0,0,0,0,0,0,514,0,0,0,0,0.0000000,0.0000000,0.0000000,0.0000000,10.00,38.4133072,-110.7824249,1365.1999512,0.0,36.9,0.8,0.0,0.0,865,134,0,0,860.53,28.76,15.24,# data time:1950,pm2.5:6.445,pm10:5.704,O2:0.000,NO2:0.000,SO2:0.000,NH3:5.988
8:36:07,0,0,0,0,0,0,0,0,0,0,0,513,0,0,0,0,0.0000000,0.0000000,0.0000000,0.0000000,10.00,38.4133072,-110.7824249,1365.1999512,0.0,36.9,0.8,0.0,0.0,863,133,0,0,860.52,28.78,15.24,# data time:1950,pm2.5:6.445,pm10:5.704,O2:0.000,NO2:0.000,SO2:0.000,NH3:5.988
8:36:08,0,0,0,0,0,0,0,0,0,0,0,513,0,0,0,0,0.0000000,0.0000000,0.0000000,0.0000000,10.00,38.4133072,-110.7824249,1365.1999512,0.0,36.9,0.8,0.0,0.0,863,133,0,0,860.56,28.78,15.21,# data time:1950,pm2.5:6.445,pm10:5.704,O2:0.000,NO2:0.000,SO2:0.000,NH3:5.988
8:36:09,0,0,0,0,0,0,0,0,0,0,0,514,0,0,0,0,0.0000000,0.0000000,0.0000000,0.0000000,10.00,38.4133072,-110.7824249,1365.1999512,0.0,36.9,0.8,0.0,0.0,863,131,0,0,860.55,28.81,15.20,# data time:1950,pm2.5:6.445,pm10:5.704,O2:0.000,NO2:0.000,SO2:0.000,NH3:5.988
8:36:10,0,0,0,0,0,0,0,0,0,0,0,513,0,0,0,0,0.0000000,0.0000000,0.0000000,0.0000000,10.00,38.4133072,-110.7824249,1365.1999512,0.0,36.9,0.8,0.0,0.0,865,133,0,0,860.54,28.79,15.21,# data time:1950,pm2.5:6.445,pm10:5.704,O2:0.000,NO2:0.000,SO2:0.000,NH3:5.988
8:36:11,0,0,0,0,0,0,0,0,0,0,0,514,0,0,0,0,0.0000000,0.0000000,0.0000000,0.0000000,10.00,38.4133072,-110.7824249,1365.1999512,0.0,36.9,0.8,0.0,0.0,864,131,0,0,860.57,28.79,15.22,# data time:1950,pm2.5:6.445,pm10:5.704,O2:0.000,NO2:0.000,SO2:0.000,NH3:5.988
8:36:12,0,0,0,0,0,0,0,0,0,0,0,514,0,0,0,0,0.0000000,0.0000000,0.0000000,0.0000000,10.00,38.4133072,-110.7824249,1365.1999512,0.0,36.9,0.8,0.0,0.0,864,134,0,0,860.53,28.82,15.23,# data time:1950,pm2.5:6.445,pm10:5.704,O2:0.000,NO2:0.000,SO2:0.000,NH3:5.988
8:36:13,0,0,0,0,0,0,0,0,0,0,0,514,0,0,0,0,0.0000000,0.0000000,0.0000000,0.0000000,10.00,38.4133072,-110.7824249,1365.1999512,0.0,36.9,0.8,0.0,0.0,864,130,0,0,860.56,28.78,15.23,# data time:1950,pm2.5:6.445,pm10:5.704,O2:0.000,NO2:0.000,SO2:0.000,NH3:5.988
8:36:14,0,0,0,0,0,0,0,0,0,0,0,514,0,0,0,0,0.0000000,0.0000000,0.0000000,0.0000000,10.00,38.4133072,-110.7824249,1365.1999512,0.0,36.9,0.8,0.0,0.0,864,134,0,0,860.58,28.79,15.24,# data time:1950,pm2.5:6.445,pm10:5.704,O2:0.000,NO2:0.000,SO2:0.000,NH3:5.988
8:36:15,0,0,0,0,0,0,0,0,0,0,0,513,0,0,0,0,0.0000000,0.0000000,0.0000000,0.0000000,10.00,38.4133072,-110.7824402,1365.1999512,0.0,36.9,0.8,0.0,0.0,864,136,0,0,860.59,28.79,15.23,# data time:1960,pm2.5:5.640,pm10:4.991,O2:0.000,NO2:0.000,SO2:0.000,NH3:5.988
8:36:16,0,0,0,0,0,0,0,0,0,0,0,513,0,0,0,0,0.0000000,0.0000000,0.0000000,0.0000000,10.00,38.4133072,-110.7824402,1365.1999512,0.0,36.9,0.8,0.0,0.0,863,133,0,0,860.52,28.79,15.22,# data time:1960,pm2.5:5.640,pm10:4.991,O2:0.000,NO2:0.000,SO2:0.000,NH3:5.988
8:36:17,0,0,0,0,0,0,0,0,0,0,0,514,0,0,0,0,0.0000000,0.0000000,0.0000000,0.0000000,10.00,38.4133072,-110.7824402,1365.1999512,0.0,36.9,0.8,0.0,0.0,864,130,0,0,860.53,28.79,15.22,# data time:1960,pm2.5:5.640,pm10:4.991,O2:0.000,NO2:0.000,SO2:0.000,NH3:5.988
8:36:18,0,0,0,0,0,0,0,0,0,0,0,513,0,0,0,0,0.0000000,0.0000000,0.0000000,0.0000000,10.00,38.4133072,-110.7824402,1365.1999512,0.0,36.9,0.8,0.0,0.0,864,130,0,0,860.52,28.78,15.23,# data time:1960,pm2.5:5.640,pm10:4.991,O2:0.000,NO2:0.000,SO2:0.000,NH3:5.988
8:36:19,0,0,0,0,0,0,0,0,0,0,0,513,0,0,0,0,0.0000000,0.0000000,0.0000000,0.0000000,10.00,38.4133072,-110.7824249,1365.1999512,0.0,36.9,0.8,0.0,0.0,864,130,0,0,860.49,28.78,15.23,# data time:1960,pm2.5:5.640,pm10:4.991,O2:0.000,NO2:0.000,SO2:0.000,NH3:5.988
8:36:20,0,0,0,0,0,0,0,0,0,0,0,513,0,0,0,0,0.0000000,0.0000000,0.0000000,0.0000000,10.00,38.4133072,-110.7824249,1365.1999512,0.0,36.9,0.8,0.0,0.0,863,131,0,0,860.53,28.78,15.22,# data time:1960,pm2.5:5.640,pm10:4.991,O2:0.000,NO2:0.000,SO2:0.000,NH3:5.988
8:36:21,0,0,0,0,0,0,0,0,0,0,0,513,0,0,0,0,0.0000000,0.0000000,0.0000000,0.0000000,10.00,38.4133072,-110.7824249,1365.1999512,0.0,36.9,0.8,0.0,0.0,864,130,0,0,860.44,28.81,15.23,# data time:1960,pm2.5:5.640,pm10:4.991,O2:0.000,NO2:0.000,SO2:0.000,NH3:5.988
8:36:22,0,0,0,0,0,0,0,0,0,0,0,514,0,0,0,0,0.0000000,0.0000000,0.0000000,0.0000000,10.00,38.4133072,-110.7824249,1365.0999756,0.0,36.9,0.8,0.0,0.0,864,131,0,0,860.53,28.78,15.23,# data time:1960,pm2.5:5.640,pm10:4.991,O2:0.000,NO2:0.000,SO2:0.000,NH3:5.988
8:36:23,0,0,0,0,0,0,0,0,0,0,0,514,0,0,0,0,0.0000000,0.0000000,0.0000000,0.0000000,10.00,38.4133072,-110.7824249,1365.0999756,0.0,36.9,0.8,0.0,0.0,863,128,0,0,860.50,28.79,15.23,# data time:1960,pm2.5:5.640,pm10:4.991,O2:0.000,NO2:0.000,SO2:0.000,NH3:5.988
8:36:24,0,0,0,0,0,0,0,0,0,0,0,513,0,0,0,0,0.0000000,0.0000000,0.0000000,0.0000000,10.00,38.4133072,-110.7824249,1365.0999756,0.0,36.9,0.8,0.0,0.0,864,128,0,0,860.51,28.79,15.24,# data time:1960,pm2.5:5.640,pm10:4.991,O2:0.000,NO2:0.000,SO2:0.000,NH3:5.988
8:36:25,0,0,0,0,0,0,0,0,0,0,0,514,0,0,0,0,0.0000000,0.0000000,0.0000000,0.0000000,10.00,38.4133072,-110.7824249,1365.0999756,0.0,36.9,0.8,0.0,0.0,864,130,0,0,860.52,28.81,15.24,# data time:1970,pm2.5:6.445,pm10:5.704,O2:0.000,NO2:0.000,SO2:0.000,NH3:5.988
8:36:26,0,0,0,0,0,0,0,0,0,0,0,513,0,0,0,0,0.0000000,0.0000000,0.0000000,0.0000000,10.00,38.4133072,-110.7824249,1365.0999756,0.0,36.9,0.8,0.0,0.0,863,128,0,0,860.52,28.78,15.24,# data time:1970,pm2.5:6.445,pm10:5.704,O2:0.000,NO2:0.000,SO2:0.000,NH3:5.988
8:36:27,0,0,0,0,0,0,0,0,0,0,0,514,0,0,0,0,0.0000000,0.0000000,0.0000000,0.0000000,10.00,38.4133072,-110.7824402,1365.0999756,0.0,36.9,0.8,0.0,0.0,864,129,0,0,860.58,28.79,15.25,# data time:1970,pm2.5:6.445,pm10:5.704,O2:0.000,NO2:0.000,SO2:0.000,NH3:5.988
8:36:29,0,0,0,0,0,0,0,0,0,0,0,513,0,0,0,0,0.0000000,0.0000000,0.0000000,0.0000000,10.00,38.4133072,-110.7824402,1365.0999756,0.0,36.9,0.8,0.0,0.0,864,130,0,0,860.49,28.82,15.24,# data time:1970,pm2.5:6.445,pm10:5.704,O2:0.000,NO2:0.000,SO2:0.000,NH3:5.988
8:36:30,0,0,0,0,0,0,0,0,0,0,0,513,0,0,0,0,0.0000000,0.0000000,0.0000000,0.0000000,10.00,38.4133072,-110.7824402,1365.0999756,0.0,36.9,0.8,0.0,0.0,864,130,0,0,860.52,28.82,15.25,# data time:1970,pm2.5:6.445,pm10:5.704,O2:0.000,NO2:0.000,SO2:0.000,NH3:5.988
8:36:31,0,0,0,0,0,0,0,0,0,0,0,512,0,0,0,0,0.0000000,0.0000000,0.0000000,0.0000000,10.00,38.4133072,-110.7824402,1365.0999756,0.0,36.9,0.8,0.0,0.0,864,126,0,0,860.52,28.82,15.26,# data time:1970,pm2.5:6.445,pm10:5.704,O2:0.000,NO2:0.000,SO2:0.000,NH3:5.988
8:36:32,0,0,0,0,0,0,0,0,0,0,0,515,0,0,0,0,0.0000000,0.0000000,0.0000000,0.0000000,10.00,38.4133072,-110.7824402,1365.0999756,0.0,36.9,0.8,0.0,0.0,864,124,0,0,860.53,28.81,15.26,# data time:1970,pm2.5:6.445,pm10:5.704,O2:0.000,NO2:0.000,SO2:0.000,NH3:5.988
8:36:33,0,0,0,0,0,0,0,0,0,0,0,514,0,0,0,0,0.0000000,0.0000000,0.0000000,0.0000000,10.00,38.4133072,-110.7824402,1365.0999756,0.0,36.9,0.8,0.0,0.0,864,127,0,0,860.56,28.82,15.27,# data time:1970,pm2.5:6.445,pm10:5.704,O2:0.000,NO2:0.000,SO2:0.000,NH3:5.988
8:36:34,0,0,0,0,0,0,0,0,0,0,0,514,0,0,0,0,0.0000000,0.0000000,0.0000000,0.0000000,10.00,38.4133072,-110.7824402,1365.0999756,0.0,36.9,0.8,0.0,0.0,863,129,0,0,860.55,28.78,15.18,# data time:1970,pm2.5:6.445,pm10:5.704,O2:0.000,NO2:0.000,SO2:0.000,NH3:5.988
8:36:35,0,0,0,0,0,0,0,0,0,0,0,513,0,0,0,0,0.0000000,0.0000000,0.0000000,0.0000000,10.00,38.4133072,-110.7824402,1365.0999756,0.0,36.9,0.8,0.0,0.0,864,129,0,0,860.58,28.81,15.28,# data time:1970,pm2.5:6.445,pm10:5.704,O2:0.000,NO2:0.000,SO2:0.000,NH3:5.988
8:36:36,0,0,0,0,0,0,0,0,0,0,0,514,0,0,0,0,0.0000000,0.0000000,0.0000000,0.0000000,10.00,38.4133072,-110.7824402,1365.0999756,0.0,36.9,0.8,0.0,0.0,863,128,0,0,860.53,28.76,15.19,# data time:1980,pm2.5:5.640,pm10:4.991,O2:0.000,NO2:0.000,SO2:0.000,NH3:5.988
8:36:37,0,0,0,0,0,0,0,0,0,0,0,513,0,0,0,0,0.0000000,0.0000000,0.0000000,0.0000000,10.00,38.4133072,-110.7824402,1365.0999756,0.0,36.9,0.8,0.0,0.0,863,129,0,0,860.57,28.79,15.24,# data time:1980,pm2.5:5.640,pm10:4.991,O2:0.000,NO2:0.000,SO2:0.000,NH3:5.988
8:36:38,0,0,0,0,0,0,0,0,0,0,0,514,0,0,0,0,0.0000000,0.0000000,0.0000000,0.0000000,10.00,38.4133072,-110.7824402,1365.0999756,0.0,36.9,0.8,0.0,0.0,863,130,0,0,860.52,28.76,15.18,# data time:1980,pm2.5:5.640,pm10:4.991,O2:0.000,NO2:0.000,SO2:0.000,NH3:5.988
8:36:39,0,0,0,0,0,0,0,0,0,0,0,513,0,0,0,0,0.0000000,0.0000000,0.0000000,0.0000000,10.00,38.4133072,-110.7824402,1365.1999512,0.0,36.9,0.8,0.0,0.0,864,131,0,0,860.46,28.78,15.23,# data time:1980,pm2.5:5.640,pm10:4.991,O2:0.000,NO2:0.000,SO2:0.000,NH3:5.988
8:36:40,0,0,0,0,0,0,0,0,0,0,0,514,0,0,0,0,0.0000000,0.0000000,0.0000000,0.0000000,10.00,38.4133072,-110.7824402,1365.1999512,0.0,36.9,0.8,0.0,0.0,864,127,0,0,860.53,28.75,15.28,# data time:1980,pm2.5:5.640,pm10:4.991,O2:0.000,NO2:0.000,SO2:0.000,NH3:5.988
8:36:41,0,0,0,0,0,0,0,0,0,0,0,514,0,0,0,0,0.0000000,0.0000000,0.0000000,0.0000000,10.00,38.4133072,-110.7824402,1365.1999512,0.0,36.9,0.8,0.0,0.0,863,130,0,0,860.54,28.75,15.29,# data time:1980,pm2.5:5.640,pm10:4.991,O2:0.000,NO2:0.000,SO2:0.000,NH3:5.988
8:36:42,0,0,0,0,0,0,0,0,0,0,0,513,0,0,0,0,0.0000000,0.0000000,0.0000000,0.0000000,10.00,38.4133072,-110.7824402,1365.1999512,0.0,36.9,0.8,0.0,0.0,863,131,0,0,860.58,28.76,15.27,# data time:1980,pm2.5:5.640,pm10:4.991,O2:0.000,NO2:0.000,SO2:0.000,NH3:5.988
8:36:43,0,0,0,0,0,0,0,0,0,0,0,514,0,0,0,0,0.0000000,0.0000000,0.0000000,0.0000000,10.00,38.4133072,-110.7824402,1365.1999512,0.0,36.9,0.8,0.0,0.0,864,130,0,0,860.55,28.76,15.27,# data time:1980,pm2.5:5.640,pm10:4.991,O2:0.000,NO2:0.000,SO2:0.000,NH3:5.988
8:36:44,0,0,0,0,0,0,0,0,0,0,0,513,0,0,0,0,0.0000000,0.0000000,0.0000000,0.0000000,10.00,38.4133072,-110.7824402,1365.1999512,0.0,36.9,0.8,0.0,0.0,864,137,0,0,860.53,28.78,15.27,# data time:1980,pm2.5:5.640,pm10:4.991,O2:0.000,NO2:0.000,SO2:0.000,NH3:5.988
8:36:45,0,0,0,0,0,0,0,0,0,0,0,514,0,0,0,0,0.0000000,0.0000000,0.0000000,0.0000000,10.00,38.4133072,-110.7824402,1365.1999512,0.0,36.9,0.8,0.0,0.0,863,137,0,0,860.56,28.75,15.29,# data time:1980,pm2.5:5.640,pm10:4.991,O2:0.000,NO2:0.000,SO2:0.000,NH3:5.988
8:36:46,0,0,0,0,0,0,0,0,0,0,0,514,0,0,0,0,0.0000000,0.0000000,0.0000000,0.0000000,10.00,38.4133072,-110.7824402,1365.0999756,0.0,36.9,0.8,0.0,0.0,864,136,0,0,860.56,28.78,15.30,# data time:1990,pm2.5:5.640,pm10:4.991,O2:0.000,NO2:0.000,SO2:0.000,NH3:5.988
8:36:47,0,0,0,0,0,0,0,0,0,0,0,513,0,0,0,0,0.0000000,0.0000000,0.0000000,0.0000000,10.00,38.4133072,-110.7824402,1365.0999756,0.0,36.9,0.8,0.0,0.0,864,133,0,0,860.56,28.78,15.30,# data time:1990,pm2.5:5.640,pm10:4.991,O2:0.000,NO2:0.000,SO2:0.000,NH3:5.988
8:36:48,0,0,0,0,0,0,0,0,0,0,0,514,0,0,0,0,0.0000000,0.0000000,0.0000000,0.0000000,10.00,38.4133072,-110.7824402,1365.0999756,0.0,36.9,0.8,0.0,0.0,864,134,0,0,860.60,28.76,15.30,# data time:1990,pm2.5:5.640,pm10:4.991,O2:0.000,NO2:0.000,SO2:0.000,NH3:5.988
8:36:49,0,0,0,0,0,0,0,0,0,0,0,513,0,0,0,0,0.0000000,0.0000000,0.0000000,0.0000000,10.00,38.4133072,-110.7824402,1365.0999756,0.0,36.9,0.8,0.0,0.0,864,132,0,0,860.53,28.79,15.30,# data time:1990,pm2.5:5.640,pm10:4.991,O2:0.000,NO2:0.000,SO2:0.000,NH3:5.988
8:36:50,0,0,0,0,0,0,0,0,0,0,0,513,0,0,0,0,0.0000000,0.0000000,0.0000000,0.0000000,10.00,38.4133072,-110.7824402,1365.0999756,0.0,36.9,0.8,0.0,0.0,863,137,0,0,860.53,28.79,15.31,# data time:1990,pm2.5:5.640,pm10:4.991,O2:0.000,NO2:0.000,SO2:0.000,NH3:5.988
8:36:51,0,0,0,0,0,0,0,0,0,0,0,513,0,0,0,0,0.0000000,0.0000000,0.0000000,0.0000000,10.00,38.4133072,-110.7824402,1365.0999756,0.0,36.9,0.8,0.0,0.0,864,138,0,0,860.51,28.78,15.32,# data time:1990,pm2.5:5.640,pm10:4.991,O2:0.000,NO2:0.000,SO2:0.000,NH3:5.988
8:36:52,0,0,0,0,0,0,0,0,0,0,0,511,0,0,0,0,0.0000000,0.0000000,0.0000000,0.0000000,10.00,38.4133072,-110.7824402,1365.0999756,0.0,36.9,0.8,0.0,0.0,864,137,0,0,860.52,28.76,15.31,# data time:1990,pm2.5:5.640,pm10:4.991,O2:0.000,NO2:0.000,SO2:0.000,NH3:5.988
8:36:53,0,0,0,0,0,0,0,0,0,0,0,515,0,0,0,0,0.0000000,0.0000000,0.0000000,0.0000000,10.00,38.4133072,-110.7824402,1365.0999756,0.0,36.9,0.8,0.0,0.0,863,140,0,0,860.46,28.73,15.24,# data time:1990,pm2.5:5.640,pm10:4.991,O2:0.000,NO2:0.000,SO2:0.000,NH3:5.988
8:36:54,0,0,0,0,0,0,0,0,0,0,0,513,0,0,0,0,0.0000000,0.0000000,0.0000000,0.0000000,10.00,38.4133072,-110.7824402,1365.0999756,0.0,36.9,0.8,0.0,0.0,863,128,0,0,860.55,28.76,15.25,# data time:1990,pm2.5:5.640,pm10:4.991,O2:0.000,NO2:0.000,SO2:0.000,NH3:5.988
8:36:55,0,0,0,0,0,0,0,0,0,0,0,513,0,0,0,0,0.0000000,0.0000000,0.0000000,0.0000000,10.00,38.4133072,-110.7824402,1365.0999756,0.0,36.9,0.8,0.0,0.0,864,136,0,0,860.55,28.73,15.24,# data time:2000,pm2.5:6.445,pm10:5.704,O2:0.000,NO2:0.000,SO2:0.000,NH3:5.988
8:36:56,0,0,0,0,0,0,0,0,0,0,0,513,0,0,0,0,0.0000000,0.0000000,0.0000000,0.0000000,10.00,38.4133072,-110.7824402,1365.0999756,0.0,36.9,0.8,0.0,0.0,864,141,0,0,860.55,28.75,15.25,# data time:2000,pm2.5:6.445,pm10:5.704,O2:0.000,NO2:0.000,SO2:0.000,NH3:5.988
8:36:57,0,0,0,0,0,0,0,0,0,0,0,513,0,0,0,0,0.0000000,0.0000000,0.0000000,0.0000000,10.00,38.4133072,-110.7824402,1365.0999756,0.0,36.9,0.8,0.0,0.0,864,142,0,0,860.56,28.75,15.24,# data time:2000,pm2.5:6.445,pm10:5.704,O2:0.000,NO2:0.000,SO2:0.000,NH3:5.988
8:36:58,0,0,0,0,0,0,0,0,0,0,0,513,0,0,0,0,0.0000000,0.0000000,0.0000000,0.0000000,10.00,38.4133072,-110.7824402,1365.0999756,0.0,36.9,0.9,0.0,0.0,863,136,0,0,860.51,28.75,15.24,# data time:2000,pm2.5:6.445,pm10:5.704,O2:0.000,NO2:0.000,SO2:0.000,NH3:5.988
8:36:59,0,0,0,0,0,0,0,0,0,0,0,512,0,0,0,0,0.0000000,0.0000000,0.0000000,0.0000000,10.00,38.4133072,-110.7824402,1365.0999756,0.0,36.9,0.8,0.0,0.0,863,146,0,0,860.56,28.73,15.23,# data time:2000,pm2.5:6.445,pm10:5.704,O2:0.000,NO2:0.000,SO2:0.000,NH3:5.988
8:37:00,0,0,0,0,0,0,0,0,0,0,0,515,0,0,0,0,0.0000000,0.0000000,0.0000000,0.0000000,10.00,38.4133072,-110.7824402,1365.0999756,0.0,36.9,0.9,0.0,0.0,865,149,0,0,860.55,28.73,15.22,# data time:2000,pm2.5:6.445,pm10:5.704,O2:0.000,NO2:0.000,SO2:0.000,NH3:5.988
8:37:01,0,0,0,0,0,0,0,0,0,0,0,514,0,0,0,0,0.0000000,0.0000000,0.0000000,0.0000000,10.00,38.4133072,-110.7824402,1365.0999756,0.0,36.9,0.8,0.0,0.0,863,146,0,0,860.51,28.72,15.20,# data time:2000,pm2.5:6.445,pm10:5.704,O2:0.000,NO2:0.000,SO2:0.000,NH3:5.988
8:37:02,0,0,0,0,0,0,0,0,0,0,0,516,0,0,0,0,0.0000000,0.0000000,0.0000000,0.0000000,10.00,38.4133072,-110.7824402,1365.0999756,0.0,36.9,0.8,0.0,0.0,865,146,0,0,860.59,28.75,15.18,# data time:2000,pm2.5:6.445,pm10:5.704,O2:0.000,NO2:0.000,SO2:0.000,NH3:5.988
8:37:03,0,0,0,0,0,0,0,0,0,0,0,514,0,0,0,0,0.0000000,0.0000000,0.0000000,0.0000000,10.00,38.4133072,-110.7824402,1365.0999756,0.0,36.9,0.8,0.0,0.0,864,146,0,0,860.50,28.75,15.18,# data time:2000,pm2.5:6.445,pm10:5.704,O2:0.000,NO2:0.000,SO2:0.000,NH3:5.988
8:37:04,0,0,0,0,0,0,0,0,0,0,0,516,0,0,0,0,0.0000000,0.0000000,0.0000000,0.0000000,10.00,38.4133072,-110.7824402,1365.0999756,0.0,36.9,0.8,0.0,0.0,863,142,0,0,860.49,28.73,15.17,# data time:2000,pm2.5:6.445,pm10:5.704,O2:0.000,NO2:0.000,SO2:0.000,NH3:5.988
8:37:05,0,0,0,0,0,0,0,0,0,0,0,515,0,0,0,0,0.0000000,0.0000000,0.0000000,0.0000000,10.00,38.4133072,-110.7824402,1365.0999756,0.0,36.9,0.9,0.0,0.0,864,148,0,0,860.52,28.79,15.17,# data time:2010,pm2.5:6.445,pm10:5.704,O2:0.000,NO2:0.000,SO2:0.000,NH3:5.988
8:37:06,0,0,0,0,0,0,0,0,0,0,0,512,0,0,0,0,0.0000000,0.0000000,0.0000000,0.0000000,10.00,38.4133072,-110.7824402,1365.0999756,0.0,36.9,0.9,0.0,0.0,863,134,0,0,860.54,28.75,15.19,# data time:2010,pm2.5:6.445,pm10:5.704,O2:0.000,NO2:0.000,SO2:0.000,NH3:5.988
8:37:07,0,0,0,0,0,0,0,0,0,0,0,515,0,0,0,0,0.0000000,0.0000000,0.0000000,0.0000000,10.00,38.4133072,-110.7824402,1365.0999756,0.0,36.9,0.9,0.0,0.0,864,133,0,0,860.54,28.75,15.20,# data time:2010,pm2.5:6.445,pm10:5.704,O2:0.000,NO2:0.000,SO2:0.000,NH3:5.988
8:37:08,0,0,0,0,0,0,0,0,0,0,0,513,0,0,0,0,0.0000000,0.0000000,0.0000000,0.0000000,10.00,38.4133072,-110.7824402,1365.0999756,0.0,36.9,0.9,0.0,0.0,864,136,0,0,860.57,28.76,15.20,# data time:2010,pm2.5:6.445,pm10:5.704,O2:0.000,NO2:0.000,SO2:0.000,NH3:5.988
8:37:09,0,0,0,0,0,0,0,0,0,0,0,513,0,0,0,0,0.0000000,0.0000000,0.0000000,0.0000000,10.00,38.4133072,-110.7824402,1365.0999756,0.0,36.9,0.9,0.0,0.0,864,135,0,0,860.54,28.75,15.20,# data time:2010,pm2.5:6.445,pm10:5.704,O2:0.000,NO2:0.000,SO2:0.000,NH3:5.988
8:37:10,0,0,0,0,0,0,0,0,0,0,0,514,0,0,0,0,0.0000000,0.0000000,0.0000000,0.0000000,10.00,38.4133072,-110.7824402,1365.0999756,0.0,36.9,0.9,0.0,0.0,864,135,0,0,860.55,28.76,15.20,# data time:2010,pm2.5:6.445,pm10:5.704,O2:0.000,NO2:0.000,SO2:0.000,NH3:5.988
8:37:11,0,0,0,0,0,0,0,0,0,0,0,513,0,0,0,0,0.0000000,0.0000000,0.0000000,0.0000000,10.00,38.4133072,-110.7824402,1365.0999756,0.0,36.9,0.9,0.0,0.0,864,132,0,0,860.54,28.76,15.21,# data time:2010,pm2.5:6.445,pm10:5.704,O2:0.000,NO2:0.000,SO2:0.000,NH3:5.988
8:37:12,0,0,0,0,0,0,0,0,0,0,0,514,0,0,0,0,0.0000000,0.0000000,0.0000000,0.0000000,10.00,38.4133072,-110.7824402,1365.0999756,0.0,36.9,0.9,0.0,0.0,864,136,0,0,860.54,28.75,15.21,# data time:2010,pm2.5:6.445,pm10:5.704,O2:0.000,NO2:0.000,SO2:0.000,NH3:5.988
8:37:13,0,0,0,0,0,0,0,0,0,0,0,514,0,0,0,0,0.0000000,0.0000000,0.0000000,0.0000000,10.00,38.4133072,-110.7824402,1365.0999756,0.0,36.9,0.9,0.0,0.0,864,133,0,0,860.51,28.75,15.22,# data time:2010,pm2.5:6.445,pm10:5.704,O2:0.000,NO2:0.000,SO2:0.000,NH3:5.988
8:37:14,0,0,0,0,0,0,0,0,0,0,0,513,0,0,0,0,0.0000000,0.0000000,0.0000000,0.0000000,10.00,38.4133072,-110.7824402,1365.0999756,0.0,36.9,0.9,0.0,0.0,864,134,0,0,860.54,28.75,15.21,# data time:2010,pm2.5:6.445,pm10:5.704,O2:0.000,NO2:0.000,SO2:0.000,NH3:5.988
8:37:15,0,0,0,0,0,0,0,0,0,0,0,513,0,0,0,0,0.0000000,0.0000000,0.0000000,0.0000000,10.00,38.4133072,-110.7824402,1365.0999756,0.0,36.9,0.9,0.0,0.0,864,135,0,0,860.58,28.78,15.17,# data time:2020,pm2.5:6.445,pm10:5.704,O2:0.000,NO2:0.000,SO2:0.000,NH3:5.988
8:37:16,0,0,0,0,0,0,0,0,0,0,0,514,0,0,0,0,0.0000000,0.0000000,0.0000000,0.0000000,10.00,38.4133072,-110.7824402,1365.0999756,0.0,36.9,0.9,0.0,0.0,863,135,0,0,860.54,28.79,15.18,# data time:2020,pm2.5:6.445,pm10:5.704,O2:0.000,NO2:0.000,SO2:0.000,NH3:5.988
8:37:17,0,0,0,0,0,0,0,0,0,0,0,514,0,0,0,0,0.0000000,0.0000000,0.0000000,0.0000000,10.00,38.4133072,-110.7824402,1365.0999756,0.0,36.9,0.9,0.0,0.0,864,130,0,0,860.54,28.79,15.19,# data time:2020,pm2.5:6.445,pm10:5.704,O2:0.000,NO2:0.000,SO2:0.000,NH3:5.988
8:37:18,0,0,0,0,0,0,0,0,0,0,0,514,0,0,0,0,0.0000000,0.0000000,0.0000000,0.0000000,10.00,38.4133072,-110.7824402,1365.0999756,0.0,36.9,0.9,0.0,0.0,864,133,0,0,860.53,28.79,15.17,# data time:2020,pm2.5:6.445,pm10:5.704,O2:0.000,NO2:0.000,SO2:0.000,NH3:5.988
8:37:19,0,0,0,0,0,0,0,0,0,0,0,514,0,0,0,0,0.0000000,0.0000000,0.0000000,0.0000000,10.00,38.4133072,-110.7824402,1365.0999756,0.0,36.9,0.9,0.0,0.0,863,133,0,0,860.58,28.81,15.18,# data time:2020,pm2.5:6.445,pm10:5.704,O2:0.000,NO2:0.000,SO2:0.000,NH3:5.988
8:37:20,0,0,0,0,0,0,0,0,0,0,0,516,0,0,0,0,0.0000000,0.0000000,0.0000000,0.0000000,10.00,38.4133072,-110.7824402,1365.0999756,0.0,36.9,0.9,0.0,0.0,866,141,0,0,860.53,28.78,15.18,# data time:2020,pm2.5:6.445,pm10:5.704,O2:0.000,NO2:0.000,SO2:0.000,NH3:5.988
8:37:21,0,0,0,0,0,0,0,0,0,0,0,506,0,0,0,0,0.0000000,0.0000000,0.0000000,0.0000000,10.00,38.4133072,-110.7824402,1365.0999756,0.0,36.9,0.9,0.0,0.0,862,116,0,0,860.51,28.79,15.18,# data time:2020,pm2.5:6.445,pm10:5.704,O2:0.000,NO2:0.000,SO2:0.000,NH3:5.988
8:37:22,0,0,0,0,0,0,0,0,0,0,0,514,0,0,0,0,0.0000000,0.0000000,0.0000000,0.0000000,10.00,38.4133072,-110.7824402,1365.0999756,0.0,36.9,0.9,0.0,0.0,860,129,0,0,860.55,28.78,15.19,# data time:2020,pm2.5:6.445,pm10:5.704,O2:0.000,NO2:0.000,SO2:0.000,NH3:5.988
8:37:23,0,0,0,0,0,0,0,0,0,0,0,517,0,0,0,0,0.0000000,0.0000000,0.0000000,0.0000000,10.00,38.4133072,-110.7824402,1365.0999756,0.0,36.9,0.9,0.0,0.0,866,130,0,0,860.56,28.76,15.19,# data time:2020,pm2.5:6.445,pm10:5.704,O2:0.000,NO2:0.000,SO2:0.000,NH3:5.988
8:37:24,0,0,0,0,0,0,0,0,0,0,0,510,0,0,0,0,0.0000000,0.0000000,0.0000000,0.0000000,10.00,38.4133072,-110.7824402,1365.0999756,0.0,36.9,0.9,0.0,0.0,861,144,0,0,860.50,28.76,15.19,# data time:2020,pm2.5:6.445,pm10:5.704,O2:0.000,NO2:0.000,SO2:0.000,NH3:5.988
8:37:25,0,0,0,0,0,0,0,0,0,0,0,520,0,0,0,0,0.0000000,0.0000000,0.0000000,0.0000000,10.00,38.4133072,-110.7824402,1365.0999756,0.0,36.9,0.9,0.0,0.0,864,144,0,0,860.53,28.76,15.19,# data time:2030,pm2.5:5.640,pm10:4.991,O2:0.000,NO2:0.000,SO2:0.000,NH3:5.988
8:37:26,0,0,0,0,0,0,0,0,0,0,0,511,0,0,0,0,0.0000000,0.0000000,0.0000000,0.0000000,10.00,38.4133072,-110.7824402,1365.0999756,0.0,36.9,0.9,0.0,0.0,861,138,0,0,860.53,28.75,15.19,# data time:2030,pm2.5:5.640,pm10:4.991,O2:0.000,NO2:0.000,SO2:0.000,NH3:5.988
8:37:27,0,0,0,0,0,0,0,0,0,0,0,514,0,0,0,0,0.0000000,0.0000000,0.0000000,0.0000000,10.00,38.4133072,-110.7824402,1365.0999756,0.0,36.9,0.9,0.0,0.0,863,140,0,0,860.53,28.76,15.17,# data time:2030,pm2.5:5.640,pm10:4.991,O2:0.000,NO2:0.000,SO2:0.000,NH3:5.988
8:37:28,0,0,0,0,0,0,0,0,0,0,0,513,0,0,0,0,0.0000000,0.0000000,0.0000000,0.0000000,10.00,38.4133072,-110.7824402,1365.0999756,0.0,36.9,0.9,0.0,0.0,864,140,0,0,860.51,28.81,15.17,# data time:2030,pm2.5:5.640,pm10:4.991,O2:0.000,NO2:0.000,SO2:0.000,NH3:5.988
8:37:30,0,0,0,0,0,0,0,0,0,0,0,513,0,0,0,0,0.0000000,0.0000000,0.0000000,0.0000000,10.00,38.4133072,-110.7824402,1365.0999756,0.0,36.9,0.9,0.0,0.0,864,141,0,0,860.48,28.79,15.17,# data time:2030,pm2.5:5.640,pm10:4.991,O2:0.000,NO2:0.000,SO2:0.000,NH3:5.988
8:37:31,0,0,0,0,0,0,0,0,0,0,0,514,0,0,0,0,0.0000000,0.0000000,0.0000000,0.0000000,10.00,38.4133072,-110.7824402,1365.0999756,0.0,36.9,0.9,0.0,0.0,864,142,0,0,860.48,28.78,15.17,# data time:2030,pm2.5:5.640,pm10:4.991,O2:0.000,NO2:0.000,SO2:0.000,NH3:5.988
8:37:32,0,0,0,0,0,0,0,0,0,0,0,514,0,0,0,0,0.0000000,0.0000000,0.0000000,0.0000000,10.00,38.4133072,-110.7824402,1365.0999756,0.0,36.9,0.9,0.0,0.0,863,149,0,0,860.54,28.81,15.17,# data time:2030,pm2.5:5.640,pm10:4.991,O2:0.000,NO2:0.000,SO2:0.000,NH3:5.988
8:37:33,0,0,0,0,0,0,0,0,0,0,0,513,0,0,0,0,0.0000000,0.0000000,0.0000000,0.0000000,10.00,38.4133072,-110.7824402,1365.0999756,0.0,36.9,0.9,0.0,0.0,864,148,0,0,860.51,28.76,15.17,# data time:2030,pm2.5:5.640,pm10:4.991,O2:0.000,NO2:0.000,SO2:0.000,NH3:5.988
