Time, Motor A Speed, Motor A Dir, Motor B Speed, Motor B Dir, Servo Rail Current Sensor, Servo Pos - Arm L, Servo Pos - Arm R, Servo Pos - End, Servo Pos - Hopper, Servo Pos - Lid, Servo Pos - Extra, Servo Current, LED - Front L, LED - Front R, LED - Back L, LED - Back R, IMU Pitch, IMU Roll, IMU Yaw, Compass Heading, GPS Sats, GPS Latitude, GPS Longitude, GPS Altitude, GPS Speed, GPS Angle, GPS HDOP, GPS VDOP, GPS PDOP, Battery, Wind, Comm Xbee Latency, Comm Arduino Latency, Pressure, Humidity, Temperature, uRADMonitor
9:55:43,0,0,0,0,0,0,0,0,0,0,0,0,0,0,0,0,0.0000000,0.0000000,0.0000000,0.0000000,0.00,0.0000000,0.0000000,0.0000000,0.0,0.0,0.0,0.0,0.0,0,0,0,0,0.00,0.00,0.00,# data time:6730,pm2.5:6.445,pm10:5.704,O2:0.000,NO2:0.000,SO
9:55:44,0,0,0,0,0,0,0,0,0,0,0,514,0,0,0,0,0.0000000,0.0000000,0.0000000,0.0000000,11.00,38.4149437,-110.7717361,1370.5999756,0.0,190.3,0.8,0.0,0.0,853,143,0,0,860.57,26.32,18.38,# data time:6730,pm2.5:6.445,pm10:5.704,O2:0.000,NO2:0.000,SO
9:55:45,0,0,0,0,0,0,0,0,0,0,0,514,0,0,0,0,0.0000000,0.0000000,0.0000000,0.0000000,11.00,38.4149437,-110.7717361,1370.5999756,0.0,190.3,0.8,0.0,0.0,853,143,0,0,860.53,26.31,18.44,# data time:6730,pm2.5:6.445,pm10:5.704,O2:0.000,NO2:0.000,SO
9:55:46,0,0,0,0,0,0,0,0,0,0,0,514,0,0,0,0,0.0000000,0.0000000,0.0000000,0.0000000,11.00,38.4149437,-110.7717361,1370.5999756,0.0,190.3,0.8,0.0,0.0,853,137,0,0,860.51,26.28,18.46,# data time:6730,pm2.5:6.445,pm10:5.704,O2:0.000,NO2:0.000,SO
9:55:47,0,0,0,0,0,0,0,0,0,0,0,515,0,0,0,0,0.0000000,0.0000000,0.0000000,0.0000000,11.00,38.4149437,-110.7717361,1370.5999756,0.0,190.3,0.8,0.0,0.0,853,134,0,0,860.58,26.25,18.49,# data time:6730,pm2.5:6.445,pm10:5.704,O2:0.000,NO2:0.000,SO
9:55:48,0,0,0,0,0,0,0,0,0,0,0,514,0,0,0,0,0.0000000,0.0000000,0.0000000,0.0000000,11.00,38.4149437,-110.7717361,1370.5999756,0.0,190.3,0.8,0.0,0.0,853,141,0,0,860.55,26.23,18.49,# data time:6730,pm2.5:6.445,pm10:5.704,O2:0.000,NO2:0.000,SO
9:55:49,0,0,0,0,0,0,0,0,0,0,0,514,0,0,0,0,0.0000000,0.0000000,0.0000000,0.0000000,11.00,38.4149437,-110.7717361,1370.5999756,0.0,190.3,0.8,0.0,0.0,853,131,0,0,860.55,26.22,18.52,# data time:6730,pm2.5:6.445,pm10:5.704,O2:0.000,NO2:0.000,SO
9:55:50,0,0,0,0,0,0,0,0,0,0,0,514,0,0,0,0,0.0000000,0.0000000,0.0000000,0.0000000,11.00,38.4149437,-110.7717361,1370.5999756,0.0,190.3,0.8,0.0,0.0,854,132,0,0,860.56,26.20,18.54,# data time:6730,pm2.5:6.445,pm10:5.704,O2:0.000,NO2:0.000,SO
9:55:51,0,0,0,0,0,0,0,0,0,0,0,514,0,0,0,0,0.0000000,0.0000000,0.0000000,0.0000000,11.00,38.4149437,-110.7717361,1370.5999756,0.0,190.3,0.8,0.0,0.0,853,133,0,0,860.58,26.17,18.56,# data time:6730,pm2.5:6.445,pm10:5.704,O2:0.000,NO2:0.000,SO
9:55:52,0,0,0,0,0,0,0,0,0,0,0,514,0,0,0,0,0.0000000,0.0000000,0.0000000,0.0000000,11.00,38.4149437,-110.7717361,1370.5999756,0.0,190.3,0.8,0.0,0.0,853,130,0,0,860.56,26.14,18.58,# data time:6730,pm2.5:6.445,pm10:5.704,O2:0.000,NO2:0.000,SO
9:55:53,0,0,0,0,0,0,0,0,0,0,0,514,0,0,0,0,0.0000000,0.0000000,0.0000000,0.0000000,11.00,38.4149437,-110.7717361,1370.5999756,0.0,190.3,0.8,0.0,0.0,853,134,0,0,860.56,26.12,18.58,# data time:6740,pm2.5:5.640,pm10:4.991,O2:0.000,NO2:0.000,SO2:0.000,NH3:5.083
9:55:54,0,0,0,0,0,0,0,0,0,0,0,514,0,0,0,0,0.0000000,0.0000000,0.0000000,0.0000000,11.00,38.4149437,-110.7717361,1370.5999756,0.0,190.3,0.8,0.0,0.0,853,135,0,0,860.58,26.12,18.57,# data time:6740,pm2.5:5.640,pm10:4.991,O2:0.000,NO2:0.000,SO2:0.000,NH3:5.083
9:55:55,0,0,0,0,0,0,0,0,0,0,0,513,0,0,0,0,0.0000000,0.0000000,0.0000000,0.0000000,11.00,38.4149437,-110.7717361,1370.5999756,0.0,190.3,0.8,0.0,0.0,853,129,0,0,860.56,26.12,18.58,# data time:6740,pm2.5:5.640,pm10:4.991,O2:0.000,NO2:0.000,SO2:0.000,NH3:5.083
9:55:56,0,0,0,0,0,0,0,0,0,0,0,515,0,0,0,0,0.0000000,0.0000000,0.0000000,0.0000000,11.00,38.4149437,-110.7717361,1370.5999756,0.0,190.3,0.8,0.0,0.0,853,139,0,0,860.57,26.12,18.60,# data time:6740,pm2.5:5.640,pm10:4.991,O2:0.000,NO2:0.000,SO2:0.000,NH3:5.083
9:55:57,0,0,0,0,0,0,0,0,0,0,0,514,0,0,0,0,0.0000000,0.0000000,0.0000000,0.0000000,11.00,38.4149437,-110.7717361,1370.5999756,0.0,190.3,0.8,0.0,0.0,853,135,0,0,860.55,26.12,18.59,# data time:6740,pm2.5:5.640,pm10:4.991,O2:0.000,NO2:0.000,SO2:0.000,NH3:5.083
9:55:58,0,0,0,0,0,0,0,0,0,0,0,514,0,0,0,0,0.0000000,0.0000000,0.0000000,0.0000000,11.00,38.4149437,-110.7717361,1370.5999756,0.0,190.3,0.8,0.0,0.0,854,136,0,0,860.55,26.12,18.58,# data time:6740,pm2.5:5.640,pm10:4.991,O2:0.000,NO2:0.000,SO2:0.000,NH3:5.083
9:55:59,0,0,0,0,0,0,0,0,0,0,0,514,0,0,0,0,0.0000000,0.0000000,0.0000000,0.0000000,11.00,38.4149437,-110.7717361,1370.5999756,0.0,190.3,0.8,0.0,0.0,854,133,0,0,860.55,26.12,18.59,# data time:6740,pm2.5:5.640,pm10:4.991,O2:0.000,NO2:0.000,SO2:0.000,NH3:5.083
9:56:00,0,0,0,0,0,0,0,0,0,0,0,514,0,0,0,0,0.0000000,0.0000000,0.0000000,0.0000000,11.00,38.4149437,-110.7717361,1370.5999756,0.0,190.3,0.8,0.0,0.0,853,139,0,0,860.51,26.11,18.59,# data time:6740,pm2.5:5.640,pm10:4.991,O2:0.000,NO2:0.000,SO2:0.000,NH3:5.083
9:56:01,0,0,0,0,0,0,0,0,0,0,0,514,0,0,0,0,0.0000000,0.0000000,0.0000000,0.0000000,11.00,38.4149437,-110.7717361,1370.5999756,0.0,190.3,0.8,0.0,0.0,854,136,0,0,860.48,26.08,18.59,# data time:6740,pm2.5:5.640,pm10:4.991,O2:0.000,NO2:0.000,SO2:0.000,NH3:5.083
9:56:02,0,0,0,0,0,0,0,0,0,0,0,513,0,0,0,0,0.0000000,0.0000000,0.0000000,0.0000000,11.00,38.4149437,-110.7717285,1370.5999756,0.0,190.3,0.8,0.0,0.0,853,140,0,0,860.52,26.09,18.58,# data time:6740,pm2.5:5.640,pm10:4.991,O2:0.000,NO2:0.000,SO2:0.000,NH3:5.083
9:56:03,0,0,0,0,0,0,0,0,0,0,0,514,0,0,0,0,0.0000000,0.0000000,0.0000000,0.0000000,11.00,38.4149437,-110.7717285,1370.5999756,0.0,190.3,0.8,0.0,0.0,854,139,0,0,860.54,26.08,18.57,# data time:6750,pm2.5:6.445,pm10:5.704,O2:0.000,NO2:0.000,SO2:0.000,NH3:5.083
9:56:04,0,0,0,0,0,0,0,0,0,0,0,514,0,0,0,0,0.0000000,0.0000000,0.0000000,0.0000000,11.00,38.4149437,-110.7717285,1370.5999756,0.0,190.3,0.8,0.0,0.0,853,138,0,0,860.54,26.08,18.57,# data time:6750,pm2.5:6.445,pm10:5.704,O2:0.000,NO2:0.000,SO2:0.000,NH3:5.083
9:56:05,0,0,0,0,0,0,0,0,0,0,0,513,0,0,0,0,0.0000000,0.0000000,0.0000000,0.0000000,11.00,38.4149437,-110.7717285,1370.5999756,0.0,190.3,0.8,0.0,0.0,853,137,0,0,860.52,26.08,18.58,# data time:6750,pm2.5:6.445,pm10:5.704,O2:0.000,NO2:0.000,SO2:0.000,NH3:5.083
9:56:06,0,0,0,0,0,0,0,0,0,0,0,514,0,0,0,0,0.0000000,0.0000000,0.0000000,0.0000000,11.00,38.4149437,-110.7717285,1370.5999756,0.0,190.3,0.8,0.0,0.0,854,141,0,0,860.58,26.08,18.59,# data time:6750,pm2.5:6.445,pm10:5.704,O2:0.000,NO2:0.000,SO2:0.000,NH3:5.083
9:56:07,0,0,0,0,0,0,0,0,0,0,0,514,0,0,0,0,0.0000000,0.0000000,0.0000000,0.0000000,11.00,38.4149437,-110.7717285,1370.5999756,0.0,190.3,0.8,0.0,0.0,854,137,0,0,860.56,26.08,18.59,# data time:6750,pm2.5:6.445,pm10:5.704,O2:0.000,NO2:0.000,SO2:0.000,NH3:5.083
9:56:08,0,0,0,0,0,0,0,0,0,0,0,514,0,0,0,0,0.0000000,0.0000000,0.0000000,0.0000000,11.00,38.4149437,-110.7717285,1370.5999756,0.0,190.3,0.8,0.0,0.0,853,140,0,0,860.57,26.05,18.58,# data time:6750,pm2.5:6.445,pm10:5.704,O2:0.000,NO2:0.000,SO2:0.000,NH3:5.083
9:56:09,0,0,0,0,0,0,0,0,0,0,0,514,0,0,0,0,0.0000000,0.0000000,0.0000000,0.0000000,11.00,38.4149437,-110.7717285,1370.5999756,0.0,190.3,0.8,0.0,0.0,853,135,0,0,860.54,26.05,18.59,# data time:6750,pm2.5:6.445,pm10:5.704,O2:0.000,NO2:0.000,SO2:0.000,NH3:5.083
9:56:10,0,0,0,0,0,0,0,0,0,0,0,514,0,0,0,0,0.0000000,0.0000000,0.0000000,0.0000000,11.00,38.4149437,-110.7717285,1370.5999756,0.0,190.3,0.8,0.0,0.0,853,135,0,0,860.53,26.06,18.59,# data time:6750,pm2.5:6.445,pm10:5.704,O2:0.000,NO2:0.000,SO2:0.000,NH3:5.083
9:56:11,0,0,0,0,0,0,0,0,0,0,0,514,0,0,0,0,0.0000000,0.0000000,0.0000000,0.0000000,11.00,38.4149437,-110.7717285,1370.5999756,0.0,190.3,0.8,0.0,0.0,853,133,0,0,860.55,26.03,18.64,# data time:6750,pm2.5:6.445,pm10:5.704,O2:0.000,NO2:0.000,SO2:0.000,NH3:5.083
9:56:12,0,0,0,0,0,0,0,0,0,0,0,515,0,0,0,0,0.0000000,0.0000000,0.0000000,0.0000000,11.00,38.4149437,-110.7717285,1370.5999756,0.0,190.3,0.8,0.0,0.0,853,138,0,0,860.53,26.06,18.66,# data time:6760,pm2.5:6.445,pm10:5.704,O2:0.000,NO2:0.000,SO2:0.000,NH3:5.083
9:56:13,0,0,0,0,0,0,0,0,0,0,0,513,0,0,0,0,0.0000000,0.0000000,0.0000000,0.0000000,11.00,38.4149437,-110.7717285,1370.5999756,0.0,190.3,0.8,0.0,0.0,853,138,0,0,860.51,26.05,18.66,# data time:6760,pm2.5:6.445,pm10:5.704,O2:0.000,NO2:0.000,SO2:0.000,NH3:5.083
9:56:14,0,0,0,0,0,0,0,0,0,0,0,514,0,0,0,0,0.0000000,0.0000000,0.0000000,0.0000000,11.00,38.4149437,-110.7717285,1370.5999756,0.0,190.3,0.8,0.0,0.0,853,136,0,0,860.53,26.05,18.68,# data time:6760,pm2.5:6.445,pm10:5.704,O2:0.000,NO2:0.000,SO2:0.000,NH3:5.083
9:56:15,0,0,0,0,0,0,0,0,0,0,0,514,0,0,0,0,0.0000000,0.0000000,0.0000000,0.0000000,11.00,38.4149437,-110.7717285,1370.5999756,0.0,190.3,0.8,0.0,0.0,853,135,0,0,860.51,26.00,18.70,# data time:6760,pm2.5:6.445,pm10:5.704,O2:0.000,NO2:0.000,SO2:0.000,NH3:5.083
9:56:16,0,0,0,0,0,0,0,0,0,0,0,514,0,0,0,0,0.0000000,0.0000000,0.0000000,0.0000000,11.00,38.4149437,-110.7717285,1370.5999756,0.0,190.3,0.8,0.0,0.0,854,136,0,0,860.54,25.97,18.72,# data time:6760,pm2.5:6.445,pm10:5.704,O2:0.000,NO2:0.000,SO2:0.000,NH3:5.083
9:56:17,0,0,0,0,0,0,0,0,0,0,0,514,0,0,0,0,0.0000000,0.0000000,0.0000000,0.0000000,11.00,38.4149437,-110.7717285,1370.5999756,0.0,190.3,0.8,0.0,0.0,854,139,0,0,860.55,25.99,18.70,# data time:6760,pm2.5:6.445,pm10:5.704,O2:0.000,NO2:0.000,SO2:0.000,NH3:5.083
9:56:18,0,0,0,0,0,0,0,0,0,0,0,514,0,0,0,0,0.0000000,0.0000000,0.0000000,0.0000000,11.00,38.4149437,-110.7717285,1370.5999756,0.0,190.3,0.8,0.0,0.0,853,135,0,0,860.52,25.99,18.68,# data time:6760,pm2.5:6.445,pm10:5.704,O2:0.000,NO2:0.000,SO2:0.000,NH3:5.083
9:56:19,0,0,0,0,0,0,0,0,0,0,0,514,0,0,0,0,0.0000000,0.0000000,0.0000000,0.0000000,11.00,38.4149437,-110.7717285,1370.5999756,0.0,190.3,0.8,0.0,0.0,853,143,0,0,860.55,25.99,18.68,# data time:6760,pm2.5:6.445,pm10:5.704,O2:0.000,NO2:0.000,SO2:0.000,NH3:5.083
9:56:20,0,0,0,0,0,0,0,0,0,0,0,513,0,0,0,0,0.0000000,0.0000000,0.0000000,0.0000000,11.00,38.4149437,-110.7717285,1370.5999756,0.0,190.3,0.8,0.0,0.0,853,140,0,0,860.53,25.99,18.68,# data time:6760,pm2.5:6.445,pm10:5.704,O2:0.000,NO2:0.000,SO2:0.000,NH3:5.083
9:56:21,0,0,0,0,0,0,0,0,0,0,0,514,0,0,0,0,0.0000000,0.0000000,0.0000000,0.0000000,11.00,38.4149437,-110.7717285,1370.5999756,0.0,190.3,0.8,0.0,0.0,853,138,0,0,860.54,26.00,18.68,# data time:6760,pm2.5:6.445,pm10:5.704,O2:0.000,NO2:0.000,SO2:0.000,NH3:5.083
9:56:22,0,0,0,0,0,0,0,0,0,0,0,514,0,0,0,0,0.0000000,0.0000000,0.0000000,0.0000000,11.00,38.4149437,-110.7717285,1370.5999756,0.0,190.3,0.8,0.0,0.0,853,139,0,0,860.55,26.00,18.70,# data time:6770,pm2.5:5.640,pm10:4.991,O2:0.000,NO2:0.000,SO2:0.000,NH3:5.083
9:56:23,0,0,0,0,0,0,0,0,0,0,0,514,0,0,0,0,0.0000000,0.0000000,0.0000000,0.0000000,11.00,38.4149437,-110.7717285,1370.5999756,0.0,190.3,0.8,0.0,0.0,853,139,0,0,860.61,26.02,18.68,# data time:6770,pm2.5:5.640,pm10:4.991,O2:0.000,NO2:0.000,SO2:0.000,NH3:5.083
9:56:24,0,0,0,0,0,0,0,0,0,0,0,513,0,0,0,0,0.0000000,0.0000000,0.0000000,0.0000000,11.00,38.4149437,-110.7717285,1370.5999756,0.0,190.3,0.8,0.0,0.0,853,133,0,0,860.54,26.03,18.70,# data time:6770,pm2.5:5.640,pm10:4.991,O2:0.000,NO2:0.000,SO2:0.000,NH3:5.083
9:56:25,0,0,0,0,0,0,0,0,0,0,0,514,0,0,0,0,0.0000000,0.0000000,0.0000000,0.0000000,11.00,38.4149437,-110.7717285,1370.5999756,0.0,190.3,0.8,0.0,0.0,853,139,0,0,860.54,25.97,18.73,# data time:6770,pm2.5:5.640,pm10:4.991,O2:0.000,NO2:0.000,SO2:0.000,NH3:5.083
9:56:26,0,0,0,0,0,0,0,0,0,0,0,515,0,0,0,0,0.0000000,0.0000000,0.0000000,0.0000000,11.00,38.4149437,-110.7717285,1370.5999756,0.0,190.3,0.8,0.0,0.0,853,137,0,0,860.57,25.99,18.76,# data time:6770,pm2.5:5.640,pm10:4.991,O2:0.000,NO2:0.000,SO2:0.000,NH3:5.083
9:56:27,0,0,0,0,0,0,0,0,0,0,0,513,0,0,0,0,0.0000000,0.0000000,0.0000000,0.0000000,11.00,38.4149437,-110.7717285,1370.5999756,0.0,190.3,0.8,0.0,0.0,853,139,0,0,860.53,25.96,18.78,# data time:6770,pm2.5:5.640,pm10:4.991,O2:0.000,NO2:0.000,SO2:0.000,NH3:5.083
9:56:28,0,0,0,0,0,0,0,0,0,0,0,513,0,0,0,0,0.0000000,0.0000000,0.0000000,0.0000000,11.00,38.4149437,-110.7717285,1370.5999756,0.0,190.3,0.8,0.0,0.0,854,136,0,0,860.51,25.94,18.78,# data time:6770,pm2.5:5.640,pm10:4.991,O2:0.000,NO2:0.000,SO2:0.000,NH3:5.083
9:56:29,0,0,0,0,0,0,0,0,0,0,0,514,0,0,0,0,0.0000000,0.0000000,0.0000000,0.0000000,11.00,38.4149437,-110.7717285,1370.5999756,0.0,190.3,0.8,0.0,0.0,853,146,0,0,860.60,25.93,18.74,# data time:6770,pm2.5:5.640,pm10:4.991,O2:0.000,NO2:0.000,SO2:0.000,NH3:5.083
9:56:30,0,0,0,0,0,0,0,0,0,0,0,515,0,0,0,0,0.0000000,0.0000000,0.0000000,0.0000000,11.00,38.4149437,-110.7717285,1370.5999756,0.0,190.3,0.8,0.0,0.0,853,144,0,0,860.52,25.94,18.76,# data time:6770,pm2.5:5.640,pm10:4.991,O2:0.000,NO2:0.000,SO2:0.000,NH3:5.083
9:56:32,0,0,0,0,0,0,0,0,0,0,0,514,0,0,0,0,0.0000000,0.0000000,0.0000000,0.0000000,11.00,38.4149437,-110.7717285,1370.5999756,0.0,190.3,0.8,0.0,0.0,853,143,0,0,860.52,25.89,18.66,# data time:6770,pm2.5:5.640,pm10:4.991,O2:0.000,NO2:0.000,SO2:0.000,NH3:5.083
9:56:33,0,0,0,0,0,0,0,0,0,0,0,514,0,0,0,0,0.0000000,0.0000000,0.0000000,0.0000000,11.00,38.4149437,-110.7717285,1370.5999756,0.0,190.3,0.8,0.0,0.0,853,144,0,0,860.50,25.91,18.66,# data time:6780,pm2.5:6.445,pm10:5.704,O2:0.000,NO2:0.000,SO2:0.000,NH3:5.083
9:56:34,0,0,0,0,0,0,0,0,0,0,0,513,0,0,0,0,0.0000000,0.0000000,0.0000000,0.0000000,11.00,38.4149437,-110.7717285,1370.5999756,0.0,190.3,0.8,0.0,0.0,853,140,0,0,860.57,25.88,18.73,# data time:6780,pm2.5:6.445,pm10:5.704,O2:0.000,NO2:0.000,SO2:0.000,NH3:5.083
9:56:35,0,0,0,0,0,0,0,0,0,0,0,514,0,0,0,0,0.0000000,0.0000000,0.0000000,0.0000000,11.00,38.4149437,-110.7717285,1370.5999756,0.0,190.3,0.8,0.0,0.0,853,143,0,0,860.51,25.85,18.75,# data time:6780,pm2.5:6.445,pm10:5.704,O2:0.000,NO2:0.000,SO2:0.000,NH3:5.083
9:56:36,0,0,0,0,0,0,0,0,0,0,0,514,0,0,0,0,0.0000000,0.0000000,0.0000000,0.0000000,11.00,38.4149437,-110.7717285,1370.5999756,0.0,190.3,0.8,0.0,0.0,853,139,0,0,860.56,25.83,18.75,# data time:6780,pm2.5:6.445,pm10:5.704,O2:0.000,NO2:0.000,SO2:0.000,NH3:5.083
9:56:37,0,0,0,0,0,0,0,0,0,0,0,514,0,0,0,0,0.0000000,0.0000000,0.0000000,0.0000000,11.00,38.4149437,-110.7717285,1370.5999756,0.0,190.3,0.8,0.0,0.0,853,140,0,0,860.59,25.82,18.76,# data time:6780,pm2.5:6.445,pm10:5.704,O2:0.000,NO2:0.000,SO2:0.000,NH3:5.083
9:56:38,0,0,0,0,0,0,0,0,0,0,0,514,0,0,0,0,0.0000000,0.0000000,0.0000000,0.0000000,11.00,38.4149437,-110.7717285,1370.5999756,0.0,190.3,0.8,0.0,0.0,853,138,0,0,860.56,25.80,18.83,# data time:6780,pm2.5:6.445,pm10:5.704,O2:0.000,NO2:0.000,SO2:0.000,NH3:5.083
9:56:39,0,0,0,0,0,0,0,0,0,0,0,513,0,0,0,0,0.0000000,0.0000000,0.0000000,0.0000000,11.00,38.4149437,-110.7717285,1370.5999756,0.0,190.3,0.8,0.0,0.0,853,142,0,0,860.56,25.79,18.80,# data time:6780,pm2.5:6.445,pm10:5.704,O2:0.000,NO2:0.000,SO2:0.000,NH3:5.083
9:56:40,0,0,0,0,0,0,0,0,0,0,0,514,0,0,0,0,0.0000000,0.0000000,0.0000000,0.0000000,11.00,38.4149437,-110.7717285,1370.5999756,0.0,190.3,0.8,0.0,0.0,853,139,0,0,860.53,25.76,18.81,# data time:6780,pm2.5:6.445,pm10:5.704,O2:0.000,NO2:0.000,SO2:0.000,NH3:5.083
9:56:41,0,0,0,0,0,0,0,0,0,0,0,514,0,0,0,0,0.0000000,0.0000000,0.0000000,0.0000000,11.00,38.4149437,-110.7717285,1370.5999756,0.0,190.3,0.8,0.0,0.0,853,145,0,0,860.51,25.76,18.79,# data time:6780,pm2.5:6.445,pm10:5.704,O2:0.000,NO2:0.000,SO2:0.000,NH3:5.083
9:56:42,0,0,0,0,0,0,0,0,0,0,0,514,0,0,0,0,0.0000000,0.0000000,0.0000000,0.0000000,11.00,38.4149437,-110.7717285,1370.5999756,0.0,190.3,0.8,0.0,0.0,853,143,0,0,860.56,25.76,18.77,# data time:6780,pm2.5:6.445,pm10:5.704,O2:0.000,NO2:0.000,SO2:0.000,NH3:5.083
9:56:43,0,0,0,0,0,0,0,0,0,0,0,514,0,0,0,0,0.0000000,0.0000000,0.0000000,0.0000000,11.00,38.4149437,-110.7717285,1370.5999756,0.0,190.3,0.8,0.0,0.0,853,144,0,0,860.55,25.74,18.76,# data time:6790,pm2.5:6.445,pm10:5.704,O2:0.000,NO2:0.000,SO2:0.000,NH3:5.083
9:56:44,0,0,0,0,0,0,0,0,0,0,0,515,0,0,0,0,0.0000000,0.0000000,0.0000000,0.0000000,11.00,38.4149437,-110.7717285,1370.5999756,0.0,190.3,0.8,0.0,0.0,854,149,0,0,860.58,25.77,18.77,# data time:6790,pm2.5:6.445,pm10:5.704,O2:0.000,NO2:0.000,SO2:0.000,NH3:5.083
9:56:45,0,0,0,0,0,0,0,0,0,0,0,514,0,0,0,0,0.0000000,0.0000000,0.0000000,0.0000000,11.00,38.4149437,-110.7717285,1370.5999756,0.0,190.3,0.8,0.0,0.0,853,145,0,0,860.56,25.76,18.80,# data time:6790,pm2.5:6.445,pm10:5.704,O2:0.000,NO2:0.000,SO2:0.000,NH3:5.083
9:56:46,0,0,0,0,0,0,0,0,0,0,0,514,0,0,0,0,0.0000000,0.0000000,0.0000000,0.0000000,11.00,38.4149437,-110.7717285,1370.5999756,0.0,190.3,0.8,0.0,0.0,853,144,0,0,860.58,25.74,18.83,# data time:6790,pm2.5:6.445,pm10:5.704,O2:0.000,NO2:0.000,SO2:0.000,NH3:5.083
9:56:47,0,0,0,0,0,0,0,0,0,0,0,514,0,0,0,0,0.0000000,0.0000000,0.0000000,0.0000000,11.00,38.4149437,-110.7717285,1370.5999756,0.0,190.3,0.8,0.0,0.0,853,144,0,0,860.60,25.74,18.85,# data time:6790,pm2.5:6.445,pm10:5.704,O2:0.000,NO2:0.000,SO2:0.000,NH3:5.083
9:56:48,0,0,0,0,0,0,0,0,0,0,0,514,0,0,0,0,0.0000000,0.0000000,0.0000000,0.0000000,11.00,38.4149437,-110.7717285,1370.5999756,0.0,190.3,0.8,0.0,0.0,853,142,0,0,860.60,25.73,18.85,# data time:6790,pm2.5:6.445,pm10:5.704,O2:0.000,NO2:0.000,SO2:0.000,NH3:5.083
9:56:49,0,0,0,0,0,0,0,0,0,0,0,514,0,0,0,0,0.0000000,0.0000000,0.0000000,0.0000000,11.00,38.4149437,-110.7717285,1370.5999756,0.0,190.3,0.8,0.0,0.0,853,145,0,0,860.57,25.71,18.87,# data time:6790,pm2.5:6.445,pm10:5.704,O2:0.000,NO2:0.000,SO2:0.000,NH3:5.083
9:56:50,0,0,0,0,0,0,0,0,0,0,0,513,0,0,0,0,0.0000000,0.0000000,0.0000000,0.0000000,11.00,38.4149437,-110.7717285,1370.5999756,0.0,190.3,0.8,0.0,0.0,854,134,0,0,860.60,25.70,18.87,# data time:6790,pm2.5:6.445,pm10:5.704,O2:0.000,NO2:0.000,SO2:0.000,NH3:5.083
9:56:51,0,0,0,0,0,0,0,0,0,0,0,514,0,0,0,0,0.0000000,0.0000000,0.0000000,0.0000000,11.00,38.4149437,-110.7717285,1370.5999756,0.0,190.3,0.8,0.0,0.0,854,142,0,0,860.56,25.68,18.89,# data time:6790,pm2.5:6.445,pm10:5.704,O2:0.000,NO2:0.000,SO2:0.000,NH3:5.083
9:56:52,0,0,0,0,0,0,0,0,0,0,0,514,0,0,0,0,0.0000000,0.0000000,0.0000000,0.0000000,11.00,38.4149437,-110.7717285,1370.5999756,0.0,190.3,0.8,0.0,0.0,853,135,0,0,860.57,25.68,18.89,# data time:6790,pm2.5:6.445,pm10:5.704,O2:0.000,NO2:0.000,SO2:0.000,NH3:5.083
9:56:53,0,0,0,0,0,0,0,0,0,0,0,513,0,0,0,0,0.0000000,0.0000000,0.0000000,0.0000000,11.00,38.4149437,-110.7717285,1370.5999756,0.0,190.3,0.8,0.0,0.0,854,143,0,0,860.60,25.68,18.86,# data time:6800,pm2.5:6.445,pm10:5.704,O2:0.000,NO2:0.000,SO2:0.000,NH3:5.083
9:56:54,0,0,0,0,0,0,0,0,0,0,0,514,0,0,0,0,0.0000000,0.0000000,0.0000000,0.0000000,11.00,38.4149437,-110.7717285,1370.5999756,0.0,190.3,0.8,0.0,0.0,853,144,0,0,860.54,25.68,18.81,# data time:6800,pm2.5:6.445,pm10:5.704,O2:0.000,NO2:0.000,SO2:0.000,NH3:5.083
9:56:55,0,0,0,0,0,0,0,0,0,0,0,513,0,0,0,0,0.0000000,0.0000000,0.0000000,0.0000000,11.00,38.4149437,-110.7717285,1370.5999756,0.0,190.3,0.8,0.0,0.0,853,146,0,0,860.60,25.73,18.80,# data time:6800,pm2.5:6.445,pm10:5.704,O2:0.000,NO2:0.000,SO2:0.000,NH3:5.083
9:56:56,0,0,0,0,0,0,0,0,0,0,0,513,0,0,0,0,0.0000000,0.0000000,0.0000000,0.0000000,11.00,38.4149437,-110.7717285,1370.5999756,0.0,190.3,0.8,0.0,0.0,853,143,0,0,860.56,25.73,18.79,# data time:6800,pm2.5:6.445,pm10:5.704,O2:0.000,NO2:0.000,SO2:0.000,NH3:5.083
9:56:57,0,0,0,0,0,0,0,0,0,0,0,514,0,0,0,0,0.0000000,0.0000000,0.0000000,0.0000000,11.00,38.4149437,-110.7717285,1370.5999756,0.0,190.3,0.8,0.0,0.0,853,151,0,0,860.58,25.74,18.80,# data time:6800,pm2.5:6.445,pm10:5.704,O2:0.000,NO2:0.000,SO2:0.000,NH3:5.083
9:56:58,0,0,0,0,0,0,0,0,0,0,0,514,0,0,0,0,0.0000000,0.0000000,0.0000000,0.0000000,11.00,38.4149437,-110.7717285,1370.5999756,0.0,190.3,0.8,0.0,0.0,853,147,0,0,860.61,25.76,18.79,# data time:6800,pm2.5:6.445,pm10:5.704,O2:0.000,NO2:0.000,SO2:0.000,NH3:5.083
9:56:59,0,0,0,0,0,0,0,0,0,0,0,514,0,0,0,0,0.0000000,0.0000000,0.0000000,0.0000000,11.00,38.4149437,-110.7717285,1370.5999756,0.0,190.3,0.8,0.0,0.0,853,149,0,0,860.57,25.77,18.76,# data time:6800,pm2.5:6.445,pm10:5.704,O2:0.000,NO2:0.000,SO2:0.000,NH3:5.083
9:57:00,0,0,0,0,0,0,0,0,0,0,0,514,0,0,0,0,0.0000000,0.0000000,0.0000000,0.0000000,11.00,38.4149437,-110.7717285,1370.5999756,0.0,190.3,0.8,0.0,0.0,853,150,0,0,860.58,25.76,18.75,# data time:6800,pm2.5:6.445,pm10:5.704,O2:0.000,NO2:0.000,SO2:0.000,NH3:5.083
9:57:01,0,0,0,0,0,0,0,0,0,0,0,514,0,0,0,0,0.0000000,0.0000000,0.0000000,0.0000000,11.00,38.4149437,-110.7717285,1370.5999756,0.0,190.3,0.8,0.0,0.0,853,155,0,0,860.58,25.77,18.74,# data time:6800,pm2.5:6.445,pm10:5.704,O2:0.000,NO2:0.000,SO2:0.000,NH3:5.083
9:57:02,0,0,0,0,0,0,0,0,0,0,0,514,0,0,0,0,0.0000000,0.0000000,0.0000000,0.0000000,11.00,38.4149437,-110.7717285,1370.5999756,0.0,190.3,0.8,0.0,0.0,853,147,0,0,860.54,25.77,18.74,# data time:6800,pm2.5:6.445,pm10:5.704,O2:0.000,NO2:0.000,SO2:0.000,NH3:5.083
9:57:03,0,0,0,0,0,0,0,0,0,0,0,514,0,0,0,0,0.0000000,0.0000000,0.0000000,0.0000000,11.00,38.4149437,-110.7717285,1370.5999756,0.0,190.3,0.8,0.0,0.0,853,151,0,0,860.54,25.79,18.74,# data time:6810,pm2.5:6.445,pm10:5.704,O2:0.000,NO2:0.000,SO2:0.000,NH3:5.083
9:57:04,0,0,0,0,0,0,0,0,0,0,0,514,0,0,0,0,0.0000000,0.0000000,0.0000000,0.0000000,11.00,38.4149437,-110.7717285,1370.5999756,0.0,190.3,0.8,0.0,0.0,853,147,0,0,860.56,25.79,18.77,# data time:6810,pm2.5:6.445,pm10:5.704,O2:0.000,NO2:0.000,SO2:0.000,NH3:5.083
9:57:05,0,0,0,0,0,0,0,0,0,0,0,513,0,0,0,0,0.0000000,0.0000000,0.0000000,0.0000000,11.00,38.4149437,-110.7717285,1370.5999756,0.0,190.3,0.8,0.0,0.0,853,144,0,0,860.51,25.79,18.77,# data time:6810,pm2.5:6.445,pm10:5.704,O2:0.000,NO2:0.000,SO2:0.000,NH3:5.083
9:57:06,0,0,0,0,0,0,0,0,0,0,0,514,0,0,0,0,0.0000000,0.0000000,0.0000000,0.0000000,11.00,38.4149437,-110.7717285,1370.5999756,0.0,190.3,0.8,0.0,0.0,853,142,0,0,860.55,25.76,18.80,# data time:6810,pm2.5:6.445,pm10:5.704,O2:0.000,NO2:0.000,SO2:0.000,NH3:5.083
9:57:07,0,0,0,0,0,0,0,0,0,0,0,514,0,0,0,0,0.0000000,0.0000000,0.0000000,0.0000000,11.00,38.4149437,-110.7717285,1370.5999756,0.0,190.3,0.8,0.0,0.0,853,142,0,0,860.57,25.77,18.77,# data time:6810,pm2.5:6.445,pm10:5.704,O2:0.000,NO2:0.000,SO2:0.000,NH3:5.083
9:57:08,0,0,0,0,0,0,0,0,0,0,0,513,0,0,0,0,0.0000000,0.0000000,0.0000000,0.0000000,11.00,38.4149437,-110.7717285,1370.5999756,0.0,190.3,0.8,0.0,0.0,853,141,0,0,860.57,25.74,18.79,# data time:6810,pm2.5:6.445,pm10:5.704,O2:0.000,NO2:0.000,SO2:0.000,NH3:5.083
9:57:09,0,0,0,0,0,0,0,0,0,0,0,513,0,0,0,0,0.0000000,0.0000000,0.0000000,0.0000000,11.00,38.4149437,-110.7717285,1370.5999756,0.0,190.3,0.8,0.0,0.0,853,141,0,0,860.61,25.70,18.82,# data time:6810,pm2.5:6.445,pm10:5.704,O2:0.000,NO2:0.000,SO2:0.000,NH3:5.083
9:57:10,0,0,0,0,0,0,0,0,0,0,0,514,0,0,0,0,0.0000000,0.0000000,0.0000000,0.0000000,11.00,38.4149437,-110.7717285,1370.5999756,0.0,190.3,0.8,0.0,0.0,853,135,0,0,860.58,25.68,18.85,# data time:6810,pm2.5:6.445,pm10:5.704,O2:0.000,NO2:0.000,SO2:0.000,NH3:5.083
9:57:11,0,0,0,0,0,0,0,0,0,0,0,514,0,0,0,0,0.0000000,0.0000000,0.0000000,0.0000000,11.00,38.4149437,-110.7717285,1370.5999756,0.0,190.3,0.8,0.0,0.0,853,138,0,0,860.61,25.67,18.87,# data time:6810,pm2.5:6.445,pm10:5.704,O2:0.000,NO2:0.000,SO2:0.000,NH3:5.083
9:57:12,0,0,0,0,0,0,0,0,0,0,0,514,0,0,0,0,0.0000000,0.0000000,0.0000000,0.0000000,11.00,38.4149437,-110.7717285,1370.5999756,0.0,190.3,0.8,0.0,0.0,853,138,0,0,860.57,25.62,18.87,# data time:6820,pm2.5:6.445,pm10:5.704,O2:0.000,NO2:0.000,SO2:0.000,NH3:5.083
9:57:13,0,0,0,0,0,0,0,0,0,0,0,514,0,0,0,0,0.0000000,0.0000000,0.0000000,0.0000000,11.00,38.4149437,-110.7717285,1370.5999756,0.0,190.3,0.8,0.0,0.0,853,140,0,0,860.59,25.59,18.86,# data time:6820,pm2.5:6.445,pm10:5.704,O2:0.000,NO2:0.000,SO2:0.000,NH3:5.083
9:57:14,0,0,0,0,0,0,0,0,0,0,0,514,0,0,0,0,0.0000000,0.0000000,0.0000000,0.0000000,11.00,38.4149437,-110.7717285,1370.5999756,0.0,190.3,0.8,0.0,0.0,853,137,0,0,860.59,25.57,18.86,# data time:6820,pm2.5:6.445,pm10:5.704,O2:0.000,NO2:0.000,SO2:0.000,NH3:5.083
9:57:15,0,0,0,0,0,0,0,0,0,0,0,514,0,0,0,0,0.0000000,0.0000000,0.0000000,0.0000000,11.00,38.4149437,-110.7717285,1370.5999756,0.0,190.3,0.8,0.0,0.0,853,134,0,0,860.58,25.56,18.88,# data time:6820,pm2.5:6.445,pm10:5.704,O2:0.000,NO2:0.000,SO2:0.000,NH3:5.083
9:57:16,0,0,0,0,0,0,0,0,0,0,0,514,0,0,0,0,0.0000000,0.0000000,0.0000000,0.0000000,11.00,38.4149437,-110.7717285,1370.5999756,0.0,190.3,0.8,0.0,0.0,853,138,0,0,860.58,25.51,18.90,# data time:6820,pm2.5:6.445,pm10:5.704,O2:0.000,NO2:0.000,SO2:0.000,NH3:5.083
9:57:17,0,0,0,0,0,0,0,0,0,0,0,513,0,0,0,0,0.0000000,0.0000000,0.0000000,0.0000000,11.00,38.4149437,-110.7717285,1370.5999756,0.0,190.3,0.8,0.0,0.0,853,136,0,0,860.58,25.51,18.92,# data time:6820,pm2.5:6.445,pm10:5.704,O2:0.000,NO2:0.000,SO2:0.000,NH3:5.083
9:57:18,0,0,0,0,0,0,0,0,0,0,0,514,0,0,0,0,0.0000000,0.0000000,0.0000000,0.0000000,11.00,38.4149437,-110.7717285,1370.5999756,0.0,190.3,0.8,0.0,0.0,853,132,0,0,860.55,25.48,18.91,# data time:6820,pm2.5:6.445,pm10:5.704,O2:0.000,NO2:0.000,SO2:0.000,NH3:5.083
9:57:19,0,0,0,0,0,0,0,0,0,0,0,514,0,0,0,0,0.0000000,0.0000000,0.0000000,0.0000000,11.00,38.4149437,-110.7717285,1370.5999756,0.0,190.3,0.8,0.0,0.0,853,134,0,0,860.52,25.50,18.90,# data time:6820,pm2.5:6.445,pm10:5.704,O2:0.000,NO2:0.000,SO2:0.000,NH3:5.083
9:57:20,0,0,0,0,0,0,0,0,0,0,0,514,0,0,0,0,0.0000000,0.0000000,0.0000000,0.0000000,11.00,38.4149437,-110.7717285,1370.5999756,0.0,190.3,0.8,0.0,0.0,853,134,0,0,860.55,25.48,18.90,# data time:6820,pm2.5:6.445,pm10:5.704,O2:0.000,NO2:0.000,SO2:0.000,NH3:5.083
9:57:21,0,0,0,0,0,0,0,0,0,0,0,514,0,0,0,0,0.0000000,0.0000000,0.0000000,0.0000000,11.00,38.4149437,-110.7717285,1370.5999756,0.0,190.3,0.8,0.0,0.0,853,131,0,0,860.59,25.50,18.88,# data time:6820,pm2.5:6.445,pm10:5.704,O2:0.000,NO2:0.000,SO2:0.000,NH3:5.083
9:57:22,0,0,0,0,0,0,0,0,0,0,0,514,0,0,0,0,0.0000000,0.0000000,0.0000000,0.0000000,11.00,38.4149437,-110.7717285,1370.5999756,0.0,190.3,0.8,0.0,0.0,853,129,0,0,860.54,25.47,18.87,# data time:6830,pm2.5:6.445,pm10:5.704,O2:0.000,NO2:0.000,SO2:0.000,NH3:5.083
9:57:23,0,0,0,0,0,0,0,0,0,0,0,514,0,0,0,0,0.0000000,0.0000000,0.0000000,0.0000000,11.00,38.4149437,-110.7717285,1370.5999756,0.0,190.3,0.8,0.0,0.0,853,130,0,0,860.59,25.50,18.84,# data time:6830,pm2.5:6.445,pm10:5.704,O2:0.000,NO2:0.000,SO2:0.000,NH3:5.083
9:57:24,0,0,0,0,0,0,0,0,0,0,0,514,0,0,0,0,0.0000000,0.0000000,0.0000000,0.0000000,11.00,38.4149437,-110.7717285,1370.5999756,0.0,190.3,0.8,0.0,0.0,853,133,0,0,860.62,25.54,18.81,# data time:6830,pm2.5:6.445,pm10:5.704,O2:0.000,NO2:0.000,SO2:0.000,NH3:5.083
9:57:25,0,0,0,0,0,0,0,0,0,0,0,514,0,0,0,0,0.0000000,0.0000000,0.0000000,0.0000000,11.00,38.4149437,-110.7717285,1370.5999756,0.0,190.3,0.8,0.0,0.0,853,135,0,0,860.61,25.56,18.80,# data time:6830,pm2.5:6.445,pm10:5.704,O2:0.000,NO2:0.000,SO2:0.000,NH3:5.083
9:57:26,0,0,0,0,0,0,0,0,0,0,0,514,0,0,0,0,0.0000000,0.0000000,0.0000000,0.0000000,11.00,38.4149437,-110.7717285,1370.5999756,0.0,190.3,0.8,0.0,0.0,853,130,0,0,860.58,25.56,18.82,# data time:6830,pm2.5:6.445,pm10:5.704,O2:0.000,NO2:0.000,SO2:0.000,NH3:5.083
9:57:27,0,0,0,0,0,0,0,0,0,0,0,514,0,0,0,0,0.0000000,0.0000000,0.0000000,0.0000000,11.00,38.4149437,-110.7717285,1370.5999756,0.0,190.3,0.8,0.0,0.0,853,131,0,0,860.56,25.57,18.83,# data time:6830,pm2.5:6.445,pm10:5.704,O2:0.000,NO2:0.000,SO2:0.000,NH3:5.083
9:57:28,0,0,0,0,0,0,0,0,0,0,0,514,0,0,0,0,0.0000000,0.0000000,0.0000000,0.0000000,11.00,38.4149437,-110.7717285,1370.5999756,0.0,190.3,0.8,0.0,0.0,853,135,0,0,860.55,25.57,18.82,# data time:6830,pm2.5:6.445,pm10:5.704,O2:0.000,NO2:0.000,SO2:0.000,NH3:5.083
9:57:29,0,0,0,0,0,0,0,0,0,0,0,515,0,0,0,0,0.0000000,0.0000000,0.0000000,0.0000000,11.00,38.4149437,-110.7717285,1370.5999756,0.0,190.3,0.8,0.0,0.0,854,132,0,0,860.55,25.53,18.84,# data time:6830,pm2.5:6.445,pm10:5.704,O2:0.000,NO2:0.000,SO2:0.000,NH3:5.083
9:57:30,0,0,0,0,0,0,0,0,0,0,0,514,0,0,0,0,0.0000000,0.0000000,0.0000000,0.0000000,11.00,38.4149437,-110.7717285,1370.5999756,0.0,190.3,0.8,0.0,0.0,853,136,0,0,860.59,25.53,18.87,# data time:6830,pm2.5:6.445,pm10:5.704,O2:0.000,NO2:0.000,SO2:0.000,NH3:5.083
9:57:31,0,0,0,0,0,0,0,0,0,0,0,514,0,0,0,0,0.0000000,0.0000000,0.0000000,0.0000000,11.00,38.4149437,-110.7717285,1370.5999756,0.0,190.3,0.8,0.0,0.0,853,142,0,0,860.56,25.54,18.88,# data time:6830,pm2.5:6.445,pm10:5.704,O2:0.000,NO2:0.000,SO2:0.000,NH3:5.083
9:57:32,0,0,0,0,0,0,0,0,0,0,0,514,0,0,0,0,0.0000000,0.0000000,0.0000000,0.0000000,11.00,38.4149437,-110.7717285,1370.5999756,0.0,190.3,0.8,0.0,0.0,853,140,0,0,860.59,25.51,18.89,# data time:6840,pm2.5:6.445,pm10:5.704,O2:0.000,NO2:0.000,SO2:0.000,NH3:5.083
9:57:34,0,0,0,0,0,0,0,0,0,0,0,514,0,0,0,0,0.0000000,0.0000000,0.0000000,0.0000000,11.00,38.4149437,-110.7717285,1370.5999756,0.0,190.3,0.8,0.0,0.0,853,141,0,0,860.51,25.54,18.72,# data time:6840,pm2.5:6.445,pm10:5.704,O2:0.000,NO2:0.000,SO2:0.000,NH3:5.083
9:57:35,0,0,0,0,0,0,0,0,0,0,0,514,0,0,0,0,0.0000000,0.0000000,0.0000000,0.0000000,11.00,38.4149437,-110.7717285,1370.5999756,0.0,190.3,0.8,0.0,0.0,853,146,0,0,860.51,25.54,18.75,# data time:6840,pm2.5:6.445,pm10:5.704,O2:0.000,NO2:0.000,SO2:0.000,NH3:5.083
9:57:36,0,0,0,0,0,0,0,0,0,0,0,514,0,0,0,0,0.0000000,0.0000000,0.0000000,0.0000000,11.00,38.4149437,-110.7717285,1370.5999756,0.0,190.3,0.8,0.0,0.0,852,132,0,0,860.56,25.54,18.74,# data time:6840,pm2.5:6.445,pm10:5.704,O2:0.000,NO2:0.000,SO2:0.000,NH3:5.083
9:57:37,0,0,0,0,0,0,0,0,0,0,0,514,0,0,0,0,0.0000000,0.0000000,0.0000000,0.0000000,11.00,38.4149399,-110.7717285,1370.5999756,0.0,190.3,0.8,0.0,0.0,853,142,0,0,860.58,25.53,18.72,# data time:6840,pm2.5:6.445,pm10:5.704,O2:0.000,NO2:0.000,SO2:0.000,NH3:5.083
9:57:38,0,0,0,0,0,0,0,0,0,0,0,514,0,0,0,0,0.0000000,0.0000000,0.0000000,0.0000000,11.00,38.4149399,-110.7717285,1370.5999756,0.0,190.3,0.8,0.0,0.0,853,149,0,0,860.55,25.53,18.79,# data time:6840,pm2.5:6.445,pm10:5.704,O2:0.000,NO2:0.000,SO2:0.000,NH3:5.083
9:57:39,0,0,0,0,0,0,0,0,0,0,0,513,0,0,0,0,0.0000000,0.0000000,0.0000000,0.0000000,11.00,38.4149399,-110.7717285,1370.5999756,0.0,190.3,0.8,0.0,0.0,853,142,0,0,860.60,25.51,18.84,# data time:6840,pm2.5:6.445,pm10:5.704,O2:0.000,NO2:0.000,SO2:0.000,NH3:5.083
9:57:40,0,0,0,0,0,0,0,0,0,0,0,513,0,0,0,0,0.0000000,0.0000000,0.0000000,0.0000000,11.00,38.4149399,-110.7717285,1370.5999756,0.0,190.3,0.8,0.0,0.0,853,137,0,0,860.54,25.53,18.83,# data time:6840,pm2.5:6.445,pm10:5.704,O2:0.000,NO2:0.000,SO2:0.000,NH3:5.083
9:57:41,0,0,0,0,0,0,0,0,0,0,0,514,0,0,0,0,0.0000000,0.0000000,0.0000000,0.0000000,11.00,38.4149399,-110.7717285,1370.5999756,0.0,190.3,0.8,0.0,0.0,853,139,0,0,860.54,25.54,18.84,# data time:6840,pm2.5:6.445,pm10:5.704,O2:0.000,NO2:0.000,SO2:0.000,NH3:5.083
9:57:42,0,0,0,0,0,0,0,0,0,0,0,514,0,0,0,0,0.0000000,0.0000000,0.0000000,0.0000000,11.00,38.4149437,-110.7717285,1370.5999756,0.0,190.3,0.8,0.0,0.0,853,148,0,0,860.52,25.54,18.81,# data time:6840,pm2.5:6.445,pm10:5.704,O2:0.000,NO2:0.000,SO2:0.000,NH3:5.083
9:57:43,0,0,0,0,0,0,0,0,0,0,0,513,0,0,0,0,0.0000000,0.0000000,0.0000000,0.0000000,11.00,38.4149437,-110.7717285,1370.5999756,0.0,190.3,0.8,0.0,0.0,852,149,0,0,860.53,25.54,18.82,# data time:6850,pm2.5:6.445,pm10:5.704,O2:0.000,NO2:0.000,SO2:0.000,NH3:5.083
9:57:44,0,0,0,0,0,0,0,0,0,0,0,513,0,0,0,0,0.0000000,0.0000000,0.0000000,0.0000000,11.00,38.4149437,-110.7717285,1370.5999756,0.0,190.3,0.8,0.0,0.0,853,155,0,0,860.54,25.54,18.83,# data time:6850,pm2.5:6.445,pm10:5.704,O2:0.000,NO2:0.000,SO2:0.000,NH3:5.083
9:57:45,0,0,0,0,0,0,0,0,0,0,0,514,0,0,0,0,0.0000000,0.0000000,0.0000000,0.0000000,11.00,38.4149437,-110.7717285,1370.5999756,0.0,190.3,0.8,0.0,0.0,852,141,0,0,860.58,25.53,18.85,# data time:6850,pm2.5:6.445,pm10:5.704,O2:0.000,NO2:0.000,SO2:0.000,NH3:5.083
9:57:46,0,0,0,0,0,0,0,0,0,0,0,514,0,0,0,0,0.0000000,0.0000000,0.0000000,0.0000000,11.00,38.4149437,-110.7717285,1370.5999756,0.0,190.3,0.8,0.0,0.0,853,138,0,0,860.56,25.50,18.85,# data time:6850,pm2.5:6.445,pm10:5.704,O2:0.000,NO2:0.000,SO2:0.000,NH3:5.083
9:57:47,0,0,0,0,0,0,0,0,0,0,0,514,0,0,0,0,0.0000000,0.0000000,0.0000000,0.0000000,11.00,38.4149437,-110.7717285,1370.5999756,0.0,190.3,0.8,0.0,0.0,854,141,0,0,860.58,25.50,18.85,# data time:6850,pm2.5:6.445,pm10:5.704,O2:0.000,NO2:0.000,SO2:0.000,NH3:5.083
9:57:48,0,0,0,0,0,0,0,0,0,0,0,514,0,0,0,0,0.0000000,0.0000000,0.0000000,0.0000000,11.00,38.4149437,-110.7717285,1370.5999756,0.0,190.3,0.8,0.0,0.0,853,140,0,0,860.63,25.47,18.86,# data time:6850,pm2.5:6.445,pm10:5.704,O2:0.000,NO2:0.000,SO2:0.000,NH3:5.083
9:57:49,0,0,0,0,0,0,0,0,0,0,0,514,0,0,0,0,0.0000000,0.0000000,0.0000000,0.0000000,11.00,38.4149437,-110.7717285,1370.5999756,0.0,190.3,0.8,0.0,0.0,854,145,0,0,860.58,25.47,18.85,# data time:6850,pm2.5:6.445,pm10:5.704,O2:0.000,NO2:0.000,SO2:0.000,NH3:5.083
9:57:50,0,0,0,0,0,0,0,0,0,0,0,515,0,0,0,0,0.0000000,0.0000000,0.0000000,0.0000000,11.00,38.4149437,-110.7717285,1370.5999756,0.0,190.3,0.8,0.0,0.0,853,142,0,0,860.54,25.41,18.87,# data time:6850,pm2.5:6.445,pm10:5.704,O2:0.000,NO2:0.000,SO2:0.000,NH3:5.083
9:57:51,0,0,0,0,0,0,0,0,0,0,0,514,0,0,0,0,0.0000000,0.0000000,0.0000000,0.0000000,11.00,38.4149437,-110.7717285,1370.5999756,0.0,190.3,0.8,0.0,0.0,853,141,0,0,860.51,25.39,18.89,# data time:6850,pm2.5:6.445,pm10:5.704,O2:0.000,NO2:0.000,SO2:0.000,NH3:5.083
9:57:52,0,0,0,0,0,0,0,0,0,0,0,514,0,0,0,0,0.0000000,0.0000000,0.0000000,0.0000000,11.00,38.4149437,-110.7717285,1370.5999756,0.0,190.3,0.8,0.0,0.0,853,147,0,0,860.56,25.38,18.90,# data time:6850,pm2.5:6.445,pm10:5.704,O2:0.000,NO2:0.000,SO2:0.000,NH3:5.083
9:57:53,0,0,0,0,0,0,0,0,0,0,0,514,0,0,0,0,0.0000000,0.0000000,0.0000000,0.0000000,11.00,38.4149437,-110.7717285,1370.5999756,0.0,190.3,0.8,0.0,0.0,852,148,0,0,860.57,25.35,18.87,# data time:6860,pm2.5:6.445,pm10:5.704,O2:0.000,NO2:0.000,SO2:0.000,NH3:5.083
9:57:54,0,0,0,0,0,0,0,0,0,0,0,513,0,0,0,0,0.0000000,0.0000000,0.0000000,0.0000000,11.00,38.4149437,-110.7717285,1370.5999756,0.0,190.3,0.8,0.0,0.0,853,149,0,0,860.55,25.38,18.83,# data time:6860,pm2.5:6.445,pm10:5.704,O2:0.000,NO2:0.000,SO2:0.000,NH3:5.083
9:57:55,0,0,0,0,0,0,0,0,0,0,0,514,0,0,0,0,0.0000000,0.0000000,0.0000000,0.0000000,11.00,38.4149437,-110.7717285,1370.5999756,0.0,190.3,0.8,0.0,0.0,853,148,0,0,860.56,25.38,18.85,# data time:6860,pm2.5:6.445,pm10:5.704,O2:0.000,NO2:0.000,SO2:0.000,NH3:5.083
9:57:56,0,0,0,0,0,0,0,0,0,0,0,513,0,0,0,0,0.0000000,0.0000000,0.0000000,0.0000000,11.00,38.4149437,-110.7717285,1370.5999756,0.0,190.3,0.8,0.0,0.0,853,148,0,0,860.62,25.33,18.85,# data time:6860,pm2.5:6.445,pm10:5.704,O2:0.000,NO2:0.000,SO2:0.000,NH3:5.083
9:57:57,0,0,0,0,0,0,0,0,0,0,0,514,0,0,0,0,0.0000000,0.0000000,0.0000000,0.0000000,11.00,38.4149437,-110.7717285,1370.5999756,0.0,190.3,0.8,0.0,0.0,853,146,0,0,860.63,25.30,18.86,# data time:6860,pm2.5:6.445,pm10:5.704,O2:0.000,NO2:0.000,SO2:0.000,NH3:5.083
9:57:58,0,0,0,0,0,0,0,0,0,0,0,514,0,0,0,0,0.0000000,0.0000000,0.0000000,0.0000000,11.00,38.4149437,-110.7717285,1370.5999756,0.0,190.3,0.8,0.0,0.0,853,148,0,0,860.61,25.25,18.88,# data time:6860,pm2.5:6.445,pm10:5.704,O2:0.000,NO2:0.000,SO2:0.000,NH3:5.083
9:57:59,0,0,0,0,0,0,0,0,0,0,0,514,0,0,0,0,0.0000000,0.0000000,0.0000000,0.0000000,11.00,38.4149437,-110.7717285,1370.5999756,0.0,190.3,0.8,0.0,0.0,853,144,0,0,860.57,25.25,18.89,# data time:6860,pm2.5:6.445,pm10:5.704,O2:0.000,NO2:0.000,SO2:0.000,NH3:5.083
9:58:00,0,0,0,0,0,0,0,0,0,0,0,514,0,0,0,0,0.0000000,0.0000000,0.0000000,0.0000000,11.00,38.4149437,-110.7717285,1370.5999756,0.0,190.3,0.8,0.0,0.0,853,145,0,0,860.58,25.22,18.90,# data time:6860,pm2.5:6.445,pm10:5.704,O2:0.000,NO2:0.000,SO2:0.000,NH3:5.083
9:58:01,0,0,0,0,0,0,0,0,0,0,0,515,0,0,0,0,0.0000000,0.0000000,0.0000000,0.0000000,11.00,38.4149437,-110.7717285,1370.5999756,0.0,190.3,0.8,0.0,0.0,853,143,0,0,860.61,25.21,18.90,# data time:6860,pm2.5:6.445,pm10:5.704,O2:0.000,NO2:0.000,SO2:0.000,NH3:5.083
9:58:02,0,0,0,0,0,0,0,0,0,0,0,515,0,0,0,0,0.0000000,0.0000000,0.0000000,0.0000000,11.00,38.4149437,-110.7717285,1370.5999756,0.0,190.3,0.8,0.0,0.0,853,134,0,0,860.57,25.18,18.92,# data time:6870,pm2.5:6.445,pm10:5.704,O2:0.000,NO2:0.000,SO2:0.000,NH3:5.083
9:58:03,0,0,0,0,0,0,0,0,0,0,0,513,0,0,0,0,0.0000000,0.0000000,0.0000000,0.0000000,11.00,38.4149437,-110.7717285,1370.5999756,0.0,190.3,0.8,0.0,0.0,853,140,0,0,860.59,25.16,18.90,# data time:6870,pm2.5:6.445,pm10:5.704,O2:0.000,NO2:0.000,SO2:0.000,NH3:5.083
9:58:04,0,0,0,0,0,0,0,0,0,0,0,514,0,0,0,0,0.0000000,0.0000000,0.0000000,0.0000000,11.00,38.4149437,-110.7717285,1370.5999756,0.0,190.3,0.8,0.0,0.0,853,140,0,0,860.57,25.15,18.91,# data time:6870,pm2.5:6.445,pm10:5.704,O2:0.000,NO2:0.000,SO2:0.000,NH3:5.083
9:58:05,0,0,0,0,0,0,0,0,0,0,0,514,0,0,0,0,0.0000000,0.0000000,0.0000000,0.0000000,11.00,38.4149437,-110.7717285,1370.5999756,0.0,190.3,0.8,0.0,0.0,853,136,0,0,860.60,25.16,18.92,# data time:6870,pm2.5:6.445,pm10:5.704,O2:0.000,NO2:0.000,SO2:0.000,NH3:5.083
9:58:06,0,0,0,0,0,0,0,0,0,0,0,513,0,0,0,0,0.0000000,0.0000000,0.0000000,0.0000000,11.00,38.4149437,-110.7717285,1370.5999756,0.0,190.3,0.8,0.0,0.0,853,138,0,0,860.59,25.13,18.93,# data time:6870,pm2.5:6.445,pm10:5.704,O2:0.000,NO2:0.000,SO2:0.000,NH3:5.083
9:58:07,0,0,0,0,0,0,0,0,0,0,0,514,0,0,0,0,0.0000000,0.0000000,0.0000000,0.0000000,11.00,38.4149437,-110.7717285,1370.5999756,0.0,190.3,0.8,0.0,0.0,853,135,0,0,860.58,25.15,18.94,# data time:6870,pm2.5:6.445,pm10:5.704,O2:0.000,NO2:0.000,SO2:0.000,NH3:5.083
9:58:08,0,0,0,0,0,0,0,0,0,0,0,514,0,0,0,0,0.0000000,0.0000000,0.0000000,0.0000000,11.00,38.4149399,-110.7717285,1370.5999756,0.0,190.3,0.8,0.0,0.0,853,137,0,0,860.57,25.15,18.93,# data time:6870,pm2.5:6.445,pm10:5.704,O2:0.000,NO2:0.000,SO2:0.000,NH3:5.083
9:58:09,0,0,0,0,0,0,0,0,0,0,0,513,0,0,0,0,0.0000000,0.0000000,0.0000000,0.0000000,11.00,38.4149399,-110.7717285,1370.5999756,0.0,190.3,0.8,0.0,0.0,853,137,0,0,860.59,25.19,18.90,# data time:6870,pm2.5:6.445,pm10:5.704,O2:0.000,NO2:0.000,SO2:0.000,NH3:5.083
9:58:10,0,0,0,0,0,0,0,0,0,0,0,514,0,0,0,0,0.0000000,0.0000000,0.0000000,0.0000000,11.00,38.4149399,-110.7717285,1370.5999756,0.0,190.3,0.8,0.0,0.0,853,139,0,0,860.59,25.18,18.91,# data time:6870,pm2.5:6.445,pm10:5.704,O2:0.000,NO2:0.000,SO2:0.000,NH3:5.083
9:58:11,0,0,0,0,0,0,0,0,0,0,0,514,0,0,0,0,0.0000000,0.0000000,0.0000000,0.0000000,11.00,38.4149399,-110.7717285,1370.5999756,0.0,190.3,0.8,0.0,0.0,853,132,0,0,860.60,25.19,18.91,# data time:6870,pm2.5:6.445,pm10:5.704,O2:0.000,NO2:0.000,SO2:0.000,NH3:5.083
9:58:12,0,0,0,0,0,0,0,0,0,0,0,514,0,0,0,0,0.0000000,0.0000000,0.0000000,0.0000000,11.00,38.4149399,-110.7717285,1370.5999756,0.0,190.3,0.8,0.0,0.0,853,137,0,0,860.59,25.19,18.93,# data time:6880,pm2.5:6.445,pm10:5.704,O2:0.000,NO2:0.000,SO2:0.000,NH3:5.083
9:58:13,0,0,0,0,0,0,0,0,0,0,0,515,0,0,0,0,0.0000000,0.0000000,0.0000000,0.0000000,11.00,38.4149399,-110.7717285,1370.5999756,0.0,190.3,0.8,0.0,0.0,853,134,0,0,860.51,25.18,18.94,# data time:6880,pm2.5:6.445,pm10:5.704,O2:0.000,NO2:0.000,SO2:0.000,NH3:5.083
9:58:14,0,0,0,0,0,0,0,0,0,0,0,513,0,0,0,0,0.0000000,0.0000000,0.0000000,0.0000000,11.00,38.4149399,-110.7717285,1370.5999756,0.0,190.3,0.8,0.0,0.0,852,136,0,0,860.62,25.21,18.94,# data time:6880,pm2.5:6.445,pm10:5.704,O2:0.000,NO2:0.000,SO2:0.000,NH3:5.083
9:58:15,0,0,0,0,0,0,0,0,0,0,0,514,0,0,0,0,0.0000000,0.0000000,0.0000000,0.0000000,11.00,38.4149399,-110.7717285,1370.5999756,0.0,190.3,0.8,0.0,0.0,853,133,0,0,860.59,25.21,18.95,# data time:6880,pm2.5:6.445,pm10:5.704,O2:0.000,NO2:0.000,SO2:0.000,NH3:5.083
9:58:16,0,0,0,0,0,0,0,0,0,0,0,514,0,0,0,0,0.0000000,0.0000000,0.0000000,0.0000000,11.00,38.4149399,-110.7717285,1370.5999756,0.0,190.3,0.8,0.0,0.0,853,137,0,0,860.55,25.19,18.96,# data time:6880,pm2.5:6.445,pm10:5.704,O2:0.000,NO2:0.000,SO2:0.000,NH3:5.083
9:58:17,0,0,0,0,0,0,0,0,0,0,0,513,0,0,0,0,0.0000000,0.0000000,0.0000000,0.0000000,11.00,38.4149399,-110.7717285,1370.5999756,0.0,190.3,0.8,0.0,0.0,854,142,0,0,860.61,25.22,18.96,# data time:6880,pm2.5:6.445,pm10:5.704,O2:0.000,NO2:0.000,SO2:0.000,NH3:5.083
9:58:18,0,0,0,0,0,0,0,0,0,0,0,513,0,0,0,0,0.0000000,0.0000000,0.0000000,0.0000000,11.00,38.4149399,-110.7717285,1370.5999756,0.0,190.3,0.8,0.0,0.0,853,143,0,0,860.58,25.25,18.92,# data time:6880,pm2.5:6.445,pm10:5.704,O2:0.000,NO2:0.000,SO2:0.000,NH3:5.083
9:58:19,0,0,0,0,0,0,0,0,0,0,0,514,0,0,0,0,0.0000000,0.0000000,0.0000000,0.0000000,11.00,38.4149399,-110.7717285,1370.5999756,0.0,190.3,0.8,0.0,0.0,853,144,0,0,860.58,25.30,18.89,# data time:6880,pm2.5:6.445,pm10:5.704,O2:0.000,NO2:0.000,SO2:0.000,NH3:5.083
9:58:20,0,0,0,0,0,0,0,0,0,0,0,514,0,0,0,0,0.0000000,0.0000000,0.0000000,0.0000000,11.00,38.4149399,-110.7717285,1370.5999756,0.0,190.3,0.8,0.0,0.0,853,144,0,0,860.55,25.30,18.90,# data time:6880,pm2.5:6.445,pm10:5.704,O2:0.000,NO2:0.000,SO2:0.000,NH3:5.083
9:58:22,0,0,0,0,0,0,0,0,0,0,0,515,0,0,0,0,0.0000000,0.0000000,0.0000000,0.0000000,11.00,38.4149399,-110.7717285,1370.5999756,0.0,190.3,0.8,0.0,0.0,852,149,0,0,860.56,25.36,18.87,# data time:6880,pm2.5:6.445,pm10:5.704,O2:0.000,NO2:0.000,SO2:0.000,NH3:5.083
9:58:23,0,0,0,0,0,0,0,0,0,0,0,514,0,0,0,0,0.0000000,0.0000000,0.0000000,0.0000000,11.00,38.4149399,-110.7717285,1370.5999756,0.0,190.3,0.8,0.0,0.0,853,148,0,0,860.61,25.36,18.92,# data time:6890,pm2.5:6.445,pm10:5.704,O2:0.000,NO2:0.000,SO
9:58:25,0,0,0,0,0,0,0,0,0,0,0,514,0,0,0,0,0.0000000,0.0000000,0.0000000,0.0000000,11.00,38.4149399,-110.7717285,1370.5999756,0.0,190.3,0.8,0.0,0.0,853,143,0,0,860.59,25.36,18.85,# data time:6890,pm2.5:6.445,pm10:5.704,O2:0.000,NO2:0.000,SO
9:58:26,0,0,0,0,0,0,0,0,0,0,0,514,0,0,0,0,0.0000000,0.0000000,0.0000000,0.0000000,11.00,38.4149399,-110.7717285,1370.5999756,0.0,190.3,0.8,0.0,0.0,853,142,0,0,860.58,25.33,18.93,# data time:6890,pm2.5:6.445,pm10:5.704,O2:0.000,NO2:0.000,SO
9:58:27,0,0,0,0,0,0,0,0,0,0,0,514,0,0,0,0,0.0000000,0.0000000,0.0000000,0.0000000,11.00,38.4149399,-110.7717285,1370.5999756,0.0,190.3,0.8,0.0,0.0,853,139,0,0,860.56,25.33,18.98,# data time:6890,pm2.5:6.445,pm10:5.704,O2:0.000,NO2:0.000,SO
9:58:28,0,0,0,0,0,0,0,0,0,0,0,514,0,0,0,0,0.0000000,0.0000000,0.0000000,0.0000000,11.00,38.4149437,-110.7717285,1370.5999756,0.0,190.3,0.8,0.0,0.0,853,139,0,0,860.60,25.31,19.00,# data time:6890,pm2.5:6.445,pm10:5.704,O2:0.000,NO2:0.000,SO
9:58:29,0,0,0,0,0,0,0,0,0,0,0,514,0,0,0,0,0.0000000,0.0000000,0.0000000,0.0000000,11.00,38.4149437,-110.7717285,1370.5999756,0.0,190.3,0.8,0.0,0.0,853,142,0,0,860.53,25.28,18.99,# data time:6890,pm2.5:6.445,pm10:5.704,O2:0.000,NO2:0.000,SO
9:58:30,0,0,0,0,0,0,0,0,0,0,0,514,0,0,0,0,0.0000000,0.0000000,0.0000000,0.0000000,11.00,38.4149437,-110.7717285,1370.5999756,0.0,190.3,0.8,0.0,0.0,853,138,0,0,860.59,25.30,18.99,# data time:6890,pm2.5:6.445,pm10:5.704,O2:0.000,NO2:0.000,SO
9:58:31,0,0,0,0,0,0,0,0,0,0,0,514,0,0,0,0,0.0000000,0.0000000,0.0000000,0.0000000,11.00,38.4149437,-110.7717285,1370.5999756,0.0,190.3,0.8,0.0,0.0,853,138,0,0,860.57,25.28,19.00,# data time:6890,pm2.5:6.445,pm10:5.704,O2:0.000,NO2:0.000,SO
9:58:32,0,0,0,0,0,0,0,0,0,0,0,513,0,0,0,0,0.0000000,0.0000000,0.0000000,0.0000000,11.00,38.4149437,-110.7717285,1370.5999756,0.0,190.3,0.8,0.0,0.0,853,141,0,0,860.57,25.25,19.00,# data time:6890,pm2.5:6.445,pm10:5.704,O2:0.000,NO2:0.000,SO
9:58:33,0,0,0,0,0,0,0,0,0,0,0,514,0,0,0,0,0.0000000,0.0000000,0.0000000,0.0000000,11.00,38.4149437,-110.7717285,1370.5999756,0.0,190.3,0.8,0.0,0.0,853,141,0,0,860.62,25.24,18.99,# data time:6900,pm2.5:6.445,pm10:5.704,O2:0.000,NO2:0.000,SO2:0.000,NH3:5.083
9:58:34,0,0,0,0,0,0,0,0,0,0,0,514,0,0,0,0,0.0000000,0.0000000,0.0000000,0.0000000,11.00,38.4149437,-110.7717285,1370.5999756,0.0,190.3,0.8,0.0,0.0,853,140,0,0,860.59,25.27,19.00,# data time:6900,pm2.5:6.445,pm10:5.704,O2:0.000,NO2:0.000,SO2:0.000,NH3:5.083
9:58:35,0,0,0,0,0,0,0,0,0,0,0,514,0,0,0,0,0.0000000,0.0000000,0.0000000,0.0000000,11.00,38.4149437,-110.7717285,1370.5999756,0.0,190.3,0.8,0.0,0.0,853,137,0,0,860.61,25.25,19.03,# data time:6900,pm2.5:6.445,pm10:5.704,O2:0.000,NO2:0.000,SO2:0.000,NH3:5.083
9:58:36,0,0,0,0,0,0,0,0,0,0,0,513,0,0,0,0,0.0000000,0.0000000,0.0000000,0.0000000,11.00,38.4149437,-110.7717285,1370.5999756,0.0,190.3,0.8,0.0,0.0,853,141,0,0,860.59,25.21,19.06,# data time:6900,pm2.5:6.445,pm10:5.704,O2:0.000,NO2:0.000,SO2:0.000,NH3:5.083
9:58:37,0,0,0,0,0,0,0,0,0,0,0,513,0,0,0,0,0.0000000,0.0000000,0.0000000,0.0000000,11.00,38.4149437,-110.7717285,1370.5999756,0.0,190.3,0.8,0.0,0.0,853,140,0,0,860.57,25.18,19.08,# data time:6900,pm2.5:6.445,pm10:5.704,O2:0.000,NO2:0.000,SO2:0.000,NH3:5.083
9:58:38,0,0,0,0,0,0,0,0,0,0,0,514,0,0,0,0,0.0000000,0.0000000,0.0000000,0.0000000,11.00,38.4149437,-110.7717285,1370.5999756,0.0,190.3,0.8,0.0,0.0,854,140,0,0,860.61,25.18,19.09,# data time:6900,pm2.5:6.445,pm10:5.704,O2:0.000,NO2:0.000,SO2:0.000,NH3:5.083
9:58:39,0,0,0,0,0,0,0,0,0,0,0,514,0,0,0,0,0.0000000,0.0000000,0.0000000,0.0000000,11.00,38.4149437,-110.7717285,1370.5999756,0.0,190.3,0.8,0.0,0.0,853,137,0,0,860.59,25.16,19.09,# data time:6900,pm2.5:6.445,pm10:5.704,O2:0.000,NO2:0.000,SO2:0.000,NH3:5.083
9:58:40,0,0,0,0,0,0,0,0,0,0,0,514,0,0,0,0,0.0000000,0.0000000,0.0000000,0.0000000,11.00,38.4149437,-110.7717285,1370.5999756,0.0,190.3,0.8,0.0,0.0,853,139,0,0,860.62,25.13,19.08,# data time:6900,pm2.5:6.445,pm10:5.704,O2:0.000,NO2:0.000,SO2:0.000,NH3:5.083
9:58:41,0,0,0,0,0,0,0,0,0,0,0,515,0,0,0,0,0.0000000,0.0000000,0.0000000,0.0000000,11.00,38.4149437,-110.7717285,1370.5999756,0.0,190.3,0.8,0.0,0.0,853,145,0,0,860.64,25.09,19.07,# data time:6900,pm2.5:6.445,pm10:5.704,O2:0.000,NO2:0.000,SO2:0.000,NH3:5.083
9:58:42,0,0,0,0,0,0,0,0,0,0,0,514,0,0,0,0,0.0000000,0.0000000,0.0000000,0.0000000,11.00,38.4149437,-110.7717285,1370.5999756,0.0,190.3,0.8,0.0,0.0,853,138,0,0,860.58,25.12,19.00,# data time:6900,pm2.5:6.445,pm10:5.704,O2:0.000,NO2:0.000,SO2:0.000,NH3:5.083
9:58:43,0,0,0,0,0,0,0,0,0,0,0,515,0,0,0,0,0.0000000,0.0000000,0.0000000,0.0000000,11.00,38.4149437,-110.7717285,1370.5999756,0.0,190.3,0.8,0.0,0.0,853,136,0,0,860.59,25.10,18.95,# data time:6910,pm2.5:6.445,pm10:5.704,O2:0.000,NO2:0.000,SO2:0.000,NH3:5.083
9:58:44,0,0,0,0,0,0,0,0,0,0,0,514,0,0,0,0,0.0000000,0.0000000,0.0000000,0.0000000,11.00,38.4149437,-110.7717285,1370.5999756,0.0,190.3,0.8,0.0,0.0,853,137,0,0,860.58,25.15,18.93,# data time:6910,pm2.5:6.445,pm10:5.704,O2:0.000,NO2:0.000,SO2:0.000,NH3:5.083
9:58:45,0,0,0,0,0,0,0,0,0,0,0,515,0,0,0,0,0.0000000,0.0000000,0.0000000,0.0000000,11.00,38.4149437,-110.7717285,1370.5999756,0.0,190.3,0.8,0.0,0.0,852,138,0,0,860.56,25.18,18.90,# data time:6910,pm2.5:6.445,pm10:5.704,O2:0.000,NO2:0.000,SO2:0.000,NH3:5.083
9:58:46,0,0,0,0,0,0,0,0,0,0,0,514,0,0,0,0,0.0000000,0.0000000,0.0000000,0.0000000,11.00,38.4149437,-110.7717285,1370.5999756,0.0,190.3,0.8,0.0,0.0,853,136,0,0,860.53,25.19,18.89,# data time:6910,pm2.5:6.445,pm10:5.704,O2:0.000,NO2:0.000,SO2:0.000,NH3:5.083
9:58:47,0,0,0,0,0,0,0,0,0,0,0,513,0,0,0,0,0.0000000,0.0000000,0.0000000,0.0000000,11.00,38.4149437,-110.7717285,1370.5999756,0.0,190.3,0.8,0.0,0.0,853,128,0,0,860.51,25.24,18.87,# data time:6910,pm2.5:6.445,pm10:5.704,O2:0.000,NO2:0.000,SO2:0.000,NH3:5.083
9:58:48,0,0,0,0,0,0,0,0,0,0,0,514,0,0,0,0,0.0000000,0.0000000,0.0000000,0.0000000,11.00,38.4149437,-110.7717285,1370.5999756,0.0,190.3,0.8,0.0,0.0,853,129,0,0,860.58,25.22,18.86,# data time:6910,pm2.5:6.445,pm10:5.704,O2:0.000,NO2:0.000,SO2:0.000,NH3:5.083
9:58:49,0,0,0,0,0,0,0,0,0,0,0,514,0,0,0,0,0.0000000,0.0000000,0.0000000,0.0000000,11.00,38.4149437,-110.7717285,1370.5999756,0.0,190.3,0.8,0.0,0.0,853,126,0,0,860.63,25.21,18.85,# data time:6910,pm2.5:6.445,pm10:5.704,O2:0.000,NO2:0.000,SO2:0.000,NH3:5.083
9:58:50,0,0,0,0,0,0,0,0,0,0,0,514,0,0,0,0,0.0000000,0.0000000,0.0000000,0.0000000,11.00,38.4149399,-110.7717285,1370.5999756,0.0,190.3,0.8,0.0,0.0,852,131,0,0,860.58,25.22,18.85,# data time:6910,pm2.5:6.445,pm10:5.704,O2:0.000,NO2:0.000,SO2:0.000,NH3:5.083
9:58:51,0,0,0,0,0,0,0,0,0,0,0,513,0,0,0,0,0.0000000,0.0000000,0.0000000,0.0000000,11.00,38.4149399,-110.7717285,1370.5999756,0.0,190.3,0.8,0.0,0.0,853,125,0,0,860.56,25.22,18.85,# data time:6910,pm2.5:6.445,pm10:5.704,O2:0.000,NO2:0.000,SO2:0.000,NH3:5.083
9:58:52,0,0,0,0,0,0,0,0,0,0,0,514,0,0,0,0,0.0000000,0.0000000,0.0000000,0.0000000,11.00,38.4149399,-110.7717285,1370.5999756,0.0,190.3,0.8,0.0,0.0,853,137,0,0,860.64,25.19,18.86,# data time:6920,pm2.5:6.445,pm10:5.704,O2:0.000,NO2:0.000,SO2:0.000,NH3:5.083
9:58:53,0,0,0,0,0,0,0,0,0,0,0,514,0,0,0,0,0.0000000,0.0000000,0.0000000,0.0000000,11.00,38.4149399,-110.7717285,1370.5999756,0.0,190.3,0.8,0.0,0.0,853,129,0,0,860.62,25.18,18.86,# data time:6920,pm2.5:6.445,pm10:5.704,O2:0.000,NO2:0.000,SO2:0.000,NH3:5.083
9:58:54,0,0,0,0,0,0,0,0,0,0,0,514,0,0,0,0,0.0000000,0.0000000,0.0000000,0.0000000,11.00,38.4149399,-110.7717285,1370.5999756,0.0,190.3,0.8,0.0,0.0,853,136,0,0,860.63,25.15,18.84,# data time:6920,pm2.5:6.445,pm10:5.704,O2:0.000,NO2:0.000,SO2:0.000,NH3:5.083
9:58:55,0,0,0,0,0,0,0,0,0,0,0,514,0,0,0,0,0.0000000,0.0000000,0.0000000,0.0000000,11.00,38.4149399,-110.7717285,1370.5999756,0.0,190.3,0.8,0.0,0.0,853,134,0,0,860.60,25.19,18.83,# data time:6920,pm2.5:6.445,pm10:5.704,O2:0.000,NO2:0.000,SO2:0.000,NH3:5.083
9:58:56,0,0,0,0,0,0,0,0,0,0,0,515,0,0,0,0,0.0000000,0.0000000,0.0000000,0.0000000,11.00,38.4149399,-110.7717285,1370.5999756,0.0,190.3,0.8,0.0,0.0,853,132,0,0,860.61,25.16,18.84,# data time:6920,pm2.5:6.445,pm10:5.704,O2:0.000,NO2:0.000,SO2:0.000,NH3:5.083
9:58:57,0,0,0,0,0,0,0,0,0,0,0,514,0,0,0,0,0.0000000,0.0000000,0.0000000,0.0000000,11.00,38.4149399,-110.7717285,1370.5999756,0.0,190.3,0.8,0.0,0.0,853,131,0,0,860.61,25.15,18.88,# data time:6920,pm2.5:6.445,pm10:5.704,O2:0.000,NO2:0.000,SO2:0.000,NH3:5.083
9:58:58,0,0,0,0,0,0,0,0,0,0,0,514,0,0,0,0,0.0000000,0.0000000,0.0000000,0.0000000,11.00,38.4149399,-110.7717285,1370.5999756,0.0,190.3,0.8,0.0,0.0,853,133,0,0,860.60,25.16,18.88,# data time:6920,pm2.5:6.445,pm10:5.704,O2:0.000,NO2:0.000,SO2:0.000,NH3:5.083
9:58:59,0,0,0,0,0,0,0,0,0,0,0,514,0,0,0,0,0.0000000,0.0000000,0.0000000,0.0000000,11.00,38.4149399,-110.7717285,1370.5999756,0.0,190.3,0.8,0.0,0.0,854,135,0,0,860.62,25.12,18.89,# data time:6920,pm2.5:6.445,pm10:5.704,O2:0.000,NO2:0.000,SO2:0.000,NH3:5.083
9:59:00,0,0,0,0,0,0,0,0,0,0,0,514,0,0,0,0,0.0000000,0.0000000,0.0000000,0.0000000,11.00,38.4149399,-110.7717285,1370.5999756,0.0,190.3,0.8,0.0,0.0,853,137,0,0,860.55,25.12,18.90,# data time:6920,pm2.5:6.445,pm10:5.704,O2:0.000,NO2:0.000,SO2:0.000,NH3:5.083
9:59:01,0,0,0,0,0,0,0,0,0,0,0,514,0,0,0,0,0.0000000,0.0000000,0.0000000,0.0000000,11.00,38.4149399,-110.7717285,1370.5999756,0.0,190.3,0.8,0.0,0.0,853,142,0,0,860.53,25.16,18.88,# data time:6920,pm2.5:6.445,pm10:5.704,O2:0.000,NO2:0.000,SO2:0.000,NH3:5.083
9:59:02,0,0,0,0,0,0,0,0,0,0,0,514,0,0,0,0,0.0000000,0.0000000,0.0000000,0.0000000,11.00,38.4149399,-110.7717285,1370.5999756,0.0,190.3,0.8,0.0,0.0,853,145,0,0,860.58,25.22,18.84,# data time:6930,pm2.5:6.445,pm10:5.704,O2:0.000,NO2:0.000,SO2:0.000,NH3:5.083
9:59:03,0,0,0,0,0,0,0,0,0,0,0,514,0,0,0,0,0.0000000,0.0000000,0.0000000,0.0000000,11.00,38.4149399,-110.7717285,1370.5999756,0.0,190.3,0.8,0.0,0.0,852,146,0,0,860.58,25.21,18.84,# data time:6930,pm2.5:6.445,pm10:5.704,O2:0.000,NO2:0.000,SO2:0.000,NH3:5.083
9:59:04,0,0,0,0,0,0,0,0,0,0,0,513,0,0,0,0,0.0000000,0.0000000,0.0000000,0.0000000,11.00,38.4149399,-110.7717285,1370.5999756,0.0,190.3,0.8,0.0,0.0,853,146,0,0,860.61,25.27,18.80,# data time:6930,pm2.5:6.445,pm10:5.704,O2:0.000,NO2:0.000,SO2:0.000,NH3:5.083
9:59:05,0,0,0,0,0,0,0,0,0,0,0,514,0,0,0,0,0.0000000,0.0000000,0.0000000,0.0000000,11.00,38.4149399,-110.7717285,1370.5999756,0.0,190.3,0.8,0.0,0.0,853,145,0,0,860.54,25.27,18.83,# data time:6930,pm2.5:6.445,pm10:5.704,O2:0.000,NO2:0.000,SO2:0.000,NH3:5.083
9:59:06,0,0,0,0,0,0,0,0,0,0,0,514,0,0,0,0,0.0000000,0.0000000,0.0000000,0.0000000,11.00,38.4149399,-110.7717285,1370.5999756,0.0,190.3,0.8,0.0,0.0,853,148,0,0,860.54,25.28,18.84,# data time:6930,pm2.5:6.445,pm10:5.704,O2:0.000,NO2:0.000,SO2:0.000,NH3:5.083
9:59:07,0,0,0,0,0,0,0,0,0,0,0,514,0,0,0,0,0.0000000,0.0000000,0.0000000,0.0000000,11.00,38.4149399,-110.7717285,1370.5999756,0.0,190.3,0.8,0.0,0.0,853,149,0,0,860.63,25.28,18.86,# data time:6930,pm2.5:6.445,pm10:5.704,O2:0.000,NO2:0.000,SO2:0.000,NH3:5.083
9:59:08,0,0,0,0,0,0,0,0,0,0,0,514,0,0,0,0,0.0000000,0.0000000,0.0000000,0.0000000,11.00,38.4149399,-110.7717285,1370.5999756,0.0,190.3,0.8,0.0,0.0,853,149,0,0,860.60,25.31,18.89,# data time:6930,pm2.5:6.445,pm10:5.704,O2:0.000,NO2:0.000,SO2:0.000,NH3:5.083
9:59:09,0,0,0,0,0,0,0,0,0,0,0,514,0,0,0,0,0.0000000,0.0000000,0.0000000,0.0000000,11.00,38.4149399,-110.7717285,1370.5999756,0.0,190.3,0.8,0.0,0.0,853,147,0,0,860.59,25.28,18.89,# data time:6930,pm2.5:6.445,pm10:5.704,O2:0.000,NO2:0.000,SO2:0.000,NH3:5.083
9:59:10,0,0,0,0,0,0,0,0,0,0,0,514,0,0,0,0,0.0000000,0.0000000,0.0000000,0.0000000,11.00,38.4149399,-110.7717285,1370.5999756,0.0,190.3,0.8,0.0,0.0,853,142,0,0,860.61,25.30,18.89,# data time:6930,pm2.5:6.445,pm10:5.704,O2:0.000,NO2:0.000,SO2:0.000,NH3:5.083
9:59:11,0,0,0,0,0,0,0,0,0,0,0,514,0,0,0,0,0.0000000,0.0000000,0.0000000,0.0000000,11.00,38.4149399,-110.7717285,1370.5999756,0.0,190.3,0.8,0.0,0.0,853,140,0,0,860.65,25.30,18.90,# data time:6930,pm2.5:6.445,pm10:5.704,O2:0.000,NO2:0.000,SO2:0.000,NH3:5.083
9:59:12,0,0,0,0,0,0,0,0,0,0,0,514,0,0,0,0,0.0000000,0.0000000,0.0000000,0.0000000,11.00,38.4149399,-110.7717285,1370.5999756,0.0,190.3,0.8,0.0,0.0,853,138,0,0,860.62,25.30,18.89,# data time:6940,pm2.5:6.445,pm10:5.704,O2:0.000,NO2:0.000,SO2:0.000,NH3:5.083
9:59:13,0,0,0,0,0,0,0,0,0,0,0,515,0,0,0,0,0.0000000,0.0000000,0.0000000,0.0000000,11.00,38.4149399,-110.7717285,1370.5999756,0.0,190.3,0.8,0.0,0.0,853,139,0,0,860.60,25.28,18.88,# data time:6940,pm2.5:6.445,pm10:5.704,O2:0.000,NO2:0.000,SO2:0.000,NH3:5.083
9:59:14,0,0,0,0,0,0,0,0,0,0,0,513,0,0,0,0,0.0000000,0.0000000,0.0000000,0.0000000,11.00,38.4149399,-110.7717285,1370.5999756,0.0,190.3,0.8,0.0,0.0,853,140,0,0,860.62,25.28,18.89,# data time:6940,pm2.5:6.445,pm10:5.704,O2:0.000,NO2:0.000,SO2:0.000,NH3:5.083
9:59:15,0,0,0,0,0,0,0,0,0,0,0,514,0,0,0,0,0.0000000,0.0000000,0.0000000,0.0000000,11.00,38.4149399,-110.7717285,1370.5999756,0.0,190.3,0.8,0.0,0.0,853,137,0,0,860.60,25.25,18.91,# data time:6940,pm2.5:6.445,pm10:5.704,O2:0.000,NO2:0.000,SO2:0.000,NH3:5.083
9:59:16,0,0,0,0,0,0,0,0,0,0,0,513,0,0,0,0,0.0000000,0.0000000,0.0000000,0.0000000,11.00,38.4149399,-110.7717285,1370.5999756,0.0,190.3,0.8,0.0,0.0,853,139,0,0,860.58,25.25,18.88,# data time:6940,pm2.5:6.445,pm10:5.704,O2:0.000,NO2:0.000,SO2:0.000,NH3:5.083
9:59:17,0,0,0,0,0,0,0,0,0,0,0,514,0,0,0,0,0.0000000,0.0000000,0.0000000,0.0000000,11.00,38.4149399,-110.7717285,1370.5999756,0.0,190.3,0.8,0.0,0.0,853,139,0,0,860.57,25.24,18.87,# data time:6940,pm2.5:6.445,pm10:5.704,O2:0.000,NO2:0.000,SO2:0.000,NH3:5.083
9:59:19,0,0,0,0,0,0,0,0,0,0,0,514,0,0,0,0,0.0000000,0.0000000,0.0000000,0.0000000,11.00,38.4149399,-110.7717285,1370.5999756,0.0,190.3,0.8,0.0,0.0,853,138,0,0,860.61,25.25,18.88,# data time:6940,pm2.5:6.445,pm10:5.704,O2:0.000,NO2:0.000,SO2:0.000,NH3:5.083
9:59:20,0,0,0,0,0,0,0,0,0,0,0,514,0,0,0,0,0.0000000,0.0000000,0.0000000,0.0000000,11.00,38.4149399,-110.7717285,1370.5999756,0.0,190.3,0.8,0.0,0.0,852,145,0,0,860.59,25.21,18.84,# data time:6940,pm2.5:6.445,pm10:5.704,O2:0.000,NO2:0.000,SO2:0.000,NH3:5.083
9:59:21,0,0,0,0,0,0,0,0,0,0,0,514,0,0,0,0,0.0000000,0.0000000,0.0000000,0.0000000,11.00,38.4149399,-110.7717285,1370.5999756,0.0,190.3,0.8,0.0,0.0,853,144,0,0,860.53,25.22,18.84,# data time:6940,pm2.5:6.445,pm10:5.704,O2:0.000,NO2:0.000,SO2:0.000,NH3:5.083
9:59:22,0,0,0,0,0,0,0,0,0,0,0,514,0,0,0,0,0.0000000,0.0000000,0.0000000,0.0000000,11.00,38.4149399,-110.7717285,1370.5999756,0.0,190.3,0.8,0.0,0.0,853,147,0,0,860.62,25.18,18.85,# data time:6940,pm2.5:6.445,pm10:5.704,O2:0.000,NO2:0.000,SO2:0.000,NH3:5.083
9:59:23,0,0,0,0,0,0,0,0,0,0,0,514,0,0,0,0,0.0000000,0.0000000,0.0000000,0.0000000,11.00,38.4149399,-110.7717285,1370.5999756,0.0,190.3,0.8,0.0,0.0,852,143,0,0,860.61,25.18,18.90,# data time:6950,pm2.5:6.445,pm10:5.704,O2:0.000,NO2:0.000,SO2:0.000,NH3:5.083
9:59:24,0,0,0,0,0,0,0,0,0,0,0,514,0,0,0,0,0.0000000,0.0000000,0.0000000,0.0000000,11.00,38.4149399,-110.7717285,1370.5999756,0.0,190.3,0.8,0.0,0.0,852,143,0,0,860.60,25.13,18.90,# data time:6950,pm2.5:6.445,pm10:5.704,O2:0.000,NO2:0.000,SO2:0.000,NH3:5.083
9:59:25,0,0,0,0,0,0,0,0,0,0,0,514,0,0,0,0,0.0000000,0.0000000,0.0000000,0.0000000,11.00,38.4149399,-110.7717285,1370.5999756,0.0,190.3,0.8,0.0,0.0,853,139,0,0,860.62,25.10,18.96,# data time:6950,pm2.5:6.445,pm10:5.704,O2:0.000,NO2:0.000,SO2:0.000,NH3:5.083
9:59:26,0,0,0,0,0,0,0,0,0,0,0,514,0,0,0,0,0.0000000,0.0000000,0.0000000,0.0000000,11.00,38.4149399,-110.7717285,1370.5999756,0.0,190.3,0.8,0.0,0.0,853,140,0,0,860.59,25.09,18.94,# data time:6950,pm2.5:6.445,pm10:5.704,O2:0.000,NO2:0.000,SO2:0.000,NH3:5.083
9:59:27,0,0,0,0,0,0,0,0,0,0,0,514,0,0,0,0,0.0000000,0.0000000,0.0000000,0.0000000,11.00,38.4149399,-110.7717285,1370.5999756,0.0,190.3,0.8,0.0,0.0,853,143,0,0,860.59,25.06,18.92,# data time:6950,pm2.5:6.445,pm10:5.704,O2:0.000,NO2:0.000,SO2:0.000,NH3:5.083
9:59:28,0,0,0,0,0,0,0,0,0,0,0,514,0,0,0,0,0.0000000,0.0000000,0.0000000,0.0000000,11.00,38.4149399,-110.7717285,1370.5999756,0.0,190.3,0.8,0.0,0.0,853,143,0,0,860.59,25.06,18.89,# data time:6950,pm2.5:6.445,pm10:5.704,O2:0.000,NO2:0.000,SO2:0.000,NH3:5.083
9:59:29,0,0,0,0,0,0,0,0,0,0,0,514,0,0,0,0,0.0000000,0.0000000,0.0000000,0.0000000,11.00,38.4149399,-110.7717285,1370.5999756,0.0,190.3,0.8,0.0,0.0,853,139,0,0,860.65,25.07,18.88,# data time:6950,pm2.5:6.445,pm10:5.704,O2:0.000,NO2:0.000,SO2:0.000,NH3:5.083
9:59:30,0,0,0,0,0,0,0,0,0,0,0,514,0,0,0,0,0.0000000,0.0000000,0.0000000,0.0000000,11.00,38.4149399,-110.7717285,1370.5999756,0.0,190.3,0.8,0.0,0.0,853,136,0,0,860.61,25.02,18.90,# data time:6950,pm2.5:6.445,pm10:5.704,O2:0.000,NO2:0.000,SO2:0.000,NH3:5.083
9:59:31,0,0,0,0,0,0,0,0,0,0,0,514,0,0,0,0,0.0000000,0.0000000,0.0000000,0.0000000,11.00,38.4149399,-110.7717285,1370.5999756,0.0,190.3,0.8,0.0,0.0,853,135,0,0,860.60,25.02,18.88,# data time:6950,pm2.5:6.445,pm10:5.704,O2:0.000,NO2:0.000,SO2:0.000,NH3:5.083
9:59:32,0,0,0,0,0,0,0,0,0,0,0,513,0,0,0,0,0.0000000,0.0000000,0.0000000,0.0000000,11.00,38.4149399,-110.7717285,1370.5999756,0.0,190.3,0.8,0.0,0.0,853,131,0,0,860.56,25.02,18.87,# data time:6950,pm2.5:6.445,pm10:5.704,O2:0.000,NO2:0.000,SO2:0.000,NH3:5.083
9:59:33,0,0,0,0,0,0,0,0,0,0,0,514,0,0,0,0,0.0000000,0.0000000,0.0000000,0.0000000,11.00,38.4149399,-110.7717285,1370.5999756,0.0,190.3,0.8,0.0,0.0,853,128,0,0,860.59,25.02,18.85,# data time:6960,pm2.5:6.445,pm10:5.704,O2:0.000,NO2:0.000,SO2:0.000,NH3:5.083
9:59:34,0,0,0,0,0,0,0,0,0,0,0,514,0,0,0,0,0.0000000,0.0000000,0.0000000,0.0000000,11.00,38.4149399,-110.7717285,1370.5999756,0.0,190.3,0.8,0.0,0.0,854,133,0,0,860.65,24.99,18.83,# data time:6960,pm2.5:6.445,pm10:5.704,O2:0.000,NO2:0.000,SO2:0.000,NH3:5.083
9:59:35,0,0,0,0,0,0,0,0,0,0,0,513,0,0,0,0,0.0000000,0.0000000,0.0000000,0.0000000,11.00,38.4149399,-110.7717285,1370.5999756,0.0,190.3,0.8,0.0,0.0,852,137,0,0,860.61,25.02,18.84,# data time:6960,pm2.5:6.445,pm10:5.704,O2:0.000,NO2:0.000,SO2:0.000,NH3:5.083
9:59:36,0,0,0,0,0,0,0,0,0,0,0,514,0,0,0,0,0.0000000,0.0000000,0.0000000,0.0000000,11.00,38.4149399,-110.7717285,1370.5999756,0.0,190.3,0.8,0.0,0.0,853,133,0,0,860.57,25.02,18.83,# data time:6960,pm2.5:6.445,pm10:5.704,O2:0.000,NO2:0.000,SO2:0.000,NH3:5.083
9:59:37,0,0,0,0,0,0,0,0,0,0,0,513,0,0,0,0,0.0000000,0.0000000,0.0000000,0.0000000,11.00,38.4149399,-110.7717285,1370.5999756,0.0,190.3,0.8,0.0,0.0,853,136,0,0,860.62,25.01,18.84,# data time:6960,pm2.5:6.445,pm10:5.704,O2:0.000,NO2:0.000,SO2:0.000,NH3:5.083
9:59:38,0,0,0,0,0,0,0,0,0,0,0,514,0,0,0,0,0.0000000,0.0000000,0.0000000,0.0000000,11.00,38.4149399,-110.7717285,1370.5999756,0.0,190.3,0.8,0.0,0.0,853,140,0,0,860.60,25.01,18.82,# data time:6960,pm2.5:6.445,pm10:5.704,O2:0.000,NO2:0.000,SO2:0.000,NH3:5.083
