Time, Motor A Speed, Motor A Dir, Motor B Speed, Motor B Dir, Servo Rail Current Sensor, Servo Pos - Arm L, Servo Pos - Arm R, Servo Pos - End, Servo Pos - Hopper, Servo Pos - Lid, Servo Pos - Extra, Servo Current, LED - Front L, LED - Front R, LED - Back L, LED - Back R, IMU Pitch, IMU Roll, IMU Yaw, Compass Heading, GPS Sats, GPS Latitude, GPS Longitude, GPS Altitude, GPS Speed, GPS Angle, GPS HDOP, GPS VDOP, GPS PDOP, Battery, Wind, Comm Xbee Latency, Comm Arduino Latency, Pressure, Humidity, Temperature, uRADMonitor
10:25:44,0,0,0,0,0,0,0,0,0,0,0,515,0,0,0,0,0.0000000,0.0000000,0.0000000,0.0000000,9.00,38.4070129,-110.7866898,1378.0999756,0.0,228.5,0.9,0.0,0.0,848,149,0,0,859.80,20.57,25.28,# data time:8530,pm2.5:6.445,pm10:5.704,O2:0.000,NO2:0.000,SO2:0.000,NH3:3.725
10:25:45,0,0,0,0,0,0,0,0,0,0,0,515,0,0,0,0,0.0000000,0.0000000,0.0000000,0.0000000,9.00,38.4070129,-110.7866898,1378.0999756,0.0,228.5,0.9,0.0,0.0,848,153,0,0,859.76,20.60,25.29,# data time:8530,pm2.5:6.445,pm10:5.704,O2:0.000,NO2:0.000,SO2:0.000,NH3:3.725
10:25:46,0,0,0,0,0,0,0,0,0,0,0,515,0,0,0,0,0.0000000,0.0000000,0.0000000,0.0000000,9.00,38.4070129,-110.7866898,1378.0999756,0.0,228.5,0.9,0.0,0.0,848,152,0,0,859.72,20.60,25.28,# data time:8530,pm2.5:6.445,pm10:5.704,O2:0.000,NO2:0.000,SO2:0.000,NH3:3.725
10:25:47,0,0,0,0,0,0,0,0,0,0,0,515,0,0,0,0,0.0000000,0.0000000,0.0000000,0.0000000,9.00,38.4070129,-110.7866898,1378.0999756,0.0,228.5,0.9,0.0,0.0,848,146,0,0,859.77,20.62,25.29,# data time:8530,pm2.5:6.445,pm10:5.704,O2:0.000,NO2:0.000,SO2:0.000,NH3:3.725
10:25:48,0,0,0,0,0,0,0,0,0,0,0,515,0,0,0,0,0.0000000,0.0000000,0.0000000,0.0000000,9.00,38.4070129,-110.7866898,1378.0999756,0.0,228.5,0.9,0.0,0.0,847,152,0,0,859.82,20.66,25.29,# data time:8530,pm2.5:6.445,pm10:5.704,O2:0.000,NO2:0.000,SO2:0.000,NH3:3.725
10:25:49,0,0,0,0,0,0,0,0,0,0,0,515,0,0,0,0,0.0000000,0.0000000,0.0000000,0.0000000,9.00,38.4070129,-110.7866898,1378.0999756,0.0,228.5,0.9,0.0,0.0,848,144,0,0,859.83,20.62,25.29,# data time:8530,pm2.5:6.445,pm10:5.704,O2:0.000,NO2:0.000,SO2:0.000,NH3:3.725
10:25:50,0,0,0,0,0,0,0,0,0,0,0,515,0,0,0,0,0.0000000,0.0000000,0.0000000,0.0000000,9.00,38.4070129,-110.7866898,1378.0999756,0.0,228.5,0.9,0.0,0.0,848,147,0,0,859.84,20.62,25.32,# data time:8530,pm2.5:6.445,pm10:5.704,O2:0.000,NO2:0.000,SO2:0.000,NH3:3.725
10:25:51,0,0,0,0,0,0,0,0,0,0,0,515,0,0,0,0,0.0000000,0.0000000,0.0000000,0.0000000,9.00,38.4070129,-110.7866898,1378.0999756,0.0,228.5,0.9,0.0,0.0,848,140,0,0,859.81,20.66,25.37,# data time:8530,pm2.5:6.445,pm10:5.704,O2:0.000,NO2:0.000,SO2:0.000,NH3:3.725
10:25:52,0,0,0,0,0,0,0,0,0,0,0,513,0,0,0,0,0.0000000,0.0000000,0.0000000,0.0000000,9.00,38.4070129,-110.7866898,1378.0999756,0.0,228.5,0.9,0.0,0.0,848,140,0,0,859.83,20.71,25.40,# data time:8540,pm2.5:6.445,pm10:5.704,O2:0.000,NO2:0.000,SO2:0.000,NH3:3.725
10:25:53,0,0,0,0,0,0,0,0,0,0,0,515,0,0,0,0,0.0000000,0.0000000,0.0000000,0.0000000,9.00,38.4070129,-110.7866898,1378.0999756,0.0,228.5,0.9,0.0,0.0,848,140,0,0,859.79,20.68,25.45,# data time:8540,pm2.5:6.445,pm10:5.704,O2:0.000,NO2:0.000,SO2:0.000,NH3:3.725
10:25:54,0,0,0,0,0,0,0,0,0,0,0,515,0,0,0,0,0.0000000,0.0000000,0.0000000,0.0000000,9.00,38.4070129,-110.7866898,1378.0999756,0.0,228.5,0.9,0.0,0.0,848,134,0,0,859.81,20.63,25.50,# data time:8540,pm2.5:6.445,pm10:5.704,O2:0.000,NO2:0.000,SO2:0.000,NH3:3.725
10:25:55,0,0,0,0,0,0,0,0,0,0,0,515,0,0,0,0,0.0000000,0.0000000,0.0000000,0.0000000,9.00,38.4070129,-110.7866898,1378.0999756,0.0,228.5,0.9,0.0,0.0,848,136,0,0,859.79,20.57,25.50,# data time:8540,pm2.5:6.445,pm10:5.704,O2:0.000,NO2:0.000,SO2:0.000,NH3:3.725
10:25:56,0,0,0,0,0,0,0,0,0,0,0,514,0,0,0,0,0.0000000,0.0000000,0.0000000,0.0000000,9.00,38.4070129,-110.7866898,1378.0999756,0.0,228.5,0.9,0.0,0.0,848,147,0,0,859.83,20.51,25.44,# data time:8540,pm2.5:6.445,pm10:5.704,O2:0.000,NO2:0.000,SO2:0.000,NH3:3.725
10:25:57,0,0,0,0,0,0,0,0,0,0,0,515,0,0,0,0,0.0000000,0.0000000,0.0000000,0.0000000,9.00,38.4070129,-110.7866898,1378.0999756,0.0,228.5,0.9,0.0,0.0,848,149,0,0,859.81,20.46,25.44,# data time:8540,pm2.5:6.445,pm10:5.704,O2:0.000,NO2:0.000,SO2:0.000,NH3:3.725
10:25:58,0,0,0,0,0,0,0,0,0,0,0,516,0,0,0,0,0.0000000,0.0000000,0.0000000,0.0000000,9.00,38.4070129,-110.7866898,1378.0999756,0.0,228.5,0.9,0.0,0.0,848,158,0,0,859.84,20.43,25.46,# data time:8540,pm2.5:6.445,pm10:5.704,O2:0.000,NO2:0.000,SO2:0.000,NH3:3.725
10:25:59,0,0,0,0,0,0,0,0,0,0,0,515,0,0,0,0,0.0000000,0.0000000,0.0000000,0.0000000,9.00,38.4070129,-110.7866898,1378.0999756,0.0,228.5,0.9,0.0,0.0,848,161,0,0,859.84,20.40,25.51,# data time:8540,pm2.5:6.445,pm10:5.704,O2:0.000,NO2:0.000,SO2:0.000,NH3:3.725
10:26:00,0,0,0,0,0,0,0,0,0,0,0,515,0,0,0,0,0.0000000,0.0000000,0.0000000,0.0000000,9.00,38.4070129,-110.7866898,1378.0999756,0.0,228.5,0.9,0.0,0.0,848,158,0,0,859.78,20.37,25.55,# data time:8540,pm2.5:6.445,pm10:5.704,O2:0.000,NO2:0.000,SO2:0.000,NH3:3.725
10:26:01,0,0,0,0,0,0,0,0,0,0,0,514,0,0,0,0,0.0000000,0.0000000,0.0000000,0.0000000,9.00,38.4070129,-110.7866898,1378.0999756,0.0,228.5,0.9,0.0,0.0,848,147,0,0,859.78,20.31,25.58,# data time:8540,pm2.5:6.445,pm10:5.704,O2:0.000,NO2:0.000,SO2:0.000,NH3:3.725
10:26:02,0,0,0,0,0,0,0,0,0,0,0,515,0,0,0,0,0.0000000,0.0000000,0.0000000,0.0000000,9.00,38.4070129,-110.7866898,1378.0999756,0.0,228.5,0.9,0.0,0.0,848,149,0,0,859.84,20.25,25.60,# data time:8550,pm2.5:6.445,pm10:5.704,O2:0.000,NO2:0.000,SO2:0.000,NH3:3.725
10:26:03,0,0,0,0,0,0,0,0,0,0,0,514,0,0,0,0,0.0000000,0.0000000,0.0000000,0.0000000,9.00,38.4070129,-110.7866898,1378.1999512,0.0,228.5,0.9,0.0,0.0,848,155,0,0,859.83,20.22,25.55,# data time:8550,pm2.5:6.445,pm10:5.704,O2:0.000,NO2:0.000,SO2:0.000,NH3:3.725
10:26:04,0,0,0,0,0,0,0,0,0,0,0,515,0,0,0,0,0.0000000,0.0000000,0.0000000,0.0000000,9.00,38.4070129,-110.7866898,1378.1999512,0.0,228.5,0.9,0.0,0.0,848,162,0,0,859.83,20.23,25.57,# data time:8550,pm2.5:6.445,pm10:5.704,O2:0.000,NO2:0.000,SO2:0.000,NH3:3.725
10:26:05,0,0,0,0,0,0,0,0,0,0,0,514,0,0,0,0,0.0000000,0.0000000,0.0000000,0.0000000,9.00,38.4070129,-110.7866898,1378.1999512,0.0,228.5,0.9,0.0,0.0,848,153,0,0,859.74,20.20,25.61,# data time:8550,pm2.5:6.445,pm10:5.704,O2:0.000,NO2:0.000,SO2:0.000,NH3:3.725
10:26:06,0,0,0,0,0,0,0,0,0,0,0,514,0,0,0,0,0.0000000,0.0000000,0.0000000,0.0000000,9.00,38.4070129,-110.7866898,1378.1999512,0.0,228.5,0.9,0.0,0.0,848,145,0,0,859.79,20.22,25.62,# data time:8550,pm2.5:6.445,pm10:5.704,O2:0.000,NO2:0.000,SO2:0.000,NH3:3.725
10:26:07,0,0,0,0,0,0,0,0,0,0,0,514,0,0,0,0,0.0000000,0.0000000,0.0000000,0.0000000,9.00,38.4070129,-110.7866898,1378.1999512,0.0,228.5,0.9,0.0,0.0,848,154,0,0,859.79,20.20,25.61,# data time:8550,pm2.5:6.445,pm10:5.704,O2:0.000,NO2:0.000,SO2:0.000,NH3:3.725
10:26:08,0,0,0,0,0,0,0,0,0,0,0,515,0,0,0,0,0.0000000,0.0000000,0.0000000,0.0000000,9.00,38.4070129,-110.7866898,1378.1999512,0.0,228.5,0.9,0.0,0.0,848,152,0,0,859.79,20.19,25.66,# data time:8550,pm2.5:6.445,pm10:5.704,O2:0.000,NO2:0.000,SO2:0.000,NH3:3.725
10:26:09,0,0,0,0,0,0,0,0,0,0,0,514,0,0,0,0,0.0000000,0.0000000,0.0000000,0.0000000,9.00,38.4070129,-110.7866898,1378.1999512,0.0,228.5,0.9,0.0,0.0,848,151,0,0,859.79,20.19,25.64,# data time:8550,pm2.5:6.445,pm10:5.704,O2:0.000,NO2:0.000,SO2:0.000,NH3:3.725
10:26:10,0,0,0,0,0,0,0,0,0,0,0,514,0,0,0,0,0.0000000,0.0000000,0.0000000,0.0000000,9.00,38.4070129,-110.7866898,1378.1999512,0.0,228.5,0.9,0.0,0.0,848,143,0,0,859.77,20.17,25.71,# data time:8550,pm2.5:6.445,pm10:5.704,O2:0.000,NO2:0.000,SO2:0.000,NH3:3.725
10:26:11,0,0,0,0,0,0,0,0,0,0,0,515,0,0,0,0,0.0000000,0.0000000,0.0000000,0.0000000,9.00,38.4070129,-110.7866898,1378.1999512,0.0,228.5,0.9,0.0,0.0,847,150,0,0,859.80,20.14,25.74,# data time:8560,pm2.5:6.445,pm10:5.704,O2:0.000,NO2:0.000,SO2:0.000,NH3:3.725
10:26:12,0,0,0,0,0,0,0,0,0,0,0,515,0,0,0,0,0.0000000,0.0000000,0.0000000,0.0000000,9.00,38.4070129,-110.7866898,1378.1999512,0.0,228.5,0.9,0.0,0.0,848,152,0,0,859.77,20.10,25.70,# data time:8560,pm2.5:6.445,pm10:5.704,O2:0.000,NO2:0.000,SO2:0.000,NH3:3.725
10:26:13,0,0,0,0,0,0,0,0,0,0,0,515,0,0,0,0,0.0000000,0.0000000,0.0000000,0.0000000,9.00,38.4070129,-110.7866898,1378.1999512,0.0,228.5,0.9,0.0,0.0,848,160,0,0,859.76,20.13,25.71,# data time:8560,pm2.5:6.445,pm10:5.704,O2:0.000,NO2:0.000,SO2:0.000,NH3:3.725
10:26:14,0,0,0,0,0,0,0,0,0,0,0,514,0,0,0,0,0.0000000,0.0000000,0.0000000,0.0000000,9.00,38.4070129,-110.7866898,1378.1999512,0.0,228.5,0.9,0.0,0.0,848,161,0,0,859.82,20.10,25.73,# data time:8560,pm2.5:6.445,pm10:5.704,O2:0.000,NO2:0.000,SO2:0.000,NH3:3.725
10:26:15,0,0,0,0,0,0,0,0,0,0,0,515,0,0,0,0,0.0000000,0.0000000,0.0000000,0.0000000,9.00,38.4070129,-110.7866898,1378.1999512,0.0,228.5,0.9,0.0,0.0,848,167,0,0,859.81,20.07,25.74,# data time:8560,pm2.5:6.445,pm10:5.704,O2:0.000,NO2:0.000,SO2:0.000,NH3:3.725
10:26:16,0,0,0,0,0,0,0,0,0,0,0,515,0,0,0,0,0.0000000,0.0000000,0.0000000,0.0000000,9.00,38.4070129,-110.7866898,1378.1999512,0.0,228.5,0.9,0.0,0.0,848,153,0,0,859.80,20.04,25.72,# data time:8560,pm2.5:6.445,pm10:5.704,O2:0.000,NO2:0.000,SO2:0.000,NH3:3.725
10:26:17,0,0,0,0,0,0,0,0,0,0,0,516,0,0,0,0,0.0000000,0.0000000,0.0000000,0.0000000,9.00,38.4070129,-110.7866898,1378.1999512,0.0,228.5,0.9,0.0,0.0,847,155,0,0,859.78,20.07,25.75,# data time:8560,pm2.5:6.445,pm10:5.704,O2:0.000,NO2:0.000,SO2:0.000,NH3:3.725
10:26:18,0,0,0,0,0,0,0,0,0,0,0,515,0,0,0,0,0.0000000,0.0000000,0.0000000,0.0000000,9.00,38.4070129,-110.7866898,1378.1999512,0.0,228.5,0.9,0.0,0.0,847,148,0,0,859.82,20.04,25.79,# data time:8560,pm2.5:6.445,pm10:5.704,O2:0.000,NO2:0.000,SO2:0.000,NH3:3.725
10:26:19,0,0,0,0,0,0,0,0,0,0,0,515,0,0,0,0,0.0000000,0.0000000,0.0000000,0.0000000,9.00,38.4070129,-110.7866898,1378.1999512,0.0,228.5,0.9,0.0,0.0,848,146,0,0,859.77,19.99,25.82,# data time:8560,pm2.5:6.445,pm10:5.704,O2:0.000,NO2:0.000,SO2:0.000,NH3:3.725
10:26:20,0,0,0,0,0,0,0,0,0,0,0,515,0,0,0,0,0.0000000,0.0000000,0.0000000,0.0000000,9.00,38.4070129,-110.7866898,1378.1999512,0.0,228.5,0.9,0.0,0.0,848,142,0,0,859.82,19.96,25.83,# data time:8560,pm2.5:6.445,pm10:5.704,O2:0.000,NO2:0.000,SO2:0.000,NH3:3.725
10:26:21,0,0,0,0,0,0,0,0,0,0,0,515,0,0,0,0,0.0000000,0.0000000,0.0000000,0.0000000,9.00,38.4070129,-110.7866898,1378.1999512,0.0,228.5,0.9,0.0,0.0,847,146,0,0,859.82,19.93,25.85,# data time:8570,pm2.5:6.445,pm10:5.704,O2:0.000,NO2:0.000,SO2:0.000,NH3:3.499
10:26:22,0,0,0,0,0,0,0,0,0,0,0,514,0,0,0,0,0.0000000,0.0000000,0.0000000,0.0000000,9.00,38.4070129,-110.7866898,1378.1999512,0.0,228.5,0.9,0.0,0.0,849,145,0,0,859.84,19.88,25.91,# data time:8570,pm2.5:6.445,pm10:5.704,O2:0.000,NO2:0.000,SO2:0.000,NH3:3.499
10:26:23,0,0,0,0,0,0,0,0,0,0,0,514,0,0,0,0,0.0000000,0.0000000,0.0000000,0.0000000,9.00,38.4070129,-110.7866898,1378.1999512,0.0,228.5,0.9,0.0,0.0,848,148,0,0,859.78,19.82,25.92,# data time:8570,pm2.5:6.445,pm10:5.704,O2:0.000,NO2:0.000,SO2:0.000,NH3:3.499
10:26:24,0,0,0,0,0,0,0,0,0,0,0,509,0,0,0,0,0.0000000,0.0000000,0.0000000,0.0000000,9.00,38.4070129,-110.7866898,1378.1999512,0.0,228.5,0.9,0.0,0.0,847,129,0,0,859.83,19.81,25.92,# data time:8570,pm2.5:6.445,pm10:5.704,O2:0.000,NO2:0.000,SO2:0.000,NH3:3.499
10:26:25,0,0,0,0,0,0,0,0,0,0,0,521,0,0,0,0,0.0000000,0.0000000,0.0000000,0.0000000,9.00,38.4070129,-110.7866898,1378.1999512,0.0,228.5,0.9,0.0,0.0,852,146,0,0,859.80,19.78,25.92,# data time:8570,pm2.5:6.445,pm10:5.704,O2:0.000,NO2:0.000,SO2:0.000,NH3:3.499
10:26:26,0,0,0,0,0,0,0,0,0,0,0,515,0,0,0,0,0.0000000,0.0000000,0.0000000,0.0000000,9.00,38.4070129,-110.7866898,1378.1999512,0.0,228.5,0.9,0.0,0.0,848,149,0,0,859.83,19.75,25.93,# data time:8570,pm2.5:6.445,pm10:5.704,O2:0.000,NO2:0.000,SO2:0.000,NH3:3.499
10:26:27,0,0,0,0,0,0,0,0,0,0,0,518,0,0,0,0,0.0000000,0.0000000,0.0000000,0.0000000,9.00,38.4070129,-110.7866898,1378.1999512,0.0,228.5,0.9,0.0,0.0,852,130,0,0,859.86,19.65,25.92,# data time:8570,pm2.5:6.445,pm10:5.704,O2:0.000,NO2:0.000,SO2:0.000,NH3:3.499
10:26:28,0,0,0,0,0,0,0,0,0,0,0,516,0,0,0,0,0.0000000,0.0000000,0.0000000,0.0000000,9.00,38.4070129,-110.7866898,1378.1999512,0.0,228.5,0.9,0.0,0.0,850,128,0,0,859.89,19.61,25.89,# data time:8570,pm2.5:6.445,pm10:5.704,O2:0.000,NO2:0.000,SO2:0.000,NH3:3.499
10:26:29,0,0,0,0,0,0,0,0,0,0,0,511,0,0,0,0,0.0000000,0.0000000,0.0000000,0.0000000,9.00,38.4070129,-110.7866898,1378.1999512,0.0,228.5,0.9,0.0,0.0,844,164,0,0,859.83,19.65,25.87,# data time:8570,pm2.5:6.445,pm10:5.704,O2:0.000,NO2:0.000,SO2:0.000,NH3:3.499
10:26:30,0,0,0,0,0,0,0,0,0,0,0,513,0,0,0,0,0.0000000,0.0000000,0.0000000,0.0000000,9.00,38.4070129,-110.7866898,1378.1999512,0.0,228.5,0.9,0.0,0.0,850,129,0,0,859.86,19.64,25.84,# data time:8570,pm2.5:6.445,pm10:5.704,O2:0.000,NO2:0.000,SO2:0.000,NH3:3.499
10:26:31,0,0,0,0,0,0,0,0,0,0,0,514,0,0,0,0,0.0000000,0.0000000,0.0000000,0.0000000,9.00,38.4070129,-110.7866898,1378.1999512,0.0,228.5,0.9,0.0,0.0,848,139,0,0,859.83,19.73,25.88,# data time:8580,pm2.5:6.445,pm10:5.704,O2:0.000,NO2:0.000,SO2:0.000,NH3:3.273
10:26:32,0,0,0,0,0,0,0,0,0,0,0,515,0,0,0,0,0.0000000,0.0000000,0.0000000,0.0000000,9.00,38.4070129,-110.7866898,1378.1999512,0.0,228.5,0.9,0.0,0.0,848,138,0,0,859.85,19.78,25.89,# data time:8580,pm2.5:6.445,pm10:5.704,O2:0.000,NO2:0.000,SO2:0.000,NH3:3.273
10:26:33,0,0,0,0,0,0,0,0,0,0,0,515,0,0,0,0,0.0000000,0.0000000,0.0000000,0.0000000,9.00,38.4070129,-110.7866898,1378.1999512,0.0,228.5,0.9,0.0,0.0,848,140,0,0,859.84,19.78,25.83,# data time:8580,pm2.5:6.445,pm10:5.704,O2:0.000,NO2:0.000,SO2:0.000,NH3:3.273
10:26:34,0,0,0,0,0,0,0,0,0,0,0,515,0,0,0,0,0.0000000,0.0000000,0.0000000,0.0000000,9.00,38.4070129,-110.7866898,1378.1999512,0.0,228.5,0.9,0.0,0.0,848,136,0,0,859.82,19.82,25.81,# data time:8580,pm2.5:6.445,pm10:5.704,O2:0.000,NO2:0.000,SO2:0.000,NH3:3.273
10:26:35,0,0,0,0,0,0,0,0,0,0,0,514,0,0,0,0,0.0000000,0.0000000,0.0000000,0.0000000,9.00,38.4070129,-110.7866898,1378.1999512,0.0,228.5,0.9,0.0,0.0,847,140,0,0,859.80,19.78,25.86,# data time:8580,pm2.5:6.445,pm10:5.704,O2:0.000,NO2:0.000,SO2:0.000,NH3:3.273
10:26:37,0,0,0,0,0,0,0,0,0,0,0,515,0,0,0,0,0.0000000,0.0000000,0.0000000,0.0000000,9.00,38.4070129,-110.7866898,1378.1999512,0.0,228.5,0.9,0.0,0.0,848,133,0,0,859.82,19.78,25.90,# data time:8580,pm2.5:6.445,pm10:5.704,O2:0.000,NO2:0.000,SO2:0.000,NH3:3.273
10:26:38,0,0,0,0,0,0,0,0,0,0,0,515,0,0,0,0,0.0000000,0.0000000,0.0000000,0.0000000,9.00,38.4070129,-110.7866898,1378.1999512,0.0,228.5,0.9,0.0,0.0,848,134,0,0,859.78,19.70,25.84,# data time:8580,pm2.5:6.445,pm10:5.704,O2:0.000,NO2:0.000,SO2:0.000,NH3:3.273
10:26:39,0,0,0,0,0,0,0,0,0,0,0,515,0,0,0,0,0.0000000,0.0000000,0.0000000,0.0000000,9.00,38.4070129,-110.7866898,1378.1999512,0.0,228.5,0.9,0.0,0.0,848,131,0,0,859.81,19.71,25.90,# data time:8580,pm2.5:6.445,pm10:5.704,O2:0.000,NO2:0.000,SO2:0.000,NH3:3.273
10:26:40,0,0,0,0,0,0,0,0,0,0,0,515,0,0,0,0,0.0000000,0.0000000,0.0000000,0.0000000,9.00,38.4070129,-110.7866898,1378.1999512,0.0,228.5,0.9,0.0,0.0,848,145,0,0,859.74,19.76,25.92,# data time:8580,pm2.5:6.445,pm10:5.704,O2:0.000,NO2:0.000,SO2:0.000,NH3:3.273
10:26:41,0,0,0,0,0,0,0,0,0,0,0,516,0,0,0,0,0.0000000,0.0000000,0.0000000,0.0000000,9.00,38.4070129,-110.7866898,1378.1999512,0.0,228.5,0.9,0.0,0.0,847,147,0,0,859.75,19.70,25.97,# data time:8580,pm2.5:6.445,pm10:5.704,O2:0.000,NO2:0.000,SO2:0.000,NH3:3.273
10:26:42,0,0,0,0,0,0,0,0,0,0,0,515,0,0,0,0,0.0000000,0.0000000,0.0000000,0.0000000,9.00,38.4070129,-110.7866898,1378.1999512,0.0,228.5,0.9,0.0,0.0,848,145,0,0,859.80,19.70,26.00,# data time:8590,pm2.5:6.445,pm10:5.704,O2:0.000,NO2:0.000,SO2:0.000,NH3:3.273
10:26:43,0,0,0,0,0,0,0,0,0,0,0,514,0,0,0,0,0.0000000,0.0000000,0.0000000,0.0000000,9.00,38.4070129,-110.7866898,1378.1999512,0.0,228.5,0.9,0.0,0.0,848,143,0,0,859.73,19.70,26.05,# data time:8590,pm2.5:6.445,pm10:5.704,O2:0.000,NO2:0.000,SO2:0.000,NH3:3.273
10:26:44,0,0,0,0,0,0,0,0,0,0,0,515,0,0,0,0,0.0000000,0.0000000,0.0000000,0.0000000,9.00,38.4070129,-110.7866898,1378.1999512,0.0,228.5,0.9,0.0,0.0,848,144,0,0,859.80,19.61,26.03,# data time:8590,pm2.5:6.445,pm10:5.704,O2:0.000,NO2:0.000,SO2:0.000,NH3:3.273
10:26:45,0,0,0,0,0,0,0,0,0,0,0,514,0,0,0,0,0.0000000,0.0000000,0.0000000,0.0000000,9.00,38.4070129,-110.7866898,1378.1999512,0.0,228.5,0.9,0.0,0.0,848,145,0,0,859.82,19.61,26.00,# data time:8590,pm2.5:6.445,pm10:5.704,O2:0.000,NO2:0.000,SO2:0.000,NH3:3.273
10:26:46,0,0,0,0,0,0,0,0,0,0,0,514,0,0,0,0,0.0000000,0.0000000,0.0000000,0.0000000,9.00,38.4070129,-110.7866898,1378.1999512,0.0,228.5,0.9,0.0,0.0,848,138,0,0,859.78,19.59,25.96,# data time:8590,pm2.5:6.445,pm10:5.704,O2:0.000,NO2:0.000,SO2:0.000,NH3:3.273
10:26:47,0,0,0,0,0,0,0,0,0,0,0,515,0,0,0,0,0.0000000,0.0000000,0.0000000,0.0000000,9.00,38.4070129,-110.7866898,1378.1999512,0.0,228.5,0.9,0.0,0.0,848,140,0,0,859.79,19.58,25.98,# data time:8590,pm2.5:6.445,pm10:5.704,O2:0.000,NO2:0.000,SO2:0.000,NH3:3.273
10:26:48,0,0,0,0,0,0,0,0,0,0,0,515,0,0,0,0,0.0000000,0.0000000,0.0000000,0.0000000,9.00,38.4070129,-110.7866898,1378.1999512,0.0,228.5,0.9,0.0,0.0,848,137,0,0,859.68,19.64,26.06,# data time:8590,pm2.5:6.445,pm10:5.704,O2:0.000,NO2:0.000,SO2:0.000,NH3:3.273
10:26:49,0,0,0,0,0,0,0,0,0,0,0,514,0,0,0,0,0.0000000,0.0000000,0.0000000,0.0000000,9.00,38.4070129,-110.7866898,1378.1999512,0.0,228.5,0.9,0.0,0.0,848,138,0,0,859.72,19.65,26.10,# data time:8590,pm2.5:6.445,pm10:5.704,O2:0.000,NO2:0.000,SO2:0.000,NH3:3.273
10:26:50,0,0,0,0,0,0,0,0,0,0,0,515,0,0,0,0,0.0000000,0.0000000,0.0000000,0.0000000,9.00,38.4070129,-110.7866898,1378.1999512,0.0,228.5,0.9,0.0,0.0,848,142,0,0,859.73,19.65,26.13,# data time:8590,pm2.5:6.445,pm10:5.704,O2:0.000,NO2:0.000,SO2:0.000,NH3:3.273
10:26:51,0,0,0,0,0,0,0,0,0,0,0,515,0,0,0,0,0.0000000,0.0000000,0.0000000,0.0000000,9.00,38.4070129,-110.7866898,1378.1999512,0.0,228.5,0.9,0.0,0.0,848,139,0,0,859.77,19.67,26.16,# data time:8590,pm2.5:6.445,pm10:5.704,O2:0.000,NO2:0.000,SO2:0.000,NH3:3.273
10:26:52,0,0,0,0,0,0,0,0,0,0,0,515,0,0,0,0,0.0000000,0.0000000,0.0000000,0.0000000,9.00,38.4070129,-110.7866898,1378.1999512,0.0,228.5,0.9,0.0,0.0,848,142,0,0,859.70,19.68,26.19,# data time:8600,pm2.5:6.445,pm10:5.704,O2:0.000,NO2:0.000,SO2:0.000,NH3:3.273
10:26:53,0,0,0,0,0,0,0,0,0,0,0,515,0,0,0,0,0.0000000,0.0000000,0.0000000,0.0000000,9.00,38.4070129,-110.7866898,1378.1999512,0.0,228.5,0.9,0.0,0.0,848,145,0,0,859.68,19.65,26.22,# data time:8600,pm2.5:6.445,pm10:5.704,O2:0.000,NO2:0.000,SO2:0.000,NH3:3.273
10:26:54,0,0,0,0,0,0,0,0,0,0,0,515,0,0,0,0,0.0000000,0.0000000,0.0000000,0.0000000,9.00,38.4070129,-110.7866898,1378.1999512,0.0,228.5,0.9,0.0,0.0,848,150,0,0,859.78,19.65,26.24,# data time:8600,pm2.5:6.445,pm10:5.704,O2:0.000,NO2:0.000,SO2:0.000,NH3:3.273
10:26:55,0,0,0,0,0,0,0,0,0,0,0,514,0,0,0,0,0.0000000,0.0000000,0.0000000,0.0000000,9.00,38.4070129,-110.7866898,1378.1999512,0.0,228.5,0.9,0.0,0.0,848,148,0,0,859.75,19.65,26.27,# data time:8600,pm2.5:6.445,pm10:5.704,O2:0.000,NO2:0.000,SO2:0.000,NH3:3.273
10:26:56,0,0,0,0,0,0,0,0,0,0,0,517,0,0,0,0,0.0000000,0.0000000,0.0000000,0.0000000,9.00,38.4070129,-110.7866898,1378.1999512,0.0,228.5,0.9,0.0,0.0,846,148,0,0,859.75,19.58,26.25,# data time:8600,pm2.5:6.445,pm10:5.704,O2:0.000,NO2:0.000,SO2:0.000,NH3:3.273
10:26:57,0,0,0,0,0,0,0,0,0,0,0,517,0,0,0,0,0.0000000,0.0000000,0.0000000,0.0000000,9.00,38.4070129,-110.7866898,1378.1999512,0.0,228.5,0.9,0.0,0.0,847,146,0,0,859.78,19.58,26.29,# data time:8600,pm2.5:6.445,pm10:5.704,O2:0.000,NO2:0.000,SO2:0.000,NH3:3.273
10:26:58,0,0,0,0,0,0,0,0,0,0,0,514,0,0,0,0,0.0000000,0.0000000,0.0000000,0.0000000,9.00,38.4070129,-110.7866898,1378.1999512,0.0,228.5,0.9,0.0,0.0,848,140,0,0,859.79,19.53,26.31,# data time:8600,pm2.5:6.445,pm10:5.704,O2:0.000,NO2:0.000,SO2:0.000,NH3:3.273
10:26:59,0,0,0,0,0,0,0,0,0,0,0,514,0,0,0,0,0.0000000,0.0000000,0.0000000,0.0000000,9.00,38.4070129,-110.7866898,1378.1999512,0.0,228.5,0.9,0.0,0.0,848,136,0,0,859.82,19.49,26.22,# data time:8600,pm2.5:6.445,pm10:5.704,O2:0.000,NO2:0.000,SO2:0.000,NH3:3.273
10:27:00,0,0,0,0,0,0,0,0,0,0,0,515,0,0,0,0,0.0000000,0.0000000,0.0000000,0.0000000,9.00,38.4070129,-110.7866898,1378.1999512,0.0,228.5,0.9,0.0,0.0,847,141,0,0,859.75,19.50,26.22,# data time:8600,pm2.5:6.445,pm10:5.704,O2:0.000,NO2:0.000,SO2:0.000,NH3:3.273
10:27:01,0,0,0,0,0,0,0,0,0,0,0,515,0,0,0,0,0.0000000,0.0000000,0.0000000,0.0000000,9.00,38.4070129,-110.7866898,1378.1999512,0.0,228.5,0.9,0.0,0.0,847,133,0,0,859.70,19.55,26.25,# data time:8600,pm2.5:6.445,pm10:5.704,O2:0.000,NO2:0.000,SO2:0.000,NH3:3.273
10:27:02,0,0,0,0,0,0,0,0,0,0,0,515,0,0,0,0,0.0000000,0.0000000,0.0000000,0.0000000,9.00,38.4070129,-110.7866898,1378.1999512,0.0,228.5,0.9,0.0,0.0,848,136,0,0,859.83,19.47,26.29,# data time:8610,pm2.5:6.445,pm10:5.704,O2:0.000,NO2:0.000,SO2:0.000,NH3:3.273
10:27:03,0,0,0,0,0,0,0,0,0,0,0,515,0,0,0,0,0.0000000,0.0000000,0.0000000,0.0000000,9.00,38.4070129,-110.7866898,1378.1999512,0.0,228.5,0.9,0.0,0.0,848,142,0,0,859.76,19.49,26.26,# data time:8610,pm2.5:6.445,pm10:5.704,O2:0.000,NO2:0.000,SO2:0.000,NH3:3.273
10:27:04,0,0,0,0,0,0,0,0,0,0,0,515,0,0,0,0,0.0000000,0.0000000,0.0000000,0.0000000,9.00,38.4070129,-110.7866898,1378.1999512,0.0,228.5,0.9,0.0,0.0,847,131,0,0,859.75,19.49,26.32,# data time:8610,pm2.5:6.445,pm10:5.704,O2:0.000,NO2:0.000,SO2:0.000,NH3:3.273
10:27:05,0,0,0,0,0,0,0,0,0,0,0,515,0,0,0,0,0.0000000,0.0000000,0.0000000,0.0000000,9.00,38.4070129,-110.7866898,1378.1999512,0.0,228.5,0.9,0.0,0.0,848,132,0,0,859.77,19.50,26.32,# data time:8610,pm2.5:6.445,pm10:5.704,O2:0.000,NO2:0.000,SO2:0.000,NH3:3.273
10:27:06,0,0,0,0,0,0,0,0,0,0,0,516,0,0,0,0,0.0000000,0.0000000,0.0000000,0.0000000,9.00,38.4070129,-110.7866898,1378.1999512,0.0,228.5,0.9,0.0,0.0,847,141,0,0,859.70,19.47,26.29,# data time:8610,pm2.5:6.445,pm10:5.704,O2:0.000,NO2:0.000,SO2:0.000,NH3:3.273
10:27:07,0,0,0,0,0,0,0,0,0,0,0,516,0,0,0,0,0.0000000,0.0000000,0.0000000,0.0000000,9.00,38.4070129,-110.7866898,1378.1999512,0.0,228.5,0.9,0.0,0.0,848,126,0,0,859.67,19.52,26.33,# data time:8610,pm2.5:6.445,pm10:5.704,O2:0.000,NO2:0.000,SO2:0.000,NH3:3.273
10:27:08,0,0,0,0,0,0,0,0,0,0,0,516,0,0,0,0,0.0000000,0.0000000,0.0000000,0.0000000,9.00,38.4070129,-110.7866898,1378.1999512,0.0,228.5,0.9,0.0,0.0,847,144,0,0,859.74,19.52,26.32,# data time:8610,pm2.5:6.445,pm10:5.704,O2:0.000,NO2:0.000,SO2:0.000,NH3:3.273
10:27:09,0,0,0,0,0,0,0,0,0,0,0,513,0,0,0,0,0.0000000,0.0000000,0.0000000,0.0000000,9.00,38.4070129,-110.7866898,1378.1999512,0.0,228.5,0.9,0.0,0.0,848,143,0,0,859.68,19.53,26.23,# data time:8610,pm2.5:6.445,pm10:5.704,O2:0.000,NO2:0.000,SO2:0.000,NH3:3.273
10:27:10,0,0,0,0,0,0,0,0,0,0,0,514,0,0,0,0,0.0000000,0.0000000,0.0000000,0.0000000,9.00,38.4070129,-110.7866898,1378.1999512,0.0,228.5,0.9,0.0,0.0,847,147,0,0,859.68,19.53,26.32,# data time:8610,pm2.5:6.445,pm10:5.704,O2:0.000,NO2:0.000,SO2:0.000,NH3:3.273
10:27:11,0,0,0,0,0,0,0,0,0,0,0,515,0,0,0,0,0.0000000,0.0000000,0.0000000,0.0000000,9.00,38.4070129,-110.7866898,1378.1999512,0.0,228.5,0.9,0.0,0.0,847,152,0,0,859.64,19.52,26.32,# data time:8620,pm2.5:6.445,pm10:5.704,O2:0.000,NO2:0.000,SO2:0.000,NH3:3.273
10:27:12,0,0,0,0,0,0,0,0,0,0,0,515,0,0,0,0,0.0000000,0.0000000,0.0000000,0.0000000,9.00,38.4070129,-110.7866898,1378.1999512,0.0,228.5,0.9,0.0,0.0,848,156,0,0,859.67,19.50,26.28,# data time:8620,pm2.5:6.445,pm10:5.704,O2:0.000,NO2:0.000,SO2:0.000,NH3:3.273
10:27:13,0,0,0,0,0,0,0,0,0,0,0,515,0,0,0,0,0.0000000,0.0000000,0.0000000,0.0000000,9.00,38.4070129,-110.7866898,1378.1999512,0.0,228.5,0.9,0.0,0.0,848,143,0,0,859.69,19.50,26.29,# data time:8620,pm2.5:6.445,pm10:5.704,O2:0.000,NO2:0.000,SO2:0.000,NH3:3.273
10:27:14,0,0,0,0,0,0,0,0,0,0,0,515,0,0,0,0,0.0000000,0.0000000,0.0000000,0.0000000,9.00,38.4070129,-110.7866898,1378.1999512,0.0,228.5,0.9,0.0,0.0,848,153,0,0,859.72,19.52,26.37,# data time:8620,pm2.5:6.445,pm10:5.704,O2:0.000,NO2:0.000,SO2:0.000,NH3:3.273
10:27:15,0,0,0,0,0,0,0,0,0,0,0,515,0,0,0,0,0.0000000,0.0000000,0.0000000,0.0000000,9.00,38.4070129,-110.7866898,1378.1999512,0.0,228.5,0.9,0.0,0.0,848,151,0,0,859.81,19.38,26.36,# data time:8620,pm2.5:6.445,pm10:5.704,O2:0.000,NO2:0.000,SO2:0.000,NH3:3.273
10:27:16,0,0,0,0,0,0,0,0,0,0,0,515,0,0,0,0,0.0000000,0.0000000,0.0000000,0.0000000,9.00,38.4070129,-110.7866898,1378.3000488,0.0,228.5,0.9,0.0,0.0,847,140,0,0,859.76,19.39,26.36,# data time:8620,pm2.5:6.445,pm10:5.704,O2:0.000,NO2:0.000,SO2:0.000,NH3:3.273
10:27:17,0,0,0,0,0,0,0,0,0,0,0,515,0,0,0,0,0.0000000,0.0000000,0.0000000,0.0000000,9.00,38.4070129,-110.7866898,1378.3000488,0.0,228.5,0.9,0.0,0.0,847,143,0,0,859.79,19.39,26.37,# data time:8620,pm2.5:6.445,pm10:5.704,O2:0.000,NO2:0.000,SO2:0.000,NH3:3.273
10:27:18,0,0,0,0,0,0,0,0,0,0,0,515,0,0,0,0,0.0000000,0.0000000,0.0000000,0.0000000,9.00,38.4070129,-110.7866898,1378.3000488,0.0,228.5,0.9,0.0,0.0,847,144,0,0,859.81,19.41,26.36,# data time:8620,pm2.5:6.445,pm10:5.704,O2:0.000,NO2:0.000,SO2:0.000,NH3:3.273
10:27:19,0,0,0,0,0,0,0,0,0,0,0,515,0,0,0,0,0.0000000,0.0000000,0.0000000,0.0000000,9.00,38.4070129,-110.7866898,1378.3000488,0.0,228.5,0.9,0.0,0.0,847,142,0,0,859.78,19.42,26.41,# data time:8620,pm2.5:6.445,pm10:5.704,O2:0.000,NO2:0.000,SO2:0.000,NH3:3.273
10:27:20,0,0,0,0,0,0,0,0,0,0,0,513,0,0,0,0,0.0000000,0.0000000,0.0000000,0.0000000,9.00,38.4070129,-110.7866898,1378.3000488,0.0,228.5,0.9,0.0,0.0,848,139,0,0,859.75,19.44,26.42,# data time:8620,pm2.5:6.445,pm10:5.704,O2:0.000,NO2:0.000,SO2:0.000,NH3:3.273
10:27:21,0,0,0,0,0,0,0,0,0,0,0,515,0,0,0,0,0.0000000,0.0000000,0.0000000,0.0000000,9.00,38.4070129,-110.7866898,1378.3000488,0.0,228.5,0.9,0.0,0.0,847,141,0,0,859.69,19.42,26.44,# data time:8630,pm2.5:6.445,pm10:5.704,O2:0.000,NO2:0.000,SO2:0.000,NH3:3.273
10:27:22,0,0,0,0,0,0,0,0,0,0,0,515,0,0,0,0,0.0000000,0.0000000,0.0000000,0.0000000,9.00,38.4070129,-110.7866898,1378.3000488,0.0,228.5,0.9,0.0,0.0,847,140,0,0,859.73,19.44,26.46,# data time:8630,pm2.5:6.445,pm10:5.704,O2:0.000,NO2:0.000,SO2:0.000,NH3:3.273
10:27:23,0,0,0,0,0,0,0,0,0,0,0,515,0,0,0,0,0.0000000,0.0000000,0.0000000,0.0000000,9.00,38.4070129,-110.7866898,1378.3000488,0.0,228.5,0.9,0.0,0.0,848,146,0,0,859.70,19.46,26.48,# data time:8630,pm2.5:6.445,pm10:5.704,O2:0.000,NO2:0.000,SO2:0.000,NH3:3.273
10:27:24,0,0,0,0,0,0,0,0,0,0,0,514,0,0,0,0,0.0000000,0.0000000,0.0000000,0.0000000,9.00,38.4070129,-110.7866898,1378.3000488,0.0,228.5,0.9,0.0,0.0,847,140,0,0,859.71,19.46,26.53,# data time:8630,pm2.5:6.445,pm10:5.704,O2:0.000,NO2:0.000,SO2:0.000,NH3:3.273
10:27:25,0,0,0,0,0,0,0,0,0,0,0,515,0,0,0,0,0.0000000,0.0000000,0.0000000,0.0000000,9.00,38.4070129,-110.7866898,1378.3000488,0.0,228.5,0.9,0.0,0.0,848,144,0,0,859.71,19.41,26.49,# data time:8630,pm2.5:6.445,pm10:5.704,O2:0.000,NO2:0.000,SO2:0.000,NH3:3.273
10:27:26,0,0,0,0,0,0,0,0,0,0,0,515,0,0,0,0,0.0000000,0.0000000,0.0000000,0.0000000,9.00,38.4070129,-110.7866898,1378.3000488,0.0,228.5,0.9,0.0,0.0,848,147,0,0,859.71,19.36,26.45,# data time:8630,pm2.5:6.445,pm10:5.704,O2:0.000,NO2:0.000,SO2:0.000,NH3:3.273
10:27:27,0,0,0,0,0,0,0,0,0,0,0,515,0,0,0,0,0.0000000,0.0000000,0.0000000,0.0000000,9.00,38.4070129,-110.7866898,1378.3000488,0.0,228.5,0.9,0.0,0.0,848,144,0,0,859.65,19.41,26.39,# data time:8630,pm2.5:6.445,pm10:5.704,O2:0.000,NO2:0.000,SO2:0.000,NH3:3.273
10:27:28,0,0,0,0,0,0,0,0,0,0,0,515,0,0,0,0,0.0000000,0.0000000,0.0000000,0.0000000,9.00,38.4070129,-110.7866898,1378.3000488,0.0,228.5,0.9,0.0,0.0,847,141,0,0,859.65,19.42,26.42,# data time:8630,pm2.5:6.445,pm10:5.704,O2:0.000,NO2:0.000,SO2:0.000,NH3:3.273
10:27:29,0,0,0,0,0,0,0,0,0,0,0,515,0,0,0,0,0.0000000,0.0000000,0.0000000,0.0000000,9.00,38.4070129,-110.7866898,1378.3000488,0.0,228.5,0.9,0.0,0.0,847,145,0,0,859.66,19.36,26.49,# data time:8630,pm2.5:6.445,pm10:5.704,O2:0.000,NO2:0.000,SO2:0.000,NH3:3.273
10:27:30,0,0,0,0,0,0,0,0,0,0,0,515,0,0,0,0,0.0000000,0.0000000,0.0000000,0.0000000,9.00,38.4070129,-110.7866898,1378.3000488,0.0,228.5,0.9,0.0,0.0,848,144,0,0,859.61,19.32,26.50,# data time:8630,pm2.5:6.445,pm10:5.704,O2:0.000,NO2:0.000,SO2:0.000,NH3:3.273
10:27:31,0,0,0,0,0,0,0,0,0,0,0,516,0,0,0,0,0.0000000,0.0000000,0.0000000,0.0000000,9.00,38.4070129,-110.7866898,1378.3000488,0.0,228.5,0.9,0.0,0.0,848,144,0,0,859.68,19.30,26.53,# data time:8640,pm2.5:6.445,pm10:5.704,O2:0.000,NO2:0.000,SO2:0.000,NH3:3.273
10:27:32,0,0,0,0,0,0,0,0,0,0,0,515,0,0,0,0,0.0000000,0.0000000,0.0000000,0.0000000,9.00,38.4070129,-110.7866898,1378.3000488,0.0,228.5,0.9,0.0,0.0,847,149,0,0,859.69,19.23,26.56,# data time:8640,pm2.5:6.445,pm10:5.704,O2:0.000,NO2:0.000,SO2:0.000,NH3:3.273
10:27:33,0,0,0,0,0,0,0,0,0,0,0,515,0,0,0,0,0.0000000,0.0000000,0.0000000,0.0000000,9.00,38.4070129,-110.7866898,1378.3000488,0.0,228.5,0.9,0.0,0.0,847,143,0,0,859.76,19.20,26.55,# data time:8640,pm2.5:6.445,pm10:5.704,O2:0.000,NO2:0.000,SO2:0.000,NH3:3.273
10:27:34,0,0,0,0,0,0,0,0,0,0,0,515,0,0,0,0,0.0000000,0.0000000,0.0000000,0.0000000,9.00,38.4070129,-110.7866898,1378.3000488,0.0,228.5,0.9,0.0,0.0,848,141,0,0,859.72,19.20,26.55,# data time:8640,pm2.5:6.445,pm10:5.704,O2:0.000,NO2:0.000,SO2:0.000,NH3:3.273
10:27:35,0,0,0,0,0,0,0,0,0,0,0,514,0,0,0,0,0.0000000,0.0000000,0.0000000,0.0000000,9.00,38.4070129,-110.7866898,1378.3000488,0.0,228.5,0.9,0.0,0.0,847,137,0,0,859.69,19.24,26.55,# data time:8640,pm2.5:6.445,pm10:5.704,O2:0.000,NO2:0.000,SO2:0.000,NH3:3.273
10:27:36,0,0,0,0,0,0,0,0,0,0,0,516,0,0,0,0,0.0000000,0.0000000,0.0000000,0.0000000,9.00,38.4070129,-110.7866898,1378.3000488,0.0,228.5,0.9,0.0,0.0,848,138,0,0,859.74,19.23,26.48,# data time:8640,pm2.5:6.445,pm10:5.704,O2:0.000,NO2:0.000,SO2:0.000,NH3:3.273
10:27:37,0,0,0,0,0,0,0,0,0,0,0,515,0,0,0,0,0.0000000,0.0000000,0.0000000,0.0000000,9.00,38.4070129,-110.7866898,1378.3000488,0.0,228.5,0.9,0.0,0.0,848,134,0,0,859.62,19.23,26.43,# data time:8640,pm2.5:6.445,pm10:5.704,O2:0.000,NO2:0.000,SO2:0.000,NH3:3.273
10:27:38,0,0,0,0,0,0,0,0,0,0,0,515,0,0,0,0,0.0000000,0.0000000,0.0000000,0.0000000,9.00,38.4070129,-110.7866898,1378.3000488,0.0,228.5,0.9,0.0,0.0,848,137,0,0,859.77,19.30,26.32,# data time:8640,pm2.5:6.445,pm10:5.704,O2:0.000,NO2:0.000,SO2:0.000,NH3:3.273
10:27:40,0,0,0,0,0,0,0,0,0,0,0,515,0,0,0,0,0.0000000,0.0000000,0.0000000,0.0000000,9.00,38.4070129,-110.7866898,1378.3000488,0.0,228.5,0.9,0.0,0.0,847,153,0,0,859.65,19.27,26.37,# data time:8640,pm2.5:6.445,pm10:5.704,O2:0.000,NO2:0.000,SO2:0.000,NH3:3.273
10:27:41,0,0,0,0,0,0,0,0,0,0,0,516,0,0,0,0,0.0000000,0.0000000,0.0000000,0.0000000,9.00,38.4070129,-110.7866898,1378.3000488,0.0,228.5,0.9,0.0,0.0,848,155,0,0,859.78,19.32,26.43,# data time:8640,pm2.5:6.445,pm10:5.704,O2:0.000,NO2:0.000,SO2:0.000,NH3:3.273
10:27:42,0,0,0,0,0,0,0,0,0,0,0,515,0,0,0,0,0.0000000,0.0000000,0.0000000,0.0000000,9.00,38.4070129,-110.7866898,1378.3000488,0.0,228.5,0.9,0.0,0.0,847,152,0,0,859.72,19.23,26.41,# data time:8650,pm2.5:6.445,pm10:5.704,O2:0.000,NO2:0.000,SO2:0.000,NH3:3.273
10:27:43,0,0,0,0,0,0,0,0,0,0,0,515,0,0,0,0,0.0000000,0.0000000,0.0000000,0.0000000,9.00,38.4070129,-110.7866898,1378.3000488,0.0,228.5,0.9,0.0,0.0,847,146,0,0,859.76,19.23,26.47,# data time:8650,pm2.5:6.445,pm10:5.704,O2:0.000,NO2:0.000,SO2:0.000,NH3:3.273
10:27:44,0,0,0,0,0,0,0,0,0,0,0,515,0,0,0,0,0.0000000,0.0000000,0.0000000,0.0000000,9.00,38.4070129,-110.7866898,1378.3000488,0.0,228.5,0.9,0.0,0.0,847,141,0,0,859.71,19.24,26.45,# data time:8650,pm2.5:6.445,pm10:5.704,O2:0.000,NO2:0.000,SO2:0.000,NH3:3.273
10:27:45,0,0,0,0,0,0,0,0,0,0,0,515,0,0,0,0,0.0000000,0.0000000,0.0000000,0.0000000,9.00,38.4070129,-110.7866898,1378.3000488,0.0,228.5,0.9,0.0,0.0,848,136,0,0,859.70,19.23,26.40,# data time:8650,pm2.5:6.445,pm10:5.704,O2:0.000,NO2:0.000,SO2:0.000,NH3:3.273
10:27:46,0,0,0,0,0,0,0,0,0,0,0,514,0,0,0,0,0.0000000,0.0000000,0.0000000,0.0000000,9.00,38.4070129,-110.7866898,1378.3000488,0.0,228.5,0.9,0.0,0.0,847,140,0,0,859.73,19.20,26.46,# data time:8650,pm2.5:6.445,pm10:5.704,O2:0.000,NO2:0.000,SO2:0.000,NH3:3.273
10:27:47,0,0,0,0,0,0,0,0,0,0,0,515,0,0,0,0,0.0000000,0.0000000,0.0000000,0.0000000,9.00,38.4070129,-110.7866898,1378.3000488,0.0,228.5,0.9,0.0,0.0,848,139,0,0,859.79,19.14,26.46,# data time:8650,pm2.5:6.445,pm10:5.704,O2:0.000,NO2:0.000,SO2:0.000,NH3:3.273
10:27:48,0,0,0,0,0,0,0,0,0,0,0,514,0,0,0,0,0.0000000,0.0000000,0.0000000,0.0000000,9.00,38.4070129,-110.7866898,1378.3000488,0.0,228.5,0.9,0.0,0.0,847,136,0,0,859.64,18.71,26.49,# data time:8650,pm2.5:6.445,pm10:5.704,O2:0.000,NO2:0.000,SO2:0.000,NH3:3.273
10:27:49,0,0,0,0,0,0,0,0,0,0,0,515,0,0,0,0,0.0000000,0.0000000,0.0000000,0.0000000,9.00,38.4070129,-110.7866898,1378.3000488,0.0,228.5,0.9,0.0,0.0,847,149,0,0,859.48,19.12,26.37,# data time:8650,pm2.5:6.445,pm10:5.704,O2:0.000,NO2:0.000,SO2:0.000,NH3:3.273
10:27:50,0,0,0,0,0,0,0,0,0,0,0,516,0,0,0,0,0.0000000,0.0000000,0.0000000,0.0000000,9.00,38.4070129,-110.7866898,1378.3000488,0.1,228.5,0.9,0.0,0.0,847,148,0,0,859.69,19.17,26.39,# data time:8650,pm2.5:6.445,pm10:5.704,O2:0.000,NO2:0.000,SO2:0.000,NH3:3.273
10:27:51,0,0,0,0,0,0,0,0,0,0,0,515,0,0,0,0,0.0000000,0.0000000,0.0000000,0.0000000,9.00,38.4070129,-110.7866898,1378.3000488,0.0,228.5,0.9,0.0,0.0,847,147,0,0,859.81,19.10,26.32,# data time:8650,pm2.5:6.445,pm10:5.704,O2:0.000,NO2:0.000,SO2:0.000,NH3:3.273
10:27:52,0,0,0,0,0,0,0,0,0,0,0,515,0,0,0,0,0.0000000,0.0000000,0.0000000,0.0000000,9.00,38.4070129,-110.7866898,1378.3000488,0.0,228.5,0.9,0.0,0.0,848,146,0,0,859.81,19.07,26.33,# data time:8660,pm2.5:6.445,pm10:5.704,O2:0.000,NO2:0.000,SO2:0.000,NH3:3.273
10:27:53,0,0,0,0,0,0,0,0,0,0,0,515,0,0,0,0,0.0000000,0.0000000,0.0000000,0.0000000,9.00,38.4070129,-110.7866898,1378.3000488,0.0,228.5,0.9,0.0,0.0,847,144,0,0,859.78,19.03,26.32,# data time:8660,pm2.5:6.445,pm10:5.704,O2:0.000,NO2:0.000,SO2:0.000,NH3:3.273
10:27:54,0,0,0,0,0,0,0,0,0,0,0,515,0,0,0,0,0.0000000,0.0000000,0.0000000,0.0000000,9.00,38.4070129,-110.7866898,1378.3000488,0.0,228.5,0.9,0.0,0.0,847,145,0,0,859.86,19.03,26.33,# data time:8660,pm2.5:6.445,pm10:5.704,O2:0.000,NO2:0.000,SO2:0.000,NH3:3.273
10:27:55,0,0,0,0,0,0,0,0,0,0,0,515,0,0,0,0,0.0000000,0.0000000,0.0000000,0.0000000,9.00,38.4070129,-110.7866898,1378.3000488,0.0,228.5,0.9,0.0,0.0,848,151,0,0,859.86,19.00,26.29,# data time:8660,pm2.5:6.445,pm10:5.704,O2:0.000,NO2:0.000,SO2:0.000,NH3:3.273
10:27:56,0,0,0,0,0,0,0,0,0,0,0,515,0,0,0,0,0.0000000,0.0000000,0.0000000,0.0000000,9.00,38.4070129,-110.7866898,1378.3000488,0.0,228.5,0.9,0.0,0.0,847,149,0,0,859.87,19.04,26.31,# data time:8660,pm2.5:6.445,pm10:5.704,O2:0.000,NO2:0.000,SO2:0.000,NH3:3.273
10:27:57,0,0,0,0,0,0,0,0,0,0,0,515,0,0,0,0,0.0000000,0.0000000,0.0000000,0.0000000,9.00,38.4070129,-110.7866898,1378.3000488,0.0,228.5,0.9,0.0,0.0,847,147,0,0,859.86,19.03,26.28,# data time:8660,pm2.5:6.445,pm10:5.704,O2:0.000,NO2:0.000,SO2:0.000,NH3:3.273
10:27:58,0,0,0,0,0,0,0,0,0,0,0,515,0,0,0,0,0.0000000,0.0000000,0.0000000,0.0000000,9.00,38.4070129,-110.7866898,1378.3000488,0.0,228.5,0.9,0.0,0.0,848,147,0,0,859.83,19.09,26.15,# data time:8660,pm2.5:6.445,pm10:5.704,O2:0.000,NO2:0.000,SO2:0.000,NH3:3.273
10:27:59,0,0,0,0,0,0,0,0,0,0,0,515,0,0,0,0,0.0000000,0.0000000,0.0000000,0.0000000,9.00,38.4070129,-110.7866898,1378.3000488,0.0,228.5,0.9,0.0,0.0,848,145,0,0,859.89,19.06,26.10,# data time:8660,pm2.5:6.445,pm10:5.704,O2:0.000,NO2:0.000,SO2:0.000,NH3:3.273
10:28:00,0,0,0,0,0,0,0,0,0,0,0,515,0,0,0,0,0.0000000,0.0000000,0.0000000,0.0000000,9.00,38.4070129,-110.7866898,1378.3000488,0.0,228.5,0.9,0.0,0.0,848,146,0,0,859.87,19.03,26.13,# data time:8660,pm2.5:6.445,pm10:5.704,O2:0.000,NO2:0.000,SO2:0.000,NH3:3.273
10:28:01,0,0,0,0,0,0,0,0,0,0,0,516,0,0,0,0,0.0000000,0.0000000,0.0000000,0.0000000,9.00,38.4070129,-110.7866898,1378.3000488,0.0,228.5,0.9,0.0,0.0,847,144,0,0,859.88,19.10,26.11,# data time:8660,pm2.5:6.445,pm10:5.704,O2:0.000,NO2:0.000,SO2:0.000,NH3:3.273
10:28:02,0,0,0,0,0,0,0,0,0,0,0,515,0,0,0,0,0.0000000,0.0000000,0.0000000,0.0000000,9.00,38.4070129,-110.7866898,1378.3000488,0.0,228.5,0.9,0.0,0.0,847,140,0,0,859.82,19.01,26.20,# data time:8670,pm2.5:6.445,pm10:5.704,O2:0.000,NO2:0.000,SO2:0.000,NH3:3.273
10:28:03,0,0,0,0,0,0,0,0,0,0,0,515,0,0,0,0,0.0000000,0.0000000,0.0000000,0.0000000,9.00,38.4070129,-110.7866898,1378.3000488,0.0,228.5,0.9,0.0,0.0,848,139,0,0,859.84,19.00,26.27,# data time:8670,pm2.5:6.445,pm10:5.704,O2:0.000,NO2:0.000,SO2:0.000,NH3:3.273
10:28:04,0,0,0,0,0,0,0,0,0,0,0,514,0,0,0,0,0.0000000,0.0000000,0.0000000,0.0000000,9.00,38.4070129,-110.7866898,1378.4000244,0.0,228.5,0.9,0.0,0.0,848,141,0,0,859.85,18.94,26.27,# data time:8670,pm2.5:6.445,pm10:5.704,O2:0.000,NO2:0.000,SO2:0.000,NH3:3.273
10:28:05,0,0,0,0,0,0,0,0,0,0,0,515,0,0,0,0,0.0000000,0.0000000,0.0000000,0.0000000,9.00,38.4070129,-110.7866898,1378.4000244,0.1,228.5,0.9,0.0,0.0,847,145,0,0,859.85,18.91,26.22,# data time:8670,pm2.5:6.445,pm10:5.704,O2:0.000,NO2:0.000,SO2:0.000,NH3:3.273
10:28:06,0,0,0,0,0,0,0,0,0,0,0,515,0,0,0,0,0.0000000,0.0000000,0.0000000,0.0000000,9.00,38.4070129,-110.7866898,1378.4000244,0.0,228.5,0.9,0.0,0.0,848,146,0,0,859.81,18.94,26.25,# data time:8670,pm2.5:6.445,pm10:5.704,O2:0.000,NO2:0.000,SO2:0.000,NH3:3.273
10:28:07,0,0,0,0,0,0,0,0,0,0,0,514,0,0,0,0,0.0000000,0.0000000,0.0000000,0.0000000,9.00,38.4070129,-110.7866898,1378.4000244,0.0,228.5,0.9,0.0,0.0,847,145,0,0,859.85,18.95,26.32,# data time:8670,pm2.5:6.445,pm10:5.704,O2:0.000,NO2:0.000,SO2:0.000,NH3:3.273
10:28:08,0,0,0,0,0,0,0,0,0,0,0,514,0,0,0,0,0.0000000,0.0000000,0.0000000,0.0000000,9.00,38.4070129,-110.7866898,1378.4000244,0.0,228.5,0.9,0.0,0.0,847,147,0,0,859.89,18.91,26.37,# data time:8670,pm2.5:6.445,pm10:5.704,O2:0.000,NO2:0.000,SO2:0.000,NH3:3.273
10:28:09,0,0,0,0,0,0,0,0,0,0,0,515,0,0,0,0,0.0000000,0.0000000,0.0000000,0.0000000,9.00,38.4070129,-110.7866898,1378.4000244,0.0,228.5,0.9,0.0,0.0,847,146,0,0,859.93,18.85,26.41,# data time:8670,pm2.5:6.445,pm10:5.704,O2:0.000,NO2:0.000,SO2:0.000,NH3:3.273
10:28:10,0,0,0,0,0,0,0,0,0,0,0,515,0,0,0,0,0.0000000,0.0000000,0.0000000,0.0000000,9.00,38.4070129,-110.7866898,1378.4000244,0.0,228.5,0.9,0.0,0.0,847,143,0,0,859.91,18.78,26.36,# data time:8670,pm2.5:6.445,pm10:5.704,O2:0.000,NO2:0.000,SO2:0.000,NH3:3.273
10:28:11,0,0,0,0,0,0,0,0,0,0,0,515,0,0,0,0,0.0000000,0.0000000,0.0000000,0.0000000,9.00,38.4070129,-110.7866898,1378.4000244,0.0,228.5,0.9,0.0,0.0,847,147,0,0,859.97,18.77,26.31,# data time:8680,pm2.5:6.445,pm10:5.704,O2:0.000,NO2:0.000,SO2:0.000,NH3:3.273
10:28:12,0,0,0,0,0,0,0,0,0,0,0,516,0,0,0,0,0.0000000,0.0000000,0.0000000,0.0000000,9.00,38.4070129,-110.7866898,1378.4000244,0.0,228.5,0.9,0.0,0.0,847,145,0,0,859.92,18.74,26.34,# data time:8680,pm2.5:6.445,pm10:5.704,O2:0.000,NO2:0.000,SO2:0.000,NH3:3.273
10:28:13,0,0,0,0,0,0,0,0,0,0,0,515,0,0,0,0,0.0000000,0.0000000,0.0000000,0.0000000,9.00,38.4070129,-110.7866898,1378.4000244,0.0,228.5,0.9,0.0,0.0,848,141,0,0,859.95,18.74,26.40,# data time:8680,pm2.5:6.445,pm10:5.704,O2:0.000,NO2:0.000,SO2:0.000,NH3:3.273
10:28:14,0,0,0,0,0,0,0,0,0,0,0,514,0,0,0,0,0.0000000,0.0000000,0.0000000,0.0000000,9.00,38.4070129,-110.7866898,1378.4000244,0.0,228.5,0.9,0.0,0.0,847,138,0,0,859.97,18.72,26.44,# data time:8680,pm2.5:6.445,pm10:5.704,O2:0.000,NO2:0.000,SO2:0.000,NH3:3.273
10:28:15,0,0,0,0,0,0,0,0,0,0,0,515,0,0,0,0,0.0000000,0.0000000,0.0000000,0.0000000,9.00,38.4070129,-110.7866898,1378.4000244,0.0,228.5,0.9,0.0,0.0,848,140,0,0,859.96,18.66,26.34,# data time:8680,pm2.5:6.445,pm10:5.704,O2:0.000,NO2:0.000,SO2:0.000,NH3:3.273
10:28:16,0,0,0,0,0,0,0,0,0,0,0,515,0,0,0,0,0.0000000,0.0000000,0.0000000,0.0000000,9.00,38.4070129,-110.7866898,1378.4000244,0.0,228.5,0.9,0.0,0.0,848,140,0,0,859.91,18.69,26.37,# data time:8680,pm2.5:6.445,pm10:5.704,O2:0.000,NO2:0.000,SO2:0.000,NH3:3.273
10:28:17,0,0,0,0,0,0,0,0,0,0,0,515,0,0,0,0,0.0000000,0.0000000,0.0000000,0.0000000,9.00,38.4070129,-110.7866898,1378.4000244,0.0,228.5,0.9,0.0,0.0,847,137,0,0,859.98,18.69,26.39,# data time:8680,pm2.5:6.445,pm10:5.704,O2:0.000,NO2:0.000,SO2:0.000,NH3:3.273
10:28:18,0,0,0,0,0,0,0,0,0,0,0,515,0,0,0,0,0.0000000,0.0000000,0.0000000,0.0000000,9.00,38.4070129,-110.7866898,1378.4000244,0.1,228.5,0.9,0.0,0.0,847,139,0,0,859.97,18.69,26.28,# data time:8680,pm2.5:6.445,pm10:5.704,O2:0.000,NO2:0.000,SO2:0.000,NH3:3.273
10:28:19,0,0,0,0,0,0,0,0,0,0,0,515,0,0,0,0,0.0000000,0.0000000,0.0000000,0.0000000,9.00,38.4070129,-110.7866898,1378.4000244,0.1,228.5,0.9,0.0,0.0,847,141,0,0,859.96,18.74,26.26,# data time:8680,pm2.5:6.445,pm10:5.704,O2:0.000,NO2:0.000,SO2:0.000,NH3:3.273
10:28:20,0,0,0,0,0,0,0,0,0,0,0,515,0,0,0,0,0.0000000,0.0000000,0.0000000,0.0000000,9.00,38.4070129,-110.7866898,1378.4000244,0.3,228.5,0.9,0.0,0.0,847,142,0,0,860.00,19.01,26.22,# data time:8680,pm2.5:6.445,pm10:5.704,O2:0.000,NO2:0.000,SO2:0.000,NH3:3.273
10:28:21,0,0,0,0,0,0,0,0,0,0,0,515,0,0,0,0,0.0000000,0.0000000,0.0000000,0.0000000,9.00,38.4070129,-110.7866898,1378.4000244,0.6,228.5,0.9,0.0,0.0,847,141,0,0,859.99,18.98,26.24,# data time:8690,pm2.5:5.640,pm10:4.991,O2:0.000,NO2:0.000,SO2:0.000,NH3:3.273
10:28:22,0,0,0,0,0,0,0,0,0,0,0,515,0,0,0,0,0.0000000,0.0000000,0.0000000,0.0000000,9.00,38.4070129,-110.7866898,1378.4000244,2.4,221.8,0.9,0.0,0.0,848,141,0,0,859.97,19.00,26.28,# data time:8690,pm2.5:5.640,pm10:4.991,O2:0.000,NO2:0.000,SO2:0.000,NH3:3.273
10:28:23,0,0,0,0,0,0,0,0,0,0,0,515,0,0,0,0,0.0000000,0.0000000,0.0000000,0.0000000,9.00,38.4070015,-110.7866974,1378.5000000,3.4,227.2,0.9,0.0,0.0,847,143,0,0,859.97,18.94,26.32,# data time:8690,pm2.5:5.640,pm10:4.991,O2:0.000,NO2:0.000,SO2:0.000,NH3:3.273
10:28:24,0,0,0,0,0,0,0,0,0,0,0,515,0,0,0,0,0.0000000,0.0000000,0.0000000,0.0000000,9.00,38.4069862,-110.7867279,1378.8000488,4.1,226.3,0.9,0.0,0.0,848,146,0,0,859.91,18.89,26.35,# data time:8690,pm2.5:5.640,pm10:4.991,O2:0.000,NO2:0.000,SO2:0.000,NH3:3.273
10:28:25,0,0,0,0,0,0,0,0,0,0,0,515,0,0,0,0,0.0000000,0.0000000,0.0000000,0.0000000,9.00,38.4069710,-110.7867355,1379.1999512,4.9,229.3,0.9,0.0,0.0,847,151,0,0,860.00,18.85,26.36,# data time:8690,pm2.5:5.640,pm10:4.991,O2:0.000,NO2:0.000,SO2:0.000,NH3:3.273
10:28:26,0,0,0,0,0,0,0,0,0,0,0,514,0,0,0,0,0.0000000,0.0000000,0.0000000,0.0000000,9.00,38.4069557,-110.7867661,1379.5999756,5.2,230.4,0.9,0.0,0.0,847,150,0,0,859.99,18.97,26.36,# data time:8690,pm2.5:5.640,pm10:4.991,O2:0.000,NO2:0.000,SO2:0.000,NH3:3.273
10:28:27,0,0,0,0,0,0,0,0,0,0,0,515,0,0,0,0,0.0000000,0.0000000,0.0000000,0.0000000,9.00,38.4069405,-110.7867889,1380.0000000,5.3,228.9,0.9,0.0,0.0,848,147,0,0,859.98,19.17,26.35,# data time:8690,pm2.5:5.640,pm10:4.991,O2:0.000,NO2:0.000,SO2:0.000,NH3:3.273
10:28:28,0,0,0,0,0,0,0,0,0,0,0,515,0,0,0,0,0.0000000,0.0000000,0.0000000,0.0000000,9.00,38.4069252,-110.7868195,1380.6999512,5.6,230.1,0.9,0.0,0.0,847,144,0,0,859.97,18.92,26.36,# data time:8690,pm2.5:5.640,pm10:4.991,O2:0.000,NO2:0.000,SO2:0.000,NH3:3.273
10:28:29,0,0,0,0,0,0,0,0,0,0,0,515,0,0,0,0,0.0000000,0.0000000,0.0000000,0.0000000,9.00,38.4069099,-110.7868423,1381.3000488,5.5,232.2,0.9,0.0,0.0,848,145,0,0,859.92,18.88,26.36,# data time:8690,pm2.5:5.640,pm10:4.991,O2:0.000,NO2:0.000,SO2:0.000,NH3:3.273
10:28:30,0,0,0,0,0,0,0,0,0,0,0,515,0,0,0,0,0.0000000,0.0000000,0.0000000,0.0000000,9.00,38.4068947,-110.7868652,1381.6999512,5.5,234.3,0.9,0.0,0.0,848,145,0,0,860.04,19.04,26.36,# data time:8690,pm2.5:5.640,pm10:4.991,O2:0.000,NO2:0.000,SO2:0.000,NH3:3.273
10:28:31,0,0,0,0,0,0,0,0,0,0,0,515,0,0,0,0,0.0000000,0.0000000,0.0000000,0.0000000,9.00,38.4068756,-110.7868958,1382.1999512,5.4,232.1,0.9,0.0,0.0,847,142,0,0,859.99,18.98,26.39,# data time:8700,pm2.5:6.445,pm10:5.704,O2:0.000,NO2:0.000,SO2:0.000,NH3:3.273
10:28:32,0,0,0,0,0,0,0,0,0,0,0,515,0,0,0,0,0.0000000,0.0000000,0.0000000,0.0000000,9.00,38.4068604,-110.7869186,1382.8000488,5.2,231.6,0.9,0.0,0.0,847,141,0,0,859.99,18.95,26.43,# data time:8700,pm2.5:6.445,pm10:5.704,O2:0.000,NO2:0.000,SO2:0.000,NH3:3.273
10:28:33,0,0,0,0,0,0,0,0,0,0,0,515,0,0,0,0,0.0000000,0.0000000,0.0000000,0.0000000,9.00,38.4068489,-110.7869415,1383.4000244,5.2,230.9,0.9,0.0,0.0,847,139,0,0,859.97,18.85,26.37,# data time:8700,pm2.5:6.445,pm10:5.704,O2:0.000,NO2:0.000,SO2:0.000,NH3:3.273
10:28:34,0,0,0,0,0,0,0,0,0,0,0,515,0,0,0,0,0.0000000,0.0000000,0.0000000,0.0000000,9.00,38.4068336,-110.7869720,1383.8000488,5.2,234.1,0.9,0.0,0.0,847,141,0,0,860.05,18.85,26.35,# data time:8700,pm2.5:6.445,pm10:5.704,O2:0.000,NO2:0.000,SO2:0.000,NH3:3.273
10:28:35,0,0,0,0,0,0,0,0,0,0,0,514,0,0,0,0,0.0000000,0.0000000,0.0000000,0.0000000,9.00,38.4068184,-110.7869949,1384.0999756,5.4,236.8,0.9,0.0,0.0,847,141,0,0,859.98,18.72,26.33,# data time:8700,pm2.5:6.445,pm10:5.704,O2:0.000,NO2:0.000,SO2:0.000,NH3:3.273
10:28:36,0,0,0,0,0,0,0,0,0,0,0,515,0,0,0,0,0.0000000,0.0000000,0.0000000,0.0000000,9.00,38.4068069,-110.7870178,1384.4000244,5.4,239.9,0.9,0.0,0.0,847,142,0,0,860.00,18.78,26.34,# data time:8700,pm2.5:6.445,pm10:5.704,O2:0.000,NO2:0.000,SO2:0.000,NH3:3.273
10:28:37,0,0,0,0,0,0,0,0,0,0,0,514,0,0,0,0,0.0000000,0.0000000,0.0000000,0.0000000,9.00,38.4067955,-110.7870483,1384.5000000,5.4,240.7,0.9,0.0,0.0,847,141,0,0,860.03,18.71,26.36,# data time:8700,pm2.5:6.445,pm10:5.704,O2:0.000,NO2:0.000,SO2:0.000,NH3:3.273
10:28:38,0,0,0,0,0,0,0,0,0,0,0,516,0,0,0,0,0.0000000,0.0000000,0.0000000,0.0000000,9.00,38.4067802,-110.7870865,1384.5999756,6.0,241.6,0.9,0.0,0.0,847,143,0,0,860.00,18.77,26.38,# data time:8700,pm2.5:6.445,pm10:5.704,O2:0.000,NO2:0.000,SO2:0.000,NH3:3.273
10:28:39,0,0,0,0,0,0,0,0,0,0,0,515,0,0,0,0,0.0000000,0.0000000,0.0000000,0.0000000,9.00,38.4067688,-110.7871246,1384.8000488,6.3,242.7,0.9,0.0,0.0,847,147,0,0,859.97,18.65,26.36,# data time:8700,pm2.5:6.445,pm10:5.704,O2:0.000,NO2:0.000,SO2:0.000,NH3:3.273
10:28:40,0,0,0,0,0,0,0,0,0,0,0,514,0,0,0,0,0.0000000,0.0000000,0.0000000,0.0000000,9.00,38.4067535,-110.7871628,1384.9000244,6.3,244.1,0.9,0.0,0.0,847,146,0,0,859.97,18.68,26.32,# data time:8700,pm2.5:6.445,pm10:5.704,O2:0.000,NO2:0.000,SO2:0.000,NH3:3.273
10:28:41,0,0,0,0,0,0,0,0,0,0,0,515,0,0,0,0,0.0000000,0.0000000,0.0000000,0.0000000,9.00,38.4067421,-110.7872162,1385.0999756,6.7,244.5,0.9,0.0,0.0,848,146,0,0,859.98,18.66,26.24,# data time:8710,pm2.5:6.445,pm10:5.704,O2:0.000,NO2:0.000,SO2:0.000,NH3:3.273
10:28:43,0,0,0,0,0,0,0,0,0,0,0,514,0,0,0,0,0.0000000,0.0000000,0.0000000,0.0000000,9.00,38.4067307,-110.7872543,1385.0999756,6.6,243.9,0.9,0.0,0.0,847,147,0,0,859.97,18.72,26.27,# data time:8710,pm2.5:6.445,pm10:5.704,O2:0.000,NO2:0.000,SO2:0.000,NH3:3.273
10:28:44,0,0,0,0,0,0,0,0,0,0,0,514,0,0,0,0,0.0000000,0.0000000,0.0000000,0.0000000,9.00,38.4067001,-110.7873306,1384.4000244,6.6,243.9,0.9,0.0,0.0,847,150,0,0,860.00,18.65,26.28,# data time:8710,pm2.5:6.445,pm10:5.704,O2:0.000,NO2:0.000,SO2:0.000,NH3:3.273
10:28:45,0,0,0,0,0,0,0,0,0,0,0,516,0,0,0,0,0.0000000,0.0000000,0.0000000,0.0000000,9.00,38.4066887,-110.7873688,1384.3000488,6.6,245.7,0.9,0.0,0.0,847,147,0,0,860.02,18.71,26.33,# data time:8710,pm2.5:6.445,pm10:5.704,O2:0.000,NO2:0.000,SO2:0.000,NH3:3.273
10:28:46,0,0,0,0,0,0,0,0,0,0,0,515,0,0,0,0,0.0000000,0.0000000,0.0000000,0.0000000,9.00,38.4066734,-110.7874069,1384.1999512,6.7,246.1,0.9,0.0,0.0,847,143,0,0,859.95,18.54,26.35,# data time:8710,pm2.5:6.445,pm10:5.704,O2:0.000,NO2:0.000,SO2:0.000,NH3:3.273
10:28:47,0,0,0,0,0,0,0,0,0,0,0,515,0,0,0,0,0.0000000,0.0000000,0.0000000,0.0000000,9.00,38.4066658,-110.7874451,1384.1999512,6.7,245.9,0.9,0.0,0.0,847,139,0,0,860.00,18.56,26.34,# data time:8710,pm2.5:6.445,pm10:5.704,O2:0.000,NO2:0.000,SO2:0.000,NH3:3.273
10:28:48,0,0,0,0,0,0,0,0,0,0,0,515,0,0,0,0,0.0000000,0.0000000,0.0000000,0.0000000,9.00,38.4066544,-110.7874832,1384.0999756,6.8,246.1,0.9,0.0,0.0,847,146,0,0,859.97,18.54,26.32,# data time:8710,pm2.5:6.445,pm10:5.704,O2:0.000,NO2:0.000,SO2:0.000,NH3:3.273
10:28:49,0,0,0,0,0,0,0,0,0,0,0,515,0,0,0,0,0.0000000,0.0000000,0.0000000,0.0000000,9.00,38.4066391,-110.7875214,1383.9000244,7.0,246.5,0.9,0.0,0.0,847,148,0,0,859.98,18.54,26.33,# data time:8710,pm2.5:6.445,pm10:5.704,O2:0.000,NO2:0.000,SO2:0.000,NH3:3.273
10:28:50,0,0,0,0,0,0,0,0,0,0,0,515,0,0,0,0,0.0000000,0.0000000,0.0000000,0.0000000,9.00,38.4066277,-110.7875595,1383.6999512,7.1,245.6,0.9,0.0,0.0,848,150,0,0,859.97,18.56,26.25,# data time:8710,pm2.5:6.445,pm10:5.704,O2:0.000,NO2:0.000,SO2:0.000,NH3:3.273
10:28:51,0,0,0,0,0,0,0,0,0,0,0,514,0,0,0,0,0.0000000,0.0000000,0.0000000,0.0000000,9.00,38.4066124,-110.7875977,1383.5999756,7.2,244.4,0.9,0.0,0.0,848,153,0,0,860.08,18.54,26.27,# data time:8710,pm2.5:6.445,pm10:5.704,O2:0.000,NO2:0.000,SO2:0.000,NH3:3.273
10:28:52,0,0,0,0,0,0,0,0,0,0,0,515,0,0,0,0,0.0000000,0.0000000,0.0000000,0.0000000,9.00,38.4065933,-110.7876358,1383.4000244,7.4,244.4,0.9,0.0,0.0,847,150,0,0,860.05,18.54,26.30,# data time:8720,pm2.5:6.445,pm10:5.704,O2:0.000,NO2:0.000,SO2:0.000,NH3:3.273
10:28:53,0,0,0,0,0,0,0,0,0,0,0,515,0,0,0,0,0.0000000,0.0000000,0.0000000,0.0000000,9.00,38.4065781,-110.7876740,1383.3000488,7.5,243.1,0.9,0.0,0.0,847,146,0,0,860.05,18.59,26.29,# data time:8720,pm2.5:6.445,pm10:5.704,O2:0.000,NO2:0.000,SO2:0.000,NH3:3.273
10:28:54,0,0,0,0,0,0,0,0,0,0,0,514,0,0,0,0,0.0000000,0.0000000,0.0000000,0.0000000,9.00,38.4065628,-110.7877121,1383.1999512,7.5,242.3,0.9,0.0,0.0,847,148,0,0,860.08,18.63,26.29,# data time:8720,pm2.5:6.445,pm10:5.704,O2:0.000,NO2:0.000,SO2:0.000,NH3:3.273
10:28:55,0,0,0,0,0,0,0,0,0,0,0,515,0,0,0,0,0.0000000,0.0000000,0.0000000,0.0000000,9.00,38.4065475,-110.7877502,1383.0999756,7.5,240.0,0.9,0.0,0.0,847,153,0,0,859.98,18.52,26.28,# data time:8720,pm2.5:6.445,pm10:5.704,O2:0.000,NO2:0.000,SO2:0.000,NH3:3.273
10:28:56,0,0,0,0,0,0,0,0,0,0,0,515,0,0,0,0,0.0000000,0.0000000,0.0000000,0.0000000,9.00,38.4065285,-110.7877884,1382.9000244,7.7,237.1,0.9,0.0,0.0,847,153,0,0,860.04,18.69,26.23,# data time:8720,pm2.5:6.445,pm10:5.704,O2:0.000,NO2:0.000,SO2:0.000,NH3:3.273
10:28:57,0,0,0,0,0,0,0,0,0,0,0,515,0,0,0,0,0.0000000,0.0000000,0.0000000,0.0000000,9.00,38.4065056,-110.7878265,1382.6999512,7.8,236.1,0.9,0.0,0.0,847,144,0,0,860.01,18.74,26.24,# data time:8720,pm2.5:6.445,pm10:5.704,O2:0.000,NO2:0.000,SO2:0.000,NH3:3.273
10:28:58,0,0,0,0,0,0,0,0,0,0,0,515,0,0,0,0,0.0000000,0.0000000,0.0000000,0.0000000,9.00,38.4064865,-110.7878647,1382.5000000,7.8,233.7,0.9,0.0,0.0,847,142,0,0,860.01,18.80,26.21,# data time:8720,pm2.5:6.445,pm10:5.704,O2:0.000,NO2:0.000,SO2:0.000,NH3:3.273
10:28:59,0,0,0,0,0,0,0,0,0,0,0,515,0,0,0,0,0.0000000,0.0000000,0.0000000,0.0000000,9.00,38.4064636,-110.7879028,1382.4000244,7.7,233.2,0.9,0.0,0.0,847,148,0,0,860.10,18.78,26.21,# data time:8720,pm2.5:6.445,pm10:5.704,O2:0.000,NO2:0.000,SO2:0.000,NH3:3.273
10:29:00,0,0,0,0,0,0,0,0,0,0,0,514,0,0,0,0,0.0000000,0.0000000,0.0000000,0.0000000,9.00,38.4064407,-110.7879333,1382.3000488,7.6,231.1,0.9,0.0,0.0,847,151,0,0,860.11,18.91,26.19,# data time:8720,pm2.5:6.445,pm10:5.704,O2:0.000,NO2:0.000,SO2:0.000,NH3:3.273
10:29:01,0,0,0,0,0,0,0,0,0,0,0,516,0,0,0,0,0.0000000,0.0000000,0.0000000,0.0000000,9.00,38.4064178,-110.7879715,1382.1999512,7.7,230.2,0.9,0.0,0.0,847,146,0,0,860.13,18.92,26.16,# data time:8720,pm2.5:6.445,pm10:5.704,O2:0.000,NO2:0.000,SO2:0.000,NH3:3.273
10:29:02,0,0,0,0,0,0,0,0,0,0,0,514,0,0,0,0,0.0000000,0.0000000,0.0000000,0.0000000,9.00,38.4063950,-110.7880096,1382.0999756,7.7,230.2,0.9,0.0,0.0,848,148,0,0,860.15,18.91,26.17,# data time:8730,pm2.5:6.445,pm10:5.704,O2:0.000,NO2:0.000,SO2:0.000,NH3:3.046
10:29:03,0,0,0,0,0,0,0,0,0,0,0,515,0,0,0,0,0.0000000,0.0000000,0.0000000,0.0000000,9.00,38.4063759,-110.7880478,1382.0000000,7.7,228.8,0.9,0.0,0.0,847,146,0,0,860.22,19.00,26.14,# data time:8730,pm2.5:6.445,pm10:5.704,O2:0.000,NO2:0.000,SO2:0.000,NH3:3.046
10:29:04,0,0,0,0,0,0,0,0,0,0,0,515,0,0,0,0,0.0000000,0.0000000,0.0000000,0.0000000,9.00,38.4063530,-110.7880707,1381.9000244,7.7,228.7,0.9,0.0,0.0,847,147,0,0,860.19,18.89,26.06,# data time:8730,pm2.5:6.445,pm10:5.704,O2:0.000,NO2:0.000,SO2:0.000,NH3:3.046
10:29:05,0,0,0,0,0,0,0,0,0,0,0,515,0,0,0,0,0.0000000,0.0000000,0.0000000,0.0000000,9.00,38.4063301,-110.7881088,1381.8000488,7.7,228.6,0.9,0.0,0.0,847,144,0,0,860.15,18.92,26.07,# data time:8730,pm2.5:6.445,pm10:5.704,O2:0.000,NO2:0.000,SO2:0.000,NH3:3.046
10:29:06,0,0,0,0,0,0,0,0,0,0,0,515,0,0,0,0,0.0000000,0.0000000,0.0000000,0.0000000,9.00,38.4063034,-110.7881470,1381.6999512,7.6,226.4,0.9,0.0,0.0,847,148,0,0,860.25,18.97,26.08,# data time:8730,pm2.5:6.445,pm10:5.704,O2:0.000,NO2:0.000,SO2:0.000,NH3:3.046
10:29:07,0,0,0,0,0,0,0,0,0,0,0,515,0,0,0,0,0.0000000,0.0000000,0.0000000,0.0000000,9.00,38.4062767,-110.7881699,1381.5000000,7.4,225.1,0.9,0.0,0.0,847,147,0,0,860.22,19.06,26.02,# data time:8730,pm2.5:6.445,pm10:5.704,O2:0.000,NO2:0.000,SO2:0.000,NH3:3.046
10:29:08,0,0,0,0,0,0,0,0,0,0,0,515,0,0,0,0,0.0000000,0.0000000,0.0000000,0.0000000,9.00,38.4062576,-110.7882080,1381.5000000,7.6,224.3,0.9,0.0,0.0,847,155,0,0,860.25,19.06,25.98,# data time:8730,pm2.5:6.445,pm10:5.704,O2:0.000,NO2:0.000,SO2:0.000,NH3:3.046
10:29:09,0,0,0,0,0,0,0,0,0,0,0,515,0,0,0,0,0.0000000,0.0000000,0.0000000,0.0000000,9.00,38.4062271,-110.7882385,1381.4000244,7.6,224.3,0.9,0.0,0.0,847,150,0,0,860.27,19.07,25.91,# data time:8730,pm2.5:6.445,pm10:5.704,O2:0.000,NO2:0.000,SO2:0.000,NH3:3.046
10:29:10,0,0,0,0,0,0,0,0,0,0,0,515,0,0,0,0,0.0000000,0.0000000,0.0000000,0.0000000,9.00,38.4062042,-110.7882767,1381.4000244,7.7,223.1,0.9,0.0,0.0,848,154,0,0,860.27,19.15,25.88,# data time:8730,pm2.5:6.445,pm10:5.704,O2:0.000,NO2:0.000,SO2:0.000,NH3:3.046
10:29:11,0,0,0,0,0,0,0,0,0,0,0,515,0,0,0,0,0.0000000,0.0000000,0.0000000,0.0000000,9.00,38.4061775,-110.7883148,1381.3000488,8.0,222.6,0.9,0.0,0.0,847,146,0,0,860.31,19.23,25.83,# data time:8740,pm2.5:6.445,pm10:5.704,O2:0.000,NO2:0.000,SO2:0.000,NH3:3.273
10:29:12,0,0,0,0,0,0,0,0,0,0,0,515,0,0,0,0,0.0000000,0.0000000,0.0000000,0.0000000,9.00,38.4061470,-110.7883377,1381.3000488,8.0,221.8,0.9,0.0,0.0,847,142,0,0,860.31,19.30,25.78,# data time:8740,pm2.5:6.445,pm10:5.704,O2:0.000,NO2:0.000,SO2:0.000,NH3:3.273
10:29:13,0,0,0,0,0,0,0,0,0,0,0,514,0,0,0,0,0.0000000,0.0000000,0.0000000,0.0000000,9.00,38.4061203,-110.7883759,1381.1999512,8.1,221.2,0.9,0.0,0.0,848,140,0,0,860.30,19.32,25.76,# data time:8740,pm2.5:6.445,pm10:5.704,O2:0.000,NO2:0.000,SO2:0.000,NH3:3.273
10:29:14,0,0,0,0,0,0,0,0,0,0,0,514,0,0,0,0,0.0000000,0.0000000,0.0000000,0.0000000,9.00,38.4060898,-110.7884064,1381.0999756,8.0,220.8,0.9,0.0,0.0,847,142,0,0,860.35,19.35,25.80,# data time:8740,pm2.5:6.445,pm10:5.704,O2:0.000,NO2:0.000,SO2:0.000,NH3:3.273
10:29:15,0,0,0,0,0,0,0,0,0,0,0,514,0,0,0,0,0.0000000,0.0000000,0.0000000,0.0000000,9.00,38.4060593,-110.7884445,1381.0000000,8.1,220.5,0.9,0.0,0.0,847,142,0,0,860.29,19.26,25.81,# data time:8740,pm2.5:6.445,pm10:5.704,O2:0.000,NO2:0.000,SO2:0.000,NH3:3.273
10:29:16,0,0,0,0,0,0,0,0,0,0,0,516,0,0,0,0,0.0000000,0.0000000,0.0000000,0.0000000,9.00,38.4060326,-110.7884674,1380.8000488,8.2,221.0,0.9,0.0,0.0,847,141,0,0,860.30,19.27,25.81,# data time:8740,pm2.5:6.445,pm10:5.704,O2:0.000,NO2:0.000,SO2:0.000,NH3:3.273
10:29:17,0,0,0,0,0,0,0,0,0,0,0,515,0,0,0,0,0.0000000,0.0000000,0.0000000,0.0000000,9.00,38.4060020,-110.7885056,1380.5999756,8.6,221.0,0.9,0.0,0.0,847,145,0,0,860.35,19.27,25.74,# data time:8740,pm2.5:6.445,pm10:5.704,O2:0.000,NO2:0.000,SO2:0.000,NH3:3.273
10:29:18,0,0,0,0,0,0,0,0,0,0,0,515,0,0,0,0,0.0000000,0.0000000,0.0000000,0.0000000,9.00,38.4059753,-110.7885437,1380.4000244,8.6,221.4,0.9,0.0,0.0,847,143,0,0,860.32,19.21,25.68,# data time:8740,pm2.5:6.445,pm10:5.704,O2:0.000,NO2:0.000,SO2:0.000,NH3:3.273
10:29:19,0,0,0,0,0,0,0,0,0,0,0,515,0,0,0,0,0.0000000,0.0000000,0.0000000,0.0000000,9.00,38.4059448,-110.7885666,1380.1999512,8.6,222.0,0.9,0.0,0.0,847,138,0,0,860.36,19.36,25.64,# data time:8740,pm2.5:6.445,pm10:5.704,O2:0.000,NO2:0.000,SO2:0.000,NH3:3.273
10:29:20,0,0,0,0,0,0,0,0,0,0,0,514,0,0,0,0,0.0000000,0.0000000,0.0000000,0.0000000,9.00,38.4059143,-110.7886047,1380.0000000,8.4,221.8,0.9,0.0,0.0,847,141,0,0,860.34,19.30,25.59,# data time:8740,pm2.5:6.445,pm10:5.704,O2:0.000,NO2:0.000,SO2:0.000,NH3:3.273
10:29:21,0,0,0,0,0,0,0,0,0,0,0,515,0,0,0,0,0.0000000,0.0000000,0.0000000,0.0000000,9.00,38.4058876,-110.7886429,1380.0000000,8.3,223.2,0.9,0.0,0.0,848,143,0,0,860.32,19.36,25.53,# data time:8750,pm2.5:6.445,pm10:5.704,O2:0.000,NO2:0.000,SO2:0.000,NH3:3.273
10:29:22,0,0,0,0,0,0,0,0,0,0,0,515,0,0,0,0,0.0000000,0.0000000,0.0000000,0.0000000,9.00,38.4058609,-110.7886734,1379.9000244,8.3,224.6,0.9,0.0,0.0,847,141,0,0,860.30,19.44,25.56,# data time:8750,pm2.5:6.445,pm10:5.704,O2:0.000,NO2:0.000,SO2:0.000,NH3:3.273
10:29:23,0,0,0,0,0,0,0,0,0,0,0,515,0,0,0,0,0.0000000,0.0000000,0.0000000,0.0000000,9.00,38.4058304,-110.7887115,1379.8000488,8.4,227.3,0.9,0.0,0.0,847,139,0,0,860.29,19.33,25.61,# data time:8750,pm2.5:6.445,pm10:5.704,O2:0.000,NO2:0.000,SO2:0.000,NH3:3.273
10:29:24,0,0,0,0,0,0,0,0,0,0,0,514,0,0,0,0,0.0000000,0.0000000,0.0000000,0.0000000,9.00,38.4057999,-110.7887497,1379.6999512,8.4,229.9,0.9,0.0,0.0,847,137,0,0,860.19,19.32,25.59,# data time:8750,pm2.5:6.445,pm10:5.704,O2:0.000,NO2:0.000,SO2:0.000,NH3:3.273
10:29:25,0,0,0,0,0,0,0,0,0,0,0,515,0,0,0,0,0.0000000,0.0000000,0.0000000,0.0000000,9.00,38.4057770,-110.7887878,1379.6999512,8.4,232.3,0.9,0.0,0.0,846,136,0,0,860.15,19.33,25.55,# data time:8750,pm2.5:6.445,pm10:5.704,O2:0.000,NO2:0.000,SO2:0.000,NH3:3.273
10:29:26,0,0,0,0,0,0,0,0,0,0,0,515,0,0,0,0,0.0000000,0.0000000,0.0000000,0.0000000,9.00,38.4057541,-110.7888260,1379.5000000,8.4,234.2,0.9,0.0,0.0,847,142,0,0,860.13,19.32,25.55,# data time:8750,pm2.5:6.445,pm10:5.704,O2:0.000,NO2:0.000,SO2:0.000,NH3:3.273
10:29:27,0,0,0,0,0,0,0,0,0,0,0,515,0,0,0,0,0.0000000,0.0000000,0.0000000,0.0000000,9.00,38.4057312,-110.7888641,1379.1999512,8.4,234.5,0.9,0.0,0.0,847,150,0,0,860.20,19.42,25.56,# data time:8750,pm2.5:6.445,pm10:5.704,O2:0.000,NO2:0.000,SO2:0.000,NH3:3.273
10:29:28,0,0,0,0,0,0,0,0,0,0,0,515,0,0,0,0,0.0000000,0.0000000,0.0000000,0.0000000,9.00,38.4057045,-110.7889023,1379.4000244,8.6,235.3,0.9,0.0,0.0,847,150,0,0,860.20,19.44,25.55,# data time:8750,pm2.5:6.445,pm10:5.704,O2:0.000,NO2:0.000,SO2:0.000,NH3:3.273
10:29:29,0,0,0,0,0,0,0,0,0,0,0,515,0,0,0,0,0.0000000,0.0000000,0.0000000,0.0000000,9.00,38.4056816,-110.7889404,1379.5000000,8.6,236.9,0.9,0.0,0.0,847,148,0,0,860.24,19.52,25.57,# data time:8750,pm2.5:6.445,pm10:5.704,O2:0.000,NO2:0.000,SO2:0.000,NH3:3.273
10:29:30,0,0,0,0,0,0,0,0,0,0,0,514,0,0,0,0,0.0000000,0.0000000,0.0000000,0.0000000,9.00,38.4056625,-110.7889938,1379.5999756,8.4,237.9,0.9,0.0,0.0,847,150,0,0,860.24,19.39,25.56,# data time:8750,pm2.5:6.445,pm10:5.704,O2:0.000,NO2:0.000,SO2:0.000,NH3:3.273
10:29:31,0,0,0,0,0,0,0,0,0,0,0,514,0,0,0,0,0.0000000,0.0000000,0.0000000,0.0000000,9.00,38.4056396,-110.7890320,1379.5999756,8.2,237.5,0.9,0.0,0.0,847,146,0,0,860.18,19.56,25.54,# data time:8760,pm2.5:6.445,pm10:5.704,O2:0.000,NO2:0.000,SO2:0.000,NH3:3.273
10:29:32,0,0,0,0,0,0,0,0,0,0,0,515,0,0,0,0,0.0000000,0.0000000,0.0000000,0.0000000,9.00,38.4056206,-110.7890701,1379.6999512,8.8,238.3,0.9,0.0,0.0,848,157,0,0,860.28,19.56,25.55,# data time:8760,pm2.5:6.445,pm10:5.704,O2:0.000,NO2:0.000,SO2:0.000,NH3:3.273
10:29:33,0,0,0,0,0,0,0,0,0,0,0,515,0,0,0,0,0.0000000,0.0000000,0.0000000,0.0000000,9.00,38.4055977,-110.7891083,1379.8000488,8.8,237.6,0.9,0.0,0.0,847,159,0,0,860.34,19.59,25.50,# data time:8760,pm2.5:6.445,pm10:5.704,O2:0.000,NO2:0.000,SO2:0.000,NH3:3.273
10:29:34,0,0,0,0,0,0,0,0,0,0,0,515,0,0,0,0,0.0000000,0.0000000,0.0000000,0.0000000,9.00,38.4055748,-110.7891464,1379.6999512,8.4,235.8,0.9,0.0,0.0,847,153,0,0,860.26,19.58,25.46,# data time:8760,pm2.5:6.445,pm10:5.704,O2:0.000,NO2:0.000,SO2:0.000,NH3:3.273
10:29:35,0,0,0,0,0,0,0,0,0,0,0,514,0,0,0,0,0.0000000,0.0000000,0.0000000,0.0000000,9.00,38.4055519,-110.7891998,1379.6999512,8.4,235.6,0.9,0.0,0.0,847,151,0,0,860.22,19.65,25.47,# data time:8760,pm2.5:6.445,pm10:5.704,O2:0.000,NO2:0.000,SO2:0.000,NH3:3.273
10:29:36,0,0,0,0,0,0,0,0,0,0,0,515,0,0,0,0,0.0000000,0.0000000,0.0000000,0.0000000,9.00,38.4055290,-110.7892380,1379.5999756,8.3,232.9,0.9,0.0,0.0,846,152,0,0,860.23,19.67,25.49,# data time:8760,pm2.5:6.445,pm10:5.704,O2:0.000,NO2:0.000,SO2:0.000,NH3:3.273
