Time, Motor A Speed, Motor A Dir, Motor B Speed, Motor B Dir, Servo Rail Current Sensor, Servo Pos - Arm L, Servo Pos - Arm R, Servo Pos - End, Servo Pos - Hopper, Servo Pos - Lid, Servo Pos - Extra, Servo Current, LED - Front L, LED - Front R, LED - Back L, LED - Back R, IMU Pitch, IMU Roll, IMU Yaw, Compass Heading, GPS Sats, GPS Latitude, GPS Longitude, GPS Altitude, GPS Speed, GPS Angle, GPS HDOP, GPS VDOP, GPS PDOP, Battery, Wind, Comm Xbee Latency, Comm Arduino Latency, Pressure, Humidity, Temperature, uRADMonitor
9:33:39,0,0,0,0,0,0,0,0,0,0,0,515,0,0,0,0,0.0000000,0.0000000,0.0000000,0.0000000,10.00,38.4133759,-110.7724686,1360.1999512,0.0,28.5,0.9,0.0,0.0,856,167,0,0,861.06,25.30,18.89,# data time:5400,pm2.5:6.445,pm10:5.704,O2:0.000,NO2:0.000,SO2:0.000,NH3:5.536
9:33:40,0,0,0,0,0,0,0,0,0,0,0,514,0,0,0,0,0.0000000,0.0000000,0.0000000,0.0000000,10.00,38.4133759,-110.7724686,1360.1999512,0.0,28.5,0.9,0.0,0.0,856,169,0,0,861.00,25.30,18.86,# data time:5400,pm2.5:6.445,pm10:5.704,O2:0.000,NO2:0.000,SO2:0.000,NH3:5.536
9:33:41,0,0,0,0,0,0,0,0,0,0,0,514,0,0,0,0,0.0000000,0.0000000,0.0000000,0.0000000,10.00,38.4133759,-110.7724686,1360.1999512,0.0,28.5,0.9,0.0,0.0,856,172,0,0,861.03,25.28,18.93,# data time:5400,pm2.5:6.445,pm10:5.704,O2:0.000,NO2:0.000,SO2:0.000,NH3:5.536
9:33:42,0,0,0,0,0,0,0,0,0,0,0,514,0,0,0,0,0.0000000,0.0000000,0.0000000,0.0000000,10.00,38.4133759,-110.7724686,1360.1999512,0.0,28.5,0.9,0.0,0.0,856,170,0,0,861.05,25.25,18.87,# data time:5400,pm2.5:6.445,pm10:5.704,O2:0.000,NO2:0.000,SO2:0.000,NH3:5.536
9:33:43,0,0,0,0,0,0,0,0,0,0,0,514,0,0,0,0,0.0000000,0.0000000,0.0000000,0.0000000,10.00,38.4133759,-110.7724686,1360.1999512,0.0,28.5,0.9,0.0,0.0,856,167,0,0,861.10,25.25,18.90,# data time:5400,pm2.5:6.445,pm10:5.704,O2:0.000,NO2:0.000,SO2:0.000,NH3:5.536
9:33:44,0,0,0,0,0,0,0,0,0,0,0,514,0,0,0,0,0.0000000,0.0000000,0.0000000,0.0000000,10.00,38.4133759,-110.7724686,1360.1999512,0.0,28.5,0.9,0.0,0.0,856,167,0,0,861.09,25.30,18.95,# data time:5410,pm2.5:6.445,pm10:5.704,O2:0.000,NO2:0.000,SO2:0.000,NH3:5.536
9:33:45,0,0,0,0,0,0,0,0,0,0,0,514,0,0,0,0,0.0000000,0.0000000,0.0000000,0.0000000,10.00,38.4133759,-110.7724686,1360.1999512,0.0,28.5,0.9,0.0,0.0,856,169,0,0,861.08,25.28,18.96,# data time:5410,pm2.5:6.445,pm10:5.704,O2:0.000,NO2:0.000,SO2:0.000,NH3:5.536
9:33:46,0,0,0,0,0,0,0,0,0,0,0,515,0,0,0,0,0.0000000,0.0000000,0.0000000,0.0000000,10.00,38.4133759,-110.7724686,1360.1999512,0.0,28.5,0.9,0.0,0.0,856,169,0,0,861.11,25.27,18.92,# data time:5410,pm2.5:6.445,pm10:5.704,O2:0.000,NO2:0.000,SO2:0.000,NH3:5.536
9:33:47,0,0,0,0,0,0,0,0,0,0,0,513,0,0,0,0,0.0000000,0.0000000,0.0000000,0.0000000,10.00,38.4133759,-110.7724686,1360.1999512,0.0,28.5,0.9,0.0,0.0,856,172,0,0,861.12,25.31,18.91,# data time:5410,pm2.5:6.445,pm10:5.704,O2:0.000,NO2:0.000,SO2:0.000,NH3:5.536
9:33:48,0,0,0,0,0,0,0,0,0,0,0,514,0,0,0,0,0.0000000,0.0000000,0.0000000,0.0000000,10.00,38.4133759,-110.7724686,1360.1999512,0.0,28.5,0.9,0.0,0.0,856,168,0,0,861.09,25.35,18.94,# data time:5410,pm2.5:6.445,pm10:5.704,O2:0.000,NO2:0.000,SO2:0.000,NH3:5.536
9:33:49,0,0,0,0,0,0,0,0,0,0,0,514,0,0,0,0,0.0000000,0.0000000,0.0000000,0.0000000,10.00,38.4133759,-110.7724686,1360.1999512,0.0,28.5,0.9,0.0,0.0,856,177,0,0,861.06,25.36,18.93,# data time:5410,pm2.5:6.445,pm10:5.704,O2:0.000,NO2:0.000,SO2:0.000,NH3:5.536
9:33:50,0,0,0,0,0,0,0,0,0,0,0,514,0,0,0,0,0.0000000,0.0000000,0.0000000,0.0000000,10.00,38.4133759,-110.7724686,1360.1999512,0.0,28.5,0.9,0.0,0.0,856,171,0,0,861.10,25.33,18.94,# data time:5410,pm2.5:6.445,pm10:5.704,O2:0.000,NO2:0.000,SO2:0.000,NH3:5.536
9:33:51,0,0,0,0,0,0,0,0,0,0,0,514,0,0,0,0,0.0000000,0.0000000,0.0000000,0.0000000,10.00,38.4133759,-110.7724686,1360.1999512,0.0,28.5,0.9,0.0,0.0,856,172,0,0,861.06,25.35,18.96,# data time:5410,pm2.5:6.445,pm10:5.704,O2:0.000,NO2:0.000,SO2:0.000,NH3:5.536
9:33:52,0,0,0,0,0,0,0,0,0,0,0,514,0,0,0,0,0.0000000,0.0000000,0.0000000,0.0000000,10.00,38.4133759,-110.7724686,1360.1999512,0.0,28.5,0.9,0.0,0.0,856,165,0,0,861.11,25.31,18.98,# data time:5410,pm2.5:6.445,pm10:5.704,O2:0.000,NO2:0.000,SO2:0.000,NH3:5.536
9:33:53,0,0,0,0,0,0,0,0,0,0,0,514,0,0,0,0,0.0000000,0.0000000,0.0000000,0.0000000,10.00,38.4133759,-110.7724686,1360.1999512,0.0,28.5,0.9,0.0,0.0,855,183,0,0,861.05,25.31,18.97,# data time:5420,pm2.5:6.445,pm10:5.704,O2:0.000,NO2:0.000,SO2:0.000,NH3:5.536
9:33:54,0,0,0,0,0,0,0,0,0,0,0,514,0,0,0,0,0.0000000,0.0000000,0.0000000,0.0000000,10.00,38.4133759,-110.7724686,1360.1999512,0.0,28.5,0.9,0.0,0.0,856,177,0,0,861.11,25.30,18.96,# data time:5420,pm2.5:6.445,pm10:5.704,O2:0.000,NO2:0.000,SO2:0.000,NH3:5.536
9:33:55,0,0,0,0,0,0,0,0,0,0,0,515,0,0,0,0,0.0000000,0.0000000,0.0000000,0.0000000,10.00,38.4133759,-110.7724686,1360.1999512,0.0,28.5,0.9,0.0,0.0,856,171,0,0,861.11,25.28,18.95,# data time:5420,pm2.5:6.445,pm10:5.704,O2:0.000,NO2:0.000,SO2:0.000,NH3:5.536
9:33:56,0,0,0,0,0,0,0,0,0,0,0,514,0,0,0,0,0.0000000,0.0000000,0.0000000,0.0000000,10.00,38.4133759,-110.7724686,1360.1999512,0.0,28.5,0.9,0.0,0.0,855,174,0,0,861.09,25.28,18.94,# data time:5420,pm2.5:6.445,pm10:5.704,O2:0.000,NO2:0.000,SO2:0.000,NH3:5.536
9:33:57,0,0,0,0,0,0,0,0,0,0,0,514,0,0,0,0,0.0000000,0.0000000,0.0000000,0.0000000,10.00,38.4133759,-110.7724686,1360.1999512,0.0,28.5,0.9,0.0,0.0,856,176,0,0,861.07,25.30,18.93,# data time:5420,pm2.5:6.445,pm10:5.704,O2:0.000,NO2:0.000,SO2:0.000,NH3:5.536
9:33:58,0,0,0,0,0,0,0,0,0,0,0,514,0,0,0,0,0.0000000,0.0000000,0.0000000,0.0000000,10.00,38.4133759,-110.7724686,1360.1999512,0.0,28.5,0.9,0.0,0.0,857,172,0,0,861.10,25.28,18.92,# data time:5420,pm2.5:6.445,pm10:5.704,O2:0.000,NO2:0.000,SO2:0.000,NH3:5.536
9:33:59,0,0,0,0,0,0,0,0,0,0,0,514,0,0,0,0,0.0000000,0.0000000,0.0000000,0.0000000,10.00,38.4133759,-110.7724686,1360.1999512,0.0,28.5,0.9,0.0,0.0,857,180,0,0,861.12,25.28,18.90,# data time:5420,pm2.5:6.445,pm10:5.704,O2:0.000,NO2:0.000,SO2:0.000,NH3:5.536
9:34:00,0,0,0,0,0,0,0,0,0,0,0,513,0,0,0,0,0.0000000,0.0000000,0.0000000,0.0000000,10.00,38.4133759,-110.7724686,1360.1999512,0.0,28.5,0.9,0.0,0.0,856,171,0,0,861.11,25.28,18.91,# data time:5420,pm2.5:6.445,pm10:5.704,O2:0.000,NO2:0.000,SO2:0.000,NH3:5.536
9:34:01,0,0,0,0,0,0,0,0,0,0,0,514,0,0,0,0,0.0000000,0.0000000,0.0000000,0.0000000,10.00,38.4133759,-110.7724686,1360.1999512,0.0,28.5,0.9,0.0,0.0,856,176,0,0,861.09,25.27,18.90,# data time:5420,pm2.5:6.445,pm10:5.704,O2:0.000,NO2:0.000,SO2:0.000,NH3:5.536
9:34:02,0,0,0,0,0,0,0,0,0,0,0,514,0,0,0,0,0.0000000,0.0000000,0.0000000,0.0000000,10.00,38.4133759,-110.7724686,1360.1999512,0.0,28.5,0.9,0.0,0.0,856,174,0,0,861.11,25.30,18.90,# data time:5420,pm2.5:6.445,pm10:5.704,O2:0.000,NO2:0.000,SO2:0.000,NH3:5.536
9:34:03,0,0,0,0,0,0,0,0,0,0,0,514,0,0,0,0,0.0000000,0.0000000,0.0000000,0.0000000,10.00,38.4133759,-110.7724686,1360.1999512,0.0,28.5,0.9,0.0,0.0,856,169,0,0,861.07,25.27,18.91,# data time:5430,pm2.5:6.445,pm10:5.704,O2:0.000,NO2:0.000,SO2:0.000,NH3:5.536
9:34:04,0,0,0,0,0,0,0,0,0,0,0,514,0,0,0,0,0.0000000,0.0000000,0.0000000,0.0000000,10.00,38.4133759,-110.7724686,1360.1999512,0.0,28.5,0.9,0.0,0.0,856,165,0,0,861.13,25.28,18.93,# data time:5430,pm2.5:6.445,pm10:5.704,O2:0.000,NO2:0.000,SO2:0.000,NH3:5.536
9:34:05,0,0,0,0,0,0,0,0,0,0,0,515,0,0,0,0,0.0000000,0.0000000,0.0000000,0.0000000,10.00,38.4133759,-110.7724686,1360.1999512,0.0,28.5,0.9,0.0,0.0,856,165,0,0,861.10,25.28,18.93,# data time:5430,pm2.5:6.445,pm10:5.704,O2:0.000,NO2:0.000,SO2:0.000,NH3:5.536
9:34:06,0,0,0,0,0,0,0,0,0,0,0,515,0,0,0,0,0.0000000,0.0000000,0.0000000,0.0000000,10.00,38.4133759,-110.7724686,1360.1999512,0.0,28.5,0.9,0.0,0.0,856,168,0,0,861.07,25.30,18.92,# data time:5430,pm2.5:6.445,pm10:5.704,O2:0.000,NO2:0.000,SO2:0.000,NH3:5.536
9:34:07,0,0,0,0,0,0,0,0,0,0,0,514,0,0,0,0,0.0000000,0.0000000,0.0000000,0.0000000,10.00,38.4133759,-110.7724686,1360.1999512,0.0,28.5,0.9,0.0,0.0,856,175,0,0,861.06,25.31,18.90,# data time:5430,pm2.5:6.445,pm10:5.704,O2:0.000,NO2:0.000,SO2:0.000,NH3:5.536
9:34:08,0,0,0,0,0,0,0,0,0,0,0,515,0,0,0,0,0.0000000,0.0000000,0.0000000,0.0000000,10.00,38.4133759,-110.7724686,1360.1999512,0.0,28.5,0.9,0.0,0.0,856,181,0,0,861.07,25.31,18.90,# data time:5430,pm2.5:6.445,pm10:5.704,O2:0.000,NO2:0.000,SO2:0.000,NH3:5.536
9:34:09,0,0,0,0,0,0,0,0,0,0,0,515,0,0,0,0,0.0000000,0.0000000,0.0000000,0.0000000,10.00,38.4133759,-110.7724686,1360.1999512,0.0,28.5,0.9,0.0,0.0,856,181,0,0,861.08,25.31,18.90,# data time:5430,pm2.5:6.445,pm10:5.704,O2:0.000,NO2:0.000,SO2:0.000,NH3:5.536
9:34:10,0,0,0,0,0,0,0,0,0,0,0,514,0,0,0,0,0.0000000,0.0000000,0.0000000,0.0000000,10.00,38.4133759,-110.7724686,1360.1999512,0.0,28.5,0.9,0.0,0.0,856,173,0,0,861.09,25.30,18.92,# data time:5430,pm2.5:6.445,pm10:5.704,O2:0.000,NO2:0.000,SO2:0.000,NH3:5.536
9:34:11,0,0,0,0,0,0,0,0,0,0,0,515,0,0,0,0,0.0000000,0.0000000,0.0000000,0.0000000,10.00,38.4133759,-110.7724686,1360.1999512,0.0,28.5,0.9,0.0,0.0,856,167,0,0,861.10,25.30,18.94,# data time:5430,pm2.5:6.445,pm10:5.704,O2:0.000,NO2:0.000,SO2:0.000,NH3:5.536
9:34:12,0,0,0,0,0,0,0,0,0,0,0,514,0,0,0,0,0.0000000,0.0000000,0.0000000,0.0000000,10.00,38.4133759,-110.7724686,1360.1999512,0.0,28.5,0.9,0.0,0.0,855,167,0,0,861.17,25.30,18.93,# data time:5430,pm2.5:6.445,pm10:5.704,O2:0.000,NO2:0.000,SO2:0.000,NH3:5.536
9:34:13,0,0,0,0,0,0,0,0,0,0,0,513,0,0,0,0,0.0000000,0.0000000,0.0000000,0.0000000,10.00,38.4133759,-110.7724686,1360.1999512,0.0,28.5,0.9,0.0,0.0,856,170,0,0,861.08,25.30,18.93,# data time:5440,pm2.5:6.445,pm10:5.704,O2:0.000,NO2:0.000,SO2:0.000,NH3:5.536
9:34:14,0,0,0,0,0,0,0,0,0,0,0,515,0,0,0,0,0.0000000,0.0000000,0.0000000,0.0000000,10.00,38.4133759,-110.7724686,1360.1999512,0.0,28.5,0.9,0.0,0.0,855,162,0,0,861.10,25.27,18.95,# data time:5440,pm2.5:6.445,pm10:5.704,O2:0.000,NO2:0.000,SO2:0.000,NH3:5.536
9:34:15,0,0,0,0,0,0,0,0,0,0,0,513,0,0,0,0,0.0000000,0.0000000,0.0000000,0.0000000,10.00,38.4133759,-110.7724686,1360.1999512,0.0,28.5,0.9,0.0,0.0,856,160,0,0,861.10,25.28,18.97,# data time:5440,pm2.5:6.445,pm10:5.704,O2:0.000,NO2:0.000,SO2:0.000,NH3:5.536
9:34:16,0,0,0,0,0,0,0,0,0,0,0,514,0,0,0,0,0.0000000,0.0000000,0.0000000,0.0000000,10.00,38.4133759,-110.7724686,1360.1999512,0.0,28.5,0.9,0.0,0.0,856,165,0,0,861.13,25.25,18.96,# data time:5440,pm2.5:6.445,pm10:5.704,O2:0.000,NO2:0.000,SO2:0.000,NH3:5.536
9:34:17,0,0,0,0,0,0,0,0,0,0,0,514,0,0,0,0,0.0000000,0.0000000,0.0000000,0.0000000,10.00,38.4133759,-110.7724686,1360.1999512,0.0,28.5,0.9,0.0,0.0,856,167,0,0,861.12,25.25,18.95,# data time:5440,pm2.5:6.445,pm10:5.704,O2:0.000,NO2:0.000,SO2:0.000,NH3:5.536
9:34:18,0,0,0,0,0,0,0,0,0,0,0,515,0,0,0,0,0.0000000,0.0000000,0.0000000,0.0000000,10.00,38.4133759,-110.7724686,1360.1999512,0.0,28.5,0.9,0.0,0.0,855,164,0,0,861.10,25.30,18.98,# data time:5440,pm2.5:6.445,pm10:5.704,O2:0.000,NO2:0.000,SO2:0.000,NH3:5.536
9:34:19,0,0,0,0,0,0,0,0,0,0,0,514,0,0,0,0,0.0000000,0.0000000,0.0000000,0.0000000,10.00,38.4133759,-110.7724686,1360.1999512,0.0,28.5,0.9,0.0,0.0,856,156,0,0,861.12,25.28,18.98,# data time:5440,pm2.5:6.445,pm10:5.704,O2:0.000,NO2:0.000,SO2:0.000,NH3:5.536
9:34:20,0,0,0,0,0,0,0,0,0,0,0,514,0,0,0,0,0.0000000,0.0000000,0.0000000,0.0000000,10.00,38.4133759,-110.7724686,1360.1999512,0.0,28.5,0.9,0.0,0.0,856,153,0,0,861.15,25.30,18.99,# data time:5440,pm2.5:6.445,pm10:5.704,O2:0.000,NO2:0.000,SO2:0.000,NH3:5.536
9:34:21,0,0,0,0,0,0,0,0,0,0,0,514,0,0,0,0,0.0000000,0.0000000,0.0000000,0.0000000,10.00,38.4133759,-110.7724686,1360.1999512,0.0,28.5,0.9,0.0,0.0,856,170,0,0,861.01,25.25,18.99,# data time:5440,pm2.5:6.445,pm10:5.704,O2:0.000,NO2:0.000,SO2:0.000,NH3:5.536
9:34:22,0,0,0,0,0,0,0,0,0,0,0,515,0,0,0,0,0.0000000,0.0000000,0.0000000,0.0000000,10.00,38.4133759,-110.7724686,1360.1999512,0.0,28.5,0.9,0.0,0.0,856,196,0,0,861.05,25.25,18.96,# data time:5440,pm2.5:6.445,pm10:5.704,O2:0.000,NO2:0.000,SO2:0.000,NH3:5.536
9:34:23,0,0,0,0,0,0,0,0,0,0,0,514,0,0,0,0,0.0000000,0.0000000,0.0000000,0.0000000,10.00,38.4133759,-110.7724686,1360.1999512,0.0,28.5,0.9,0.0,0.0,856,193,0,0,861.06,25.24,18.94,# data time:5450,pm2.5:6.445,pm10:5.704,O2:0.000,NO2:0.000,SO2:0.000,NH3:5.536
9:34:24,0,0,0,0,0,0,0,0,0,0,0,514,0,0,0,0,0.0000000,0.0000000,0.0000000,0.0000000,10.00,38.4133759,-110.7724686,1360.1999512,0.0,28.5,0.9,0.0,0.0,856,194,0,0,861.12,25.25,18.92,# data time:5450,pm2.5:6.445,pm10:5.704,O2:0.000,NO2:0.000,SO2:0.000,NH3:5.536
9:34:25,0,0,0,0,0,0,0,0,0,0,0,514,0,0,0,0,0.0000000,0.0000000,0.0000000,0.0000000,10.00,38.4133759,-110.7724686,1360.1999512,0.0,28.5,0.9,0.0,0.0,856,184,0,0,861.08,25.27,18.91,# data time:5450,pm2.5:6.445,pm10:5.704,O2:0.000,NO2:0.000,SO2:0.000,NH3:5.536
9:34:27,0,0,0,0,0,0,0,0,0,0,0,515,0,0,0,0,0.0000000,0.0000000,0.0000000,0.0000000,10.00,38.4133759,-110.7724686,1360.1999512,0.0,28.5,0.9,0.0,0.0,856,181,0,0,861.11,25.28,18.92,# data time:5450,pm2.5:6.445,pm10:5.704,O2:0.000,NO2:0.000,SO2:0.000,NH3:5.536
9:34:28,0,0,0,0,0,0,0,0,0,0,0,514,0,0,0,0,0.0000000,0.0000000,0.0000000,0.0000000,10.00,38.4133759,-110.7724686,1360.1999512,0.0,28.5,0.9,0.0,0.0,856,177,0,0,861.11,25.27,18.93,# data time:5450,pm2.5:6.445,pm10:5.704,O2:0.000,NO2:0.000,SO2:0.000,NH3:5.536
9:34:29,0,0,0,0,0,0,0,0,0,0,0,514,0,0,0,0,0.0000000,0.0000000,0.0000000,0.0000000,10.00,38.4133759,-110.7724686,1360.1999512,0.0,28.5,0.9,0.0,0.0,856,176,0,0,861.13,25.28,18.92,# data time:5450,pm2.5:6.445,pm10:5.704,O2:0.000,NO2:0.000,SO2:0.000,NH3:5.536
9:34:30,0,0,0,0,0,0,0,0,0,0,0,515,0,0,0,0,0.0000000,0.0000000,0.0000000,0.0000000,10.00,38.4133759,-110.7724686,1360.1999512,0.0,28.5,0.9,0.0,0.0,856,172,0,0,861.12,25.25,18.92,# data time:5450,pm2.5:6.445,pm10:5.704,O2:0.000,NO2:0.000,SO2:0.000,NH3:5.536
9:34:31,0,0,0,0,0,0,0,0,0,0,0,515,0,0,0,0,0.0000000,0.0000000,0.0000000,0.0000000,10.00,38.4133759,-110.7724686,1360.1999512,0.0,28.5,0.9,0.0,0.0,856,165,0,0,861.05,25.27,18.83,# data time:5450,pm2.5:6.445,pm10:5.704,O2:0.000,NO2:0.000,SO2:0.000,NH3:5.536
9:34:32,0,0,0,0,0,0,0,0,0,0,0,515,0,0,0,0,0.0000000,0.0000000,0.0000000,0.0000000,10.00,38.4133759,-110.7724686,1360.1999512,0.0,28.5,0.9,0.0,0.0,856,162,0,0,861.06,25.30,18.85,# data time:5450,pm2.5:6.445,pm10:5.704,O2:0.000,NO2:0.000,SO2:0.000,NH3:5.536
9:34:33,0,0,0,0,0,0,0,0,0,0,0,514,0,0,0,0,0.0000000,0.0000000,0.0000000,0.0000000,10.00,38.4133759,-110.7724686,1360.1999512,0.0,28.5,0.9,0.0,0.0,856,166,0,0,861.06,25.28,18.86,# data time:5450,pm2.5:6.445,pm10:5.704,O2:0.000,NO2:0.000,SO2:0.000,NH3:5.536
9:34:34,0,0,0,0,0,0,0,0,0,0,0,514,0,0,0,0,0.0000000,0.0000000,0.0000000,0.0000000,10.00,38.4133759,-110.7724686,1360.1999512,0.0,28.5,0.9,0.0,0.0,856,160,0,0,861.09,25.22,18.88,# data time:5460,pm2.5:5.640,pm10:4.991,O2:0.000,NO2:0.000,SO2:0.000,NH3:5.536
9:34:35,0,0,0,0,0,0,0,0,0,0,0,515,0,0,0,0,0.0000000,0.0000000,0.0000000,0.0000000,10.00,38.4133759,-110.7724686,1360.1999512,0.0,28.5,0.9,0.0,0.0,856,154,0,0,861.07,25.21,18.95,# data time:5460,pm2.5:5.640,pm10:4.991,O2:0.000,NO2:0.000,SO2:0.000,NH3:5.536
9:34:36,0,0,0,0,0,0,0,0,0,0,0,514,0,0,0,0,0.0000000,0.0000000,0.0000000,0.0000000,10.00,38.4133759,-110.7724686,1360.1999512,0.0,28.5,0.9,0.0,0.0,856,159,0,0,861.08,25.25,18.98,# data time:5460,pm2.5:5.640,pm10:4.991,O2:0.000,NO2:0.000,SO2:0.000,NH3:5.536
9:34:37,0,0,0,0,0,0,0,0,0,0,0,514,0,0,0,0,0.0000000,0.0000000,0.0000000,0.0000000,10.00,38.4133759,-110.7724686,1360.1999512,0.0,28.5,0.9,0.0,0.0,855,167,0,0,861.08,25.22,18.98,# data time:5460,pm2.5:5.640,pm10:4.991,O2:0.000,NO2:0.000,SO2:0.000,NH3:5.536
9:34:38,0,0,0,0,0,0,0,0,0,0,0,514,0,0,0,0,0.0000000,0.0000000,0.0000000,0.0000000,10.00,38.4133759,-110.7724686,1360.1999512,0.0,28.5,0.9,0.0,0.0,856,172,0,0,861.08,25.25,18.98,# data time:5460,pm2.5:5.640,pm10:4.991,O2:0.000,NO2:0.000,SO2:0.000,NH3:5.536
9:34:39,0,0,0,0,0,0,0,0,0,0,0,514,0,0,0,0,0.0000000,0.0000000,0.0000000,0.0000000,10.00,38.4133759,-110.7724686,1360.1999512,0.0,28.5,0.9,0.0,0.0,856,162,0,0,861.06,25.24,19.00,# data time:5460,pm2.5:5.640,pm10:4.991,O2:0.000,NO2:0.000,SO2:0.000,NH3:5.536
9:34:40,0,0,0,0,0,0,0,0,0,0,0,514,0,0,0,0,0.0000000,0.0000000,0.0000000,0.0000000,10.00,38.4133759,-110.7724686,1360.1999512,0.0,28.5,0.9,0.0,0.0,855,162,0,0,861.09,25.22,19.03,# data time:5460,pm2.5:5.640,pm10:4.991,O2:0.000,NO2:0.000,SO2:0.000,NH3:5.536
9:34:41,0,0,0,0,0,0,0,0,0,0,0,514,0,0,0,0,0.0000000,0.0000000,0.0000000,0.0000000,10.00,38.4133759,-110.7724686,1360.1999512,0.0,28.5,0.9,0.0,0.0,856,168,0,0,861.11,25.27,19.05,# data time:5460,pm2.5:5.640,pm10:4.991,O2:0.000,NO2:0.000,SO2:0.000,NH3:5.536
9:34:42,0,0,0,0,0,0,0,0,0,0,0,514,0,0,0,0,0.0000000,0.0000000,0.0000000,0.0000000,10.00,38.4133759,-110.7724686,1360.1999512,0.0,28.5,0.9,0.0,0.0,856,168,0,0,861.10,25.24,19.04,# data time:5460,pm2.5:5.640,pm10:4.991,O2:0.000,NO2:0.000,SO2:0.000,NH3:5.536
9:34:43,0,0,0,0,0,0,0,0,0,0,0,515,0,0,0,0,0.0000000,0.0000000,0.0000000,0.0000000,10.00,38.4133759,-110.7724686,1360.1999512,0.0,28.5,0.9,0.0,0.0,856,172,0,0,861.10,25.24,19.03,# data time:5460,pm2.5:5.640,pm10:4.991,O2:0.000,NO2:0.000,SO2:0.000,NH3:5.536
9:34:44,0,0,0,0,0,0,0,0,0,0,0,515,0,0,0,0,0.0000000,0.0000000,0.0000000,0.0000000,10.00,38.4133759,-110.7724686,1360.1999512,0.0,28.5,0.9,0.0,0.0,856,176,0,0,861.07,25.25,19.03,# data time:5470,pm2.5:6.445,pm10:5.704,O2:0.000,NO2:0.000,SO2:0.000,NH3:5.536
9:34:45,0,0,0,0,0,0,0,0,0,0,0,514,0,0,0,0,0.0000000,0.0000000,0.0000000,0.0000000,10.00,38.4133759,-110.7724686,1360.1999512,0.0,28.5,0.9,0.0,0.0,856,169,0,0,861.12,25.25,19.05,# data time:5470,pm2.5:6.445,pm10:5.704,O2:0.000,NO2:0.000,SO2:0.000,NH3:5.536
9:34:46,0,0,0,0,0,0,0,0,0,0,0,515,0,0,0,0,0.0000000,0.0000000,0.0000000,0.0000000,10.00,38.4133759,-110.7724686,1360.1999512,0.0,28.5,0.9,0.0,0.0,856,166,0,0,861.08,25.24,19.05,# data time:5470,pm2.5:6.445,pm10:5.704,O2:0.000,NO2:0.000,SO2:0.000,NH3:5.536
9:34:47,0,0,0,0,0,0,0,0,0,0,0,515,0,0,0,0,0.0000000,0.0000000,0.0000000,0.0000000,10.00,38.4133759,-110.7724686,1360.1999512,0.0,28.5,0.9,0.0,0.0,856,182,0,0,861.05,25.25,19.02,# data time:5470,pm2.5:6.445,pm10:5.704,O2:0.000,NO2:0.000,SO2:0.000,NH3:5.536
9:34:48,0,0,0,0,0,0,0,0,0,0,0,515,0,0,0,0,0.0000000,0.0000000,0.0000000,0.0000000,10.00,38.4133759,-110.7724686,1360.1999512,0.0,28.5,0.9,0.0,0.0,855,174,0,0,861.13,25.22,19.02,# data time:5470,pm2.5:6.445,pm10:5.704,O2:0.000,NO2:0.000,SO2:0.000,NH3:5.536
9:34:49,0,0,0,0,0,0,0,0,0,0,0,514,0,0,0,0,0.0000000,0.0000000,0.0000000,0.0000000,10.00,38.4133759,-110.7724686,1360.1999512,0.0,28.5,0.9,0.0,0.0,856,168,0,0,861.08,25.24,19.04,# data time:5470,pm2.5:6.445,pm10:5.704,O2:0.000,NO2:0.000,SO2:0.000,NH3:5.536
9:34:50,0,0,0,0,0,0,0,0,0,0,0,514,0,0,0,0,0.0000000,0.0000000,0.0000000,0.0000000,10.00,38.4133759,-110.7724686,1360.1999512,0.0,28.5,0.9,0.0,0.0,856,164,0,0,861.16,25.25,19.06,# data time:5470,pm2.5:6.445,pm10:5.704,O2:0.000,NO2:0.000,SO2:0.000,NH3:5.536
9:34:51,0,0,0,0,0,0,0,0,0,0,0,514,0,0,0,0,0.0000000,0.0000000,0.0000000,0.0000000,10.00,38.4133759,-110.7724686,1360.1999512,0.0,28.5,0.9,0.0,0.0,856,156,0,0,861.08,25.25,19.09,# data time:5470,pm2.5:6.445,pm10:5.704,O2:0.000,NO2:0.000,SO2:0.000,NH3:5.536
9:34:52,0,0,0,0,0,0,0,0,0,0,0,514,0,0,0,0,0.0000000,0.0000000,0.0000000,0.0000000,10.00,38.4133759,-110.7724686,1360.1999512,0.0,28.5,0.9,0.0,0.0,856,162,0,0,861.08,25.19,19.08,# data time:5470,pm2.5:6.445,pm10:5.704,O2:0.000,NO2:0.000,SO2:0.000,NH3:5.536
9:34:53,0,0,0,0,0,0,0,0,0,0,0,514,0,0,0,0,0.0000000,0.0000000,0.0000000,0.0000000,10.00,38.4133759,-110.7724686,1360.1999512,0.0,28.5,0.9,0.0,0.0,856,167,0,0,861.05,25.19,19.08,# data time:5480,pm2.5:6.445,pm10:5.704,O2:0.000,NO2:0.000,SO2:0.000,NH3:5.536
9:34:54,0,0,0,0,0,0,0,0,0,0,0,514,0,0,0,0,0.0000000,0.0000000,0.0000000,0.0000000,10.00,38.4133759,-110.7724686,1360.1999512,0.0,28.5,0.9,0.0,0.0,855,166,0,0,861.06,25.19,19.09,# data time:5480,pm2.5:6.445,pm10:5.704,O2:0.000,NO2:0.000,SO2:0.000,NH3:5.536
9:34:55,0,0,0,0,0,0,0,0,0,0,0,515,0,0,0,0,0.0000000,0.0000000,0.0000000,0.0000000,10.00,38.4133759,-110.7724686,1360.1999512,0.0,28.5,0.9,0.0,0.0,856,171,0,0,861.05,25.18,19.09,# data time:5480,pm2.5:6.445,pm10:5.704,O2:0.000,NO2:0.000,SO2:0.000,NH3:5.536
9:34:56,0,0,0,0,0,0,0,0,0,0,0,514,0,0,0,0,0.0000000,0.0000000,0.0000000,0.0000000,10.00,38.4133759,-110.7724686,1360.1999512,0.0,28.5,0.9,0.0,0.0,856,172,0,0,861.06,25.18,19.07,# data time:5480,pm2.5:6.445,pm10:5.704,O2:0.000,NO2:0.000,SO2:0.000,NH3:5.536
9:34:57,0,0,0,0,0,0,0,0,0,0,0,514,0,0,0,0,0.0000000,0.0000000,0.0000000,0.0000000,10.00,38.4133759,-110.7724686,1360.1999512,0.0,28.5,0.9,0.0,0.0,856,170,0,0,861.04,25.19,19.09,# data time:5480,pm2.5:6.445,pm10:5.704,O2:0.000,NO2:0.000,SO2:0.000,NH3:5.536
9:34:58,0,0,0,0,0,0,0,0,0,0,0,514,0,0,0,0,0.0000000,0.0000000,0.0000000,0.0000000,10.00,38.4133759,-110.7724686,1360.1999512,0.0,28.5,0.9,0.0,0.0,856,172,0,0,861.07,25.19,19.09,# data time:5480,pm2.5:6.445,pm10:5.704,O2:0.000,NO2:0.000,SO2:0.000,NH3:5.536
9:34:59,0,0,0,0,0,0,0,0,0,0,0,513,0,0,0,0,0.0000000,0.0000000,0.0000000,0.0000000,10.00,38.4133759,-110.7724686,1360.1999512,0.0,28.5,0.9,0.0,0.0,856,176,0,0,861.07,25.21,19.09,# data time:5480,pm2.5:6.445,pm10:5.704,O2:0.000,NO2:0.000,SO2:0.000,NH3:5.536
9:35:00,0,0,0,0,0,0,0,0,0,0,0,514,0,0,0,0,0.0000000,0.0000000,0.0000000,0.0000000,10.00,38.4133759,-110.7724686,1360.1999512,0.0,28.5,0.9,0.0,0.0,856,171,0,0,861.08,25.21,19.08,# data time:5480,pm2.5:6.445,pm10:5.704,O2:0.000,NO2:0.000,SO2:0.000,NH3:5.536
9:35:01,0,0,0,0,0,0,0,0,0,0,0,514,0,0,0,0,0.0000000,0.0000000,0.0000000,0.0000000,10.00,38.4133759,-110.7724686,1360.1999512,0.0,28.5,0.9,0.0,0.0,855,177,0,0,861.09,25.24,19.07,# data time:5480,pm2.5:6.445,pm10:5.704,O2:0.000,NO2:0.000,SO2:0.000,NH3:5.536
9:35:02,0,0,0,0,0,0,0,0,0,0,0,514,0,0,0,0,0.0000000,0.0000000,0.0000000,0.0000000,10.00,38.4133759,-110.7724686,1360.1999512,0.0,28.5,0.9,0.0,0.0,856,183,0,0,861.09,25.21,19.06,# data time:5480,pm2.5:6.445,pm10:5.704,O2:0.000,NO2:0.000,SO2:0.000,NH3:5.536
9:35:03,0,0,0,0,0,0,0,0,0,0,0,515,0,0,0,0,0.0000000,0.0000000,0.0000000,0.0000000,10.00,38.4133759,-110.7724686,1360.1999512,0.0,28.5,0.9,0.0,0.0,856,185,0,0,861.12,25.22,19.01,# data time:5490,pm2.5:6.445,pm10:5.704,O2:0.000,NO2:0.000,SO2:0.000,NH3:5.536
9:35:04,0,0,0,0,0,0,0,0,0,0,0,513,0,0,0,0,0.0000000,0.0000000,0.0000000,0.0000000,10.00,38.4133759,-110.7724686,1360.1999512,0.0,28.5,0.9,0.0,0.0,856,180,0,0,861.12,25.22,19.00,# data time:5490,pm2.5:6.445,pm10:5.704,O2:0.000,NO2:0.000,SO2:0.000,NH3:5.536
9:35:05,0,0,0,0,0,0,0,0,0,0,0,514,0,0,0,0,0.0000000,0.0000000,0.0000000,0.0000000,10.00,38.4133759,-110.7724686,1360.1999512,0.0,28.5,0.9,0.0,0.0,856,170,0,0,861.11,25.24,19.02,# data time:5490,pm2.5:6.445,pm10:5.704,O2:0.000,NO2:0.000,SO2:0.000,NH3:5.536
9:35:06,0,0,0,0,0,0,0,0,0,0,0,515,0,0,0,0,0.0000000,0.0000000,0.0000000,0.0000000,10.00,38.4133759,-110.7724686,1360.1999512,0.0,28.5,0.9,0.0,0.0,857,170,0,0,861.08,25.27,19.00,# data time:5490,pm2.5:6.445,pm10:5.704,O2:0.000,NO2:0.000,SO2:0.000,NH3:5.536
9:35:07,0,0,0,0,0,0,0,0,0,0,0,514,0,0,0,0,0.0000000,0.0000000,0.0000000,0.0000000,10.00,38.4133759,-110.7724686,1360.1999512,0.0,28.5,0.9,0.0,0.0,855,167,0,0,861.10,25.30,19.00,# data time:5490,pm2.5:6.445,pm10:5.704,O2:0.000,NO2:0.000,SO2:0.000,NH3:5.536
9:35:08,0,0,0,0,0,0,0,0,0,0,0,514,0,0,0,0,0.0000000,0.0000000,0.0000000,0.0000000,10.00,38.4133759,-110.7724686,1360.1999512,0.0,28.5,0.9,0.0,0.0,856,162,0,0,861.13,25.28,19.03,# data time:5490,pm2.5:6.445,pm10:5.704,O2:0.000,NO2:0.000,SO2:0.000,NH3:5.536
9:35:09,0,0,0,0,0,0,0,0,0,0,0,514,0,0,0,0,0.0000000,0.0000000,0.0000000,0.0000000,10.00,38.4133759,-110.7724686,1360.1999512,0.0,28.5,0.9,0.0,0.0,856,160,0,0,861.10,25.28,19.05,# data time:5490,pm2.5:6.445,pm10:5.704,O2:0.000,NO2:0.000,SO2:0.000,NH3:5.536
9:35:10,0,0,0,0,0,0,0,0,0,0,0,515,0,0,0,0,0.0000000,0.0000000,0.0000000,0.0000000,10.00,38.4133759,-110.7724686,1360.1999512,0.0,28.5,0.9,0.0,0.0,856,157,0,0,861.05,25.24,19.05,# data time:5490,pm2.5:6.445,pm10:5.704,O2:0.000,NO2:0.000,SO2:0.000,NH3:5.536
9:35:11,0,0,0,0,0,0,0,0,0,0,0,514,0,0,0,0,0.0000000,0.0000000,0.0000000,0.0000000,10.00,38.4133759,-110.7724686,1360.3000488,0.0,28.5,0.9,0.0,0.0,856,167,0,0,861.05,25.25,19.06,# data time:5490,pm2.5:6.445,pm10:5.704,O2:0.000,NO2:0.000,SO2:0.000,NH3:5.536
9:35:12,0,0,0,0,0,0,0,0,0,0,0,515,0,0,0,0,0.0000000,0.0000000,0.0000000,0.0000000,10.00,38.4133759,-110.7724686,1360.3000488,0.0,28.5,0.9,0.0,0.0,856,173,0,0,861.06,25.21,19.05,# data time:5490,pm2.5:6.445,pm10:5.704,O2:0.000,NO2:0.000,SO2:0.000,NH3:5.536
9:35:13,0,0,0,0,0,0,0,0,0,0,0,514,0,0,0,0,0.0000000,0.0000000,0.0000000,0.0000000,10.00,38.4133759,-110.7724686,1360.3000488,0.0,28.5,0.9,0.0,0.0,855,169,0,0,861.10,25.22,19.05,# data time:5500,pm2.5:6.445,pm10:5.704,O2:0.000,NO2:0.000,SO2:0.000,NH3:5.536
9:35:14,0,0,0,0,0,0,0,0,0,0,0,514,0,0,0,0,0.0000000,0.0000000,0.0000000,0.0000000,10.00,38.4133759,-110.7724686,1360.3000488,0.0,28.5,0.9,0.0,0.0,855,171,0,0,861.05,25.22,19.06,# data time:5500,pm2.5:6.445,pm10:5.704,O2:0.000,NO2:0.000,SO2:0.000,NH3:5.536
9:35:15,0,0,0,0,0,0,0,0,0,0,0,514,0,0,0,0,0.0000000,0.0000000,0.0000000,0.0000000,10.00,38.4133759,-110.7724686,1360.3000488,0.0,28.5,0.9,0.0,0.0,856,174,0,0,861.06,25.22,19.07,# data time:5500,pm2.5:6.445,pm10:5.704,O2:0.000,NO2:0.000,SO2:0.000,NH3:5.536
9:35:16,0,0,0,0,0,0,0,0,0,0,0,514,0,0,0,0,0.0000000,0.0000000,0.0000000,0.0000000,10.00,38.4133759,-110.7724686,1360.3000488,0.0,28.5,0.9,0.0,0.0,856,172,0,0,861.06,25.19,19.06,# data time:5500,pm2.5:6.445,pm10:5.704,O2:0.000,NO2:0.000,SO2:0.000,NH3:5.536
9:35:17,0,0,0,0,0,0,0,0,0,0,0,515,0,0,0,0,0.0000000,0.0000000,0.0000000,0.0000000,10.00,38.4133759,-110.7724686,1360.3000488,0.0,28.5,0.9,0.0,0.0,855,170,0,0,861.12,25.19,19.08,# data time:5500,pm2.5:6.445,pm10:5.704,O2:0.000,NO2:0.000,SO2:0.000,NH3:5.536
9:35:18,0,0,0,0,0,0,0,0,0,0,0,514,0,0,0,0,0.0000000,0.0000000,0.0000000,0.0000000,10.00,38.4133759,-110.7724686,1360.3000488,0.0,28.5,0.9,0.0,0.0,856,164,0,0,861.08,25.15,19.09,# data time:5500,pm2.5:6.445,pm10:5.704,O2:0.000,NO2:0.000,SO2:0.000,NH3:5.536
9:35:19,0,0,0,0,0,0,0,0,0,0,0,515,0,0,0,0,0.0000000,0.0000000,0.0000000,0.0000000,10.00,38.4133759,-110.7724686,1360.3000488,0.0,28.5,0.9,0.0,0.0,856,169,0,0,861.09,25.16,19.08,# data time:5500,pm2.5:6.445,pm10:5.704,O2:0.000,NO2:0.000,SO2:0.000,NH3:5.536
9:35:20,0,0,0,0,0,0,0,0,0,0,0,515,0,0,0,0,0.0000000,0.0000000,0.0000000,0.0000000,10.00,38.4133759,-110.7724686,1360.3000488,0.0,28.5,0.9,0.0,0.0,856,167,0,0,861.15,25.16,19.10,# data time:5500,pm2.5:6.445,pm10:5.704,O2:0.000,NO2:0.000,SO2:0.000,NH3:5.536
9:35:21,0,0,0,0,0,0,0,0,0,0,0,515,0,0,0,0,0.0000000,0.0000000,0.0000000,0.0000000,10.00,38.4133759,-110.7724686,1360.3000488,0.0,28.5,0.9,0.0,0.0,856,163,0,0,861.11,25.13,19.11,# data time:5500,pm2.5:6.445,pm10:5.704,O2:0.000,NO2:0.000,SO2:0.000,NH3:5.536
9:35:22,0,0,0,0,0,0,0,0,0,0,0,514,0,0,0,0,0.0000000,0.0000000,0.0000000,0.0000000,10.00,38.4133759,-110.7724686,1360.3000488,0.0,28.5,0.9,0.0,0.0,856,165,0,0,861.12,25.13,19.13,# data time:5500,pm2.5:6.445,pm10:5.704,O2:0.000,NO2:0.000,SO2:0.000,NH3:5.536
9:35:23,0,0,0,0,0,0,0,0,0,0,0,514,0,0,0,0,0.0000000,0.0000000,0.0000000,0.0000000,10.00,38.4133759,-110.7724686,1360.3000488,0.0,28.5,0.9,0.0,0.0,855,168,0,0,861.12,25.12,19.11,# data time:5510,pm2.5:6.445,pm10:5.704,O2:0.000,NO2:0.000,SO2:0.000,NH3:5.536
9:35:24,0,0,0,0,0,0,0,0,0,0,0,515,0,0,0,0,0.0000000,0.0000000,0.0000000,0.0000000,10.00,38.4133759,-110.7724686,1360.3000488,0.0,28.5,0.9,0.0,0.0,856,171,0,0,861.10,25.12,19.09,# data time:5510,pm2.5:6.445,pm10:5.704,O2:0.000,NO2:0.000,SO2:0.000,NH3:5.536
9:35:25,0,0,0,0,0,0,0,0,0,0,0,515,0,0,0,0,0.0000000,0.0000000,0.0000000,0.0000000,10.00,38.4133759,-110.7724686,1360.3000488,0.0,28.5,0.9,0.0,0.0,855,172,0,0,861.06,25.15,19.10,# data time:5510,pm2.5:6.445,pm10:5.704,O2:0.000,NO2:0.000,SO2:0.000,NH3:5.536
9:35:26,0,0,0,0,0,0,0,0,0,0,0,514,0,0,0,0,0.0000000,0.0000000,0.0000000,0.0000000,10.00,38.4133759,-110.7724686,1360.3000488,0.0,28.5,0.9,0.0,0.0,855,169,0,0,861.06,25.09,19.10,# data time:5510,pm2.5:6.445,pm10:5.704,O2:0.000,NO2:0.000,SO2:0.000,NH3:5.536
9:35:27,0,0,0,0,0,0,0,0,0,0,0,514,0,0,0,0,0.0000000,0.0000000,0.0000000,0.0000000,10.00,38.4133759,-110.7724686,1360.3000488,0.0,28.5,0.9,0.0,0.0,856,177,0,0,861.11,25.15,19.09,# data time:5510,pm2.5:6.445,pm10:5.704,O2:0.000,NO2:0.000,SO2:0.000,NH3:5.536
9:35:29,0,0,0,0,0,0,0,0,0,0,0,514,0,0,0,0,0.0000000,0.0000000,0.0000000,0.0000000,10.00,38.4133759,-110.7724686,1360.3000488,0.0,28.5,0.9,0.0,0.0,856,167,0,0,861.09,25.16,19.09,# data time:5510,pm2.5:6.445,pm10:5.704,O2:0.000,NO2:0.000,SO2:0.000,NH3:5.536
9:35:30,0,0,0,0,0,0,0,0,0,0,0,514,0,0,0,0,0.0000000,0.0000000,0.0000000,0.0000000,10.00,38.4133759,-110.7724686,1360.3000488,0.0,28.5,0.9,0.0,0.0,856,169,0,0,861.13,25.16,19.11,# data time:5510,pm2.5:6.445,pm10:5.704,O2:0.000,NO2:0.000,SO2:0.000,NH3:5.536
9:35:31,0,0,0,0,0,0,0,0,0,0,0,514,0,0,0,0,0.0000000,0.0000000,0.0000000,0.0000000,10.00,38.4133759,-110.7724686,1360.3000488,0.0,28.5,0.9,0.0,0.0,856,167,0,0,861.06,25.18,19.11,# data time:5510,pm2.5:6.445,pm10:5.704,O2:0.000,NO2:0.000,SO2:0.000,NH3:5.536
9:35:32,0,0,0,0,0,0,0,0,0,0,0,514,0,0,0,0,0.0000000,0.0000000,0.0000000,0.0000000,10.00,38.4133759,-110.7724686,1360.3000488,0.0,28.5,0.9,0.0,0.0,856,167,0,0,861.09,25.21,19.08,# data time:5510,pm2.5:6.445,pm10:5.704,O2:0.000,NO2:0.000,SO2:0.000,NH3:5.536
9:35:33,0,0,0,0,0,0,0,0,0,0,0,514,0,0,0,0,0.0000000,0.0000000,0.0000000,0.0000000,10.00,38.4133759,-110.7724686,1360.3000488,0.0,28.5,0.9,0.0,0.0,856,163,0,0,861.10,25.21,19.09,# data time:5510,pm2.5:6.445,pm10:5.704,O2:0.000,NO2:0.000,SO2:0.000,NH3:5.536
9:35:34,0,0,0,0,0,0,0,0,0,0,0,515,0,0,0,0,0.0000000,0.0000000,0.0000000,0.0000000,10.00,38.4133759,-110.7724686,1360.3000488,0.0,28.5,0.9,0.0,0.0,855,167,0,0,861.05,25.22,19.11,# data time:5520,pm2.5:6.445,pm10:5.704,O2:0.000,NO2:0.000,SO2:0.000,NH3:5.536
9:35:35,0,0,0,0,0,0,0,0,0,0,0,514,0,0,0,0,0.0000000,0.0000000,0.0000000,0.0000000,10.00,38.4133759,-110.7724686,1360.3000488,0.0,28.5,0.9,0.0,0.0,855,166,0,0,861.04,25.25,19.04,# data time:5520,pm2.5:6.445,pm10:5.704,O2:0.000,NO2:0.000,SO2:0.000,NH3:5.536
9:35:36,0,0,0,0,0,0,0,0,0,0,0,514,0,0,0,0,0.0000000,0.0000000,0.0000000,0.0000000,10.00,38.4133759,-110.7724686,1360.3000488,0.0,28.5,0.9,0.0,0.0,856,167,0,0,861.00,25.22,19.04,# data time:5520,pm2.5:6.445,pm10:5.704,O2:0.000,NO2:0.000,SO2:0.000,NH3:5.536
9:35:37,0,0,0,0,0,0,0,0,0,0,0,515,0,0,0,0,0.0000000,0.0000000,0.0000000,0.0000000,10.00,38.4133759,-110.7724686,1360.3000488,0.0,28.5,0.9,0.0,0.0,856,170,0,0,861.08,25.21,19.06,# data time:5520,pm2.5:6.445,pm10:5.704,O2:0.000,NO2:0.000,SO2:0.000,NH3:5.536
9:35:38,0,0,0,0,0,0,0,0,0,0,0,514,0,0,0,0,0.0000000,0.0000000,0.0000000,0.0000000,10.00,38.4133759,-110.7724686,1360.3000488,0.0,28.5,0.9,0.0,0.0,856,169,0,0,861.07,25.19,19.10,# data time:5520,pm2.5:6.445,pm10:5.704,O2:0.000,NO2:0.000,SO2:0.000,NH3:5.536
9:35:39,0,0,0,0,0,0,0,0,0,0,0,514,0,0,0,0,0.0000000,0.0000000,0.0000000,0.0000000,10.00,38.4133759,-110.7724686,1360.3000488,0.0,28.5,0.9,0.0,0.0,856,174,0,0,861.05,25.21,19.09,# data time:5520,pm2.5:6.445,pm10:5.704,O2:0.000,NO2:0.000,SO2:0.000,NH3:5.536
9:35:40,0,0,0,0,0,0,0,0,0,0,0,514,0,0,0,0,0.0000000,0.0000000,0.0000000,0.0000000,10.00,38.4133759,-110.7724686,1360.3000488,0.0,28.5,0.9,0.0,0.0,855,167,0,0,861.05,25.22,19.09,# data time:5520,pm2.5:6.445,pm10:5.704,O2:0.000,NO2:0.000,SO2:0.000,NH3:5.536
9:35:41,0,0,0,0,0,0,0,0,0,0,0,515,0,0,0,0,0.0000000,0.0000000,0.0000000,0.0000000,10.00,38.4133759,-110.7724686,1360.3000488,0.0,28.5,0.9,0.0,0.0,855,180,0,0,861.11,25.22,19.08,# data time:5520,pm2.5:6.445,pm10:5.704,O2:0.000,NO2:0.000,SO2:0.000,NH3:5.536
9:35:42,0,0,0,0,0,0,0,0,0,0,0,514,0,0,0,0,0.0000000,0.0000000,0.0000000,0.0000000,10.00,38.4133759,-110.7724686,1360.3000488,0.0,28.5,0.9,0.0,0.0,856,185,0,0,861.05,25.25,19.03,# data time:5520,pm2.5:6.445,pm10:5.704,O2:0.000,NO2:0.000,SO2:0.000,NH3:5.536
9:35:43,0,0,0,0,0,0,0,0,0,0,0,515,0,0,0,0,0.0000000,0.0000000,0.0000000,0.0000000,10.00,38.4133759,-110.7724686,1360.3000488,0.0,28.5,0.9,0.0,0.0,856,175,0,0,861.11,25.27,19.01,# data time:5520,pm2.5:6.445,pm10:5.704,O2:0.000,NO2:0.000,SO2:0.000,NH3:5.536
9:35:44,0,0,0,0,0,0,0,0,0,0,0,515,0,0,0,0,0.0000000,0.0000000,0.0000000,0.0000000,10.00,38.4133759,-110.7724686,1360.3000488,0.0,28.5,0.9,0.0,0.0,856,178,0,0,861.09,25.30,18.99,# data time:5530,pm2.5:6.445,pm10:5.704,O2:0.000,NO2:0.000,SO2:0.000,NH3:5.536
9:35:45,0,0,0,0,0,0,0,0,0,0,0,515,0,0,0,0,0.0000000,0.0000000,0.0000000,0.0000000,10.00,38.4133759,-110.7724686,1360.3000488,0.0,28.5,0.9,0.0,0.0,856,175,0,0,861.14,25.30,18.99,# data time:5530,pm2.5:6.445,pm10:5.704,O2:0.000,NO2:0.000,SO2:0.000,NH3:5.536
9:35:46,0,0,0,0,0,0,0,0,0,0,0,515,0,0,0,0,0.0000000,0.0000000,0.0000000,0.0000000,10.00,38.4133759,-110.7724686,1360.3000488,0.0,28.5,0.9,0.0,0.0,856,174,0,0,861.05,25.30,18.99,# data time:5530,pm2.5:6.445,pm10:5.704,O2:0.000,NO2:0.000,SO2:0.000,NH3:5.536
9:35:47,0,0,0,0,0,0,0,0,0,0,0,515,0,0,0,0,0.0000000,0.0000000,0.0000000,0.0000000,10.00,38.4133759,-110.7724686,1360.3000488,0.0,28.5,0.9,0.0,0.0,855,170,0,0,861.14,25.31,19.01,# data time:5530,pm2.5:6.445,pm10:5.704,O2:0.000,NO2:0.000,SO2:0.000,NH3:5.536
9:35:48,0,0,0,0,0,0,0,0,0,0,0,514,0,0,0,0,0.0000000,0.0000000,0.0000000,0.0000000,10.00,38.4133759,-110.7724686,1360.3000488,0.0,28.5,0.9,0.0,0.0,856,168,0,0,861.11,25.31,19.05,# data time:5530,pm2.5:6.445,pm10:5.704,O2:0.000,NO2:0.000,SO2:0.000,NH3:5.536
9:35:49,0,0,0,0,0,0,0,0,0,0,0,514,0,0,0,0,0.0000000,0.0000000,0.0000000,0.0000000,10.00,38.4133759,-110.7724686,1360.3000488,0.0,28.5,0.9,0.0,0.0,856,160,0,0,861.16,25.33,19.08,# data time:5530,pm2.5:6.445,pm10:5.704,O2:0.000,NO2:0.000,SO2:0.000,NH3:5.536
9:35:50,0,0,0,0,0,0,0,0,0,0,0,514,0,0,0,0,0.0000000,0.0000000,0.0000000,0.0000000,10.00,38.4133759,-110.7724686,1360.3000488,0.0,28.5,0.9,0.0,0.0,856,160,0,0,861.15,25.31,19.09,# data time:5530,pm2.5:6.445,pm10:5.704,O2:0.000,NO2:0.000,SO2:0.000,NH3:5.536
9:35:51,0,0,0,0,0,0,0,0,0,0,0,514,0,0,0,0,0.0000000,0.0000000,0.0000000,0.0000000,10.00,38.4133759,-110.7724686,1360.3000488,0.0,28.5,0.9,0.0,0.0,856,161,0,0,861.08,25.30,19.10,# data time:5530,pm2.5:6.445,pm10:5.704,O2:0.000,NO2:0.000,SO2:0.000,NH3:5.536
9:35:52,0,0,0,0,0,0,0,0,0,0,0,513,0,0,0,0,0.0000000,0.0000000,0.0000000,0.0000000,10.00,38.4133759,-110.7724686,1360.3000488,0.0,28.5,0.9,0.0,0.0,856,172,0,0,861.08,25.28,19.08,# data time:5530,pm2.5:6.445,pm10:5.704,O2:0.000,NO2:0.000,SO2:0.000,NH3:5.536
9:35:53,0,0,0,0,0,0,0,0,0,0,0,514,0,0,0,0,0.0000000,0.0000000,0.0000000,0.0000000,10.00,38.4133759,-110.7724686,1360.3000488,0.0,28.5,0.9,0.0,0.0,856,183,0,0,861.03,25.31,19.07,# data time:5540,pm2.5:6.445,pm10:5.704,O2:0.000,NO2:0.000,SO2:0.000,NH3:5.309
9:35:54,0,0,0,0,0,0,0,0,0,0,0,515,0,0,0,0,0.0000000,0.0000000,0.0000000,0.0000000,10.00,38.4133759,-110.7724686,1360.3000488,0.0,28.5,0.9,0.0,0.0,856,177,0,0,861.10,25.31,19.08,# data time:5540,pm2.5:6.445,pm10:5.704,O2:0.000,NO2:0.000,SO2:0.000,NH3:5.309
9:35:55,0,0,0,0,0,0,0,0,0,0,0,516,0,0,0,0,0.0000000,0.0000000,0.0000000,0.0000000,10.00,38.4133759,-110.7724686,1360.3000488,0.0,28.5,0.9,0.0,0.0,856,173,0,0,861.09,25.33,19.09,# data time:5540,pm2.5:6.445,pm10:5.704,O2:0.000,NO2:0.000,SO2:0.000,NH3:5.309
9:35:56,0,0,0,0,0,0,0,0,0,0,0,515,0,0,0,0,0.0000000,0.0000000,0.0000000,0.0000000,10.00,38.4133759,-110.7724686,1360.3000488,0.0,28.5,0.9,0.0,0.0,856,168,0,0,861.04,25.30,19.11,# data time:5540,pm2.5:6.445,pm10:5.704,O2:0.000,NO2:0.000,SO2:0.000,NH3:5.309
9:35:57,0,0,0,0,0,0,0,0,0,0,0,514,0,0,0,0,0.0000000,0.0000000,0.0000000,0.0000000,10.00,38.4133759,-110.7724686,1360.3000488,0.0,28.5,0.9,0.0,0.0,856,164,0,0,861.08,25.31,19.08,# data time:5540,pm2.5:6.445,pm10:5.704,O2:0.000,NO2:0.000,SO2:0.000,NH3:5.309
9:35:58,0,0,0,0,0,0,0,0,0,0,0,514,0,0,0,0,0.0000000,0.0000000,0.0000000,0.0000000,10.00,38.4133759,-110.7724686,1360.3000488,0.0,28.5,0.9,0.0,0.0,856,165,0,0,861.09,25.33,19.06,# data time:5540,pm2.5:6.445,pm10:5.704,O2:0.000,NO2:0.000,SO2:0.000,NH3:5.309
9:35:59,0,0,0,0,0,0,0,0,0,0,0,515,0,0,0,0,0.0000000,0.0000000,0.0000000,0.0000000,10.00,38.4133759,-110.7724686,1360.3000488,0.0,28.5,0.9,0.0,0.0,855,175,0,0,861.14,25.35,19.03,# data time:5540,pm2.5:6.445,pm10:5.704,O2:0.000,NO2:0.000,SO2:0.000,NH3:5.309
9:36:00,0,0,0,0,0,0,0,0,0,0,0,514,0,0,0,0,0.0000000,0.0000000,0.0000000,0.0000000,10.00,38.4133759,-110.7724686,1360.3000488,0.0,28.5,0.9,0.0,0.0,856,168,0,0,861.08,25.36,19.05,# data time:5540,pm2.5:6.445,pm10:5.704,O2:0.000,NO2:0.000,SO2:0.000,NH3:5.309
9:36:01,0,0,0,0,0,0,0,0,0,0,0,515,0,0,0,0,0.0000000,0.0000000,0.0000000,0.0000000,10.00,38.4133759,-110.7724686,1360.3000488,0.0,28.5,0.9,0.0,0.0,855,167,0,0,861.09,25.35,19.06,# data time:5540,pm2.5:6.445,pm10:5.704,O2:0.000,NO2:0.000,SO2:0.000,NH3:5.309
9:36:02,0,0,0,0,0,0,0,0,0,0,0,515,0,0,0,0,0.0000000,0.0000000,0.0000000,0.0000000,10.00,38.4133759,-110.7724686,1360.3000488,0.0,28.5,0.9,0.0,0.0,856,166,0,0,861.13,25.36,19.08,# data time:5540,pm2.5:6.445,pm10:5.704,O2:0.000,NO2:0.000,SO2:0.000,NH3:5.309
9:36:03,0,0,0,0,0,0,0,0,0,0,0,514,0,0,0,0,0.0000000,0.0000000,0.0000000,0.0000000,10.00,38.4133759,-110.7724686,1360.3000488,0.0,28.5,0.9,0.0,0.0,856,166,0,0,861.09,25.39,19.12,# data time:5550,pm2.5:6.445,pm10:5.704,O2:0.000,NO2:0.000,SO2:0.000,NH3:5.309
9:36:04,0,0,0,0,0,0,0,0,0,0,0,514,0,0,0,0,0.0000000,0.0000000,0.0000000,0.0000000,10.00,38.4133759,-110.7724686,1360.3000488,0.0,28.5,0.9,0.0,0.0,856,165,0,0,861.05,25.38,19.15,# data time:5550,pm2.5:6.445,pm10:5.704,O2:0.000,NO2:0.000,SO2:0.000,NH3:5.309
9:36:05,0,0,0,0,0,0,0,0,0,0,0,515,0,0,0,0,0.0000000,0.0000000,0.0000000,0.0000000,10.00,38.4133759,-110.7724686,1360.3000488,0.0,28.5,0.9,0.0,0.0,856,166,0,0,861.04,25.36,19.15,# data time:5550,pm2.5:6.445,pm10:5.704,O2:0.000,NO2:0.000,SO2:0.000,NH3:5.309
9:36:06,0,0,0,0,0,0,0,0,0,0,0,514,0,0,0,0,0.0000000,0.0000000,0.0000000,0.0000000,10.00,38.4133759,-110.7724686,1360.3000488,0.0,28.5,0.9,0.0,0.0,855,170,0,0,861.05,25.38,19.16,# data time:5550,pm2.5:6.445,pm10:5.704,O2:0.000,NO2:0.000,SO2:0.000,NH3:5.309
9:36:07,0,0,0,0,0,0,0,0,0,0,0,515,0,0,0,0,0.0000000,0.0000000,0.0000000,0.0000000,10.00,38.4133759,-110.7724686,1360.3000488,0.0,28.5,0.9,0.0,0.0,856,166,0,0,861.08,25.33,19.18,# data time:5550,pm2.5:6.445,pm10:5.704,O2:0.000,NO2:0.000,SO2:0.000,NH3:5.309
9:36:08,0,0,0,0,0,0,0,0,0,0,0,514,0,0,0,0,0.0000000,0.0000000,0.0000000,0.0000000,10.00,38.4133759,-110.7724686,1360.3000488,0.0,28.5,0.9,0.0,0.0,855,173,0,0,861.02,25.31,19.18,# data time:5550,pm2.5:6.445,pm10:5.704,O2:0.000,NO2:0.000,SO2:0.000,NH3:5.309
9:36:09,0,0,0,0,0,0,0,0,0,0,0,516,0,0,0,0,0.0000000,0.0000000,0.0000000,0.0000000,10.00,38.4133759,-110.7724686,1360.3000488,0.0,28.5,0.9,0.0,0.0,856,174,0,0,861.05,25.28,19.16,# data time:5550,pm2.5:6.445,pm10:5.704,O2:0.000,NO2:0.000,SO2:0.000,NH3:5.309
9:36:10,0,0,0,0,0,0,0,0,0,0,0,514,0,0,0,0,0.0000000,0.0000000,0.0000000,0.0000000,10.00,38.4133759,-110.7724686,1360.3000488,0.0,28.5,0.9,0.0,0.0,855,165,0,0,861.01,25.33,19.16,# data time:5550,pm2.5:6.445,pm10:5.704,O2:0.000,NO2:0.000,SO2:0.000,NH3:5.309
9:36:11,0,0,0,0,0,0,0,0,0,0,0,515,0,0,0,0,0.0000000,0.0000000,0.0000000,0.0000000,10.00,38.4133759,-110.7724686,1360.3000488,0.0,28.5,0.9,0.0,0.0,855,173,0,0,861.06,25.30,19.18,# data time:5550,pm2.5:6.445,pm10:5.704,O2:0.000,NO2:0.000,SO2:0.000,NH3:5.309
9:36:12,0,0,0,0,0,0,0,0,0,0,0,514,0,0,0,0,0.0000000,0.0000000,0.0000000,0.0000000,10.00,38.4133759,-110.7724686,1360.3000488,0.0,28.5,0.9,0.0,0.0,855,174,0,0,861.07,25.31,19.19,# data time:5550,pm2.5:6.445,pm10:5.704,O2:0.000,NO2:0.000,SO2:0.000,NH3:5.309
9:36:13,0,0,0,0,0,0,0,0,0,0,0,514,0,0,0,0,0.0000000,0.0000000,0.0000000,0.0000000,10.00,38.4133759,-110.7724686,1360.3000488,0.0,28.5,0.9,0.0,0.0,856,170,0,0,861.07,25.27,19.18,# data time:5560,pm2.5:6.445,pm10:5.704,O2:0.000,NO2:0.000,SO2:0.000,NH3:5.536
9:36:14,0,0,0,0,0,0,0,0,0,0,0,515,0,0,0,0,0.0000000,0.0000000,0.0000000,0.0000000,10.00,38.4133759,-110.7724686,1360.3000488,0.0,28.5,0.9,0.0,0.0,855,173,0,0,861.10,25.30,19.16,# data time:5560,pm2.5:6.445,pm10:5.704,O2:0.000,NO2:0.000,SO2:0.000,NH3:5.536
9:36:15,0,0,0,0,0,0,0,0,0,0,0,515,0,0,0,0,0.0000000,0.0000000,0.0000000,0.0000000,10.00,38.4133759,-110.7724686,1360.3000488,0.0,28.5,0.9,0.0,0.0,856,168,0,0,861.06,25.31,19.18,# data time:5560,pm2.5:6.445,pm10:5.704,O2:0.000,NO2:0.000,SO2:0.000,NH3:5.536
9:36:16,0,0,0,0,0,0,0,0,0,0,0,514,0,0,0,0,0.0000000,0.0000000,0.0000000,0.0000000,10.00,38.4133759,-110.7724686,1360.3000488,0.0,28.5,0.9,0.0,0.0,856,163,0,0,861.07,25.31,19.19,# data time:5560,pm2.5:6.445,pm10:5.704,O2:0.000,NO2:0.000,SO2:0.000,NH3:5.536
9:36:17,0,0,0,0,0,0,0,0,0,0,0,514,0,0,0,0,0.0000000,0.0000000,0.0000000,0.0000000,10.00,38.4133759,-110.7724686,1360.3000488,0.0,28.5,0.9,0.0,0.0,855,154,0,0,861.10,25.36,19.19,# data time:5560,pm2.5:6.445,pm10:5.704,O2:0.000,NO2:0.000,SO2:0.000,NH3:5.536
9:36:18,0,0,0,0,0,0,0,0,0,0,0,515,0,0,0,0,0.0000000,0.0000000,0.0000000,0.0000000,10.00,38.4133759,-110.7724686,1360.3000488,0.0,28.5,0.9,0.0,0.0,856,158,0,0,861.04,25.35,19.20,# data time:5560,pm2.5:6.445,pm10:5.704,O2:0.000,NO2:0.000,SO2:0.000,NH3:5.536
9:36:19,0,0,0,0,0,0,0,0,0,0,0,514,0,0,0,0,0.0000000,0.0000000,0.0000000,0.0000000,10.00,38.4133759,-110.7724686,1360.3000488,0.0,28.5,0.9,0.0,0.0,857,159,0,0,861.11,25.38,19.21,# data time:5560,pm2.5:6.445,pm10:5.704,O2:0.000,NO2:0.000,SO2:0.000,NH3:5.536
9:36:20,0,0,0,0,0,0,0,0,0,0,0,515,0,0,0,0,0.0000000,0.0000000,0.0000000,0.0000000,10.00,38.4133759,-110.7724686,1360.3000488,0.0,28.5,0.9,0.0,0.0,856,159,0,0,861.08,25.38,19.21,# data time:5560,pm2.5:6.445,pm10:5.704,O2:0.000,NO2:0.000,SO2:0.000,NH3:5.536
9:36:21,0,0,0,0,0,0,0,0,0,0,0,514,0,0,0,0,0.0000000,0.0000000,0.0000000,0.0000000,10.00,38.4133759,-110.7724686,1360.3000488,0.0,28.5,0.9,0.0,0.0,856,160,0,0,861.08,25.38,19.23,# data time:5560,pm2.5:6.445,pm10:5.704,O2:0.000,NO2:0.000,SO2:0.000,NH3:5.536
9:36:22,0,0,0,0,0,0,0,0,0,0,0,514,0,0,0,0,0.0000000,0.0000000,0.0000000,0.0000000,10.00,38.4133759,-110.7724686,1360.3000488,0.0,28.5,0.9,0.0,0.0,857,164,0,0,861.09,25.35,19.26,# data time:5560,pm2.5:6.445,pm10:5.704,O2:0.000,NO2:0.000,SO2:0.000,NH3:5.536
9:36:23,0,0,0,0,0,0,0,0,0,0,0,514,0,0,0,0,0.0000000,0.0000000,0.0000000,0.0000000,10.00,38.4133759,-110.7724686,1360.3000488,0.0,28.5,0.9,0.0,0.0,856,161,0,0,861.11,25.35,19.28,# data time:5570,pm2.5:6.445,pm10:5.704,O2:0.000,NO2:0.000,SO2:0.000,NH3:5.536
9:36:24,0,0,0,0,0,0,0,0,0,0,0,515,0,0,0,0,0.0000000,0.0000000,0.0000000,0.0000000,10.00,38.4133759,-110.7724686,1360.3000488,0.0,28.5,0.9,0.0,0.0,856,158,0,0,861.06,25.35,19.27,# data time:5570,pm2.5:6.445,pm10:5.704,O2:0.000,NO2:0.000,SO2:0.000,NH3:5.536
9:36:25,0,0,0,0,0,0,0,0,0,0,0,514,0,0,0,0,0.0000000,0.0000000,0.0000000,0.0000000,10.00,38.4133759,-110.7724686,1360.3000488,0.0,28.5,0.9,0.0,0.0,856,156,0,0,861.10,25.33,19.26,# data time:5570,pm2.5:6.445,pm10:5.704,O2:0.000,NO2:0.000,SO2:0.000,NH3:5.536
9:36:26,0,0,0,0,0,0,0,0,0,0,0,515,0,0,0,0,0.0000000,0.0000000,0.0000000,0.0000000,10.00,38.4133759,-110.7724686,1360.3000488,0.0,28.5,0.9,0.0,0.0,856,157,0,0,861.06,25.35,19.27,# data time:5570,pm2.5:6.445,pm10:5.704,O2:0.000,NO2:0.000,SO2:0.000,NH3:5.536
9:36:27,0,0,0,0,0,0,0,0,0,0,0,514,0,0,0,0,0.0000000,0.0000000,0.0000000,0.0000000,10.00,38.4133759,-110.7724686,1360.3000488,0.0,28.5,0.9,0.0,0.0,856,156,0,0,861.11,25.33,19.29,# data time:5570,pm2.5:6.445,pm10:5.704,O2:0.000,NO2:0.000,SO2:0.000,NH3:5.536
9:36:28,0,0,0,0,0,0,0,0,0,0,0,514,0,0,0,0,0.0000000,0.0000000,0.0000000,0.0000000,10.00,38.4133759,-110.7724686,1360.3000488,0.0,28.5,0.9,0.0,0.0,855,163,0,0,861.10,25.31,19.27,# data time:5570,pm2.5:6.445,pm10:5.704,O2:0.000,NO2:0.000,SO2:0.000,NH3:5.536
9:36:29,0,0,0,0,0,0,0,0,0,0,0,513,0,0,0,0,0.0000000,0.0000000,0.0000000,0.0000000,10.00,38.4133759,-110.7724686,1360.3000488,0.0,28.5,0.9,0.0,0.0,855,162,0,0,861.09,25.27,19.28,# data time:5570,pm2.5:6.445,pm10:5.704,O2:0.000,NO2:0.000,SO2:0.000,NH3:5.536
9:36:30,0,0,0,0,0,0,0,0,0,0,0,514,0,0,0,0,0.0000000,0.0000000,0.0000000,0.0000000,10.00,38.4133759,-110.7724686,1360.3000488,0.0,28.5,0.9,0.0,0.0,856,162,0,0,861.04,25.24,19.28,# data time:5570,pm2.5:6.445,pm10:5.704,O2:0.000,NO2:0.000,SO2:0.000,NH3:5.536
9:36:31,0,0,0,0,0,0,0,0,0,0,0,515,0,0,0,0,0.0000000,0.0000000,0.0000000,0.0000000,10.00,38.4133759,-110.7724686,1360.3000488,0.0,28.5,0.9,0.0,0.0,856,164,0,0,861.03,25.27,19.28,# data time:5570,pm2.5:6.445,pm10:5.704,O2:0.000,NO2:0.000,SO2:0.000,NH3:5.536
9:36:33,0,0,0,0,0,0,0,0,0,0,0,514,0,0,0,0,0.0000000,0.0000000,0.0000000,0.0000000,10.00,38.4133759,-110.7724686,1360.3000488,0.0,28.5,0.9,0.0,0.0,856,164,0,0,861.00,25.27,19.27,# data time:5570,pm2.5:6.445,pm10:5.704,O2:0.000,NO2:0.000,SO2:0.000,NH3:5.536
9:36:34,0,0,0,0,0,0,0,0,0,0,0,514,0,0,0,0,0.0000000,0.0000000,0.0000000,0.0000000,10.00,38.4133759,-110.7724686,1360.3000488,0.0,28.5,0.9,0.0,0.0,856,166,0,0,861.06,25.25,19.27,# data time:5580,pm2.5:6.445,pm10:5.704,O2:0.000,NO2:0.000,SO2:0.000,NH3:5.309
9:36:35,0,0,0,0,0,0,0,0,0,0,0,514,0,0,0,0,0.0000000,0.0000000,0.0000000,0.0000000,10.00,38.4133759,-110.7724686,1360.3000488,0.0,28.5,0.9,0.0,0.0,855,169,0,0,861.04,25.31,19.24,# data time:5580,pm2.5:6.445,pm10:5.704,O2:0.000,NO2:0.000,SO2:0.000,NH3:5.309
9:36:36,0,0,0,0,0,0,0,0,0,0,0,514,0,0,0,0,0.0000000,0.0000000,0.0000000,0.0000000,10.00,38.4133759,-110.7724686,1360.3000488,0.0,28.5,0.9,0.0,0.0,856,167,0,0,861.08,25.31,19.20,# data time:5580,pm2.5:6.445,pm10:5.704,O2:0.000,NO2:0.000,SO2:0.000,NH3:5.309
9:36:37,0,0,0,0,0,0,0,0,0,0,0,515,0,0,0,0,0.0000000,0.0000000,0.0000000,0.0000000,10.00,38.4133759,-110.7724686,1360.3000488,0.0,28.5,0.9,0.0,0.0,856,160,0,0,861.09,25.31,19.23,# data time:5580,pm2.5:6.445,pm10:5.704,O2:0.000,NO2:0.000,SO2:0.000,NH3:5.309
9:36:38,0,0,0,0,0,0,0,0,0,0,0,514,0,0,0,0,0.0000000,0.0000000,0.0000000,0.0000000,10.00,38.4133759,-110.7724686,1360.3000488,0.0,28.5,0.9,0.0,0.0,856,158,0,0,861.02,25.31,19.26,# data time:5580,pm2.5:6.445,pm10:5.704,O2:0.000,NO2:0.000,SO2:0.000,NH3:5.309
9:36:39,0,0,0,0,0,0,0,0,0,0,0,515,0,0,0,0,0.0000000,0.0000000,0.0000000,0.0000000,10.00,38.4133759,-110.7724686,1360.3000488,0.0,28.5,0.9,0.0,0.0,856,158,0,0,861.01,25.30,19.26,# data time:5580,pm2.5:6.445,pm10:5.704,O2:0.000,NO2:0.000,SO2:0.000,NH3:5.309
9:36:40,0,0,0,0,0,0,0,0,0,0,0,514,0,0,0,0,0.0000000,0.0000000,0.0000000,0.0000000,10.00,38.4133759,-110.7724686,1360.3000488,0.0,28.5,0.9,0.0,0.0,855,157,0,0,861.09,25.28,19.26,# data time:5580,pm2.5:6.445,pm10:5.704,O2:0.000,NO2:0.000,SO2:0.000,NH3:5.309
9:36:41,0,0,0,0,0,0,0,0,0,0,0,514,0,0,0,0,0.0000000,0.0000000,0.0000000,0.0000000,10.00,38.4133759,-110.7724686,1360.3000488,0.0,28.5,0.9,0.0,0.0,856,161,0,0,861.03,25.28,19.27,# data time:5580,pm2.5:6.445,pm10:5.704,O2:0.000,NO2:0.000,SO2:0.000,NH3:5.309
9:36:42,0,0,0,0,0,0,0,0,0,0,0,514,0,0,0,0,0.0000000,0.0000000,0.0000000,0.0000000,10.00,38.4133759,-110.7724686,1360.3000488,0.0,28.5,0.9,0.0,0.0,856,161,0,0,861.04,25.27,19.30,# data time:5580,pm2.5:6.445,pm10:5.704,O2:0.000,NO2:0.000,SO2:0.000,NH3:5.309
9:36:43,0,0,0,0,0,0,0,0,0,0,0,515,0,0,0,0,0.0000000,0.0000000,0.0000000,0.0000000,10.00,38.4133759,-110.7724686,1360.3000488,0.0,28.5,0.9,0.0,0.0,856,164,0,0,861.06,25.27,19.30,# data time:5580,pm2.5:6.445,pm10:5.704,O2:0.000,NO2:0.000,SO2:0.000,NH3:5.309
9:36:44,0,0,0,0,0,0,0,0,0,0,0,515,0,0,0,0,0.0000000,0.0000000,0.0000000,0.0000000,10.00,38.4133759,-110.7724686,1360.3000488,0.0,28.5,0.9,0.0,0.0,856,165,0,0,861.04,25.27,19.32,# data time:5590,pm2.5:5.640,pm10:4.991,O2:0.000,NO2:0.000,SO2:0.000,NH3:5.083
9:36:45,0,0,0,0,0,0,0,0,0,0,0,514,0,0,0,0,0.0000000,0.0000000,0.0000000,0.0000000,10.00,38.4133759,-110.7724686,1360.3000488,0.0,28.5,0.9,0.0,0.0,856,164,0,0,861.01,25.27,19.32,# data time:5590,pm2.5:5.640,pm10:4.991,O2:0.000,NO2:0.000,SO2:0.000,NH3:5.083
9:36:46,0,0,0,0,0,0,0,0,0,0,0,515,0,0,0,0,0.0000000,0.0000000,0.0000000,0.0000000,10.00,38.4133759,-110.7724686,1360.3000488,0.0,28.5,0.9,0.0,0.0,856,161,0,0,861.08,25.25,19.31,# data time:5590,pm2.5:5.640,pm10:4.991,O2:0.000,NO2:0.000,SO2:0.000,NH3:5.083
9:36:47,0,0,0,0,0,0,0,0,0,0,0,515,0,0,0,0,0.0000000,0.0000000,0.0000000,0.0000000,10.00,38.4133759,-110.7724686,1360.3000488,0.0,28.5,0.9,0.0,0.0,856,166,0,0,861.01,25.25,19.32,# data time:5590,pm2.5:5.640,pm10:4.991,O2:0.000,NO2:0.000,SO2:0.000,NH3:5.083
9:36:48,0,0,0,0,0,0,0,0,0,0,0,515,0,0,0,0,0.0000000,0.0000000,0.0000000,0.0000000,10.00,38.4133759,-110.7724686,1360.3000488,0.0,28.5,0.9,0.0,0.0,856,164,0,0,861.03,25.24,19.34,# data time:5590,pm2.5:5.640,pm10:4.991,O2:0.000,NO2:0.000,SO2:0.000,NH3:5.083
9:36:49,0,0,0,0,0,0,0,0,0,0,0,514,0,0,0,0,0.0000000,0.0000000,0.0000000,0.0000000,10.00,38.4133759,-110.7724686,1360.3000488,0.0,28.5,0.9,0.0,0.0,855,165,0,0,861.01,25.24,19.37,# data time:5590,pm2.5:5.640,pm10:4.991,O2:0.000,NO2:0.000,SO2:0.000,NH3:5.083
9:36:50,0,0,0,0,0,0,0,0,0,0,0,513,0,0,0,0,0.0000000,0.0000000,0.0000000,0.0000000,10.00,38.4133759,-110.7724686,1360.3000488,0.0,28.5,0.9,0.0,0.0,856,170,0,0,861.03,25.24,19.37,# data time:5590,pm2.5:5.640,pm10:4.991,O2:0.000,NO2:0.000,SO2:0.000,NH3:5.083
9:36:51,0,0,0,0,0,0,0,0,0,0,0,514,0,0,0,0,0.0000000,0.0000000,0.0000000,0.0000000,10.00,38.4133759,-110.7724686,1360.3000488,0.0,28.5,0.9,0.0,0.0,856,171,0,0,861.07,25.22,19.36,# data time:5590,pm2.5:5.640,pm10:4.991,O2:0.000,NO2:0.000,SO2:0.000,NH3:5.083
9:36:52,0,0,0,0,0,0,0,0,0,0,0,515,0,0,0,0,0.0000000,0.0000000,0.0000000,0.0000000,10.00,38.4133759,-110.7724686,1360.3000488,0.0,28.5,0.9,0.0,0.0,855,167,0,0,861.07,25.22,19.38,# data time:5590,pm2.5:5.640,pm10:4.991,O2:0.000,NO2:0.000,SO2:0.000,NH3:5.083
9:36:53,0,0,0,0,0,0,0,0,0,0,0,514,0,0,0,0,0.0000000,0.0000000,0.0000000,0.0000000,10.00,38.4133759,-110.7724686,1360.3000488,0.0,28.5,0.9,0.0,0.0,855,164,0,0,861.08,25.24,19.39,# data time:5600,pm2.5:6.445,pm10:5.704,O2:0.000,NO2:0.000,SO2:0.000,NH3:5.309
9:36:54,0,0,0,0,0,0,0,0,0,0,0,515,0,0,0,0,0.0000000,0.0000000,0.0000000,0.0000000,10.00,38.4133759,-110.7724686,1360.3000488,0.0,28.5,0.9,0.0,0.0,855,162,0,0,861.06,25.25,19.43,# data time:5600,pm2.5:6.445,pm10:5.704,O2:0.000,NO2:0.000,SO2:0.000,NH3:5.309
9:36:55,0,0,0,0,0,0,0,0,0,0,0,514,0,0,0,0,0.0000000,0.0000000,0.0000000,0.0000000,10.00,38.4133759,-110.7724686,1360.3000488,0.0,28.5,0.9,0.0,0.0,856,165,0,0,861.11,25.24,19.42,# data time:5600,pm2.5:6.445,pm10:5.704,O2:0.000,NO2:0.000,SO2:0.000,NH3:5.309
9:36:56,0,0,0,0,0,0,0,0,0,0,0,513,0,0,0,0,0.0000000,0.0000000,0.0000000,0.0000000,10.00,38.4133759,-110.7724686,1360.3000488,0.0,28.5,0.9,0.0,0.0,854,163,0,0,861.06,25.25,19.42,# data time:5600,pm2.5:6.445,pm10:5.704,O2:0.000,NO2:0.000,SO2:0.000,NH3:5.309
9:36:57,0,0,0,0,0,0,0,0,0,0,0,514,0,0,0,0,0.0000000,0.0000000,0.0000000,0.0000000,10.00,38.4133759,-110.7724686,1360.3000488,0.0,28.5,0.9,0.0,0.0,856,164,0,0,861.03,25.25,19.44,# data time:5600,pm2.5:6.445,pm10:5.704,O2:0.000,NO2:0.000,SO2:0.000,NH3:5.309
9:36:58,0,0,0,0,0,0,0,0,0,0,0,514,0,0,0,0,0.0000000,0.0000000,0.0000000,0.0000000,10.00,38.4133759,-110.7724686,1360.3000488,0.0,28.5,0.9,0.0,0.0,856,166,0,0,861.02,25.25,19.45,# data time:5600,pm2.5:6.445,pm10:5.704,O2:0.000,NO2:0.000,SO2:0.000,NH3:5.309
9:36:59,0,0,0,0,0,0,0,0,0,0,0,514,0,0,0,0,0.0000000,0.0000000,0.0000000,0.0000000,10.00,38.4133759,-110.7724686,1360.3000488,0.0,28.5,0.9,0.0,0.0,856,170,0,0,860.98,25.21,19.46,# data time:5600,pm2.5:6.445,pm10:5.704,O2:0.000,NO2:0.000,SO2:0.000,NH3:5.309
9:37:00,0,0,0,0,0,0,0,0,0,0,0,514,0,0,0,0,0.0000000,0.0000000,0.0000000,0.0000000,10.00,38.4133759,-110.7724686,1360.3000488,0.0,28.5,0.9,0.0,0.0,855,171,0,0,861.08,25.22,19.47,# data time:5600,pm2.5:6.445,pm10:5.704,O2:0.000,NO2:0.000,SO2:0.000,NH3:5.309
9:37:01,0,0,0,0,0,0,0,0,0,0,0,514,0,0,0,0,0.0000000,0.0000000,0.0000000,0.0000000,10.00,38.4133759,-110.7724686,1360.3000488,0.0,28.5,0.9,0.0,0.0,856,169,0,0,861.05,25.19,19.50,# data time:5600,pm2.5:6.445,pm10:5.704,O2:0.000,NO2:0.000,SO2:0.000,NH3:5.309
9:37:02,0,0,0,0,0,0,0,0,0,0,0,514,0,0,0,0,0.0000000,0.0000000,0.0000000,0.0000000,10.00,38.4133759,-110.7724686,1360.3000488,0.0,28.5,0.9,0.0,0.0,855,165,0,0,861.05,25.18,19.51,# data time:5600,pm2.5:6.445,pm10:5.704,O2:0.000,NO2:0.000,SO2:0.000,NH3:5.309
9:37:03,0,0,0,0,0,0,0,0,0,0,0,514,0,0,0,0,0.0000000,0.0000000,0.0000000,0.0000000,10.00,38.4133759,-110.7724686,1360.3000488,0.0,28.5,0.9,0.0,0.0,856,166,0,0,861.08,25.18,19.54,# data time:5610,pm2.5:6.445,pm10:5.704,O2:0.000,NO2:0.000,SO2:0.000,NH3:5.083
9:37:04,0,0,0,0,0,0,0,0,0,0,0,514,0,0,0,0,0.0000000,0.0000000,0.0000000,0.0000000,10.00,38.4133759,-110.7724686,1360.3000488,0.0,28.5,0.9,0.0,0.0,856,156,0,0,861.02,25.15,19.55,# data time:5610,pm2.5:6.445,pm10:5.704,O2:0.000,NO2:0.000,SO2:0.000,NH3:5.083
9:37:05,0,0,0,0,0,0,0,0,0,0,0,515,0,0,0,0,0.0000000,0.0000000,0.0000000,0.0000000,10.00,38.4133759,-110.7724686,1360.4000244,0.0,28.5,0.9,0.0,0.0,856,159,0,0,860.99,25.16,19.57,# data time:5610,pm2.5:6.445,pm10:5.704,O2:0.000,NO2:0.000,SO2:0.000,NH3:5.083
9:37:06,0,0,0,0,0,0,0,0,0,0,0,514,0,0,0,0,0.0000000,0.0000000,0.0000000,0.0000000,10.00,38.4133759,-110.7724686,1360.4000244,0.0,28.5,0.9,0.0,0.0,856,161,0,0,861.01,25.12,19.59,# data time:5610,pm2.5:6.445,pm10:5.704,O2:0.000,NO2:0.000,SO2:0.000,NH3:5.083
9:37:07,0,0,0,0,0,0,0,0,0,0,0,514,0,0,0,0,0.0000000,0.0000000,0.0000000,0.0000000,10.00,38.4133759,-110.7724686,1360.4000244,0.0,28.5,0.9,0.0,0.0,856,168,0,0,861.02,25.09,19.58,# data time:5610,pm2.5:6.445,pm10:5.704,O2:0.000,NO2:0.000,SO2:0.000,NH3:5.083
9:37:08,0,0,0,0,0,0,0,0,0,0,0,514,0,0,0,0,0.0000000,0.0000000,0.0000000,0.0000000,10.00,38.4133759,-110.7724686,1360.4000244,0.0,28.5,0.9,0.0,0.0,856,170,0,0,860.98,25.07,19.57,# data time:5610,pm2.5:6.445,pm10:5.704,O2:0.000,NO2:0.000,SO2:0.000,NH3:5.083
9:37:09,0,0,0,0,0,0,0,0,0,0,0,514,0,0,0,0,0.0000000,0.0000000,0.0000000,0.0000000,10.00,38.4133759,-110.7724686,1360.4000244,0.0,28.5,0.9,0.0,0.0,855,175,0,0,861.00,25.09,19.57,# data time:5610,pm2.5:6.445,pm10:5.704,O2:0.000,NO2:0.000,SO2:0.000,NH3:5.083
9:37:10,0,0,0,0,0,0,0,0,0,0,0,514,0,0,0,0,0.0000000,0.0000000,0.0000000,0.0000000,10.00,38.4133759,-110.7724686,1360.4000244,0.0,28.5,0.9,0.0,0.0,855,165,0,0,860.97,25.10,19.58,# data time:5610,pm2.5:6.445,pm10:5.704,O2:0.000,NO2:0.000,SO2:0.000,NH3:5.083
9:37:11,0,0,0,0,0,0,0,0,0,0,0,514,0,0,0,0,0.0000000,0.0000000,0.0000000,0.0000000,10.00,38.4133759,-110.7724686,1360.4000244,0.0,28.5,0.9,0.0,0.0,856,175,0,0,860.97,25.09,19.58,# data time:5610,pm2.5:6.445,pm10:5.704,O2:0.000,NO2:0.000,SO2:0.000,NH3:5.083
9:37:12,0,0,0,0,0,0,0,0,0,0,0,514,0,0,0,0,0.0000000,0.0000000,0.0000000,0.0000000,10.00,38.4133759,-110.7724686,1360.4000244,0.0,28.5,0.9,0.0,0.0,855,175,0,0,860.98,25.07,19.56,# data time:5610,pm2.5:6.445,pm10:5.704,O2:0.000,NO2:0.000,SO2:0.000,NH3:5.083
9:37:13,0,0,0,0,0,0,0,0,0,0,0,514,0,0,0,0,0.0000000,0.0000000,0.0000000,0.0000000,10.00,38.4133759,-110.7724686,1360.4000244,0.1,28.5,0.9,0.0,0.0,856,177,0,0,860.99,25.10,19.54,# data time:5620,pm2.5:6.445,pm10:5.704,O2:0.000,NO2:0.000,SO2:0.000,NH3:5.309
9:37:14,0,0,0,0,0,0,0,0,0,0,0,514,0,0,0,0,0.0000000,0.0000000,0.0000000,0.0000000,10.00,38.4133759,-110.7724686,1360.4000244,0.0,28.5,0.9,0.0,0.0,856,172,0,0,860.98,25.09,19.55,# data time:5620,pm2.5:6.445,pm10:5.704,O2:0.000,NO2:0.000,SO2:0.000,NH3:5.309
9:37:15,0,0,0,0,0,0,0,0,0,0,0,514,0,0,0,0,0.0000000,0.0000000,0.0000000,0.0000000,10.00,38.4133759,-110.7724686,1360.4000244,0.0,28.5,0.9,0.0,0.0,856,170,0,0,861.02,25.09,19.54,# data time:5620,pm2.5:6.445,pm10:5.704,O2:0.000,NO2:0.000,SO2:0.000,NH3:5.309
9:37:16,0,0,0,0,0,0,0,0,0,0,0,514,0,0,0,0,0.0000000,0.0000000,0.0000000,0.0000000,10.00,38.4133759,-110.7724686,1360.4000244,0.0,28.5,0.9,0.0,0.0,856,162,0,0,861.02,25.09,19.56,# data time:5620,pm2.5:6.445,pm10:5.704,O2:0.000,NO2:0.000,SO2:0.000,NH3:5.309
9:37:17,0,0,0,0,0,0,0,0,0,0,0,514,0,0,0,0,0.0000000,0.0000000,0.0000000,0.0000000,10.00,38.4133759,-110.7724686,1360.4000244,0.0,28.5,0.9,0.0,0.0,856,159,0,0,860.99,25.10,19.58,# data time:5620,pm2.5:6.445,pm10:5.704,O2:0.000,NO2:0.000,SO2:0.000,NH3:5.309
9:37:18,0,0,0,0,0,0,0,0,0,0,0,514,0,0,0,0,0.0000000,0.0000000,0.0000000,0.0000000,10.00,38.4133759,-110.7724686,1360.4000244,0.0,28.5,0.9,0.0,0.0,857,164,0,0,860.97,25.09,19.58,# data time:5620,pm2.5:6.445,pm10:5.704,O2:0.000,NO2:0.000,SO2:0.000,NH3:5.309
9:37:19,0,0,0,0,0,0,0,0,0,0,0,514,0,0,0,0,0.0000000,0.0000000,0.0000000,0.0000000,10.00,38.4133759,-110.7724686,1360.4000244,0.0,28.5,0.9,0.0,0.0,856,160,0,0,861.05,25.09,19.59,# data time:5620,pm2.5:6.445,pm10:5.704,O2:0.000,NO2:0.000,SO2:0.000,NH3:5.309
9:37:20,0,0,0,0,0,0,0,0,0,0,0,514,0,0,0,0,0.0000000,0.0000000,0.0000000,0.0000000,10.00,38.4133759,-110.7724686,1360.4000244,0.0,28.5,0.9,0.0,0.0,855,163,0,0,860.96,25.09,19.60,# data time:5620,pm2.5:6.445,pm10:5.704,O2:0.000,NO2:0.000,SO2:0.000,NH3:5.309
9:37:21,0,0,0,0,0,0,0,0,0,0,0,514,0,0,0,0,0.0000000,0.0000000,0.0000000,0.0000000,10.00,38.4133759,-110.7724686,1360.4000244,0.0,28.5,0.9,0.0,0.0,855,159,0,0,861.02,25.07,19.63,# data time:5620,pm2.5:6.445,pm10:5.704,O2:0.000,NO2:0.000,SO2:0.000,NH3:5.309
9:37:22,0,0,0,0,0,0,0,0,0,0,0,514,0,0,0,0,0.0000000,0.0000000,0.0000000,0.0000000,10.00,38.4133759,-110.7724686,1360.4000244,0.0,28.5,0.9,0.0,0.0,855,164,0,0,861.02,25.06,19.65,# data time:5620,pm2.5:6.445,pm10:5.704,O2:0.000,NO2:0.000,SO2:0.000,NH3:5.309
9:37:23,0,0,0,0,0,0,0,0,0,0,0,515,0,0,0,0,0.0000000,0.0000000,0.0000000,0.0000000,10.00,38.4133759,-110.7724686,1360.4000244,0.0,28.5,0.9,0.0,0.0,855,157,0,0,860.99,25.07,19.68,# data time:5630,pm2.5:6.445,pm10:5.704,O2:0.000,NO2:0.000,SO2:0.000,NH3:5.083
9:37:24,0,0,0,0,0,0,0,0,0,0,0,515,0,0,0,0,0.0000000,0.0000000,0.0000000,0.0000000,10.00,38.4133759,-110.7724686,1360.4000244,0.0,28.5,0.9,0.0,0.0,856,162,0,0,861.02,25.07,19.69,# data time:5630,pm2.5:6.445,pm10:5.704,O2:0.000,NO2:0.000,SO2:0.000,NH3:5.083
9:37:25,0,0,0,0,0,0,0,0,0,0,0,514,0,0,0,0,0.0000000,0.0000000,0.0000000,0.0000000,10.00,38.4133759,-110.7724686,1360.4000244,0.0,28.5,0.9,0.0,0.0,856,162,0,0,861.00,25.01,19.71,# data time:5630,pm2.5:6.445,pm10:5.704,O2:0.000,NO2:0.000,SO2:0.000,NH3:5.083
9:37:26,0,0,0,0,0,0,0,0,0,0,0,514,0,0,0,0,0.0000000,0.0000000,0.0000000,0.0000000,10.00,38.4133759,-110.7724686,1360.4000244,0.0,28.5,0.9,0.0,0.0,855,163,0,0,860.98,24.99,19.74,# data time:5630,pm2.5:6.445,pm10:5.704,O2:0.000,NO2:0.000,SO2:0.000,NH3:5.083
9:37:27,0,0,0,0,0,0,0,0,0,0,0,515,0,0,0,0,0.0000000,0.0000000,0.0000000,0.0000000,10.00,38.4133759,-110.7724686,1360.4000244,0.0,28.5,0.9,0.0,0.0,856,164,0,0,860.97,24.99,19.74,# data time:5630,pm2.5:6.445,pm10:5.704,O2:0.000,NO2:0.000,SO2:0.000,NH3:5.083
9:37:28,0,0,0,0,0,0,0,0,0,0,0,514,0,0,0,0,0.0000000,0.0000000,0.0000000,0.0000000,10.00,38.4133759,-110.7724686,1360.4000244,0.0,28.5,0.9,0.0,0.0,855,161,0,0,861.05,25.01,19.76,# data time:5630,pm2.5:6.445,pm10:5.704,O2:0.000,NO2:0.000,SO2:0.000,NH3:5.083
9:37:29,0,0,0,0,0,0,0,0,0,0,0,515,0,0,0,0,0.0000000,0.0000000,0.0000000,0.0000000,10.00,38.4133759,-110.7724686,1360.4000244,0.0,28.5,0.9,0.0,0.0,856,156,0,0,861.02,24.98,19.79,# data time:5630,pm2.5:6.445,pm10:5.704,O2:0.000,NO2:0.000,SO2:0.000,NH3:5.083
9:37:30,0,0,0,0,0,0,0,0,0,0,0,514,0,0,0,0,0.0000000,0.0000000,0.0000000,0.0000000,10.00,38.4133759,-110.7724686,1360.4000244,0.0,28.5,0.9,0.0,0.0,856,152,0,0,861.01,24.98,19.83,# data time:5630,pm2.5:6.445,pm10:5.704,O2:0.000,NO2:0.000,SO2:0.000,NH3:5.083
9:37:31,0,0,0,0,0,0,0,0,0,0,0,514,0,0,0,0,0.0000000,0.0000000,0.0000000,0.0000000,10.00,38.4133759,-110.7724686,1360.4000244,0.0,28.5,0.9,0.0,0.0,855,149,0,0,860.97,24.95,19.85,# data time:5630,pm2.5:6.445,pm10:5.704,O2:0.000,NO2:0.000,SO2:0.000,NH3:5.083
9:37:33,0,0,0,0,0,0,0,0,0,0,0,513,0,0,0,0,0.0000000,0.0000000,0.0000000,0.0000000,10.00,38.4133759,-110.7724686,1360.4000244,0.0,28.5,0.9,0.0,0.0,855,152,0,0,861.05,24.96,19.87,# data time:5630,pm2.5:6.445,pm10:5.704,O2:0.000,NO2:0.000,SO2:0.000,NH3:5.083
