Time, Motor A Speed, Motor A Dir, Motor B Speed, Motor B Dir, Servo Rail Current Sensor, Servo Pos - Arm L, Servo Pos - Arm R, Servo Pos - End, Servo Pos - Hopper, Servo Pos - Lid, Servo Pos - Extra, Servo Current, LED - Front L, LED - Front R, LED - Back L, LED - Back R, IMU Pitch, IMU Roll, IMU Yaw, Compass Heading, GPS Sats, GPS Latitude, GPS Longitude, GPS Altitude, GPS Speed, GPS Angle, GPS HDOP, GPS VDOP, GPS PDOP, Battery, Wind, Comm Xbee Latency, Comm Arduino Latency, Pressure, Humidity, Temperature, uRADMonitor
8:48:39,0,0,0,0,0,0,0,0,0,0,0,513,0,0,0,0,0.0000000,0.0000000,0.0000000,0.0000000,10.00,38.4227982,-110.7849350,1371.0000000,6.8,331.3,0.9,0.0,0.0,861,151,0,0,859.96,30.37,14.50,# data time:2700,pm2.5:6.445,pm10:5.704,O2:0.000,NO2:0.000,SO2:0.000,NH3:5.988
8:48:40,0,0,0,0,0,0,0,0,0,0,0,513,0,0,0,0,0.0000000,0.0000000,0.0000000,0.0000000,10.00,38.4228287,-110.7849503,1371.1999512,6.8,331.3,0.9,0.0,0.0,861,143,0,0,859.93,30.37,14.51,# data time:2700,pm2.5:6.445,pm10:5.704,O2:0.000,NO2:0.000,SO2:0.000,NH3:5.988
8:48:41,0,0,0,0,0,0,0,0,0,0,0,514,0,0,0,0,0.0000000,0.0000000,0.0000000,0.0000000,10.00,38.4228592,-110.7849731,1371.1999512,6.8,331.9,0.9,0.0,0.0,861,143,0,0,859.91,30.35,14.51,# data time:2700,pm2.5:6.445,pm10:5.704,O2:0.000,NO2:0.000,SO2:0.000,NH3:5.988
8:48:42,0,0,0,0,0,0,0,0,0,0,0,513,0,0,0,0,0.0000000,0.0000000,0.0000000,0.0000000,10.00,38.4228859,-110.7849884,1371.1999512,6.9,331.0,0.9,0.0,0.0,861,141,0,0,859.95,30.32,14.53,# data time:2700,pm2.5:6.445,pm10:5.704,O2:0.000,NO2:0.000,SO2:0.000,NH3:5.988
8:48:43,0,0,0,0,0,0,0,0,0,0,0,513,0,0,0,0,0.0000000,0.0000000,0.0000000,0.0000000,10.00,38.4229164,-110.7850113,1371.1999512,7.1,331.0,0.9,0.0,0.0,861,143,0,0,859.91,30.35,14.53,# data time:2700,pm2.5:6.445,pm10:5.704,O2:0.000,NO2:0.000,SO2:0.000,NH3:5.988
8:48:45,0,0,0,0,0,0,0,0,0,0,0,513,0,0,0,0,0.0000000,0.0000000,0.0000000,0.0000000,10.00,38.4229431,-110.7850342,1371.1999512,7.2,330.3,0.9,0.0,0.0,861,136,0,0,859.88,30.33,14.53,# data time:2710,pm2.5:6.445,pm10:5.704,O2:0.000,NO2:0.000,SO2:0.000,NH3:5.988
8:48:46,0,0,0,0,0,0,0,0,0,0,0,514,0,0,0,0,0.0000000,0.0000000,0.0000000,0.0000000,10.00,38.4229736,-110.7850494,1371.1999512,7.1,329.9,0.9,0.0,0.0,861,146,0,0,859.91,30.37,14.42,# data time:2710,pm2.5:6.445,pm10:5.704,O2:0.000,NO2:0.000,SO2:0.000,NH3:5.988
8:48:47,0,0,0,0,0,0,0,0,0,0,0,513,0,0,0,0,0.0000000,0.0000000,0.0000000,0.0000000,10.00,38.4230042,-110.7850723,1371.0999756,6.9,329.5,0.9,0.0,0.0,861,145,0,0,859.94,30.37,14.42,# data time:2710,pm2.5:6.445,pm10:5.704,O2:0.000,NO2:0.000,SO2:0.000,NH3:5.988
8:48:48,0,0,0,0,0,0,0,0,0,0,0,514,0,0,0,0,0.0000000,0.0000000,0.0000000,0.0000000,10.00,38.4230576,-110.7851105,1370.9000244,6.9,328.1,0.9,0.0,0.0,861,140,0,0,859.93,30.38,14.47,# data time:2710,pm2.5:6.445,pm10:5.704,O2:0.000,NO2:0.000,SO2:0.000,NH3:5.988
8:48:49,0,0,0,0,0,0,0,0,0,0,0,514,0,0,0,0,0.0000000,0.0000000,0.0000000,0.0000000,10.00,38.4230919,-110.7851410,1370.8000488,6.9,326.8,0.9,0.0,0.0,861,148,0,0,859.90,30.47,14.43,# data time:2710,pm2.5:6.445,pm10:5.704,O2:0.000,NO2:0.000,SO2:0.000,NH3:5.988
8:48:50,0,0,0,0,0,0,0,0,0,0,0,514,0,0,0,0,0.0000000,0.0000000,0.0000000,0.0000000,10.00,38.4231224,-110.7851486,1370.6999512,6.9,326.8,0.9,0.0,0.0,861,151,0,0,859.95,30.49,14.40,# data time:2710,pm2.5:6.445,pm10:5.704,O2:0.000,NO2:0.000,SO2:0.000,NH3:5.988
8:48:51,0,0,0,0,0,0,0,0,0,0,0,514,0,0,0,0,0.0000000,0.0000000,0.0000000,0.0000000,10.00,38.4231491,-110.7851791,1370.4000244,5.9,321.6,0.9,0.0,0.0,862,149,0,0,859.94,30.47,14.43,# data time:2710,pm2.5:6.445,pm10:5.704,O2:0.000,NO2:0.000,SO2:0.000,NH3:5.988
8:48:52,0,0,0,0,0,0,0,0,0,0,0,513,0,0,0,0,0.0000000,0.0000000,0.0000000,0.0000000,10.00,38.4231720,-110.7852020,1370.3000488,6.2,321.0,0.9,0.0,0.0,861,153,0,0,859.97,30.49,14.41,# data time:2710,pm2.5:6.445,pm10:5.704,O2:0.000,NO2:0.000,SO2:0.000,NH3:5.988
8:48:53,0,0,0,0,0,0,0,0,0,0,0,514,0,0,0,0,0.0000000,0.0000000,0.0000000,0.0000000,10.00,38.4231987,-110.7852173,1370.0999756,6.6,321.0,0.9,0.0,0.0,861,147,0,0,859.90,30.55,14.38,# data time:2710,pm2.5:6.445,pm10:5.704,O2:0.000,NO2:0.000,SO2:0.000,NH3:5.988
8:48:54,0,0,0,0,0,0,0,0,0,0,0,514,0,0,0,0,0.0000000,0.0000000,0.0000000,0.0000000,10.00,38.4232178,-110.7852402,1369.9000244,7.1,323.4,0.9,0.0,0.0,861,148,0,0,859.93,30.61,14.37,# data time:2710,pm2.5:6.445,pm10:5.704,O2:0.000,NO2:0.000,SO2:0.000,NH3:5.988
8:48:55,0,0,0,0,0,0,0,0,0,0,0,515,0,0,0,0,0.0000000,0.0000000,0.0000000,0.0000000,10.00,38.4232178,-110.7852402,1369.9000244,7.1,323.4,0.9,0.0,0.0,861,148,0,0,859.89,30.62,14.28,# data time:2720,pm2.5:6.445,pm10:5.704,O2:0.000,NO2:0.000,SO2:0.000,NH3:5.988
8:48:56,0,0,0,0,0,0,0,0,0,0,0,513,0,0,0,0,0.0000000,0.0000000,0.0000000,0.0000000,10.00,38.4232750,-110.7852936,1369.5999756,7.0,323.2,0.9,0.0,0.0,862,148,0,0,859.96,30.66,14.39,# data time:2720,pm2.5:6.445,pm10:5.704,O2:0.000,NO2:0.000,SO2:0.000,NH3:5.988
8:48:57,0,0,0,0,0,0,0,0,0,0,0,514,0,0,0,0,0.0000000,0.0000000,0.0000000,0.0000000,10.00,38.4232979,-110.7853165,1369.5000000,7.0,328.0,0.9,0.0,0.0,861,145,0,0,859.93,30.67,14.40,# data time:2720,pm2.5:6.445,pm10:5.704,O2:0.000,NO2:0.000,SO2:0.000,NH3:5.988
8:48:58,0,0,0,0,0,0,0,0,0,0,0,514,0,0,0,0,0.0000000,0.0000000,0.0000000,0.0000000,10.00,38.4233284,-110.7853317,1369.3000488,7.0,330.4,0.9,0.0,0.0,862,148,0,0,859.92,30.69,14.41,# data time:2720,pm2.5:6.445,pm10:5.704,O2:0.000,NO2:0.000,SO2:0.000,NH3:5.988
8:48:59,0,0,0,0,0,0,0,0,0,0,0,514,0,0,0,0,0.0000000,0.0000000,0.0000000,0.0000000,10.00,38.4233551,-110.7853470,1369.4000244,6.3,330.9,0.9,0.0,0.0,861,142,0,0,859.94,30.62,14.41,# data time:2720,pm2.5:6.445,pm10:5.704,O2:0.000,NO2:0.000,SO2:0.000,NH3:5.988
8:49:00,0,0,0,0,0,0,0,0,0,0,0,514,0,0,0,0,0.0000000,0.0000000,0.0000000,0.0000000,10.00,38.4233742,-110.7853546,1369.5000000,5.6,330.7,0.9,0.0,0.0,861,152,0,0,859.96,30.62,14.42,# data time:2720,pm2.5:6.445,pm10:5.704,O2:0.000,NO2:0.000,SO2:0.000,NH3:5.988
8:49:01,0,0,0,0,0,0,0,0,0,0,0,513,0,0,0,0,0.0000000,0.0000000,0.0000000,0.0000000,10.00,38.4233971,-110.7853851,1369.5000000,5.4,333.5,0.9,0.0,0.0,862,149,0,0,859.98,30.62,14.42,# data time:2720,pm2.5:6.445,pm10:5.704,O2:0.000,NO2:0.000,SO2:0.000,NH3:5.988
8:49:02,0,0,0,0,0,0,0,0,0,0,0,514,0,0,0,0,0.0000000,0.0000000,0.0000000,0.0000000,10.00,38.4234161,-110.7853928,1369.5000000,5.0,336.7,0.9,0.0,0.0,862,152,0,0,859.94,30.56,14.43,# data time:2720,pm2.5:6.445,pm10:5.704,O2:0.000,NO2:0.000,SO2:0.000,NH3:5.988
8:49:03,0,0,0,0,0,0,0,0,0,0,0,514,0,0,0,0,0.0000000,0.0000000,0.0000000,0.0000000,10.00,38.4234352,-110.7853928,1369.0999756,4.2,338.3,0.9,0.0,0.0,862,144,0,0,859.95,30.56,14.43,# data time:2720,pm2.5:6.445,pm10:5.704,O2:0.000,NO2:0.000,SO2:0.000,NH3:5.988
8:49:04,0,0,0,0,0,0,0,0,0,0,0,513,0,0,0,0,0.0000000,0.0000000,0.0000000,0.0000000,10.00,38.4234543,-110.7854080,1369.0000000,3.7,339.4,0.9,0.0,0.0,861,151,0,0,859.99,30.56,14.41,# data time:2720,pm2.5:6.445,pm10:5.704,O2:0.000,NO2:0.000,SO2:0.000,NH3:5.988
8:49:05,0,0,0,0,0,0,0,0,0,0,0,514,0,0,0,0,0.0000000,0.0000000,0.0000000,0.0000000,10.00,38.4234543,-110.7854080,1369.0000000,3.7,339.4,0.9,0.0,0.0,860,149,0,0,859.91,30.56,14.33,# data time:2730,pm2.5:6.445,pm10:5.704,O2:0.000,NO2:0.000,SO2:0.000,NH3:5.988
8:49:06,0,0,0,0,0,0,0,0,0,0,0,513,0,0,0,0,0.0000000,0.0000000,0.0000000,0.0000000,10.00,38.4234810,-110.7854233,1368.9000244,2.4,339.4,0.9,0.0,0.0,861,149,0,0,860.00,30.56,14.43,# data time:2730,pm2.5:6.445,pm10:5.704,O2:0.000,NO2:0.000,SO2:0.000,NH3:5.988
8:49:07,0,0,0,0,0,0,0,0,0,0,0,514,0,0,0,0,0.0000000,0.0000000,0.0000000,0.0000000,10.00,38.4234886,-110.7854233,1368.8000488,0.1,339.4,0.9,0.0,0.0,861,148,0,0,859.94,30.55,14.45,# data time:2730,pm2.5:6.445,pm10:5.704,O2:0.000,NO2:0.000,SO2:0.000,NH3:5.988
8:49:08,0,0,0,0,0,0,0,0,0,0,0,514,0,0,0,0,0.0000000,0.0000000,0.0000000,0.0000000,10.00,38.4234886,-110.7854233,1368.6999512,0.0,339.4,0.9,0.0,0.0,861,144,0,0,859.94,30.53,14.48,# data time:2730,pm2.5:6.445,pm10:5.704,O2:0.000,NO2:0.000,SO2:0.000,NH3:5.988
8:49:09,0,0,0,0,0,0,0,0,0,0,0,513,0,0,0,0,0.0000000,0.0000000,0.0000000,0.0000000,10.00,38.4234886,-110.7854233,1369.0000000,0.0,339.4,0.9,0.0,0.0,862,140,0,0,859.94,30.50,14.48,# data time:2730,pm2.5:6.445,pm10:5.704,O2:0.000,NO2:0.000,SO2:0.000,NH3:5.988
8:49:10,0,0,0,0,0,0,0,0,0,0,0,514,0,0,0,0,0.0000000,0.0000000,0.0000000,0.0000000,10.00,38.4234886,-110.7854233,1369.3000488,0.0,339.4,0.9,0.0,0.0,861,144,0,0,859.94,30.47,14.45,# data time:2730,pm2.5:6.445,pm10:5.704,O2:0.000,NO2:0.000,SO2:0.000,NH3:5.988
8:49:11,0,0,0,0,0,0,0,0,0,0,0,514,0,0,0,0,0.0000000,0.0000000,0.0000000,0.0000000,9.00,38.4234886,-110.7854233,1369.1999512,0.0,339.4,0.9,0.0,0.0,862,136,0,0,859.96,30.49,14.46,# data time:2730,pm2.5:6.445,pm10:5.704,O2:0.000,NO2:0.000,SO2:0.000,NH3:5.988
8:49:12,0,0,0,0,0,0,0,0,0,0,0,513,0,0,0,0,0.0000000,0.0000000,0.0000000,0.0000000,9.00,38.4234924,-110.7854233,1369.1999512,0.0,339.4,0.9,0.0,0.0,862,142,0,0,859.97,30.49,14.48,# data time:2730,pm2.5:6.445,pm10:5.704,O2:0.000,NO2:0.000,SO2:0.000,NH3:5.988
8:49:13,0,0,0,0,0,0,0,0,0,0,0,513,0,0,0,0,0.0000000,0.0000000,0.0000000,0.0000000,9.00,38.4234924,-110.7854233,1369.0999756,0.0,339.4,0.9,0.0,0.0,862,140,0,0,859.79,30.47,14.48,# data time:2730,pm2.5:6.445,pm10:5.704,O2:0.000,NO2:0.000,SO2:0.000,NH3:5.988
8:49:14,0,0,0,0,0,0,0,0,0,0,0,514,0,0,0,0,0.0000000,0.0000000,0.0000000,0.0000000,9.00,38.4234924,-110.7854233,1369.0999756,0.0,339.4,0.9,0.0,0.0,862,134,0,0,859.96,30.47,14.46,# data time:2730,pm2.5:6.445,pm10:5.704,O2:0.000,NO2:0.000,SO2:0.000,NH3:5.988
8:49:15,0,0,0,0,0,0,0,0,0,0,0,514,0,0,0,0,0.0000000,0.0000000,0.0000000,0.0000000,9.00,38.4234924,-110.7854233,1369.0999756,0.0,339.4,0.9,0.0,0.0,862,146,0,0,859.92,30.46,14.34,# data time:2740,pm2.5:5.640,pm10:4.991,O2:0.000,NO2:0.000,SO2:0.000,NH3:6.215
8:49:16,0,0,0,0,0,0,0,0,0,0,0,514,0,0,0,0,0.0000000,0.0000000,0.0000000,0.0000000,9.00,38.4234924,-110.7854233,1369.0000000,0.0,339.4,0.9,0.0,0.0,861,146,0,0,859.94,30.50,14.42,# data time:2740,pm2.5:5.640,pm10:4.991,O2:0.000,NO2:0.000,SO2:0.000,NH3:6.215
8:49:17,0,0,0,0,0,0,0,0,0,0,0,514,0,0,0,0,0.0000000,0.0000000,0.0000000,0.0000000,9.00,38.4234924,-110.7854233,1369.0000000,0.0,339.4,0.9,0.0,0.0,862,144,0,0,859.94,30.50,14.44,# data time:2740,pm2.5:5.640,pm10:4.991,O2:0.000,NO2:0.000,SO2:0.000,NH3:6.215
8:49:18,0,0,0,0,0,0,0,0,0,0,0,512,0,0,0,0,0.0000000,0.0000000,0.0000000,0.0000000,9.00,38.4234924,-110.7854233,1369.0000000,0.0,339.4,0.9,0.0,0.0,862,140,0,0,859.95,30.52,14.44,# data time:2740,pm2.5:5.640,pm10:4.991,O2:0.000,NO2:0.000,SO2:0.000,NH3:6.215
8:49:19,0,0,0,0,0,0,0,0,0,0,0,516,0,0,0,0,0.0000000,0.0000000,0.0000000,0.0000000,9.00,38.4234924,-110.7854233,1369.0000000,0.0,339.4,0.9,0.0,0.0,861,146,0,0,859.97,30.52,14.44,# data time:2740,pm2.5:5.640,pm10:4.991,O2:0.000,NO2:0.000,SO2:0.000,NH3:6.215
8:49:20,0,0,0,0,0,0,0,0,0,0,0,513,0,0,0,0,0.0000000,0.0000000,0.0000000,0.0000000,9.00,38.4234924,-110.7854233,1369.0000000,0.0,339.4,0.9,0.0,0.0,862,146,0,0,859.93,30.53,14.45,# data time:2740,pm2.5:5.640,pm10:4.991,O2:0.000,NO2:0.000,SO2:0.000,NH3:6.215
8:49:21,0,0,0,0,0,0,0,0,0,0,0,514,0,0,0,0,0.0000000,0.0000000,0.0000000,0.0000000,9.00,38.4234924,-110.7854233,1369.0000000,0.0,339.4,0.9,0.0,0.0,861,137,0,0,859.93,30.52,14.44,# data time:2740,pm2.5:5.640,pm10:4.991,O2:0.000,NO2:0.000,SO2:0.000,NH3:6.215
8:49:22,0,0,0,0,0,0,0,0,0,0,0,514,0,0,0,0,0.0000000,0.0000000,0.0000000,0.0000000,9.00,38.4234924,-110.7854233,1369.0000000,0.0,339.4,0.9,0.0,0.0,862,141,0,0,859.97,30.52,14.45,# data time:2740,pm2.5:5.640,pm10:4.991,O2:0.000,NO2:0.000,SO2:0.000,NH3:6.215
8:49:23,0,0,0,0,0,0,0,0,0,0,0,514,0,0,0,0,0.0000000,0.0000000,0.0000000,0.0000000,9.00,38.4234924,-110.7854233,1369.0000000,0.0,339.4,0.9,0.0,0.0,862,137,0,0,859.91,30.52,14.45,# data time:2740,pm2.5:5.640,pm10:4.991,O2:0.000,NO2:0.000,SO2:0.000,NH3:6.215
8:49:24,0,0,0,0,0,0,0,0,0,0,0,513,0,0,0,0,0.0000000,0.0000000,0.0000000,0.0000000,9.00,38.4234924,-110.7854233,1369.0000000,0.0,339.4,0.9,0.0,0.0,862,138,0,0,859.94,30.52,14.45,# data time:2740,pm2.5:5.640,pm10:4.991,O2:0.000,NO2:0.000,SO2:0.000,NH3:6.215
8:49:25,0,0,0,0,0,0,0,0,0,0,0,513,0,0,0,0,0.0000000,0.0000000,0.0000000,0.0000000,9.00,38.4234924,-110.7854233,1369.0000000,0.0,339.4,0.9,0.0,0.0,861,135,0,0,859.85,30.52,14.34,# data time:2750,pm2.5:5.640,pm10:4.991,O2:0.000,NO2:0.000,SO2:0.000,NH3:5.988
8:49:26,0,0,0,0,0,0,0,0,0,0,0,515,0,0,0,0,0.0000000,0.0000000,0.0000000,0.0000000,10.00,38.4234924,-110.7854233,1369.0000000,0.0,339.4,0.9,0.0,0.0,861,145,0,0,859.85,30.53,14.43,# data time:2750,pm2.5:5.640,pm10:4.991,O2:0.000,NO2:0.000,SO2:0.000,NH3:5.988
8:49:27,0,0,0,0,0,0,0,0,0,0,0,515,0,0,0,0,0.0000000,0.0000000,0.0000000,0.0000000,10.00,38.4234924,-110.7854233,1369.0000000,0.0,339.4,0.9,0.0,0.0,862,137,0,0,859.86,30.55,14.42,# data time:2750,pm2.5:5.640,pm10:4.991,O2:0.000,NO2:0.000,SO2:0.000,NH3:5.988
8:49:28,0,0,0,0,0,0,0,0,0,0,0,514,0,0,0,0,0.0000000,0.0000000,0.0000000,0.0000000,10.00,38.4234924,-110.7854233,1369.0000000,0.0,339.4,0.9,0.0,0.0,862,139,0,0,859.92,30.58,14.42,# data time:2750,pm2.5:5.640,pm10:4.991,O2:0.000,NO2:0.000,SO2:0.000,NH3:5.988
8:49:29,0,0,0,0,0,0,0,0,0,0,0,514,0,0,0,0,0.0000000,0.0000000,0.0000000,0.0000000,10.00,38.4234924,-110.7854233,1369.0000000,0.0,339.4,0.9,0.0,0.0,862,136,0,0,859.92,30.55,14.42,# data time:2750,pm2.5:5.640,pm10:4.991,O2:0.000,NO2:0.000,SO2:0.000,NH3:5.988
8:49:30,0,0,0,0,0,0,0,0,0,0,0,514,0,0,0,0,0.0000000,0.0000000,0.0000000,0.0000000,10.00,38.4234924,-110.7854233,1369.0000000,0.0,339.4,0.9,0.0,0.0,862,139,0,0,859.91,30.59,14.42,# data time:2750,pm2.5:5.640,pm10:4.991,O2:0.000,NO2:0.000,SO2:0.000,NH3:5.988
8:49:31,0,0,0,0,0,0,0,0,0,0,0,512,0,0,0,0,0.0000000,0.0000000,0.0000000,0.0000000,10.00,38.4234924,-110.7854233,1369.0000000,0.0,339.4,0.9,0.0,0.0,861,142,0,0,859.94,30.61,14.41,# data time:2750,pm2.5:5.640,pm10:4.991,O2:0.000,NO2:0.000,SO2:0.000,NH3:5.988
8:49:32,0,0,0,0,0,0,0,0,0,0,0,514,0,0,0,0,0.0000000,0.0000000,0.0000000,0.0000000,9.00,38.4234924,-110.7854233,1369.0000000,0.1,339.4,0.9,0.0,0.0,861,136,0,0,859.91,30.61,14.41,# data time:2750,pm2.5:5.640,pm10:4.991,O2:0.000,NO2:0.000,SO2:0.000,NH3:5.988
8:49:33,0,0,0,0,0,0,0,0,0,0,0,514,0,0,0,0,0.0000000,0.0000000,0.0000000,0.0000000,10.00,38.4234924,-110.7854233,1369.0000000,0.1,339.4,0.9,0.0,0.0,862,142,0,0,859.86,30.59,14.40,# data time:2750,pm2.5:5.640,pm10:4.991,O2:0.000,NO2:0.000,SO2:0.000,NH3:5.988
8:49:34,0,0,0,0,0,0,0,0,0,0,0,514,0,0,0,0,0.0000000,0.0000000,0.0000000,0.0000000,10.00,38.4234924,-110.7854233,1369.0000000,0.1,339.4,0.9,0.0,0.0,861,147,0,0,859.89,30.61,14.40,# data time:2750,pm2.5:5.640,pm10:4.991,O2:0.000,NO2:0.000,SO2:0.000,NH3:5.988
8:49:35,0,0,0,0,0,0,0,0,0,0,0,512,0,0,0,0,0.0000000,0.0000000,0.0000000,0.0000000,10.00,38.4234924,-110.7854233,1369.0000000,0.1,339.4,0.9,0.0,0.0,861,159,0,0,859.87,30.61,14.39,# data time:2760,pm2.5:6.445,pm10:5.704,O2:0.000,NO2:0.000,SO2:0.000,NH3:5.988
8:49:36,0,0,0,0,0,0,0,0,0,0,0,515,0,0,0,0,0.0000000,0.0000000,0.0000000,0.0000000,10.00,38.4234924,-110.7854233,1369.0000000,0.1,339.4,0.9,0.0,0.0,863,136,0,0,859.94,30.64,14.38,# data time:2760,pm2.5:6.445,pm10:5.704,O2:0.000,NO2:0.000,SO2:0.000,NH3:5.988
8:49:37,0,0,0,0,0,0,0,0,0,0,0,513,0,0,0,0,0.0000000,0.0000000,0.0000000,0.0000000,10.00,38.4234924,-110.7854233,1369.0000000,0.1,339.4,0.9,0.0,0.0,862,145,0,0,859.90,30.62,14.39,# data time:2760,pm2.5:6.445,pm10:5.704,O2:0.000,NO2:0.000,SO2:0.000,NH3:5.988
8:49:38,0,0,0,0,0,0,0,0,0,0,0,514,0,0,0,0,0.0000000,0.0000000,0.0000000,0.0000000,10.00,38.4234924,-110.7854233,1369.0000000,0.1,339.4,0.9,0.0,0.0,862,141,0,0,859.89,30.62,14.40,# data time:2760,pm2.5:6.445,pm10:5.704,O2:0.000,NO2:0.000,SO2:0.000,NH3:5.988
8:49:39,0,0,0,0,0,0,0,0,0,0,0,514,0,0,0,0,0.0000000,0.0000000,0.0000000,0.0000000,10.00,38.4234924,-110.7854233,1369.0000000,0.1,339.4,0.9,0.0,0.0,863,143,0,0,859.91,30.66,14.39,# data time:2760,pm2.5:6.445,pm10:5.704,O2:0.000,NO2:0.000,SO2:0.000,NH3:5.988
8:49:40,0,0,0,0,0,0,0,0,0,0,0,514,0,0,0,0,0.0000000,0.0000000,0.0000000,0.0000000,10.00,38.4234924,-110.7854233,1369.0000000,0.1,339.4,0.9,0.0,0.0,861,142,0,0,859.83,30.64,14.38,# data time:2760,pm2.5:6.445,pm10:5.704,O2:0.000,NO2:0.000,SO2:0.000,NH3:5.988
8:49:41,0,0,0,0,0,0,0,0,0,0,0,513,0,0,0,0,0.0000000,0.0000000,0.0000000,0.0000000,10.00,38.4234924,-110.7854233,1369.0000000,0.1,339.4,0.9,0.0,0.0,862,140,0,0,859.90,30.67,14.37,# data time:2760,pm2.5:6.445,pm10:5.704,O2:0.000,NO2:0.000,SO2:0.000,NH3:5.988
8:49:42,0,0,0,0,0,0,0,0,0,0,0,515,0,0,0,0,0.0000000,0.0000000,0.0000000,0.0000000,10.00,38.4234886,-110.7854233,1369.0000000,0.1,339.4,0.9,0.0,0.0,862,139,0,0,859.90,30.64,14.38,# data time:2760,pm2.5:6.445,pm10:5.704,O2:0.000,NO2:0.000,SO2:0.000,NH3:5.988
8:49:43,0,0,0,0,0,0,0,0,0,0,0,513,0,0,0,0,0.0000000,0.0000000,0.0000000,0.0000000,10.00,38.4234886,-110.7854233,1369.0999756,0.2,339.4,0.9,0.0,0.0,861,137,0,0,859.91,30.64,14.38,# data time:2760,pm2.5:6.445,pm10:5.704,O2:0.000,NO2:0.000,SO2:0.000,NH3:5.988
8:49:44,0,0,0,0,0,0,0,0,0,0,0,513,0,0,0,0,0.0000000,0.0000000,0.0000000,0.0000000,9.00,38.4234886,-110.7854233,1369.0999756,0.3,339.4,0.9,0.0,0.0,861,139,0,0,859.92,30.67,14.37,# data time:2770,pm2.5:6.445,pm10:5.704,O2:0.000,NO2:0.000,SO2:0.000,NH3:5.988
8:49:46,0,0,0,0,0,0,0,0,0,0,0,513,0,0,0,0,0.0000000,0.0000000,0.0000000,0.0000000,9.00,38.4234886,-110.7854233,1369.0999756,0.0,339.4,0.9,0.0,0.0,861,134,0,0,859.93,30.66,14.38,# data time:2770,pm2.5:6.445,pm10:5.704,O2:0.000,NO2:0.000,SO2:0.000,NH3:5.988
8:49:47,0,0,0,0,0,0,0,0,0,0,0,513,0,0,0,0,0.0000000,0.0000000,0.0000000,0.0000000,9.00,38.4234886,-110.7854233,1369.0999756,0.0,178.4,0.9,0.0,0.0,862,135,0,0,859.94,30.67,14.27,# data time:2770,pm2.5:6.445,pm10:5.704,O2:0.000,NO2:0.000,SO2:0.000,NH3:5.988
8:49:48,0,0,0,0,0,0,0,0,0,0,0,513,0,0,0,0,0.0000000,0.0000000,0.0000000,0.0000000,10.00,38.4234810,-110.7854233,1369.0999756,0.7,179.9,0.9,0.0,0.0,861,139,0,0,859.90,30.67,14.30,# data time:2770,pm2.5:6.445,pm10:5.704,O2:0.000,NO2:0.000,SO2:0.000,NH3:5.988
8:49:49,0,0,0,0,0,0,0,0,0,0,0,513,0,0,0,0,0.0000000,0.0000000,0.0000000,0.0000000,10.00,38.4234810,-110.7854233,1369.0999756,0.7,179.9,0.9,0.0,0.0,864,126,0,0,859.89,30.69,14.30,# data time:2770,pm2.5:6.445,pm10:5.704,O2:0.000,NO2:0.000,SO2:0.000,NH3:5.988
8:49:50,0,0,0,0,0,0,0,0,0,0,0,516,0,0,0,0,0.0000000,0.0000000,0.0000000,0.0000000,10.00,38.4234772,-110.7854233,1369.0999756,0.3,167.8,0.9,0.0,0.0,859,138,0,0,859.89,30.67,14.30,# data time:2770,pm2.5:6.445,pm10:5.704,O2:0.000,NO2:0.000,SO2:0.000,NH3:5.988
8:49:51,0,0,0,0,0,0,0,0,0,0,0,514,0,0,0,0,0.0000000,0.0000000,0.0000000,0.0000000,10.00,38.4234772,-110.7854233,1369.0999756,0.4,155.7,0.9,0.0,0.0,861,134,0,0,859.95,30.69,14.30,# data time:2770,pm2.5:6.445,pm10:5.704,O2:0.000,NO2:0.000,SO2:0.000,NH3:5.988
8:49:52,0,0,0,0,0,0,0,0,0,0,0,512,0,0,0,0,0.0000000,0.0000000,0.0000000,0.0000000,9.00,38.4234772,-110.7854233,1369.0999756,0.2,140.5,0.9,0.0,0.0,862,135,0,0,859.95,30.72,14.31,# data time:2770,pm2.5:6.445,pm10:5.704,O2:0.000,NO2:0.000,SO2:0.000,NH3:5.988
8:49:53,0,0,0,0,0,0,0,0,0,0,0,513,0,0,0,0,0.0000000,0.0000000,0.0000000,0.0000000,10.00,38.4234810,-110.7854233,1369.0999756,0.9,140.5,0.9,0.0,0.0,862,139,0,0,859.87,30.70,14.32,# data time:2770,pm2.5:6.445,pm10:5.704,O2:0.000,NO2:0.000,SO2:0.000,NH3:5.988
8:49:54,0,0,0,0,0,0,0,0,0,0,0,514,0,0,0,0,0.0000000,0.0000000,0.0000000,0.0000000,10.00,38.4234886,-110.7854233,1369.1999512,1.4,140.5,0.9,0.0,0.0,861,137,0,0,859.87,30.70,14.33,# data time:2770,pm2.5:6.445,pm10:5.704,O2:0.000,NO2:0.000,SO2:0.000,NH3:5.988
8:49:55,0,0,0,0,0,0,0,0,0,0,0,513,0,0,0,0,0.0000000,0.0000000,0.0000000,0.0000000,10.00,38.4234962,-110.7854233,1369.1999512,1.9,140.5,0.9,0.0,0.0,862,133,0,0,859.90,30.73,14.36,# data time:2780,pm2.5:6.445,pm10:5.704,O2:0.000,NO2:0.000,SO2:0.000,NH3:6.215
8:49:56,0,0,0,0,0,0,0,0,0,0,0,514,0,0,0,0,0.0000000,0.0000000,0.0000000,0.0000000,10.00,38.4235039,-110.7854309,1369.3000488,0.0,140.5,0.9,0.0,0.0,861,149,0,0,859.87,30.70,14.37,# data time:2780,pm2.5:6.445,pm10:5.704,O2:0.000,NO2:0.000,SO2:0.000,NH3:6.215
8:49:57,0,0,0,0,0,0,0,0,0,0,0,514,0,0,0,0,0.0000000,0.0000000,0.0000000,0.0000000,10.00,38.4235039,-110.7854309,1369.3000488,0.0,140.5,0.9,0.0,0.0,861,150,0,0,859.77,30.72,14.36,# data time:2780,pm2.5:6.445,pm10:5.704,O2:0.000,NO2:0.000,SO2:0.000,NH3:6.215
8:49:58,0,0,0,0,0,0,0,0,0,0,0,514,0,0,0,0,0.0000000,0.0000000,0.0000000,0.0000000,10.00,38.4235039,-110.7854309,1369.3000488,0.0,140.5,0.9,0.0,0.0,861,155,0,0,859.81,30.78,14.37,# data time:2780,pm2.5:6.445,pm10:5.704,O2:0.000,NO2:0.000,SO2:0.000,NH3:6.215
8:49:59,0,0,0,0,0,0,0,0,0,0,0,513,0,0,0,0,0.0000000,0.0000000,0.0000000,0.0000000,10.00,38.4235077,-110.7854309,1369.3000488,0.1,140.5,0.9,0.0,0.0,861,153,0,0,859.85,30.76,14.39,# data time:2780,pm2.5:6.445,pm10:5.704,O2:0.000,NO2:0.000,SO2:0.000,NH3:6.215
8:50:00,0,0,0,0,0,0,0,0,0,0,0,514,0,0,0,0,0.0000000,0.0000000,0.0000000,0.0000000,10.00,38.4235077,-110.7854309,1369.4000244,0.0,140.5,0.9,0.0,0.0,862,149,0,0,859.80,30.73,14.40,# data time:2780,pm2.5:6.445,pm10:5.704,O2:0.000,NO2:0.000,SO2:0.000,NH3:6.215
8:50:01,0,0,0,0,0,0,0,0,0,0,0,514,0,0,0,0,0.0000000,0.0000000,0.0000000,0.0000000,10.00,38.4235077,-110.7854309,1369.4000244,0.0,140.5,0.9,0.0,0.0,861,145,0,0,859.82,30.73,14.41,# data time:2780,pm2.5:6.445,pm10:5.704,O2:0.000,NO2:0.000,SO2:0.000,NH3:6.215
8:50:02,0,0,0,0,0,0,0,0,0,0,0,514,0,0,0,0,0.0000000,0.0000000,0.0000000,0.0000000,10.00,38.4235077,-110.7854309,1369.5000000,0.0,140.5,0.9,0.0,0.0,862,144,0,0,859.82,30.75,14.40,# data time:2780,pm2.5:6.445,pm10:5.704,O2:0.000,NO2:0.000,SO2:0.000,NH3:6.215
8:50:03,0,0,0,0,0,0,0,0,0,0,0,513,0,0,0,0,0.0000000,0.0000000,0.0000000,0.0000000,10.00,38.4235077,-110.7854309,1369.5000000,0.0,140.5,0.9,0.0,0.0,862,149,0,0,859.84,30.75,14.39,# data time:2780,pm2.5:6.445,pm10:5.704,O2:0.000,NO2:0.000,SO2:0.000,NH3:6.215
8:50:04,0,0,0,0,0,0,0,0,0,0,0,514,0,0,0,0,0.0000000,0.0000000,0.0000000,0.0000000,10.00,38.4235077,-110.7854309,1369.5999756,0.0,140.5,0.9,0.0,0.0,862,145,0,0,859.81,30.75,14.39,# data time:2780,pm2.5:6.445,pm10:5.704,O2:0.000,NO2:0.000,SO2:0.000,NH3:6.215
8:50:05,0,0,0,0,0,0,0,0,0,0,0,514,0,0,0,0,0.0000000,0.0000000,0.0000000,0.0000000,10.00,38.4235077,-110.7854309,1369.5999756,0.0,140.5,0.9,0.0,0.0,861,147,0,0,859.82,30.76,14.39,# data time:2790,pm2.5:6.445,pm10:5.704,O2:0.000,NO2:0.000,SO2:0.000,NH3:6.441
8:50:06,0,0,0,0,0,0,0,0,0,0,0,514,0,0,0,0,0.0000000,0.0000000,0.0000000,0.0000000,10.00,38.4235077,-110.7854309,1369.5999756,0.0,140.5,0.9,0.0,0.0,861,145,0,0,859.88,30.79,14.40,# data time:2790,pm2.5:6.445,pm10:5.704,O2:0.000,NO2:0.000,SO2:0.000,NH3:6.441
8:50:07,0,0,0,0,0,0,0,0,0,0,0,513,0,0,0,0,0.0000000,0.0000000,0.0000000,0.0000000,10.00,38.4235077,-110.7854309,1369.5999756,0.1,140.5,0.9,0.0,0.0,861,144,0,0,859.92,30.79,14.41,# data time:2790,pm2.5:6.445,pm10:5.704,O2:0.000,NO2:0.000,SO2:0.000,NH3:6.441
8:50:08,0,0,0,0,0,0,0,0,0,0,0,513,0,0,0,0,0.0000000,0.0000000,0.0000000,0.0000000,10.00,38.4235077,-110.7854309,1369.5999756,0.8,140.5,0.9,0.0,0.0,861,146,0,0,859.88,30.82,14.43,# data time:2790,pm2.5:6.445,pm10:5.704,O2:0.000,NO2:0.000,SO2:0.000,NH3:6.441
8:50:09,0,0,0,0,0,0,0,0,0,0,0,514,0,0,0,0,0.0000000,0.0000000,0.0000000,0.0000000,10.00,38.4235077,-110.7854233,1369.6999512,1.0,140.5,0.9,0.0,0.0,862,148,0,0,859.91,30.79,14.45,# data time:2790,pm2.5:6.445,pm10:5.704,O2:0.000,NO2:0.000,SO2:0.000,NH3:6.441
8:50:10,0,0,0,0,0,0,0,0,0,0,0,514,0,0,0,0,0.0000000,0.0000000,0.0000000,0.0000000,10.00,38.4235115,-110.7854233,1369.6999512,1.0,140.5,0.9,0.0,0.0,861,143,0,0,859.93,30.82,14.46,# data time:2790,pm2.5:6.445,pm10:5.704,O2:0.000,NO2:0.000,SO2:0.000,NH3:6.441
8:50:11,0,0,0,0,0,0,0,0,0,0,0,513,0,0,0,0,0.0000000,0.0000000,0.0000000,0.0000000,10.00,38.4235153,-110.7854080,1369.6999512,1.1,140.5,0.9,0.0,0.0,863,152,0,0,859.93,30.79,14.48,# data time:2790,pm2.5:6.445,pm10:5.704,O2:0.000,NO2:0.000,SO2:0.000,NH3:6.441
8:50:12,0,0,0,0,0,0,0,0,0,0,0,513,0,0,0,0,0.0000000,0.0000000,0.0000000,0.0000000,10.00,38.4235153,-110.7854080,1369.6999512,0.6,140.5,0.9,0.0,0.0,862,140,0,0,859.93,30.79,14.48,# data time:2790,pm2.5:6.445,pm10:5.704,O2:0.000,NO2:0.000,SO2:0.000,NH3:6.441
8:50:13,0,0,0,0,0,0,0,0,0,0,0,514,0,0,0,0,0.0000000,0.0000000,0.0000000,0.0000000,10.00,38.4235153,-110.7854080,1369.6999512,0.4,140.5,0.9,0.0,0.0,861,141,0,0,859.91,30.81,14.48,# data time:2790,pm2.5:6.445,pm10:5.704,O2:0.000,NO2:0.000,SO2:0.000,NH3:6.441
8:50:14,0,0,0,0,0,0,0,0,0,0,0,514,0,0,0,0,0.0000000,0.0000000,0.0000000,0.0000000,10.00,38.4235153,-110.7854080,1369.6999512,0.2,140.5,0.9,0.0,0.0,862,141,0,0,859.92,30.85,14.46,# data time:2790,pm2.5:6.445,pm10:5.704,O2:0.000,NO2:0.000,SO2:0.000,NH3:6.441
8:50:15,0,0,0,0,0,0,0,0,0,0,0,513,0,0,0,0,0.0000000,0.0000000,0.0000000,0.0000000,10.00,38.4235153,-110.7854080,1369.6999512,0.0,57.2,0.9,0.0,0.0,861,138,0,0,859.95,30.84,14.46,# data time:2800,pm2.5:6.445,pm10:5.704,O2:0.000,NO2:0.000,SO2:0.000,NH3:5.988
8:50:16,0,0,0,0,0,0,0,0,0,0,0,513,0,0,0,0,0.0000000,0.0000000,0.0000000,0.0000000,10.00,38.4235153,-110.7854080,1369.6999512,0.0,56.5,0.9,0.0,0.0,861,135,0,0,859.90,30.85,14.46,# data time:2800,pm2.5:6.445,pm10:5.704,O2:0.000,NO2:0.000,SO2:0.000,NH3:5.988
8:50:17,0,0,0,0,0,0,0,0,0,0,0,514,0,0,0,0,0.0000000,0.0000000,0.0000000,0.0000000,10.00,38.4235153,-110.7854080,1369.6999512,0.0,56.1,0.9,0.0,0.0,861,141,0,0,859.94,30.84,14.49,# data time:2800,pm2.5:6.445,pm10:5.704,O2:0.000,NO2:0.000,SO2:0.000,NH3:5.988
8:50:18,0,0,0,0,0,0,0,0,0,0,0,515,0,0,0,0,0.0000000,0.0000000,0.0000000,0.0000000,10.00,38.4235153,-110.7854080,1369.8000488,0.0,56.1,0.9,0.0,0.0,862,134,0,0,859.89,30.82,14.49,# data time:2800,pm2.5:6.445,pm10:5.704,O2:0.000,NO2:0.000,SO2:0.000,NH3:5.988
8:50:19,0,0,0,0,0,0,0,0,0,0,0,513,0,0,0,0,0.0000000,0.0000000,0.0000000,0.0000000,10.00,38.4235153,-110.7854080,1369.8000488,0.3,56.1,0.9,0.0,0.0,861,133,0,0,859.86,30.82,14.49,# data time:2800,pm2.5:6.445,pm10:5.704,O2:0.000,NO2:0.000,SO2:0.000,NH3:5.988
8:50:20,0,0,0,0,0,0,0,0,0,0,0,513,0,0,0,0,0.0000000,0.0000000,0.0000000,0.0000000,10.00,38.4235153,-110.7854080,1369.8000488,0.8,197.1,0.9,0.0,0.0,861,135,0,0,859.95,30.81,14.49,# data time:2800,pm2.5:6.445,pm10:5.704,O2:0.000,NO2:0.000,SO2:0.000,NH3:5.988
8:50:21,0,0,0,0,0,0,0,0,0,0,0,514,0,0,0,0,0.0000000,0.0000000,0.0000000,0.0000000,10.00,38.4235153,-110.7854080,1369.8000488,1.6,197.1,0.9,0.0,0.0,861,133,0,0,859.92,30.85,14.44,# data time:2800,pm2.5:6.445,pm10:5.704,O2:0.000,NO2:0.000,SO2:0.000,NH3:5.988
8:50:22,0,0,0,0,0,0,0,0,0,0,0,514,0,0,0,0,0.0000000,0.0000000,0.0000000,0.0000000,10.00,38.4235153,-110.7854080,1369.8000488,2.1,197.1,0.9,0.0,0.0,861,131,0,0,859.90,30.84,14.42,# data time:2800,pm2.5:6.445,pm10:5.704,O2:0.000,NO2:0.000,SO2:0.000,NH3:5.988
8:50:23,0,0,0,0,0,0,0,0,0,0,0,514,0,0,0,0,0.0000000,0.0000000,0.0000000,0.0000000,10.00,38.4235001,-110.7854080,1369.8000488,3.0,171.2,0.9,0.0,0.0,861,130,0,0,859.91,30.87,14.41,# data time:2800,pm2.5:6.445,pm10:5.704,O2:0.000,NO2:0.000,SO2:0.000,NH3:5.988
8:50:24,0,0,0,0,0,0,0,0,0,0,0,513,0,0,0,0,0.0000000,0.0000000,0.0000000,0.0000000,10.00,38.4234848,-110.7854080,1369.9000244,3.3,163.3,0.9,0.0,0.0,861,135,0,0,859.87,30.88,14.42,# data time:2800,pm2.5:6.445,pm10:5.704,O2:0.000,NO2:0.000,SO2:0.000,NH3:5.988
8:50:25,0,0,0,0,0,0,0,0,0,0,0,516,0,0,0,0,0.0000000,0.0000000,0.0000000,0.0000000,10.00,38.4234695,-110.7854080,1369.9000244,3.5,158.5,0.9,0.0,0.0,863,126,0,0,859.92,30.90,14.42,# data time:2810,pm2.5:6.445,pm10:5.704,O2:0.000,NO2:0.000,SO2:0.000,NH3:6.215
8:50:26,0,0,0,0,0,0,0,0,0,0,0,515,0,0,0,0,0.0000000,0.0000000,0.0000000,0.0000000,9.00,38.4234505,-110.7853928,1370.0000000,3.8,156.3,0.9,0.0,0.0,863,118,0,0,859.93,30.90,14.42,# data time:2810,pm2.5:6.445,pm10:5.704,O2:0.000,NO2:0.000,SO2:0.000,NH3:6.215
8:50:27,0,0,0,0,0,0,0,0,0,0,0,514,0,0,0,0,0.0000000,0.0000000,0.0000000,0.0000000,10.00,38.4234352,-110.7853928,1370.0000000,4.1,154.3,0.9,0.0,0.0,861,138,0,0,859.89,30.93,14.45,# data time:2810,pm2.5:6.445,pm10:5.704,O2:0.000,NO2:0.000,SO2:0.000,NH3:6.215
8:50:28,0,0,0,0,0,0,0,0,0,0,0,514,0,0,0,0,0.0000000,0.0000000,0.0000000,0.0000000,10.00,38.4234161,-110.7853851,1369.9000244,4.2,152.6,0.9,0.0,0.0,862,133,0,0,859.88,30.88,14.46,# data time:2810,pm2.5:6.445,pm10:5.704,O2:0.000,NO2:0.000,SO2:0.000,NH3:6.215
8:50:29,0,0,0,0,0,0,0,0,0,0,0,514,0,0,0,0,0.0000000,0.0000000,0.0000000,0.0000000,10.00,38.4233971,-110.7853699,1369.9000244,4.2,151.9,0.9,0.0,0.0,861,136,0,0,859.92,30.88,14.48,# data time:2810,pm2.5:6.445,pm10:5.704,O2:0.000,NO2:0.000,SO2:0.000,NH3:6.215
8:50:30,0,0,0,0,0,0,0,0,0,0,0,513,0,0,0,0,0.0000000,0.0000000,0.0000000,0.0000000,10.00,38.4233780,-110.7853546,1369.8000488,4.2,149.0,0.9,0.0,0.0,861,136,0,0,859.87,30.87,14.48,# data time:2810,pm2.5:6.445,pm10:5.704,O2:0.000,NO2:0.000,SO2:0.000,NH3:6.215
8:50:31,0,0,0,0,0,0,0,0,0,0,0,514,0,0,0,0,0.0000000,0.0000000,0.0000000,0.0000000,10.00,38.4233589,-110.7853470,1369.8000488,4.2,148.3,0.9,0.0,0.0,861,131,0,0,859.85,30.84,14.50,# data time:2810,pm2.5:6.445,pm10:5.704,O2:0.000,NO2:0.000,SO2:0.000,NH3:6.215
8:50:32,0,0,0,0,0,0,0,0,0,0,0,514,0,0,0,0,0.0000000,0.0000000,0.0000000,0.0000000,10.00,38.4233437,-110.7853317,1369.6999512,4.3,147.8,0.9,0.0,0.0,861,137,0,0,859.92,30.81,14.51,# data time:2810,pm2.5:6.445,pm10:5.704,O2:0.000,NO2:0.000,SO2:0.000,NH3:6.215
8:50:33,0,0,0,0,0,0,0,0,0,0,0,513,0,0,0,0,0.0000000,0.0000000,0.0000000,0.0000000,10.00,38.4233246,-110.7853165,1369.6999512,4.6,146.7,0.9,0.0,0.0,862,134,0,0,859.90,30.79,14.53,# data time:2810,pm2.5:6.445,pm10:5.704,O2:0.000,NO2:0.000,SO2:0.000,NH3:6.215
8:50:34,0,0,0,0,0,0,0,0,0,0,0,513,0,0,0,0,0.0000000,0.0000000,0.0000000,0.0000000,10.00,38.4233093,-110.7853088,1369.6999512,4.6,146.0,0.9,0.0,0.0,861,136,0,0,859.89,30.79,14.53,# data time:2810,pm2.5:6.445,pm10:5.704,O2:0.000,NO2:0.000,SO2:0.000,NH3:6.215
8:50:35,0,0,0,0,0,0,0,0,0,0,0,515,0,0,0,0,0.0000000,0.0000000,0.0000000,0.0000000,10.00,38.4232903,-110.7852936,1369.5999756,4.6,146.1,0.9,0.0,0.0,861,134,0,0,859.88,30.76,14.55,# data time:2820,pm2.5:6.445,pm10:5.704,O2:0.000,NO2:0.000,SO2:0.000,NH3:6.215
8:50:36,0,0,0,0,0,0,0,0,0,0,0,513,0,0,0,0,0.0000000,0.0000000,0.0000000,0.0000000,10.00,38.4232712,-110.7852707,1369.5999756,4.8,145.6,0.9,0.0,0.0,862,131,0,0,859.88,30.75,14.55,# data time:2820,pm2.5:6.445,pm10:5.704,O2:0.000,NO2:0.000,SO2:0.000,NH3:6.215
8:50:37,0,0,0,0,0,0,0,0,0,0,0,514,0,0,0,0,0.0000000,0.0000000,0.0000000,0.0000000,10.00,38.4232483,-110.7852554,1369.5999756,4.9,145.2,0.9,0.0,0.0,861,131,0,0,859.88,30.73,14.56,# data time:2820,pm2.5:6.445,pm10:5.704,O2:0.000,NO2:0.000,SO2:0.000,NH3:6.215
8:50:38,0,0,0,0,0,0,0,0,0,0,0,514,0,0,0,0,0.0000000,0.0000000,0.0000000,0.0000000,10.00,38.4232292,-110.7852402,1369.5999756,5.1,145.6,0.9,0.0,0.0,861,134,0,0,859.92,30.75,14.58,# data time:2820,pm2.5:6.445,pm10:5.704,O2:0.000,NO2:0.000,SO2:0.000,NH3:6.215
8:50:39,0,0,0,0,0,0,0,0,0,0,0,518,0,0,0,0,0.0000000,0.0000000,0.0000000,0.0000000,10.00,38.4232101,-110.7852173,1369.6999512,5.1,145.6,0.9,0.0,0.0,861,132,0,0,859.92,30.73,14.59,# data time:2820,pm2.5:6.445,pm10:5.704,O2:0.000,NO2:0.000,SO2:0.000,NH3:6.215
8:50:40,0,0,0,0,0,0,0,0,0,0,0,514,0,0,0,0,0.0000000,0.0000000,0.0000000,0.0000000,10.00,38.4231911,-110.7852020,1369.6999512,5.2,145.6,0.9,0.0,0.0,862,142,0,0,859.91,30.70,14.60,# data time:2820,pm2.5:6.445,pm10:5.704,O2:0.000,NO2:0.000,SO2:0.000,NH3:6.215
8:50:41,0,0,0,0,0,0,0,0,0,0,0,518,0,0,0,0,0.0000000,0.0000000,0.0000000,0.0000000,10.00,38.4231682,-110.7851868,1369.5999756,4.9,145.6,0.9,0.0,0.0,859,122,0,0,859.85,30.66,14.62,# data time:2820,pm2.5:6.445,pm10:5.704,O2:0.000,NO2:0.000,SO2:0.000,NH3:6.215
8:50:42,0,0,0,0,0,0,0,0,0,0,0,514,0,0,0,0,0.0000000,0.0000000,0.0000000,0.0000000,10.00,38.4231491,-110.7851639,1369.5999756,4.3,146.0,0.9,0.0,0.0,861,131,0,0,859.88,30.66,14.63,# data time:2820,pm2.5:6.445,pm10:5.704,O2:0.000,NO2:0.000,SO2:0.000,NH3:6.215
8:50:43,0,0,0,0,0,0,0,0,0,0,0,513,0,0,0,0,0.0000000,0.0000000,0.0000000,0.0000000,10.00,38.4231339,-110.7851486,1369.5999756,4.0,145.8,0.9,0.0,0.0,861,131,0,0,859.91,30.64,14.63,# data time:2820,pm2.5:6.445,pm10:5.704,O2:0.000,NO2:0.000,SO2:0.000,NH3:6.215
8:50:44,0,0,0,0,0,0,0,0,0,0,0,514,0,0,0,0,0.0000000,0.0000000,0.0000000,0.0000000,10.00,38.4231186,-110.7851410,1369.5999756,4.0,146.2,0.9,0.0,0.0,861,128,0,0,859.87,30.61,14.62,# data time:2820,pm2.5:6.445,pm10:5.704,O2:0.000,NO2:0.000,SO2:0.000,NH3:6.215
8:50:45,0,0,0,0,0,0,0,0,0,0,0,514,0,0,0,0,0.0000000,0.0000000,0.0000000,0.0000000,10.00,38.4230995,-110.7851257,1369.5000000,4.0,146.8,0.9,0.0,0.0,861,128,0,0,859.90,30.64,14.61,# data time:2830,pm2.5:6.445,pm10:5.704,O2:0.000,NO2:0.000,SO2:0.000,NH3:6.215
8:50:46,0,0,0,0,0,0,0,0,0,0,0,518,0,0,0,0,0.0000000,0.0000000,0.0000000,0.0000000,10.00,38.4230843,-110.7851105,1369.5000000,4.3,147.5,0.9,0.0,0.0,862,115,0,0,859.93,30.62,14.58,# data time:2830,pm2.5:6.445,pm10:5.704,O2:0.000,NO2:0.000,SO2:0.000,NH3:6.215
8:50:47,0,0,0,0,0,0,0,0,0,0,0,512,0,0,0,0,0.0000000,0.0000000,0.0000000,0.0000000,9.00,38.4230690,-110.7851028,1369.3000488,4.3,148.4,0.9,0.0,0.0,860,125,0,0,859.92,30.64,14.57,# data time:2830,pm2.5:6.445,pm10:5.704,O2:0.000,NO2:0.000,SO2:0.000,NH3:6.215
8:50:48,0,0,0,0,0,0,0,0,0,0,0,514,0,0,0,0,0.0000000,0.0000000,0.0000000,0.0000000,10.00,38.4230499,-110.7850876,1369.1999512,4.5,148.1,0.9,0.0,0.0,864,133,0,0,859.95,30.66,14.53,# data time:2830,pm2.5:6.445,pm10:5.704,O2:0.000,NO2:0.000,SO2:0.000,NH3:6.215
8:50:49,0,0,0,0,0,0,0,0,0,0,0,514,0,0,0,0,0.0000000,0.0000000,0.0000000,0.0000000,10.00,38.4230309,-110.7850723,1369.0999756,4.6,148.5,0.9,0.0,0.0,861,133,0,0,859.87,30.70,14.51,# data time:2830,pm2.5:6.445,pm10:5.704,O2:0.000,NO2:0.000,SO2:0.000,NH3:6.215
8:50:51,0,0,0,0,0,0,0,0,0,0,0,514,0,0,0,0,0.0000000,0.0000000,0.0000000,0.0000000,10.00,38.4230118,-110.7850647,1369.0999756,4.6,150.3,0.9,0.0,0.0,861,134,0,0,859.92,30.72,14.49,# data time:2830,pm2.5:6.445,pm10:5.704,O2:0.000,NO2:0.000,SO2:0.000,NH3:6.215
8:50:52,0,0,0,0,0,0,0,0,0,0,0,514,0,0,0,0,0.0000000,0.0000000,0.0000000,0.0000000,10.00,38.4229965,-110.7850494,1369.5000000,4.6,149.0,0.9,0.0,0.0,862,135,0,0,859.85,30.73,14.46,# data time:2830,pm2.5:6.445,pm10:5.704,O2:0.000,NO2:0.000,SO2:0.000,NH3:6.215
8:50:53,0,0,0,0,0,0,0,0,0,0,0,514,0,0,0,0,0.0000000,0.0000000,0.0000000,0.0000000,10.00,38.4229774,-110.7850342,1369.5000000,4.6,149.4,0.9,0.0,0.0,861,144,0,0,859.94,30.79,14.46,# data time:2830,pm2.5:6.445,pm10:5.704,O2:0.000,NO2:0.000,SO2:0.000,NH3:6.215
8:50:54,0,0,0,0,0,0,0,0,0,0,0,511,0,0,0,0,0.0000000,0.0000000,0.0000000,0.0000000,10.00,38.4229584,-110.7850266,1369.5000000,4.6,150.3,0.9,0.0,0.0,861,143,0,0,859.91,30.81,14.47,# data time:2830,pm2.5:6.445,pm10:5.704,O2:0.000,NO2:0.000,SO2:0.000,NH3:6.215
8:50:54,0,0,0,0,0,0,0,0,0,0,0,516,0,0,0,0,0.0000000,0.0000000,0.0000000,0.0000000,10.00,38.4229393,-110.7849960,1369.4000244,4.8,151.2,0.9,0.0,0.0,861,140,0,0,859.88,30.82,14.45,# data time:2840,pm2.5:6.445,pm10:5.704,O2:0.000,NO2:0.000,SO2:0.000,NH3:5.988
8:50:56,0,0,0,0,0,0,0,0,0,0,0,514,0,0,0,0,0.0000000,0.0000000,0.0000000,0.0000000,10.00,38.4229202,-110.7849884,1369.4000244,4.9,151.2,0.9,0.0,0.0,861,142,0,0,859.94,30.84,14.37,# data time:2840,pm2.5:6.445,pm10:5.704,O2:0.000,NO2:0.000,SO2:0.000,NH3:5.988
8:50:57,0,0,0,0,0,0,0,0,0,0,0,514,0,0,0,0,0.0000000,0.0000000,0.0000000,0.0000000,10.00,38.4228973,-110.7849731,1369.4000244,4.8,151.6,0.9,0.0,0.0,861,139,0,0,859.88,30.84,14.38,# data time:2840,pm2.5:6.445,pm10:5.704,O2:0.000,NO2:0.000,SO2:0.000,NH3:5.988
8:50:58,0,0,0,0,0,0,0,0,0,0,0,514,0,0,0,0,0.0000000,0.0000000,0.0000000,0.0000000,10.00,38.4228592,-110.7849503,1369.3000488,4.7,152.0,0.9,0.0,0.0,861,140,0,0,859.90,30.81,14.46,# data time:2840,pm2.5:6.445,pm10:5.704,O2:0.000,NO2:0.000,SO2:0.000,NH3:5.988
8:50:59,0,0,0,0,0,0,0,0,0,0,0,513,0,0,0,0,0.0000000,0.0000000,0.0000000,0.0000000,10.00,38.4228401,-110.7849503,1369.3000488,4.7,152.0,0.9,0.0,0.0,862,142,0,0,859.86,30.81,14.48,# data time:2840,pm2.5:6.445,pm10:5.704,O2:0.000,NO2:0.000,SO2:0.000,NH3:5.988
8:51:00,0,0,0,0,0,0,0,0,0,0,0,514,0,0,0,0,0.0000000,0.0000000,0.0000000,0.0000000,10.00,38.4228210,-110.7849350,1369.1999512,4.6,152.1,0.9,0.0,0.0,861,139,0,0,859.90,30.81,14.49,# data time:2840,pm2.5:6.445,pm10:5.704,O2:0.000,NO2:0.000,SO2:0.000,NH3:5.988
8:51:01,0,0,0,0,0,0,0,0,0,0,0,513,0,0,0,0,0.0000000,0.0000000,0.0000000,0.0000000,10.00,38.4228020,-110.7849197,1369.0999756,4.5,152.2,0.9,0.0,0.0,861,139,0,0,859.90,30.78,14.54,# data time:2840,pm2.5:6.445,pm10:5.704,O2:0.000,NO2:0.000,SO2:0.000,NH3:5.988
8:51:02,0,0,0,0,0,0,0,0,0,0,0,514,0,0,0,0,0.0000000,0.0000000,0.0000000,0.0000000,10.00,38.4227829,-110.7849121,1369.3000488,4.4,151.5,0.9,0.0,0.0,861,134,0,0,859.90,30.76,14.55,# data time:2840,pm2.5:6.445,pm10:5.704,O2:0.000,NO2:0.000,SO2:0.000,NH3:5.988
8:51:03,0,0,0,0,0,0,0,0,0,0,0,513,0,0,0,0,0.0000000,0.0000000,0.0000000,0.0000000,10.00,38.4227676,-110.7848969,1369.4000244,4.4,151.5,0.9,0.0,0.0,861,138,0,0,859.88,30.76,14.56,# data time:2840,pm2.5:6.445,pm10:5.704,O2:0.000,NO2:0.000,SO2:0.000,NH3:5.988
8:51:04,0,0,0,0,0,0,0,0,0,0,0,514,0,0,0,0,0.0000000,0.0000000,0.0000000,0.0000000,10.00,38.4227524,-110.7848816,1369.4000244,4.4,151.2,0.9,0.0,0.0,861,139,0,0,859.90,30.75,14.58,# data time:2840,pm2.5:6.445,pm10:5.704,O2:0.000,NO2:0.000,SO2:0.000,NH3:5.988
8:51:05,0,0,0,0,0,0,0,0,0,0,0,514,0,0,0,0,0.0000000,0.0000000,0.0000000,0.0000000,10.00,38.4227524,-110.7848816,1369.4000244,4.4,151.2,0.9,0.0,0.0,861,137,0,0,859.85,30.72,14.50,# data time:2850,pm2.5:6.445,pm10:5.704,O2:0.000,NO2:0.000,SO2:0.000,NH3:5.988
8:51:06,0,0,0,0,0,0,0,0,0,0,0,515,0,0,0,0,0.0000000,0.0000000,0.0000000,0.0000000,10.00,38.4227104,-110.7848587,1369.3000488,5.1,152.1,0.9,0.0,0.0,857,137,0,0,859.93,30.67,14.62,# data time:2850,pm2.5:6.445,pm10:5.704,O2:0.000,NO2:0.000,SO2:0.000,NH3:5.988
8:51:07,0,0,0,0,0,0,0,0,0,0,0,515,0,0,0,0,0.0000000,0.0000000,0.0000000,0.0000000,10.00,38.4226913,-110.7848434,1369.3000488,5.1,153.1,0.9,0.0,0.0,861,132,0,0,859.87,30.64,14.64,# data time:2850,pm2.5:6.445,pm10:5.704,O2:0.000,NO2:0.000,SO2:0.000,NH3:5.988
8:51:08,0,0,0,0,0,0,0,0,0,0,0,515,0,0,0,0,0.0000000,0.0000000,0.0000000,0.0000000,10.00,38.4226685,-110.7848282,1369.3000488,4.9,153.0,0.9,0.0,0.0,864,142,0,0,859.89,30.62,14.65,# data time:2850,pm2.5:6.445,pm10:5.704,O2:0.000,NO2:0.000,SO2:0.000,NH3:5.988
8:51:09,0,0,0,0,0,0,0,0,0,0,0,514,0,0,0,0,0.0000000,0.0000000,0.0000000,0.0000000,9.00,38.4226494,-110.7848206,1369.3000488,4.7,152.9,0.9,0.0,0.0,862,137,0,0,859.96,30.59,14.64,# data time:2850,pm2.5:6.445,pm10:5.704,O2:0.000,NO2:0.000,SO2:0.000,NH3:5.988
8:51:10,0,0,0,0,0,0,0,0,0,0,0,514,0,0,0,0,0.0000000,0.0000000,0.0000000,0.0000000,10.00,38.4226303,-110.7848053,1369.4000244,4.6,155.7,0.9,0.0,0.0,862,139,0,0,859.90,30.64,14.57,# data time:2850,pm2.5:6.445,pm10:5.704,O2:0.000,NO2:0.000,SO2:0.000,NH3:5.988
8:51:11,0,0,0,0,0,0,0,0,0,0,0,514,0,0,0,0,0.0000000,0.0000000,0.0000000,0.0000000,10.00,38.4226074,-110.7847900,1369.5999756,4.2,156.3,0.9,0.0,0.0,861,128,0,0,859.93,30.64,14.59,# data time:2850,pm2.5:6.445,pm10:5.704,O2:0.000,NO2:0.000,SO2:0.000,NH3:5.988
8:51:12,0,0,0,0,0,0,0,0,0,0,0,514,0,0,0,0,0.0000000,0.0000000,0.0000000,0.0000000,9.00,38.4225922,-110.7847900,1369.5999756,3.5,157.5,0.9,0.0,0.0,861,141,0,0,859.90,30.62,14.62,# data time:2850,pm2.5:6.445,pm10:5.704,O2:0.000,NO2:0.000,SO2:0.000,NH3:5.988
8:51:13,0,0,0,0,0,0,0,0,0,0,0,514,0,0,0,0,0.0000000,0.0000000,0.0000000,0.0000000,9.00,38.4225807,-110.7847824,1369.5999756,2.5,158.9,0.9,0.0,0.0,861,138,0,0,859.91,30.59,14.65,# data time:2850,pm2.5:6.445,pm10:5.704,O2:0.000,NO2:0.000,SO2:0.000,NH3:5.988
8:51:14,0,0,0,0,0,0,0,0,0,0,0,514,0,0,0,0,0.0000000,0.0000000,0.0000000,0.0000000,9.00,38.4225731,-110.7847824,1369.5999756,1.3,158.8,0.9,0.0,0.0,861,135,0,0,859.90,30.55,14.65,# data time:2850,pm2.5:6.445,pm10:5.704,O2:0.000,NO2:0.000,SO2:0.000,NH3:5.988
8:51:15,0,0,0,0,0,0,0,0,0,0,0,513,0,0,0,0,0.0000000,0.0000000,0.0000000,0.0000000,9.00,38.4225693,-110.7847824,1369.6999512,0.1,158.8,0.9,0.0,0.0,861,136,0,0,859.92,30.53,14.66,# data time:2860,pm2.5:6.445,pm10:5.704,O2:0.000,NO2:0.000,SO2:0.000,NH3:5.988
8:51:16,0,0,0,0,0,0,0,0,0,0,0,513,0,0,0,0,0.0000000,0.0000000,0.0000000,0.0000000,9.00,38.4225693,-110.7847824,1369.6999512,0.1,158.8,0.9,0.0,0.0,861,133,0,0,859.92,30.52,14.68,# data time:2860,pm2.5:6.445,pm10:5.704,O2:0.000,NO2:0.000,SO2:0.000,NH3:5.988
8:51:17,0,0,0,0,0,0,0,0,0,0,0,514,0,0,0,0,0.0000000,0.0000000,0.0000000,0.0000000,9.00,38.4225693,-110.7847824,1369.6999512,0.1,158.8,0.9,0.0,0.0,861,141,0,0,859.92,30.52,14.65,# data time:2860,pm2.5:6.445,pm10:5.704,O2:0.000,NO2:0.000,SO2:0.000,NH3:5.988
8:51:18,0,0,0,0,0,0,0,0,0,0,0,513,0,0,0,0,0.0000000,0.0000000,0.0000000,0.0000000,9.00,38.4225693,-110.7847824,1369.8000488,0.0,158.8,0.9,0.0,0.0,862,136,0,0,859.96,30.50,14.66,# data time:2860,pm2.5:6.445,pm10:5.704,O2:0.000,NO2:0.000,SO2:0.000,NH3:5.988
8:51:19,0,0,0,0,0,0,0,0,0,0,0,514,0,0,0,0,0.0000000,0.0000000,0.0000000,0.0000000,10.00,38.4225693,-110.7847824,1369.8000488,0.0,158.8,0.9,0.0,0.0,861,140,0,0,859.95,30.47,14.68,# data time:2860,pm2.5:6.445,pm10:5.704,O2:0.000,NO2:0.000,SO2:0.000,NH3:5.988
8:51:20,0,0,0,0,0,0,0,0,0,0,0,514,0,0,0,0,0.0000000,0.0000000,0.0000000,0.0000000,10.00,38.4225693,-110.7847824,1369.8000488,0.0,158.8,0.9,0.0,0.0,861,129,0,0,859.90,30.46,14.69,# data time:2860,pm2.5:6.445,pm10:5.704,O2:0.000,NO2:0.000,SO2:0.000,NH3:5.988
8:51:21,0,0,0,0,0,0,0,0,0,0,0,514,0,0,0,0,0.0000000,0.0000000,0.0000000,0.0000000,9.00,38.4225693,-110.7847824,1369.8000488,0.0,158.8,0.9,0.0,0.0,861,136,0,0,859.93,30.44,14.70,# data time:2860,pm2.5:6.445,pm10:5.704,O2:0.000,NO2:0.000,SO2:0.000,NH3:5.988
8:51:22,0,0,0,0,0,0,0,0,0,0,0,514,0,0,0,0,0.0000000,0.0000000,0.0000000,0.0000000,9.00,38.4225693,-110.7847824,1369.8000488,0.0,158.8,0.9,0.0,0.0,861,138,0,0,859.89,30.46,14.70,# data time:2860,pm2.5:6.445,pm10:5.704,O2:0.000,NO2:0.000,SO2:0.000,NH3:5.988
8:51:23,0,0,0,0,0,0,0,0,0,0,0,512,0,0,0,0,0.0000000,0.0000000,0.0000000,0.0000000,9.00,38.4225693,-110.7847824,1369.8000488,0.0,158.8,0.9,0.0,0.0,861,131,0,0,859.90,30.43,14.69,# data time:2860,pm2.5:6.445,pm10:5.704,O2:0.000,NO2:0.000,SO2:0.000,NH3:5.988
8:51:24,0,0,0,0,0,0,0,0,0,0,0,513,0,0,0,0,0.0000000,0.0000000,0.0000000,0.0000000,9.00,38.4225693,-110.7847824,1369.8000488,0.0,158.8,0.9,0.0,0.0,860,132,0,0,859.87,30.44,14.71,# data time:2860,pm2.5:6.445,pm10:5.704,O2:0.000,NO2:0.000,SO2:0.000,NH3:5.988
8:51:25,0,0,0,0,0,0,0,0,0,0,0,514,0,0,0,0,0.0000000,0.0000000,0.0000000,0.0000000,9.00,38.4225693,-110.7847824,1369.8000488,0.0,158.8,0.9,0.0,0.0,861,131,0,0,859.91,30.41,14.68,# data time:2870,pm2.5:6.445,pm10:5.704,O2:0.000,NO2:0.000,SO2:0.000,NH3:5.988
8:51:26,0,0,0,0,0,0,0,0,0,0,0,512,0,0,0,0,0.0000000,0.0000000,0.0000000,0.0000000,9.00,38.4225693,-110.7847824,1369.8000488,0.0,158.8,0.9,0.0,0.0,861,141,0,0,859.88,30.41,14.73,# data time:2870,pm2.5:6.445,pm10:5.704,O2:0.000,NO2:0.000,SO2:0.000,NH3:5.988
8:51:27,0,0,0,0,0,0,0,0,0,0,0,512,0,0,0,0,0.0000000,0.0000000,0.0000000,0.0000000,10.00,38.4225693,-110.7847824,1369.8000488,0.0,158.8,0.9,0.0,0.0,860,134,0,0,859.90,30.41,14.74,# data time:2870,pm2.5:6.445,pm10:5.704,O2:0.000,NO2:0.000,SO2:0.000,NH3:5.988
8:51:28,0,0,0,0,0,0,0,0,0,0,0,515,0,0,0,0,0.0000000,0.0000000,0.0000000,0.0000000,10.00,38.4225693,-110.7847824,1369.8000488,0.0,158.8,0.9,0.0,0.0,861,134,0,0,859.88,30.38,14.73,# data time:2870,pm2.5:6.445,pm10:5.704,O2:0.000,NO2:0.000,SO2:0.000,NH3:5.988
8:51:29,0,0,0,0,0,0,0,0,0,0,0,513,0,0,0,0,0.0000000,0.0000000,0.0000000,0.0000000,9.00,38.4225693,-110.7847824,1369.8000488,0.0,158.8,1.0,0.0,0.0,861,137,0,0,859.89,30.37,14.73,# data time:2870,pm2.5:6.445,pm10:5.704,O2:0.000,NO2:0.000,SO2:0.000,NH3:5.988
8:51:30,0,0,0,0,0,0,0,0,0,0,0,512,0,0,0,0,0.0000000,0.0000000,0.0000000,0.0000000,9.00,38.4225693,-110.7847824,1369.8000488,0.0,158.8,1.0,0.0,0.0,861,141,0,0,859.85,30.38,14.73,# data time:2870,pm2.5:6.445,pm10:5.704,O2:0.000,NO2:0.000,SO2:0.000,NH3:5.988
8:51:31,0,0,0,0,0,0,0,0,0,0,0,513,0,0,0,0,0.0000000,0.0000000,0.0000000,0.0000000,9.00,38.4225693,-110.7847824,1369.8000488,0.0,158.8,1.0,0.0,0.0,861,138,0,0,859.92,30.37,14.73,# data time:2870,pm2.5:6.445,pm10:5.704,O2:0.000,NO2:0.000,SO2:0.000,NH3:5.988
8:51:32,0,0,0,0,0,0,0,0,0,0,0,514,0,0,0,0,0.0000000,0.0000000,0.0000000,0.0000000,9.00,38.4225693,-110.7847824,1369.8000488,0.0,158.8,1.0,0.0,0.0,861,137,0,0,859.90,30.37,14.70,# data time:2870,pm2.5:6.445,pm10:5.704,O2:0.000,NO2:0.000,SO2:0.000,NH3:5.988
8:51:33,0,0,0,0,0,0,0,0,0,0,0,511,0,0,0,0,0.0000000,0.0000000,0.0000000,0.0000000,9.00,38.4225693,-110.7847824,1369.8000488,0.0,158.8,1.0,0.0,0.0,860,136,0,0,859.92,30.41,14.66,# data time:2870,pm2.5:6.445,pm10:5.704,O2:0.000,NO2:0.000,SO2:0.000,NH3:5.988
8:51:34,0,0,0,0,0,0,0,0,0,0,0,513,0,0,0,0,0.0000000,0.0000000,0.0000000,0.0000000,9.00,38.4225693,-110.7847824,1369.8000488,0.0,158.8,1.0,0.0,0.0,861,135,0,0,859.89,30.44,14.64,# data time:2870,pm2.5:6.445,pm10:5.704,O2:0.000,NO2:0.000,SO2:0.000,NH3:5.988
8:51:35,0,0,0,0,0,0,0,0,0,0,0,510,0,0,0,0,0.0000000,0.0000000,0.0000000,0.0000000,9.00,38.4225693,-110.7847824,1369.8000488,0.0,158.8,1.0,0.0,0.0,860,154,0,0,859.84,30.46,14.63,# data time:2880,pm2.5:6.445,pm10:5.704,O2:0.000,NO2:0.000,SO2:0.000,NH3:5.988
8:51:36,0,0,0,0,0,0,0,0,0,0,0,514,0,0,0,0,0.0000000,0.0000000,0.0000000,0.0000000,9.00,38.4225693,-110.7847824,1369.8000488,0.0,158.8,1.0,0.0,0.0,861,147,0,0,859.88,30.44,14.65,# data time:2880,pm2.5:6.445,pm10:5.704,O2:0.000,NO2:0.000,SO2:0.000,NH3:5.988
8:51:37,0,0,0,0,0,0,0,0,0,0,0,513,0,0,0,0,0.0000000,0.0000000,0.0000000,0.0000000,9.00,38.4225693,-110.7847824,1369.8000488,0.0,158.8,1.0,0.0,0.0,861,146,0,0,859.92,30.44,14.65,# data time:2880,pm2.5:6.445,pm10:5.704,O2:0.000,NO2:0.000,SO2:0.000,NH3:5.988
8:51:38,0,0,0,0,0,0,0,0,0,0,0,512,0,0,0,0,0.0000000,0.0000000,0.0000000,0.0000000,9.00,38.4225693,-110.7847824,1369.8000488,0.0,158.8,1.0,0.0,0.0,862,145,0,0,859.89,30.47,14.67,# data time:2880,pm2.5:6.445,pm10:5.704,O2:0.000,NO2:0.000,SO2:0.000,NH3:5.988
8:51:39,0,0,0,0,0,0,0,0,0,0,0,514,0,0,0,0,0.0000000,0.0000000,0.0000000,0.0000000,9.00,38.4225693,-110.7847824,1369.8000488,0.0,158.8,1.0,0.0,0.0,859,145,0,0,859.92,30.46,14.66,# data time:2880,pm2.5:6.445,pm10:5.704,O2:0.000,NO2:0.000,SO2:0.000,NH3:5.988
8:51:40,0,0,0,0,0,0,0,0,0,0,0,513,0,0,0,0,0.0000000,0.0000000,0.0000000,0.0000000,9.00,38.4225693,-110.7847824,1369.8000488,0.0,158.8,1.0,0.0,0.0,861,143,0,0,859.93,30.47,14.63,# data time:2880,pm2.5:6.445,pm10:5.704,O2:0.000,NO2:0.000,SO2:0.000,NH3:5.988
8:51:41,0,0,0,0,0,0,0,0,0,0,0,514,0,0,0,0,0.0000000,0.0000000,0.0000000,0.0000000,9.00,38.4225693,-110.7847824,1369.8000488,0.0,158.8,1.0,0.0,0.0,861,142,0,0,859.92,30.47,14.63,# data time:2880,pm2.5:6.445,pm10:5.704,O2:0.000,NO2:0.000,SO2:0.000,NH3:5.988
8:51:42,0,0,0,0,0,0,0,0,0,0,0,513,0,0,0,0,0.0000000,0.0000000,0.0000000,0.0000000,9.00,38.4225693,-110.7847824,1369.8000488,0.0,158.8,1.0,0.0,0.0,861,142,0,0,859.95,30.47,14.64,# data time:2880,pm2.5:6.445,pm10:5.704,O2:0.000,NO2:0.000,SO2:0.000,NH3:5.988
8:51:43,0,0,0,0,0,0,0,0,0,0,0,514,0,0,0,0,0.0000000,0.0000000,0.0000000,0.0000000,9.00,38.4225693,-110.7847824,1369.8000488,0.0,158.8,1.0,0.0,0.0,859,137,0,0,859.94,30.52,14.63,# data time:2880,pm2.5:6.445,pm10:5.704,O2:0.000,NO2:0.000,SO2:0.000,NH3:5.988
8:51:44,0,0,0,0,0,0,0,0,0,0,0,510,0,0,0,0,0.0000000,0.0000000,0.0000000,0.0000000,9.00,38.4225693,-110.7847824,1369.8000488,0.0,158.8,1.0,0.0,0.0,861,151,0,0,859.88,30.55,14.56,# data time:2880,pm2.5:6.445,pm10:5.704,O2:0.000,NO2:0.000,SO2:0.000,NH3:5.988
8:51:45,0,0,0,0,0,0,0,0,0,0,0,514,0,0,0,0,0.0000000,0.0000000,0.0000000,0.0000000,9.00,38.4225693,-110.7847824,1369.8000488,0.0,158.8,1.0,0.0,0.0,861,142,0,0,859.92,30.58,14.58,# data time:2890,pm2.5:6.445,pm10:5.704,O2:0.000,NO2:0.000,SO2:0.000,NH3:5.988
8:51:46,0,0,0,0,0,0,0,0,0,0,0,513,0,0,0,0,0.0000000,0.0000000,0.0000000,0.0000000,9.00,38.4225693,-110.7847824,1369.8000488,0.0,158.8,1.0,0.0,0.0,861,142,0,0,859.90,30.58,14.59,# data time:2890,pm2.5:6.445,pm10:5.704,O2:0.000,NO2:0.000,SO2:0.000,NH3:5.988
8:51:47,0,0,0,0,0,0,0,0,0,0,0,513,0,0,0,0,0.0000000,0.0000000,0.0000000,0.0000000,9.00,38.4225693,-110.7847824,1369.8000488,0.0,158.8,1.0,0.0,0.0,861,138,0,0,859.89,30.58,14.59,# data time:2890,pm2.5:6.445,pm10:5.704,O2:0.000,NO2:0.000,SO2:0.000,NH3:5.988
8:51:48,0,0,0,0,0,0,0,0,0,0,0,514,0,0,0,0,0.0000000,0.0000000,0.0000000,0.0000000,9.00,38.4225693,-110.7847824,1369.8000488,0.1,158.8,1.0,0.0,0.0,861,141,0,0,859.89,30.56,14.61,# data time:2890,pm2.5:6.445,pm10:5.704,O2:0.000,NO2:0.000,SO2:0.000,NH3:5.988
8:51:49,0,0,0,0,0,0,0,0,0,0,0,514,0,0,0,0,0.0000000,0.0000000,0.0000000,0.0000000,10.00,38.4225693,-110.7847824,1369.8000488,0.2,158.8,0.9,0.0,0.0,861,137,0,0,859.89,30.58,14.63,# data time:2890,pm2.5:6.445,pm10:5.704,O2:0.000,NO2:0.000,SO2:0.000,NH3:5.988
8:51:50,0,0,0,0,0,0,0,0,0,0,0,513,0,0,0,0,0.0000000,0.0000000,0.0000000,0.0000000,10.00,38.4225693,-110.7847824,1369.8000488,0.4,158.8,0.9,0.0,0.0,861,138,0,0,859.89,30.55,14.66,# data time:2890,pm2.5:6.445,pm10:5.704,O2:0.000,NO2:0.000,SO2:0.000,NH3:5.988
8:51:51,0,0,0,0,0,0,0,0,0,0,0,514,0,0,0,0,0.0000000,0.0000000,0.0000000,0.0000000,10.00,38.4225693,-110.7847824,1369.8000488,1.4,140.4,0.9,0.0,0.0,861,142,0,0,859.90,30.49,14.67,# data time:2890,pm2.5:6.445,pm10:5.704,O2:0.000,NO2:0.000,SO2:0.000,NH3:5.988
8:51:52,0,0,0,0,0,0,0,0,0,0,0,514,0,0,0,0,0.0000000,0.0000000,0.0000000,0.0000000,10.00,38.4225616,-110.7847672,1369.6999512,1.6,129.1,0.9,0.0,0.0,861,138,0,0,859.91,30.49,14.66,# data time:2890,pm2.5:6.445,pm10:5.704,O2:0.000,NO2:0.000,SO2:0.000,NH3:5.988
8:51:53,0,0,0,0,0,0,0,0,0,0,0,514,0,0,0,0,0.0000000,0.0000000,0.0000000,0.0000000,10.00,38.4225616,-110.7847672,1369.6999512,2.3,115.7,0.9,0.0,0.0,861,138,0,0,859.90,30.43,14.67,# data time:2890,pm2.5:6.445,pm10:5.704,O2:0.000,NO2:0.000,SO2:0.000,NH3:5.988
8:51:54,0,0,0,0,0,0,0,0,0,0,0,514,0,0,0,0,0.0000000,0.0000000,0.0000000,0.0000000,10.00,38.4225540,-110.7847519,1369.5000000,2.7,102.0,0.9,0.0,0.0,861,142,0,0,859.90,30.38,14.68,# data time:2900,pm2.5:6.445,pm10:5.704,O2:0.000,NO2:0.000,SO2:0.000,NH3:5.988
8:51:56,0,0,0,0,0,0,0,0,0,0,0,514,0,0,0,0,0.0000000,0.0000000,0.0000000,0.0000000,10.00,38.4225502,-110.7847290,1369.4000244,2.4,95.3,0.9,0.0,0.0,862,140,0,0,859.93,30.37,14.70,# data time:2900,pm2.5:6.445,pm10:5.704,O2:0.000,NO2:0.000,SO2:0.000,NH3:5.988
8:51:57,0,0,0,0,0,0,0,0,0,0,0,514,0,0,0,0,0.0000000,0.0000000,0.0000000,0.0000000,10.00,38.4225502,-110.7847137,1369.1999512,1.7,86.1,0.9,0.0,0.0,861,146,0,0,859.92,30.33,14.71,# data time:2900,pm2.5:6.445,pm10:5.704,O2:0.000,NO2:0.000,SO2:0.000,NH3:5.988
8:51:58,0,0,0,0,0,0,0,0,0,0,0,513,0,0,0,0,0.0000000,0.0000000,0.0000000,0.0000000,10.00,38.4225502,-110.7847061,1369.0999756,1.8,84.2,0.9,0.0,0.0,861,138,0,0,859.93,30.32,14.73,# data time:2900,pm2.5:6.445,pm10:5.704,O2:0.000,NO2:0.000,SO2:0.000,NH3:5.988
8:51:59,0,0,0,0,0,0,0,0,0,0,0,513,0,0,0,0,0.0000000,0.0000000,0.0000000,0.0000000,10.00,38.4225502,-110.7846909,1369.0999756,2.2,84.7,0.9,0.0,0.0,861,139,0,0,859.95,30.26,14.75,# data time:2900,pm2.5:6.445,pm10:5.704,O2:0.000,NO2:0.000,SO2:0.000,NH3:5.988
8:52:00,0,0,0,0,0,0,0,0,0,0,0,514,0,0,0,0,0.0000000,0.0000000,0.0000000,0.0000000,10.00,38.4225502,-110.7846756,1369.0999756,2.2,83.9,0.9,0.0,0.0,861,141,0,0,859.91,30.26,14.77,# data time:2900,pm2.5:6.445,pm10:5.704,O2:0.000,NO2:0.000,SO2:0.000,NH3:5.988
8:52:01,0,0,0,0,0,0,0,0,0,0,0,514,0,0,0,0,0.0000000,0.0000000,0.0000000,0.0000000,10.00,38.4225502,-110.7846680,1369.1999512,0.9,78.8,0.9,0.0,0.0,861,137,0,0,859.94,30.24,14.78,# data time:2900,pm2.5:6.445,pm10:5.704,O2:0.000,NO2:0.000,SO2:0.000,NH3:5.988
8:52:02,0,0,0,0,0,0,0,0,0,0,0,513,0,0,0,0,0.0000000,0.0000000,0.0000000,0.0000000,10.00,38.4225502,-110.7846680,1369.1999512,0.1,78.8,0.9,0.0,0.0,861,139,0,0,859.98,30.17,14.81,# data time:2900,pm2.5:6.445,pm10:5.704,O2:0.000,NO2:0.000,SO2:0.000,NH3:5.988
8:52:04,0,0,0,0,0,0,0,0,0,0,0,514,0,0,0,0,0.0000000,0.0000000,0.0000000,0.0000000,10.00,38.4225502,-110.7846680,1369.0999756,0.1,78.8,0.9,0.0,0.0,861,137,0,0,859.94,30.17,14.74,# data time:2900,pm2.5:6.445,pm10:5.704,O2:0.000,NO2:0.000,SO2:0.000,NH3:5.988
8:52:05,0,0,0,0,0,0,0,0,0,0,0,514,0,0,0,0,0.0000000,0.0000000,0.0000000,0.0000000,10.00,38.4225502,-110.7846680,1369.0999756,0.1,78.8,0.9,0.0,0.0,861,137,0,0,859.88,30.14,14.73,# data time:2910,pm2.5:6.445,pm10:5.704,O2:0.000,NO2:0.000,SO2:0.000,NH3:5.988
8:52:06,0,0,0,0,0,0,0,0,0,0,0,513,0,0,0,0,0.0000000,0.0000000,0.0000000,0.0000000,9.00,38.4225502,-110.7846680,1369.0999756,0.0,78.8,0.9,0.0,0.0,861,141,0,0,859.91,30.11,14.80,# data time:2910,pm2.5:6.445,pm10:5.704,O2:0.000,NO2:0.000,SO2:0.000,NH3:5.988
8:52:07,0,0,0,0,0,0,0,0,0,0,0,514,0,0,0,0,0.0000000,0.0000000,0.0000000,0.0000000,10.00,38.4225502,-110.7846680,1369.0999756,0.0,78.8,0.9,0.0,0.0,861,135,0,0,859.93,30.08,14.84,# data time:2910,pm2.5:6.445,pm10:5.704,O2:0.000,NO2:0.000,SO2:0.000,NH3:5.988
8:52:08,0,0,0,0,0,0,0,0,0,0,0,514,0,0,0,0,0.0000000,0.0000000,0.0000000,0.0000000,10.00,38.4225502,-110.7846680,1369.1999512,0.0,78.8,0.9,0.0,0.0,861,134,0,0,859.96,30.09,14.85,# data time:2910,pm2.5:6.445,pm10:5.704,O2:0.000,NO2:0.000,SO2:0.000,NH3:5.988
8:52:09,0,0,0,0,0,0,0,0,0,0,0,514,0,0,0,0,0.0000000,0.0000000,0.0000000,0.0000000,10.00,38.4225502,-110.7846680,1369.1999512,0.1,78.8,0.9,0.0,0.0,861,138,0,0,859.97,30.08,14.87,# data time:2910,pm2.5:6.445,pm10:5.704,O2:0.000,NO2:0.000,SO2:0.000,NH3:5.988
8:52:10,0,0,0,0,0,0,0,0,0,0,0,513,0,0,0,0,0.0000000,0.0000000,0.0000000,0.0000000,10.00,38.4225502,-110.7846680,1369.1999512,0.0,78.8,0.9,0.0,0.0,861,134,0,0,859.94,30.05,14.88,# data time:2910,pm2.5:6.445,pm10:5.704,O2:0.000,NO2:0.000,SO2:0.000,NH3:5.988
8:52:11,0,0,0,0,0,0,0,0,0,0,0,514,0,0,0,0,0.0000000,0.0000000,0.0000000,0.0000000,10.00,38.4225502,-110.7846756,1369.1999512,0.1,78.8,0.9,0.0,0.0,861,135,0,0,859.91,30.01,14.87,# data time:2910,pm2.5:6.445,pm10:5.704,O2:0.000,NO2:0.000,SO2:0.000,NH3:5.988
8:52:12,0,0,0,0,0,0,0,0,0,0,0,513,0,0,0,0,0.0000000,0.0000000,0.0000000,0.0000000,10.00,38.4225502,-110.7846756,1369.1999512,0.1,78.8,0.9,0.0,0.0,861,132,0,0,859.90,30.00,14.88,# data time:2910,pm2.5:6.445,pm10:5.704,O2:0.000,NO2:0.000,SO2:0.000,NH3:5.988
8:52:13,0,0,0,0,0,0,0,0,0,0,0,513,0,0,0,0,0.0000000,0.0000000,0.0000000,0.0000000,10.00,38.4225502,-110.7846756,1369.1999512,0.0,78.8,0.9,0.0,0.0,862,133,0,0,859.93,29.98,14.88,# data time:2910,pm2.5:6.445,pm10:5.704,O2:0.000,NO2:0.000,SO2:0.000,NH3:5.988
8:52:14,0,0,0,0,0,0,0,0,0,0,0,513,0,0,0,0,0.0000000,0.0000000,0.0000000,0.0000000,10.00,38.4225502,-110.7846756,1369.1999512,0.1,78.8,0.9,0.0,0.0,861,139,0,0,859.89,29.98,14.88,# data time:2910,pm2.5:6.445,pm10:5.704,O2:0.000,NO2:0.000,SO2:0.000,NH3:5.988
8:52:15,0,0,0,0,0,0,0,0,0,0,0,514,0,0,0,0,0.0000000,0.0000000,0.0000000,0.0000000,10.00,38.4225502,-110.7846756,1369.1999512,0.0,78.8,0.9,0.0,0.0,861,135,0,0,859.87,29.97,14.89,# data time:2920,pm2.5:6.445,pm10:5.704,O2:0.000,NO2:0.000,SO2:0.000,NH3:5.988
8:52:16,0,0,0,0,0,0,0,0,0,0,0,514,0,0,0,0,0.0000000,0.0000000,0.0000000,0.0000000,10.00,38.4225502,-110.7846756,1369.1999512,0.0,78.8,0.9,0.0,0.0,861,130,0,0,859.92,29.95,14.90,# data time:2920,pm2.5:6.445,pm10:5.704,O2:0.000,NO2:0.000,SO2:0.000,NH3:5.988
8:52:17,0,0,0,0,0,0,0,0,0,0,0,513,0,0,0,0,0.0000000,0.0000000,0.0000000,0.0000000,9.00,38.4225502,-110.7846756,1369.1999512,0.0,78.8,0.9,0.0,0.0,861,121,0,0,859.92,29.92,14.91,# data time:2920,pm2.5:6.445,pm10:5.704,O2:0.000,NO2:0.000,SO2:0.000,NH3:5.988
8:52:18,0,0,0,0,0,0,0,0,0,0,0,513,0,0,0,0,0.0000000,0.0000000,0.0000000,0.0000000,10.00,38.4225502,-110.7846756,1369.1999512,0.0,78.8,0.9,0.0,0.0,860,133,0,0,859.87,29.94,14.91,# data time:2920,pm2.5:6.445,pm10:5.704,O2:0.000,NO2:0.000,SO2:0.000,NH3:5.988
8:52:19,0,0,0,0,0,0,0,0,0,0,0,514,0,0,0,0,0.0000000,0.0000000,0.0000000,0.0000000,10.00,38.4225502,-110.7846756,1369.1999512,0.0,78.8,0.9,0.0,0.0,861,132,0,0,859.94,29.91,14.91,# data time:2920,pm2.5:6.445,pm10:5.704,O2:0.000,NO2:0.000,SO2:0.000,NH3:5.988
8:52:20,0,0,0,0,0,0,0,0,0,0,0,513,0,0,0,0,0.0000000,0.0000000,0.0000000,0.0000000,10.00,38.4225502,-110.7846756,1369.1999512,0.0,78.8,0.9,0.0,0.0,861,135,0,0,859.93,29.86,14.93,# data time:2920,pm2.5:6.445,pm10:5.704,O2:0.000,NO2:0.000,SO2:0.000,NH3:5.988
8:52:21,0,0,0,0,0,0,0,0,0,0,0,513,0,0,0,0,0.0000000,0.0000000,0.0000000,0.0000000,10.00,38.4225502,-110.7846756,1369.1999512,0.0,78.8,0.9,0.0,0.0,861,130,0,0,859.94,29.88,14.95,# data time:2920,pm2.5:6.445,pm10:5.704,O2:0.000,NO2:0.000,SO2:0.000,NH3:5.988
8:52:22,0,0,0,0,0,0,0,0,0,0,0,513,0,0,0,0,0.0000000,0.0000000,0.0000000,0.0000000,10.00,38.4225502,-110.7846756,1369.1999512,0.0,78.8,0.9,0.0,0.0,861,135,0,0,859.91,29.85,14.96,# data time:2920,pm2.5:6.445,pm10:5.704,O2:0.000,NO2:0.000,SO2:0.000,NH3:5.988
8:52:23,0,0,0,0,0,0,0,0,0,0,0,514,0,0,0,0,0.0000000,0.0000000,0.0000000,0.0000000,10.00,38.4225502,-110.7846756,1369.1999512,0.0,78.8,0.9,0.0,0.0,861,123,0,0,859.94,29.82,14.97,# data time:2920,pm2.5:6.445,pm10:5.704,O2:0.000,NO2:0.000,SO2:0.000,NH3:5.988
8:52:24,0,0,0,0,0,0,0,0,0,0,0,514,0,0,0,0,0.0000000,0.0000000,0.0000000,0.0000000,10.00,38.4225502,-110.7846756,1369.1999512,0.0,78.8,0.9,0.0,0.0,861,131,0,0,860.00,29.79,14.98,# data time:2920,pm2.5:6.445,pm10:5.704,O2:0.000,NO2:0.000,SO2:0.000,NH3:5.988
8:52:25,0,0,0,0,0,0,0,0,0,0,0,513,0,0,0,0,0.0000000,0.0000000,0.0000000,0.0000000,10.00,38.4225502,-110.7846756,1369.1999512,0.0,78.8,0.9,0.0,0.0,861,133,0,0,859.94,29.79,14.99,# data time:2930,pm2.5:6.445,pm10:5.704,O2:0.000,NO2:0.000,SO2:0.000,NH3:5.988
8:52:26,0,0,0,0,0,0,0,0,0,0,0,514,0,0,0,0,0.0000000,0.0000000,0.0000000,0.0000000,10.00,38.4225502,-110.7846756,1369.1999512,0.0,78.8,0.9,0.0,0.0,861,131,0,0,859.97,29.76,14.99,# data time:2930,pm2.5:6.445,pm10:5.704,O2:0.000,NO2:0.000,SO2:0.000,NH3:5.988
8:52:27,0,0,0,0,0,0,0,0,0,0,0,514,0,0,0,0,0.0000000,0.0000000,0.0000000,0.0000000,10.00,38.4225502,-110.7846756,1369.1999512,0.0,78.8,0.9,0.0,0.0,861,130,0,0,859.95,29.74,15.00,# data time:2930,pm2.5:6.445,pm10:5.704,O2:0.000,NO2:0.000,SO2:0.000,NH3:5.988
8:52:28,0,0,0,0,0,0,0,0,0,0,0,513,0,0,0,0,0.0000000,0.0000000,0.0000000,0.0000000,10.00,38.4225502,-110.7846756,1369.1999512,0.0,78.8,0.9,0.0,0.0,861,131,0,0,859.91,29.74,15.00,# data time:2930,pm2.5:6.445,pm10:5.704,O2:0.000,NO2:0.000,SO2:0.000,NH3:5.988
8:52:29,0,0,0,0,0,0,0,0,0,0,0,514,0,0,0,0,0.0000000,0.0000000,0.0000000,0.0000000,10.00,38.4225502,-110.7846756,1369.1999512,0.0,78.8,0.9,0.0,0.0,861,130,0,0,859.91,29.74,15.01,# data time:2930,pm2.5:6.445,pm10:5.704,O2:0.000,NO2:0.000,SO2:0.000,NH3:5.988
8:52:30,0,0,0,0,0,0,0,0,0,0,0,514,0,0,0,0,0.0000000,0.0000000,0.0000000,0.0000000,10.00,38.4225502,-110.7846756,1369.1999512,0.0,78.8,0.9,0.0,0.0,861,134,0,0,859.92,29.74,15.00,# data time:2930,pm2.5:6.445,pm10:5.704,O2:0.000,NO2:0.000,SO2:0.000,NH3:5.988
8:52:31,0,0,0,0,0,0,0,0,0,0,0,514,0,0,0,0,0.0000000,0.0000000,0.0000000,0.0000000,10.00,38.4225502,-110.7846756,1369.1999512,0.0,78.8,0.9,0.0,0.0,861,131,0,0,859.87,29.71,15.02,# data time:2930,pm2.5:6.445,pm10:5.704,O2:0.000,NO2:0.000,SO2:0.000,NH3:5.988
8:52:32,0,0,0,0,0,0,0,0,0,0,0,514,0,0,0,0,0.0000000,0.0000000,0.0000000,0.0000000,10.00,38.4225502,-110.7846756,1369.1999512,0.0,78.8,0.9,0.0,0.0,862,132,0,0,859.83,29.69,15.02,# data time:2930,pm2.5:6.445,pm10:5.704,O2:0.000,NO2:0.000,SO2:0.000,NH3:5.988
8:52:33,0,0,0,0,0,0,0,0,0,0,0,514,0,0,0,0,0.0000000,0.0000000,0.0000000,0.0000000,10.00,38.4225502,-110.7846756,1369.1999512,0.0,78.8,0.9,0.0,0.0,861,131,0,0,859.95,29.68,15.01,# data time:2930,pm2.5:6.445,pm10:5.704,O2:0.000,NO2:0.000,SO2:0.000,NH3:5.988
