Time, Motor A Speed, Motor A Dir, Motor B Speed, Motor B Dir, Servo Rail Current Sensor, Servo Pos - Arm L, Servo Pos - Arm R, Servo Pos - End, Servo Pos - Hopper, Servo Pos - Lid, Servo Pos - Extra, Servo Current, LED - Front L, LED - Front R, LED - Back L, LED - Back R, IMU Pitch, IMU Roll, IMU Yaw, Compass Heading, GPS Sats, GPS Latitude, GPS Longitude, GPS Altitude, GPS Speed, GPS Angle, GPS HDOP, GPS VDOP, GPS PDOP, Battery, Wind, Comm Xbee Latency, Comm Arduino Latency, Pressure, Humidity, Temperature, uRADMonitor
12:25:43,0,0,0,0,0,0,0,0,0,0,0,514,0,0,0,0,0.0000000,0.0000000,0.0000000,0.0000000,8.00,38.4065666,-110.7925339,1401.9000244,0.0,17.5,1.0,0.0,0.0,796,121,0,0,860.15,20.66,18.57,# data time:15730,pm2.5:6.445,pm10:5.704,O2:0.000,NO2:0.000,SO2:0.000,NH3:5.536
12:25:44,0,0,0,0,0,0,0,0,0,0,0,514,0,0,0,0,0.0000000,0.0000000,0.0000000,0.0000000,8.00,38.4065666,-110.7925339,1401.9000244,0.0,17.5,1.0,0.0,0.0,796,127,0,0,860.20,20.68,18.58,# data time:15730,pm2.5:6.445,pm10:5.704,O2:0.000,NO2:0.000,SO2:0.000,NH3:5.536
12:25:45,0,0,0,0,0,0,0,0,0,0,0,514,0,0,0,0,0.0000000,0.0000000,0.0000000,0.0000000,8.00,38.4065666,-110.7925339,1401.9000244,0.0,17.5,1.0,0.0,0.0,796,127,0,0,860.16,20.69,18.57,# data time:15730,pm2.5:6.445,pm10:5.704,O2:0.000,NO2:0.000,SO2:0.000,NH3:5.536
12:25:46,0,0,0,0,0,0,0,0,0,0,0,514,0,0,0,0,0.0000000,0.0000000,0.0000000,0.0000000,8.00,38.4065666,-110.7925339,1401.9000244,0.0,17.5,1.0,0.0,0.0,796,127,0,0,860.16,20.69,18.63,# data time:15730,pm2.5:6.445,pm10:5.704,O2:0.000,NO2:0.000,SO2:0.000,NH3:5.536
12:25:47,0,0,0,0,0,0,0,0,0,0,0,513,0,0,0,0,0.0000000,0.0000000,0.0000000,0.0000000,8.00,38.4065666,-110.7925339,1401.9000244,0.0,17.5,1.0,0.0,0.0,796,128,0,0,860.15,20.71,18.57,# data time:15740,pm2.5:6.445,pm10:5.704,O2:0.000,NO2:0.000,SO2:0.000,NH3:5.536
12:25:48,0,0,0,0,0,0,0,0,0,0,0,514,0,0,0,0,0.0000000,0.0000000,0.0000000,0.0000000,8.00,38.4065666,-110.7925339,1401.9000244,0.0,17.5,1.0,0.0,0.0,795,127,0,0,860.21,20.69,18.67,# data time:15740,pm2.5:6.445,pm10:5.704,O2:0.000,NO2:0.000,SO2:0.000,NH3:5.536
12:25:49,0,0,0,0,0,0,0,0,0,0,0,514,0,0,0,0,0.0000000,0.0000000,0.0000000,0.0000000,8.00,38.4065666,-110.7925339,1401.9000244,0.0,17.5,1.0,0.0,0.0,795,127,0,0,860.18,20.66,18.67,# data time:15740,pm2.5:6.445,pm10:5.704,O2:0.000,NO2:0.000,SO2:0.000,NH3:5.536
12:25:50,0,0,0,0,0,0,0,0,0,0,0,514,0,0,0,0,0.0000000,0.0000000,0.0000000,0.0000000,8.00,38.4065666,-110.7925339,1401.9000244,0.0,17.5,1.0,0.0,0.0,796,127,0,0,860.17,20.66,18.67,# data time:15740,pm2.5:6.445,pm10:5.704,O2:0.000,NO2:0.000,SO2:0.000,NH3:5.536
12:25:51,0,0,0,0,0,0,0,0,0,0,0,514,0,0,0,0,0.0000000,0.0000000,0.0000000,0.0000000,8.00,38.4065666,-110.7925339,1401.9000244,0.0,17.5,1.0,0.0,0.0,796,130,0,0,860.19,20.66,18.67,# data time:15740,pm2.5:6.445,pm10:5.704,O2:0.000,NO2:0.000,SO2:0.000,NH3:5.536
12:25:52,0,0,0,0,0,0,0,0,0,0,0,513,0,0,0,0,0.0000000,0.0000000,0.0000000,0.0000000,8.00,38.4065666,-110.7925339,1401.9000244,0.0,17.5,1.0,0.0,0.0,797,127,0,0,860.19,20.65,18.68,# data time:15740,pm2.5:6.445,pm10:5.704,O2:0.000,NO2:0.000,SO2:0.000,NH3:5.536
12:25:53,0,0,0,0,0,0,0,0,0,0,0,514,0,0,0,0,0.0000000,0.0000000,0.0000000,0.0000000,8.00,38.4065666,-110.7925339,1401.9000244,0.0,17.5,1.0,0.0,0.0,796,124,0,0,860.19,20.66,18.67,# data time:15740,pm2.5:6.445,pm10:5.704,O2:0.000,NO2:0.000,SO2:0.000,NH3:5.536
12:25:54,0,0,0,0,0,0,0,0,0,0,0,514,0,0,0,0,0.0000000,0.0000000,0.0000000,0.0000000,8.00,38.4065666,-110.7925339,1401.9000244,0.0,17.5,1.0,0.0,0.0,795,129,0,0,860.24,20.63,18.68,# data time:15740,pm2.5:6.445,pm10:5.704,O2:0.000,NO2:0.000,SO2:0.000,NH3:5.536
12:25:55,0,0,0,0,0,0,0,0,0,0,0,514,0,0,0,0,0.0000000,0.0000000,0.0000000,0.0000000,8.00,38.4065666,-110.7925339,1401.9000244,0.0,17.5,1.0,0.0,0.0,796,129,0,0,860.21,20.65,18.67,# data time:15740,pm2.5:6.445,pm10:5.704,O2:0.000,NO2:0.000,SO2:0.000,NH3:5.536
12:25:56,0,0,0,0,0,0,0,0,0,0,0,514,0,0,0,0,0.0000000,0.0000000,0.0000000,0.0000000,8.00,38.4065666,-110.7925339,1401.9000244,0.0,17.5,1.0,0.0,0.0,795,129,0,0,860.23,20.66,18.67,# data time:15740,pm2.5:6.445,pm10:5.704,O2:0.000,NO2:0.000,SO2:0.000,NH3:5.536
12:25:58,0,0,0,0,0,0,0,0,0,0,0,514,0,0,0,0,0.0000000,0.0000000,0.0000000,0.0000000,8.00,38.4065666,-110.7925339,1401.9000244,0.0,17.5,1.0,0.0,0.0,796,122,0,0,860.20,20.65,18.68,# data time:15750,pm2.5:6.445,pm10:5.704,O2:0.000,NO2:0.000,SO2:0.000,NH3:5.536
12:25:59,0,0,0,0,0,0,0,0,0,0,0,515,0,0,0,0,0.0000000,0.0000000,0.0000000,0.0000000,8.00,38.4065666,-110.7925339,1401.9000244,0.0,17.5,1.0,0.0,0.0,795,128,0,0,860.18,20.66,18.68,# data time:15750,pm2.5:6.445,pm10:5.704,O2:0.000,NO2:0.000,SO2:0.000,NH3:5.536
12:26:00,0,0,0,0,0,0,0,0,0,0,0,515,0,0,0,0,0.0000000,0.0000000,0.0000000,0.0000000,8.00,38.4065666,-110.7925339,1401.9000244,0.0,17.5,1.0,0.0,0.0,796,129,0,0,860.21,20.65,18.68,# data time:15750,pm2.5:6.445,pm10:5.704,O2:0.000,NO2:0.000,SO2:0.000,NH3:5.536
12:26:01,0,0,0,0,0,0,0,0,0,0,0,514,0,0,0,0,0.0000000,0.0000000,0.0000000,0.0000000,8.00,38.4065666,-110.7925339,1401.9000244,0.0,17.5,1.0,0.0,0.0,795,128,0,0,860.21,20.63,18.68,# data time:15750,pm2.5:6.445,pm10:5.704,O2:0.000,NO2:0.000,SO2:0.000,NH3:5.536
12:26:02,0,0,0,0,0,0,0,0,0,0,0,514,0,0,0,0,0.0000000,0.0000000,0.0000000,0.0000000,8.00,38.4065666,-110.7925339,1401.9000244,0.0,17.5,1.0,0.0,0.0,796,126,0,0,860.21,20.63,18.68,# data time:15750,pm2.5:6.445,pm10:5.704,O2:0.000,NO2:0.000,SO2:0.000,NH3:5.536
12:26:03,0,0,0,0,0,0,0,0,0,0,0,514,0,0,0,0,0.0000000,0.0000000,0.0000000,0.0000000,8.00,38.4065666,-110.7925339,1401.9000244,0.0,17.5,1.0,0.0,0.0,795,125,0,0,860.24,20.62,18.68,# data time:15750,pm2.5:6.445,pm10:5.704,O2:0.000,NO2:0.000,SO2:0.000,NH3:5.536
12:26:04,0,0,0,0,0,0,0,0,0,0,0,514,0,0,0,0,0.0000000,0.0000000,0.0000000,0.0000000,8.00,38.4065666,-110.7925339,1401.9000244,0.0,17.5,1.0,0.0,0.0,795,129,0,0,860.27,20.63,18.68,# data time:15750,pm2.5:6.445,pm10:5.704,O2:0.000,NO2:0.000,SO2:0.000,NH3:5.536
12:26:05,0,0,0,0,0,0,0,0,0,0,0,514,0,0,0,0,0.0000000,0.0000000,0.0000000,0.0000000,8.00,38.4065666,-110.7925339,1401.9000244,0.0,17.5,1.0,0.0,0.0,796,125,0,0,860.19,20.63,18.68,# data time:15750,pm2.5:6.445,pm10:5.704,O2:0.000,NO2:0.000,SO2:0.000,NH3:5.536
12:26:06,0,0,0,0,0,0,0,0,0,0,0,515,0,0,0,0,0.0000000,0.0000000,0.0000000,0.0000000,8.00,38.4065666,-110.7925339,1401.9000244,0.1,17.5,1.0,0.0,0.0,795,127,0,0,860.23,20.63,18.68,# data time:15750,pm2.5:6.445,pm10:5.704,O2:0.000,NO2:0.000,SO2:0.000,NH3:5.536
12:26:07,0,0,0,0,0,0,0,0,0,0,0,514,0,0,0,0,0.0000000,0.0000000,0.0000000,0.0000000,8.00,38.4065666,-110.7925339,1401.9000244,0.0,17.5,1.0,0.0,0.0,795,125,0,0,860.25,20.65,18.69,# data time:15750,pm2.5:6.445,pm10:5.704,O2:0.000,NO2:0.000,SO2:0.000,NH3:5.536
12:26:08,0,0,0,0,0,0,0,0,0,0,0,514,0,0,0,0,0.0000000,0.0000000,0.0000000,0.0000000,8.00,38.4065666,-110.7925339,1401.9000244,0.0,17.5,1.0,0.0,0.0,795,127,0,0,860.21,20.62,18.69,# data time:15760,pm2.5:6.445,pm10:5.704,O2:0.000,NO2:0.000,SO2000,NH3:5.536
12:26:09,0,0,0,0,0,0,0,0,0,0,0,514,0,0,0,0,0.0000000,0.0000000,0.0000000,0.0000000,8.00,38.4065666,-110.7925339,1401.9000244,0.0,17.5,1.0,0.0,0.0,795,126,0,0,860.22,20.63,18.68,# data time:15760,pm2.5:6.445,pm10:5.704,O2:0.000,NO2:0.000,SO2000,NH3:5.536
12:26:10,0,0,0,0,0,0,0,0,0,0,0,514,0,0,0,0,0.0000000,0.0000000,0.0000000,0.0000000,8.00,38.4065666,-110.7925339,1401.9000244,0.0,17.5,1.0,0.0,0.0,795,129,0,0,860.24,20.65,18.68,# data time:15760,pm2.5:6.445,pm10:5.704,O2:0.000,NO2:0.000,SO2000,NH3:5.536
12:26:11,0,0,0,0,0,0,0,0,0,0,0,515,0,0,0,0,0.0000000,0.0000000,0.0000000,0.0000000,8.00,38.4065666,-110.7925339,1401.9000244,0.0,17.5,1.0,0.0,0.0,795,129,0,0,860.26,20.62,18.69,# data time:15760,pm2.5:6.445,pm10:5.704,O2:0.000,NO2:0.000,SO2000,NH3:5.536
12:26:12,0,0,0,0,0,0,0,0,0,0,0,514,0,0,0,0,0.0000000,0.0000000,0.0000000,0.0000000,8.00,38.4065666,-110.7925339,1401.9000244,0.0,17.5,1.0,0.0,0.0,795,126,0,0,860.26,20.66,18.69,# data time:15760,pm2.5:6.445,pm10:5.704,O2:0.000,NO2:0.000,SO2000,NH3:5.536
12:26:13,0,0,0,0,0,0,0,0,0,0,0,514,0,0,0,0,0.0000000,0.0000000,0.0000000,0.0000000,8.00,38.4065666,-110.7925339,1401.9000244,0.0,17.5,1.0,0.0,0.0,795,125,0,0,860.22,20.69,18.68,# data time:15760,pm2.5:6.445,pm10:5.704,O2:0.000,NO2:0.000,SO2000,NH3:5.536
12:26:14,0,0,0,0,0,0,0,0,0,0,0,514,0,0,0,0,0.0000000,0.0000000,0.0000000,0.0000000,8.00,38.4065666,-110.7925339,1401.9000244,0.0,17.5,1.0,0.0,0.0,795,127,0,0,860.21,20.66,18.69,# data time:15760,pm2.5:6.445,pm10:5.704,O2:0.000,NO2:0.000,SO2000,NH3:5.536
12:26:15,0,0,0,0,0,0,0,0,0,0,0,515,0,0,0,0,0.0000000,0.0000000,0.0000000,0.0000000,8.00,38.4065666,-110.7925339,1401.9000244,0.0,17.5,1.0,0.0,0.0,795,129,0,0,860.26,20.65,18.69,# data time:15760,pm2.5:6.445,pm10:5.704,O2:0.000,NO2:0.000,SO2000,NH3:5.536
12:26:16,0,0,0,0,0,0,0,0,0,0,0,514,0,0,0,0,0.0000000,0.0000000,0.0000000,0.0000000,8.00,38.4065666,-110.7925339,1401.9000244,0.0,17.5,1.0,0.0,0.0,795,127,0,0,860.21,20.68,18.68,# data time:15760,pm2.5:6.445,pm10:5.704,O2:0.000,NO2:0.000,SO2000,NH3:5.536
12:26:17,0,0,0,0,0,0,0,0,0,0,0,514,0,0,0,0,0.0000000,0.0000000,0.0000000,0.0000000,8.00,38.4065666,-110.7925339,1401.9000244,0.0,17.5,1.0,0.0,0.0,795,125,0,0,860.24,20.66,18.69,# data time:15770,pm2.5:6.445,pm10:5.704,O2:0.000,NO2:0.000,SO2:0.000,NH3:5.536
12:26:18,0,0,0,0,0,0,0,0,0,0,0,514,0,0,0,0,0.0000000,0.0000000,0.0000000,0.0000000,8.00,38.4065666,-110.7925339,1401.9000244,0.0,17.5,1.0,0.0,0.0,794,129,0,0,860.23,20.66,18.69,# data time:15770,pm2.5:6.445,pm10:5.704,O2:0.000,NO2:0.000,SO2:0.000,NH3:5.536
12:26:19,0,0,0,0,0,0,0,0,0,0,0,514,0,0,0,0,0.0000000,0.0000000,0.0000000,0.0000000,8.00,38.4065666,-110.7925339,1401.9000244,0.0,17.5,1.0,0.0,0.0,794,127,0,0,860.25,20.66,18.68,# data time:15770,pm2.5:6.445,pm10:5.704,O2:0.000,NO2:0.000,SO2:0.000,NH3:5.536
12:26:20,0,0,0,0,0,0,0,0,0,0,0,514,0,0,0,0,0.0000000,0.0000000,0.0000000,0.0000000,8.00,38.4065666,-110.7925339,1401.9000244,0.0,17.5,1.0,0.0,0.0,795,126,0,0,860.20,20.68,18.69,# data time:15770,pm2.5:6.445,pm10:5.704,O2:0.000,NO2:0.000,SO2:0.000,NH3:5.536
12:26:21,0,0,0,0,0,0,0,0,0,0,0,515,0,0,0,0,0.0000000,0.0000000,0.0000000,0.0000000,8.00,38.4065666,-110.7925339,1401.9000244,0.0,17.5,1.0,0.0,0.0,795,126,0,0,860.24,20.65,18.69,# data time:15770,pm2.5:6.445,pm10:5.704,O2:0.000,NO2:0.000,SO2:0.000,NH3:5.536
12:26:22,0,0,0,0,0,0,0,0,0,0,0,514,0,0,0,0,0.0000000,0.0000000,0.0000000,0.0000000,8.00,38.4065666,-110.7925339,1401.9000244,0.0,17.5,1.0,0.0,0.0,794,127,0,0,860.21,20.63,18.69,# data time:15770,pm2.5:6.445,pm10:5.704,O2:0.000,NO2:0.000,SO2:0.000,NH3:5.536
12:26:23,0,0,0,0,0,0,0,0,0,0,0,514,0,0,0,0,0.0000000,0.0000000,0.0000000,0.0000000,8.00,38.4065666,-110.7925339,1401.9000244,0.0,17.5,1.0,0.0,0.0,794,125,0,0,860.19,20.62,18.69,# data time:15770,pm2.5:6.445,pm10:5.704,O2:0.000,NO2:0.000,SO2:0.000,NH3:5.536
12:26:24,0,0,0,0,0,0,0,0,0,0,0,514,0,0,0,0,0.0000000,0.0000000,0.0000000,0.0000000,8.00,38.4065666,-110.7925339,1401.9000244,0.0,17.5,1.0,0.0,0.0,794,131,0,0,860.23,20.68,18.69,# data time:15770,pm2.5:6.445,pm10:5.704,O2:0.000,NO2:0.000,SO2:0.000,NH3:5.536
12:26:25,0,0,0,0,0,0,0,0,0,0,0,514,0,0,0,0,0.0000000,0.0000000,0.0000000,0.0000000,8.00,38.4065666,-110.7925339,1401.9000244,0.0,17.5,1.0,0.0,0.0,795,128,0,0,860.24,20.65,18.69,# data time:15770,pm2.5:6.445,pm10:5.704,O2:0.000,NO2:0.000,SO2:0.000,NH3:5.536
12:26:26,0,0,0,0,0,0,0,0,0,0,0,514,0,0,0,0,0.0000000,0.0000000,0.0000000,0.0000000,8.00,38.4065666,-110.7925339,1401.9000244,0.0,17.5,1.0,0.0,0.0,794,127,0,0,860.24,20.66,18.69,# data time:15770,pm2.5:6.445,pm10:5.704,O2:0.000,NO2:0.000,SO2:0.000,NH3:5.536
12:26:27,0,0,0,0,0,0,0,0,0,0,0,515,0,0,0,0,0.0000000,0.0000000,0.0000000,0.0000000,8.00,38.4065666,-110.7925339,1401.9000244,0.0,17.5,1.0,0.0,0.0,794,126,0,0,860.23,20.65,18.69,# data time:15780,pm2.5:6.445,pm10:5.704,O2:0.000,NO2:0.000,SO2:0.000,NH3:5.536
12:26:28,0,0,0,0,0,0,0,0,0,0,0,514,0,0,0,0,0.0000000,0.0000000,0.0000000,0.0000000,8.00,38.4065666,-110.7925339,1401.9000244,0.0,17.5,1.0,0.0,0.0,794,128,0,0,860.22,20.65,18.69,# data time:15780,pm2.5:6.445,pm10:5.704,O2:0.000,NO2:0.000,SO2:0.000,NH3:5.536
12:26:29,0,0,0,0,0,0,0,0,0,0,0,514,0,0,0,0,0.0000000,0.0000000,0.0000000,0.0000000,8.00,38.4065666,-110.7925339,1401.9000244,0.0,17.5,1.0,0.0,0.0,794,126,0,0,860.27,20.65,18.70,# data time:15780,pm2.5:6.445,pm10:5.704,O2:0.000,NO2:0.000,SO2:0.000,NH3:5.536
12:26:30,0,0,0,0,0,0,0,0,0,0,0,514,0,0,0,0,0.0000000,0.0000000,0.0000000,0.0000000,8.00,38.4065666,-110.7925339,1401.9000244,0.0,17.5,1.0,0.0,0.0,795,124,0,0,860.24,20.63,18.70,# data time:15780,pm2.5:6.445,pm10:5.704,O2:0.000,NO2:0.000,SO2:0.000,NH3:5.536
12:26:31,0,0,0,0,0,0,0,0,0,0,0,514,0,0,0,0,0.0000000,0.0000000,0.0000000,0.0000000,8.00,38.4065666,-110.7925339,1401.9000244,0.0,17.5,1.0,0.0,0.0,795,127,0,0,860.24,20.63,18.69,# data time:15780,pm2.5:6.445,pm10:5.704,O2:0.000,NO2:0.000,SO2:0.000,NH3:5.536
12:26:32,0,0,0,0,0,0,0,0,0,0,0,515,0,0,0,0,0.0000000,0.0000000,0.0000000,0.0000000,8.00,38.4065666,-110.7925339,1401.9000244,0.0,17.5,1.0,0.0,0.0,794,125,0,0,860.22,20.55,18.70,# data time:15780,pm2.5:6.445,pm10:5.704,O2:0.000,NO2:0.000,SO2:0.000,NH3:5.536
12:26:33,0,0,0,0,0,0,0,0,0,0,0,514,0,0,0,0,0.0000000,0.0000000,0.0000000,0.0000000,8.00,38.4065666,-110.7925339,1401.9000244,0.0,17.5,1.0,0.0,0.0,794,127,0,0,860.28,20.54,18.70,# data time:15780,pm2.5:6.445,pm10:5.704,O2:0.000,NO2:0.000,SO2:0.000,NH3:5.536
12:26:34,0,0,0,0,0,0,0,0,0,0,0,514,0,0,0,0,0.0000000,0.0000000,0.0000000,0.0000000,8.00,38.4065666,-110.7925339,1401.9000244,0.0,17.5,1.0,0.0,0.0,794,130,0,0,860.23,20.51,18.70,# data time:15780,pm2.5:6.445,pm10:5.704,O2:0.000,NO2:0.000,SO2:0.000,NH3:5.536
12:26:35,0,0,0,0,0,0,0,0,0,0,0,514,0,0,0,0,0.0000000,0.0000000,0.0000000,0.0000000,8.00,38.4065666,-110.7925339,1401.9000244,0.0,17.5,1.0,0.0,0.0,794,124,0,0,860.20,20.52,18.70,# data time:15780,pm2.5:6.445,pm10:5.704,O2:0.000,NO2:0.000,SO2:0.000,NH3:5.536
12:26:36,0,0,0,0,0,0,0,0,0,0,0,514,0,0,0,0,0.0000000,0.0000000,0.0000000,0.0000000,8.00,38.4065666,-110.7925339,1401.9000244,0.0,17.5,1.0,0.0,0.0,794,128,0,0,860.23,20.49,18.70,# data time:15780,pm2.5:6.445,pm10:5.704,O2:0.000,NO2:0.000,SO2:0.000,NH3:5.536
12:26:37,0,0,0,0,0,0,0,0,0,0,0,515,0,0,0,0,0.0000000,0.0000000,0.0000000,0.0000000,8.00,38.4065666,-110.7925339,1401.9000244,0.0,17.5,1.0,0.0,0.0,794,126,0,0,860.23,20.49,18.70,# data time:15790,pm2.5:6.445,pm10:5.704,O2:0.000,NO2:0.000,SO2:0.000,NH3:5.536
12:26:38,0,0,0,0,0,0,0,0,0,0,0,515,0,0,0,0,0.0000000,0.0000000,0.0000000,0.0000000,8.00,38.4065666,-110.7925339,1401.9000244,0.0,17.5,1.0,0.0,0.0,794,129,0,0,860.26,20.49,18.70,# data time:15790,pm2.5:6.445,pm10:5.704,O2:0.000,NO2:0.000,SO2:0.000,NH3:5.536
12:26:39,0,0,0,0,0,0,0,0,0,0,0,514,0,0,0,0,0.0000000,0.0000000,0.0000000,0.0000000,8.00,38.4065666,-110.7925339,1401.9000244,0.0,17.5,1.0,0.0,0.0,794,124,0,0,860.24,20.49,18.70,# data time:15790,pm2.5:6.445,pm10:5.704,O2:0.000,NO2:0.000,SO2:0.000,NH3:5.536
12:26:40,0,0,0,0,0,0,0,0,0,0,0,514,0,0,0,0,0.0000000,0.0000000,0.0000000,0.0000000,8.00,38.4065666,-110.7925339,1401.9000244,0.0,17.5,1.0,0.0,0.0,793,125,0,0,860.23,20.46,18.70,# data time:15790,pm2.5:6.445,pm10:5.704,O2:0.000,NO2:0.000,SO2:0.000,NH3:5.536
12:26:41,0,0,0,0,0,0,0,0,0,0,0,515,0,0,0,0,0.0000000,0.0000000,0.0000000,0.0000000,8.00,38.4065666,-110.7925339,1401.9000244,0.0,17.5,1.0,0.0,0.0,794,128,0,0,860.23,20.48,18.69,# data time:15790,pm2.5:6.445,pm10:5.704,O2:0.000,NO2:0.000,SO2:0.000,NH3:5.536
12:26:42,0,0,0,0,0,0,0,0,0,0,0,514,0,0,0,0,0.0000000,0.0000000,0.0000000,0.0000000,8.00,38.4065666,-110.7925339,1401.9000244,0.0,17.5,1.0,0.0,0.0,794,130,0,0,860.29,20.49,18.70,# data time:15790,pm2.5:6.445,pm10:5.704,O2:0.000,NO2:0.000,SO2:0.000,NH3:5.536
12:26:43,0,0,0,0,0,0,0,0,0,0,0,515,0,0,0,0,0.0000000,0.0000000,0.0000000,0.0000000,8.00,38.4065666,-110.7925339,1401.9000244,0.0,17.5,1.0,0.0,0.0,794,126,0,0,860.20,20.51,18.61,# data time:15790,pm2.5:6.445,pm10:5.704,O2:0.000,NO2:0.000,SO2:0.000,NH3:5.536
12:26:44,0,0,0,0,0,0,0,0,0,0,0,514,0,0,0,0,0.0000000,0.0000000,0.0000000,0.0000000,8.00,38.4065666,-110.7925339,1401.9000244,0.0,17.5,1.0,0.0,0.0,794,130,0,0,860.19,20.52,18.60,# data time:15790,pm2.5:6.445,pm10:5.704,O2:0.000,NO2:0.000,SO2:0.000,NH3:5.536
12:26:45,0,0,0,0,0,0,0,0,0,0,0,513,0,0,0,0,0.0000000,0.0000000,0.0000000,0.0000000,8.00,38.4065666,-110.7925339,1401.9000244,0.0,17.5,1.0,0.0,0.0,794,127,0,0,860.16,20.54,18.60,# data time:15790,pm2.5:6.445,pm10:5.704,O2:0.000,NO2:0.000,SO2:0.000,NH3:5.536
12:26:46,0,0,0,0,0,0,0,0,0,0,0,515,0,0,0,0,0.0000000,0.0000000,0.0000000,0.0000000,8.00,38.4065666,-110.7925339,1401.9000244,0.0,17.5,1.0,0.0,0.0,794,125,0,0,860.21,20.55,18.61,# data time:15790,pm2.5:6.445,pm10:5.704,O2:0.000,NO2:0.000,SO2:0.000,NH3:5.536
12:26:47,0,0,0,0,0,0,0,0,0,0,0,514,0,0,0,0,0.0000000,0.0000000,0.0000000,0.0000000,8.00,38.4065666,-110.7925339,1401.9000244,0.0,17.5,1.0,0.0,0.0,793,127,0,0,860.27,20.55,18.66,# data time:15800,pm2.5:6.445,pm10:5.704,O2:0.000,NO2:0.000,SO2:0.000,NH3:5.536
12:26:48,0,0,0,0,0,0,0,0,0,0,0,515,0,0,0,0,0.0000000,0.0000000,0.0000000,0.0000000,8.00,38.4065666,-110.7925339,1401.9000244,0.0,17.5,1.0,0.0,0.0,794,125,0,0,860.19,20.57,18.60,# data time:15800,pm2.5:6.445,pm10:5.704,O2:0.000,NO2:0.000,SO2:0.000,NH3:5.536
12:26:49,0,0,0,0,0,0,0,0,0,0,0,514,0,0,0,0,0.0000000,0.0000000,0.0000000,0.0000000,8.00,38.4065666,-110.7925339,1401.9000244,0.0,17.5,1.0,0.0,0.0,794,126,0,0,860.19,20.57,18.69,# data time:15800,pm2.5:6.445,pm10:5.704,O2:0.000,NO2:0.000,SO2:0.000,NH3:5.536
12:26:50,0,0,0,0,0,0,0,0,0,0,0,514,0,0,0,0,0.0000000,0.0000000,0.0000000,0.0000000,8.00,38.4065666,-110.7925339,1401.9000244,0.0,17.5,1.0,0.0,0.0,794,125,0,0,860.22,20.55,18.70,# data time:15800,pm2.5:6.445,pm10:5.704,O2:0.000,NO2:0.000,SO2:0.000,NH3:5.536
12:26:51,0,0,0,0,0,0,0,0,0,0,0,514,0,0,0,0,0.0000000,0.0000000,0.0000000,0.0000000,8.00,38.4065666,-110.7925339,1401.9000244,0.0,17.5,1.0,0.0,0.0,793,127,0,0,860.18,20.57,18.70,# data time:15800,pm2.5:6.445,pm10:5.704,O2:0.000,NO2:0.000,SO2:0.000,NH3:5.536
12:26:52,0,0,0,0,0,0,0,0,0,0,0,514,0,0,0,0,0.0000000,0.0000000,0.0000000,0.0000000,8.00,38.4065666,-110.7925339,1401.9000244,0.0,17.5,1.0,0.0,0.0,794,120,0,0,860.23,20.57,18.70,# data time:15800,pm2.5:6.445,pm10:5.704,O2:0.000,NO2:0.000,SO2:0.000,NH3:5.536
12:26:53,0,0,0,0,0,0,0,0,0,0,0,515,0,0,0,0,0.0000000,0.0000000,0.0000000,0.0000000,8.00,38.4065666,-110.7925339,1401.9000244,0.0,17.5,1.0,0.0,0.0,794,130,0,0,860.25,20.55,18.70,# data time:15800,pm2.5:6.445,pm10:5.704,O2:0.000,NO2:0.000,SO2:0.000,NH3:5.536
12:26:54,0,0,0,0,0,0,0,0,0,0,0,515,0,0,0,0,0.0000000,0.0000000,0.0000000,0.0000000,8.00,38.4065666,-110.7925339,1401.9000244,0.0,17.5,1.0,0.0,0.0,794,126,0,0,860.24,20.58,18.70,# data time:15800,pm2.5:6.445,pm10:5.704,O2:0.000,NO2:0.000,SO2:0.000,NH3:5.536
12:26:56,0,0,0,0,0,0,0,0,0,0,0,514,0,0,0,0,0.0000000,0.0000000,0.0000000,0.0000000,8.00,38.4065704,-110.7925339,1401.9000244,0.0,17.5,1.0,0.0,0.0,794,127,0,0,860.23,20.60,18.70,# data time:15800,pm2.5:6.445,pm10:5.704,O2:0.000,NO2:0.000,SO2:0.000,NH3:5.536
12:26:57,0,0,0,0,0,0,0,0,0,0,0,515,0,0,0,0,0.0000000,0.0000000,0.0000000,0.0000000,8.00,38.4065704,-110.7925339,1401.9000244,0.0,17.5,1.0,0.0,0.0,794,127,0,0,860.21,20.55,18.70,# data time:15800,pm2.5:6.445,pm10:5.704,O2:0.000,NO2:0.000,SO2:0.000,NH3:5.536
12:26:58,0,0,0,0,0,0,0,0,0,0,0,514,0,0,0,0,0.0000000,0.0000000,0.0000000,0.0000000,8.00,38.4065704,-110.7925339,1401.9000244,0.0,17.5,1.0,0.0,0.0,793,125,0,0,860.23,20.54,18.70,# data time:15810,pm2.5:6.445,pm10:5.704,O2:0.000,NO2:0.000,SO2:0.000,NH3:5.536
12:26:59,0,0,0,0,0,0,0,0,0,0,0,514,0,0,0,0,0.0000000,0.0000000,0.0000000,0.0000000,8.00,38.4065704,-110.7925339,1401.9000244,0.0,17.5,1.0,0.0,0.0,794,126,0,0,860.20,20.52,18.70,# data time:15810,pm2.5:6.445,pm10:5.704,O2:0.000,NO2:0.000,SO2:0.000,NH3:5.536
12:27:00,0,0,0,0,0,0,0,0,0,0,0,514,0,0,0,0,0.0000000,0.0000000,0.0000000,0.0000000,8.00,38.4065704,-110.7925339,1401.9000244,0.0,17.5,1.0,0.0,0.0,793,125,0,0,860.26,20.57,18.70,# data time:15810,pm2.5:6.445,pm10:5.704,O2:0.000,NO2:0.000,SO2:0.000,NH3:5.536
12:27:01,0,0,0,0,0,0,0,0,0,0,0,513,0,0,0,0,0.0000000,0.0000000,0.0000000,0.0000000,8.00,38.4065704,-110.7925339,1401.9000244,0.0,17.5,1.0,0.0,0.0,794,127,0,0,860.22,20.54,18.71,# data time:15810,pm2.5:6.445,pm10:5.704,O2:0.000,NO2:0.000,SO2:0.000,NH3:5.536
12:27:02,0,0,0,0,0,0,0,0,0,0,0,513,0,0,0,0,0.0000000,0.0000000,0.0000000,0.0000000,8.00,38.4065704,-110.7925339,1401.9000244,0.0,17.5,1.0,0.0,0.0,793,129,0,0,860.25,20.55,18.70,# data time:15810,pm2.5:6.445,pm10:5.704,O2:0.000,NO2:0.000,SO2:0.000,NH3:5.536
12:27:03,0,0,0,0,0,0,0,0,0,0,0,515,0,0,0,0,0.0000000,0.0000000,0.0000000,0.0000000,8.00,38.4065704,-110.7925339,1401.9000244,0.0,17.5,1.0,0.0,0.0,793,122,0,0,860.18,20.57,18.70,# data time:15810,pm2.5:6.445,pm10:5.704,O2:0.000,NO2:0.000,SO2:0.000,NH3:5.536
12:27:04,0,0,0,0,0,0,0,0,0,0,0,514,0,0,0,0,0.0000000,0.0000000,0.0000000,0.0000000,8.00,38.4065704,-110.7925339,1401.9000244,0.0,17.5,1.0,0.0,0.0,794,128,0,0,860.25,20.60,18.71,# data time:15810,pm2.5:6.445,pm10:5.704,O2:0.000,NO2:0.000,SO2:0.000,NH3:5.536
12:27:05,0,0,0,0,0,0,0,0,0,0,0,514,0,0,0,0,0.0000000,0.0000000,0.0000000,0.0000000,8.00,38.4065704,-110.7925339,1401.9000244,0.0,17.5,1.0,0.0,0.0,793,125,0,0,860.26,20.58,18.71,# data time:15810,pm2.5:6.445,pm10:5.704,O2:0.000,NO2:0.000,SO2:0.000,NH3:5.536
12:27:06,0,0,0,0,0,0,0,0,0,0,0,514,0,0,0,0,0.0000000,0.0000000,0.0000000,0.0000000,8.00,38.4065704,-110.7925339,1401.9000244,0.0,17.5,1.0,0.0,0.0,794,127,0,0,860.23,20.55,18.71,# data time:15810,pm2.5:6.445,pm10:5.704,O2:0.000,NO2:0.000,SO2:0.000,NH3:5.536
12:27:07,0,0,0,0,0,0,0,0,0,0,0,514,0,0,0,0,0.0000000,0.0000000,0.0000000,0.0000000,8.00,38.4065704,-110.7925339,1401.9000244,0.0,17.5,1.0,0.0,0.0,793,125,0,0,860.21,20.52,18.71,# data time:15820,pm2.5:6.445,pm10:5.704,O2:0.000,NO2:0.000,SO2:0.000,NH3:5.536
12:27:08,0,0,0,0,0,0,0,0,0,0,0,514,0,0,0,0,0.0000000,0.0000000,0.0000000,0.0000000,8.00,38.4065704,-110.7925339,1401.9000244,0.0,17.5,1.0,0.0,0.0,793,127,0,0,860.23,20.49,18.71,# data time:15820,pm2.5:6.445,pm10:5.704,O2:0.000,NO2:0.000,SO2:0.000,NH3:5.536
12:27:09,0,0,0,0,0,0,0,0,0,0,0,514,0,0,0,0,0.0000000,0.0000000,0.0000000,0.0000000,8.00,38.4065704,-110.7925339,1401.9000244,0.0,17.5,1.0,0.0,0.0,793,127,0,0,860.23,20.51,18.71,# data time:15820,pm2.5:6.445,pm10:5.704,O2:0.000,NO2:0.000,SO2:0.000,NH3:5.536
12:27:10,0,0,0,0,0,0,0,0,0,0,0,514,0,0,0,0,0.0000000,0.0000000,0.0000000,0.0000000,8.00,38.4065704,-110.7925339,1401.9000244,0.0,17.5,1.0,0.0,0.0,793,128,0,0,860.23,20.46,18.71,# data time:15820,pm2.5:6.445,pm10:5.704,O2:0.000,NO2:0.000,SO2:0.000,NH3:5.536
12:27:11,0,0,0,0,0,0,0,0,0,0,0,514,0,0,0,0,0.0000000,0.0000000,0.0000000,0.0000000,8.00,38.4065704,-110.7925339,1401.9000244,0.0,17.5,1.0,0.0,0.0,793,127,0,0,860.24,20.51,18.71,# data time:15820,pm2.5:6.445,pm10:5.704,O2:0.000,NO2:0.000,SO2:0.000,NH3:5.536
12:27:12,0,0,0,0,0,0,0,0,0,0,0,514,0,0,0,0,0.0000000,0.0000000,0.0000000,0.0000000,8.00,38.4065704,-110.7925339,1401.9000244,0.0,17.5,1.0,0.0,0.0,793,129,0,0,860.21,20.49,18.71,# data time:15820,pm2.5:6.445,pm10:5.704,O2:0.000,NO2:0.000,SO2:0.000,NH3:5.536
12:27:13,0,0,0,0,0,0,0,0,0,0,0,514,0,0,0,0,0.0000000,0.0000000,0.0000000,0.0000000,8.00,38.4065704,-110.7925339,1401.9000244,0.0,17.5,1.0,0.0,0.0,793,126,0,0,860.22,20.51,18.71,# data time:15820,pm2.5:6.445,pm10:5.704,O2:0.000,NO2:0.000,SO2:0.000,NH3:5.536
12:27:14,0,0,0,0,0,0,0,0,0,0,0,514,0,0,0,0,0.0000000,0.0000000,0.0000000,0.0000000,8.00,38.4065704,-110.7925339,1401.9000244,0.0,17.5,1.0,0.0,0.0,793,128,0,0,860.26,20.48,18.71,# data time:15820,pm2.5:6.445,pm10:5.704,O2:0.000,NO2:0.000,SO2:0.000,NH3:5.536
12:27:15,0,0,0,0,0,0,0,0,0,0,0,514,0,0,0,0,0.0000000,0.0000000,0.0000000,0.0000000,8.00,38.4065704,-110.7925339,1401.9000244,0.0,17.5,1.0,0.0,0.0,793,127,0,0,860.23,20.46,18.71,# data time:15820,pm2.5:6.445,pm10:5.704,O2:0.000,NO2:0.000,SO2:0.000,NH3:5.536
12:27:16,0,0,0,0,0,0,0,0,0,0,0,514,0,0,0,0,0.0000000,0.0000000,0.0000000,0.0000000,8.00,38.4065704,-110.7925339,1401.9000244,0.0,17.5,1.0,0.0,0.0,793,129,0,0,860.23,20.48,18.71,# data time:15820,pm2.5:6.445,pm10:5.704,O2:0.000,NO2:0.000,SO2:0.000,NH3:5.536
12:27:17,0,0,0,0,0,0,0,0,0,0,0,514,0,0,0,0,0.0000000,0.0000000,0.0000000,0.0000000,8.00,38.4065704,-110.7925339,1401.9000244,0.0,17.5,1.0,0.0,0.0,793,128,0,0,860.15,20.46,18.71,# data time:15830,pm2.5:6.445,pm10:5.704,O2:0.000,NO2:0.000,SO2:0.000,NH3:5.536
12:27:18,0,0,0,0,0,0,0,0,0,0,0,515,0,0,0,0,0.0000000,0.0000000,0.0000000,0.0000000,8.00,38.4065704,-110.7925339,1401.9000244,0.0,17.5,1.0,0.0,0.0,793,127,0,0,860.19,20.43,18.71,# data time:15830,pm2.5:6.445,pm10:5.704,O2:0.000,NO2:0.000,SO2:0.000,NH3:5.536
12:27:19,0,0,0,0,0,0,0,0,0,0,0,514,0,0,0,0,0.0000000,0.0000000,0.0000000,0.0000000,8.00,38.4065704,-110.7925339,1401.9000244,0.0,17.5,1.0,0.0,0.0,793,127,0,0,860.22,20.46,18.70,# data time:15830,pm2.5:6.445,pm10:5.704,O2:0.000,NO2:0.000,SO2:0.000,NH3:5.536
12:27:20,0,0,0,0,0,0,0,0,0,0,0,514,0,0,0,0,0.0000000,0.0000000,0.0000000,0.0000000,8.00,38.4065704,-110.7925339,1401.9000244,0.0,17.5,1.0,0.0,0.0,792,128,0,0,860.19,20.45,18.71,# data time:15830,pm2.5:6.445,pm10:5.704,O2:0.000,NO2:0.000,SO2:0.000,NH3:5.536
12:27:21,0,0,0,0,0,0,0,0,0,0,0,514,0,0,0,0,0.0000000,0.0000000,0.0000000,0.0000000,8.00,38.4065704,-110.7925339,1401.9000244,0.0,17.5,1.0,0.0,0.0,793,127,0,0,860.19,20.43,18.71,# data time:15830,pm2.5:6.445,pm10:5.704,O2:0.000,NO2:0.000,SO2:0.000,NH3:5.536
12:27:22,0,0,0,0,0,0,0,0,0,0,0,513,0,0,0,0,0.0000000,0.0000000,0.0000000,0.0000000,8.00,38.4065704,-110.7925339,1401.9000244,0.0,17.5,1.0,0.0,0.0,793,124,0,0,860.15,20.48,18.71,# data time:15830,pm2.5:6.445,pm10:5.704,O2:0.000,NO2:0.000,SO2:0.000,NH3:5.536
12:27:23,0,0,0,0,0,0,0,0,0,0,0,515,0,0,0,0,0.0000000,0.0000000,0.0000000,0.0000000,8.00,38.4065704,-110.7925339,1402.0000000,0.0,17.5,1.0,0.0,0.0,792,126,0,0,860.16,20.48,18.70,# data time:15830,pm2.5:6.445,pm10:5.704,O2:0.000,NO2:0.000,SO2:0.000,NH3:5.536
12:27:24,0,0,0,0,0,0,0,0,0,0,0,515,0,0,0,0,0.0000000,0.0000000,0.0000000,0.0000000,8.00,38.4065704,-110.7925339,1402.0000000,0.0,17.5,1.0,0.0,0.0,793,127,0,0,860.12,20.51,18.70,# data time:15830,pm2.5:6.445,pm10:5.704,O2:0.000,NO2:0.000,SO2:0.000,NH3:5.536
12:27:25,0,0,0,0,0,0,0,0,0,0,0,515,0,0,0,0,0.0000000,0.0000000,0.0000000,0.0000000,8.00,38.4065704,-110.7925339,1402.0000000,0.0,17.5,1.0,0.0,0.0,793,126,0,0,860.16,20.55,18.69,# data time:15830,pm2.5:6.445,pm10:5.704,O2:0.000,NO2:0.000,SO2:0.000,NH3:5.536
12:27:26,0,0,0,0,0,0,0,0,0,0,0,514,0,0,0,0,0.0000000,0.0000000,0.0000000,0.0000000,8.00,38.4065704,-110.7925339,1402.0000000,0.0,17.5,1.0,0.0,0.0,792,124,0,0,860.21,20.55,18.69,# data time:15830,pm2.5:6.445,pm10:5.704,O2:0.000,NO2:0.000,SO2:0.000,NH3:5.536
12:27:27,0,0,0,0,0,0,0,0,0,0,0,515,0,0,0,0,0.0000000,0.0000000,0.0000000,0.0000000,8.00,38.4065704,-110.7925339,1402.0000000,0.0,17.5,1.0,0.0,0.0,792,127,0,0,860.21,20.52,18.69,# data time:15840,pm2.5:6.445,pm10:5.704,O2:0.000,NO2:0.000,SO2:0.000,NH3:5.536
12:27:28,0,0,0,0,0,0,0,0,0,0,0,515,0,0,0,0,0.0000000,0.0000000,0.0000000,0.0000000,8.00,38.4065704,-110.7925339,1402.0000000,0.0,17.5,1.0,0.0,0.0,793,128,0,0,860.16,20.54,18.69,# data time:15840,pm2.5:6.445,pm10:5.704,O2:0.000,NO2:0.000,SO2:0.000,NH3:5.536
12:27:29,0,0,0,0,0,0,0,0,0,0,0,515,0,0,0,0,0.0000000,0.0000000,0.0000000,0.0000000,8.00,38.4065704,-110.7925339,1402.0000000,0.0,17.5,1.0,0.0,0.0,792,128,0,0,860.19,20.54,18.69,# data time:15840,pm2.5:6.445,pm10:5.704,O2:0.000,NO2:0.000,SO2:0.000,NH3:5.536
12:27:30,0,0,0,0,0,0,0,0,0,0,0,515,0,0,0,0,0.0000000,0.0000000,0.0000000,0.0000000,8.00,38.4065704,-110.7925339,1402.0000000,0.0,17.5,1.0,0.0,0.0,792,128,0,0,860.19,20.55,18.70,# data time:15840,pm2.5:6.445,pm10:5.704,O2:0.000,NO2:0.000,SO2:0.000,NH3:5.536
12:27:31,0,0,0,0,0,0,0,0,0,0,0,514,0,0,0,0,0.0000000,0.0000000,0.0000000,0.0000000,8.00,38.4065704,-110.7925339,1402.0000000,0.0,17.5,1.0,0.0,0.0,792,127,0,0,860.23,20.54,18.70,# data time:15840,pm2.5:6.445,pm10:5.704,O2:0.000,NO2:0.000,SO2:0.000,NH3:5.536
12:27:32,0,0,0,0,0,0,0,0,0,0,0,514,0,0,0,0,0.0000000,0.0000000,0.0000000,0.0000000,8.00,38.4065704,-110.7925339,1402.0000000,0.0,17.5,1.0,0.0,0.0,793,126,0,0,860.23,20.52,18.70,# data time:15840,pm2.5:6.445,pm10:5.704,O2:0.000,NO2:0.000,SO2:0.000,NH3:5.536
12:27:33,0,0,0,0,0,0,0,0,0,0,0,514,0,0,0,0,0.0000000,0.0000000,0.0000000,0.0000000,8.00,38.4065704,-110.7925339,1402.0000000,0.0,17.5,1.0,0.0,0.0,792,130,0,0,860.18,20.55,18.70,# data time:15840,pm2.5:6.445,pm10:5.704,O2:0.000,NO2:0.000,SO2:0.000,NH3:5.536
12:27:34,0,0,0,0,0,0,0,0,0,0,0,515,0,0,0,0,0.0000000,0.0000000,0.0000000,0.0000000,8.00,38.4065704,-110.7925339,1402.0000000,0.0,17.5,1.0,0.0,0.0,792,125,0,0,860.18,20.57,18.61,# data time:15840,pm2.5:6.445,pm10:5.704,O2:0.000,NO2:0.000,SO2:0.000,NH3:5.536
12:27:35,0,0,0,0,0,0,0,0,0,0,0,514,0,0,0,0,0.0000000,0.0000000,0.0000000,0.0000000,8.00,38.4065704,-110.7925339,1402.0000000,0.0,17.5,1.0,0.0,0.0,792,128,0,0,860.16,20.55,18.60,# data time:15840,pm2.5:6.445,pm10:5.704,O2:0.000,NO2:0.000,SO2:0.000,NH3:5.536
12:27:36,0,0,0,0,0,0,0,0,0,0,0,514,0,0,0,0,0.0000000,0.0000000,0.0000000,0.0000000,8.00,38.4065704,-110.7925339,1402.0000000,0.0,17.5,1.0,0.0,0.0,792,125,0,0,860.19,20.55,18.60,# data time:15840,pm2.5:6.445,pm10:5.704,O2:0.000,NO2:0.000,SO2:0.000,NH3:5.536
12:27:37,0,0,0,0,0,0,0,0,0,0,0,514,0,0,0,0,0.0000000,0.0000000,0.0000000,0.0000000,8.00,38.4065704,-110.7925339,1402.0000000,0.0,17.5,1.0,0.0,0.0,792,127,0,0,860.19,20.57,18.65,# data time:15850,pm2.5:6.445,pm10:5.704,O2:0.000,NO2:0.000,SO2:0.000,NH3:5.536
12:27:38,0,0,0,0,0,0,0,0,0,0,0,513,0,0,0,0,0.0000000,0.0000000,0.0000000,0.0000000,8.00,38.4065704,-110.7925339,1402.0000000,0.0,17.5,1.0,0.0,0.0,792,127,0,0,860.24,20.52,18.69,# data time:15850,pm2.5:6.445,pm10:5.704,O2:0.000,NO2:0.000,SO2:0.000,NH3:5.536
12:27:39,0,0,0,0,0,0,0,0,0,0,0,514,0,0,0,0,0.0000000,0.0000000,0.0000000,0.0000000,8.00,38.4065704,-110.7925339,1402.0000000,0.0,17.5,1.0,0.0,0.0,792,127,0,0,860.22,20.54,18.70,# data time:15850,pm2.5:6.445,pm10:5.704,O2:0.000,NO2:0.000,SO2:0.000,NH3:5.536
12:27:40,0,0,0,0,0,0,0,0,0,0,0,514,0,0,0,0,0.0000000,0.0000000,0.0000000,0.0000000,8.00,38.4065704,-110.7925339,1402.0000000,0.0,17.5,1.0,0.0,0.0,792,128,0,0,860.20,20.57,18.70,# data time:15850,pm2.5:6.445,pm10:5.704,O2:0.000,NO2:0.000,SO2:0.000,NH3:5.536
12:27:41,0,0,0,0,0,0,0,0,0,0,0,514,0,0,0,0,0.0000000,0.0000000,0.0000000,0.0000000,8.00,38.4065704,-110.7925339,1402.0000000,0.0,17.5,1.0,0.0,0.0,792,127,0,0,860.21,20.55,18.70,# data time:15850,pm2.5:6.445,pm10:5.704,O2:0.000,NO2:0.000,SO2:0.000,NH3:5.536
12:27:42,0,0,0,0,0,0,0,0,0,0,0,515,0,0,0,0,0.0000000,0.0000000,0.0000000,0.0000000,8.00,38.4065704,-110.7925339,1402.0000000,0.0,17.5,1.0,0.0,0.0,791,127,0,0,860.20,20.57,18.70,# data time:15850,pm2.5:6.445,pm10:5.704,O2:0.000,NO2:0.000,SO2:0.000,NH3:5.536
12:27:43,0,0,0,0,0,0,0,0,0,0,0,514,0,0,0,0,0.0000000,0.0000000,0.0000000,0.0000000,8.00,38.4065704,-110.7925339,1402.0000000,0.0,17.5,1.0,0.0,0.0,792,129,0,0,860.27,20.55,18.70,# data time:15850,pm2.5:6.445,pm10:5.704,O2:0.000,NO2:0.000,SO2:0.000,NH3:5.536
12:27:44,0,0,0,0,0,0,0,0,0,0,0,513,0,0,0,0,0.0000000,0.0000000,0.0000000,0.0000000,8.00,38.4065704,-110.7925339,1402.0000000,0.0,17.5,1.0,0.0,0.0,792,127,0,0,860.20,20.54,18.70,# data time:15850,pm2.5:6.445,pm10:5.704,O2:0.000,NO2:0.000,SO2:0.000,NH3:5.536
12:27:45,0,0,0,0,0,0,0,0,0,0,0,514,0,0,0,0,0.0000000,0.0000000,0.0000000,0.0000000,8.00,38.4065704,-110.7925339,1402.0000000,0.0,17.5,1.0,0.0,0.0,792,125,0,0,860.21,20.51,18.69,# data time:15850,pm2.5:6.445,pm10:5.704,O2:0.000,NO2:0.000,SO2:0.000,NH3:5.536
12:27:47,0,0,0,0,0,0,0,0,0,0,0,514,0,0,0,0,0.0000000,0.0000000,0.0000000,0.0000000,8.00,38.4065704,-110.7925339,1402.0000000,0.0,17.5,1.0,0.0,0.0,792,125,0,0,860.22,20.52,18.69,# data time:15850,pm2.5:6.445,pm10:5.704,O2:0.000,NO2:0.000,SO2:0.000,NH3:5.536
12:27:48,0,0,0,0,0,0,0,0,0,0,0,513,0,0,0,0,0.0000000,0.0000000,0.0000000,0.0000000,8.00,38.4065704,-110.7925339,1402.0000000,0.0,17.5,1.0,0.0,0.0,791,126,0,0,860.19,20.52,18.69,# data time:15860,pm2.5:6.445,pm10:5.704,O2:0.000,NO2:0.000,SO2:0.000,NH3:5.536
12:27:49,0,0,0,0,0,0,0,0,0,0,0,513,0,0,0,0,0.0000000,0.0000000,0.0000000,0.0000000,8.00,38.4065704,-110.7925339,1402.0000000,0.0,17.5,1.0,0.0,0.0,791,129,0,0,860.25,20.54,18.69,# data time:15860,pm2.5:6.445,pm10:5.704,O2:0.000,NO2:0.000,SO2:0.000,NH3:5.536
12:27:50,0,0,0,0,0,0,0,0,0,0,0,514,0,0,0,0,0.0000000,0.0000000,0.0000000,0.0000000,8.00,38.4065704,-110.7925339,1402.0000000,0.0,17.5,1.0,0.0,0.0,792,125,0,0,860.24,20.54,18.69,# data time:15860,pm2.5:6.445,pm10:5.704,O2:0.000,NO2:0.000,SO2:0.000,NH3:5.536
12:27:51,0,0,0,0,0,0,0,0,0,0,0,514,0,0,0,0,0.0000000,0.0000000,0.0000000,0.0000000,8.00,38.4065704,-110.7925339,1402.0000000,0.0,17.5,1.0,0.0,0.0,792,129,0,0,860.26,20.57,18.69,# data time:15860,pm2.5:6.445,pm10:5.704,O2:0.000,NO2:0.000,SO2:0.000,NH3:5.536
12:27:52,0,0,0,0,0,0,0,0,0,0,0,514,0,0,0,0,0.0000000,0.0000000,0.0000000,0.0000000,8.00,38.4065704,-110.7925339,1402.0000000,0.0,17.5,1.0,0.0,0.0,791,126,0,0,860.20,20.57,18.69,# data time:15860,pm2.5:6.445,pm10:5.704,O2:0.000,NO2:0.000,SO2:0.000,NH3:5.536
12:27:53,0,0,0,0,0,0,0,0,0,0,0,514,0,0,0,0,0.0000000,0.0000000,0.0000000,0.0000000,8.00,38.4065704,-110.7925339,1402.0000000,0.0,17.5,1.0,0.0,0.0,792,126,0,0,860.22,20.57,18.69,# data time:15860,pm2.5:6.445,pm10:5.704,O2:0.000,NO2:0.000,SO2:0.000,NH3:5.536
12:27:54,0,0,0,0,0,0,0,0,0,0,0,514,0,0,0,0,0.0000000,0.0000000,0.0000000,0.0000000,8.00,38.4065704,-110.7925339,1402.0000000,0.0,17.5,1.0,0.0,0.0,792,126,0,0,860.17,20.55,18.69,# data time:15860,pm2.5:6.445,pm10:5.704,O2:0.000,NO2:0.000,SO2:0.000,NH3:5.536
12:27:55,0,0,0,0,0,0,0,0,0,0,0,514,0,0,0,0,0.0000000,0.0000000,0.0000000,0.0000000,8.00,38.4065704,-110.7925339,1402.0000000,0.0,17.5,1.0,0.0,0.0,791,126,0,0,860.21,20.57,18.70,# data time:15860,pm2.5:6.445,pm10:5.704,O2:0.000,NO2:0.000,SO2:0.000,NH3:5.536
12:27:56,0,0,0,0,0,0,0,0,0,0,0,515,0,0,0,0,0.0000000,0.0000000,0.0000000,0.0000000,8.00,38.4065704,-110.7925339,1402.0000000,0.0,17.5,1.0,0.0,0.0,791,127,0,0,860.20,20.55,18.69,# data time:15860,pm2.5:6.445,pm10:5.704,O2:0.000,NO2:0.000,SO2:0.000,NH3:5.536
12:27:57,0,0,0,0,0,0,0,0,0,0,0,513,0,0,0,0,0.0000000,0.0000000,0.0000000,0.0000000,8.00,38.4065704,-110.7925339,1402.0000000,0.0,17.5,1.0,0.0,0.0,792,127,0,0,860.20,20.55,18.70,# data time:15870,pm2.5:6.445,pm10:5.704,O2:0.000,NO2:0.000,SO2:0.000,NH3:5.536
12:27:58,0,0,0,0,0,0,0,0,0,0,0,514,0,0,0,0,0.0000000,0.0000000,0.0000000,0.0000000,8.00,38.4065704,-110.7925339,1402.0000000,0.0,17.5,1.0,0.0,0.0,791,126,0,0,860.19,20.54,18.69,# data time:15870,pm2.5:6.445,pm10:5.704,O2:0.000,NO2:0.000,SO2:0.000,NH3:5.536
12:27:59,0,0,0,0,0,0,0,0,0,0,0,514,0,0,0,0,0.0000000,0.0000000,0.0000000,0.0000000,8.00,38.4065704,-110.7925339,1402.0000000,0.0,17.5,1.0,0.0,0.0,791,127,0,0,860.16,20.55,18.69,# data time:15870,pm2.5:6.445,pm10:5.704,O2:0.000,NO2:0.000,SO2:0.000,NH3:5.536
12:28:00,0,0,0,0,0,0,0,0,0,0,0,514,0,0,0,0,0.0000000,0.0000000,0.0000000,0.0000000,8.00,38.4065666,-110.7925339,1402.0000000,0.0,17.5,1.0,0.0,0.0,791,127,0,0,860.15,20.52,18.69,# data time:15870,pm2.5:6.445,pm10:5.704,O2:0.000,NO2:0.000,SO2:0.000,NH3:5.536
12:28:01,0,0,0,0,0,0,0,0,0,0,0,514,0,0,0,0,0.0000000,0.0000000,0.0000000,0.0000000,8.00,38.4065666,-110.7925339,1402.0000000,0.0,17.5,1.0,0.0,0.0,792,127,0,0,860.20,20.54,18.69,# data time:15870,pm2.5:6.445,pm10:5.704,O2:0.000,NO2:0.000,SO2:0.000,NH3:5.536
12:28:02,0,0,0,0,0,0,0,0,0,0,0,514,0,0,0,0,0.0000000,0.0000000,0.0000000,0.0000000,8.00,38.4065666,-110.7925339,1402.0000000,0.0,17.5,1.0,0.0,0.0,791,128,0,0,860.17,20.55,18.69,# data time:15870,pm2.5:6.445,pm10:5.704,O2:0.000,NO2:0.000,SO2:0.000,NH3:5.536
12:28:03,0,0,0,0,0,0,0,0,0,0,0,514,0,0,0,0,0.0000000,0.0000000,0.0000000,0.0000000,8.00,38.4065666,-110.7925339,1402.0000000,0.0,17.5,1.0,0.0,0.0,791,128,0,0,860.22,20.55,18.69,# data time:15870,pm2.5:6.445,pm10:5.704,O2:0.000,NO2:0.000,SO2:0.000,NH3:5.536
12:28:04,0,0,0,0,0,0,0,0,0,0,0,514,0,0,0,0,0.0000000,0.0000000,0.0000000,0.0000000,8.00,38.4065666,-110.7925339,1402.0000000,0.0,17.5,1.0,0.0,0.0,791,127,0,0,860.22,20.57,18.69,# data time:15870,pm2.5:6.445,pm10:5.704,O2:0.000,NO2:0.000,SO2:0.000,NH3:5.536
12:28:05,0,0,0,0,0,0,0,0,0,0,0,514,0,0,0,0,0.0000000,0.0000000,0.0000000,0.0000000,8.00,38.4065666,-110.7925339,1402.0000000,0.0,17.5,1.0,0.0,0.0,791,128,0,0,860.19,20.58,18.69,# data time:15870,pm2.5:6.445,pm10:5.704,O2:0.000,NO2:0.000,SO2:0.000,NH3:5.536
12:28:06,0,0,0,0,0,0,0,0,0,0,0,514,0,0,0,0,0.0000000,0.0000000,0.0000000,0.0000000,8.00,38.4065666,-110.7925339,1402.0000000,0.0,17.5,1.0,0.0,0.0,792,124,0,0,860.23,20.58,18.70,# data time:15870,pm2.5:6.445,pm10:5.704,O2:0.000,NO2:0.000,SO2:0.000,NH3:5.536
12:28:07,0,0,0,0,0,0,0,0,0,0,0,514,0,0,0,0,0.0000000,0.0000000,0.0000000,0.0000000,8.00,38.4065666,-110.7925339,1402.0000000,0.0,17.5,1.0,0.0,0.0,791,128,0,0,860.22,20.55,18.70,# data time:15880,pm2.5:5.640,pm10:4.991,O2:0.000,NO2:0.000,SO2:0.000,NH3:5.536
12:28:08,0,0,0,0,0,0,0,0,0,0,0,513,0,0,0,0,0.0000000,0.0000000,0.0000000,0.0000000,8.00,38.4065666,-110.7925339,1402.0000000,0.0,17.5,1.0,0.0,0.0,791,126,0,0,860.21,20.55,18.70,# data time:15880,pm2.5:5.640,pm10:4.991,O2:0.000,NO2:0.000,SO2:0.000,NH3:5.536
12:28:09,0,0,0,0,0,0,0,0,0,0,0,514,0,0,0,0,0.0000000,0.0000000,0.0000000,0.0000000,8.00,38.4065666,-110.7925339,1402.0000000,0.0,17.5,1.0,0.0,0.0,791,126,0,0,860.22,20.57,18.70,# data time:15880,pm2.5:5.640,pm10:4.991,O2:0.000,NO2:0.000,SO2:0.000,NH3:5.536
12:28:10,0,0,0,0,0,0,0,0,0,0,0,514,0,0,0,0,0.0000000,0.0000000,0.0000000,0.0000000,8.00,38.4065666,-110.7925339,1402.0000000,0.0,17.5,1.0,0.0,0.0,790,125,0,0,860.25,20.54,18.70,# data time:15880,pm2.5:5.640,pm10:4.991,O2:0.000,NO2:0.000,SO2:0.000,NH3:5.536
12:28:11,0,0,0,0,0,0,0,0,0,0,0,513,0,0,0,0,0.0000000,0.0000000,0.0000000,0.0000000,8.00,38.4065666,-110.7925339,1402.0000000,0.0,17.5,1.0,0.0,0.0,791,125,0,0,860.20,20.52,18.70,# data time:15880,pm2.5:5.640,pm10:4.991,O2:0.000,NO2:0.000,SO2:0.000,NH3:5.536
12:28:12,0,0,0,0,0,0,0,0,0,0,0,514,0,0,0,0,0.0000000,0.0000000,0.0000000,0.0000000,8.00,38.4065666,-110.7925339,1402.0000000,0.0,17.5,1.0,0.0,0.0,791,128,0,0,860.26,20.52,18.70,# data time:15880,pm2.5:5.640,pm10:4.991,O2:0.000,NO2:0.000,SO2:0.000,NH3:5.536
12:28:13,0,0,0,0,0,0,0,0,0,0,0,514,0,0,0,0,0.0000000,0.0000000,0.0000000,0.0000000,8.00,38.4065666,-110.7925339,1402.0000000,0.0,17.5,1.0,0.0,0.0,790,125,0,0,860.24,20.49,18.70,# data time:15880,pm2.5:5.640,pm10:4.991,O2:0.000,NO2:0.000,SO2:0.000,NH3:5.536
12:28:14,0,0,0,0,0,0,0,0,0,0,0,514,0,0,0,0,0.0000000,0.0000000,0.0000000,0.0000000,8.00,38.4065666,-110.7925339,1402.0000000,0.0,17.5,1.0,0.0,0.0,791,127,0,0,860.18,20.48,18.70,# data time:15880,pm2.5:5.640,pm10:4.991,O2:0.000,NO2:0.000,SO2:0.000,NH3:5.536
12:28:15,0,0,0,0,0,0,0,0,0,0,0,515,0,0,0,0,0.0000000,0.0000000,0.0000000,0.0000000,8.00,38.4065666,-110.7925339,1402.0000000,0.0,17.5,1.0,0.0,0.0,791,129,0,0,860.24,20.46,18.70,# data time:15880,pm2.5:5.640,pm10:4.991,O2:0.000,NO2:0.000,SO2:0.000,NH3:5.536
12:28:16,0,0,0,0,0,0,0,0,0,0,0,514,0,0,0,0,0.0000000,0.0000000,0.0000000,0.0000000,8.00,38.4065666,-110.7925339,1402.0000000,0.0,17.5,1.0,0.0,0.0,790,129,0,0,860.21,20.45,18.70,# data time:15880,pm2.5:5.640,pm10:4.991,O2:0.000,NO2:0.000,SO2:0.000,NH3:5.536
12:28:17,0,0,0,0,0,0,0,0,0,0,0,514,0,0,0,0,0.0000000,0.0000000,0.0000000,0.0000000,8.00,38.4065666,-110.7925339,1402.0000000,0.0,17.5,1.0,0.0,0.0,791,128,0,0,860.21,20.45,18.70,# data time:15890,pm2.5:6.445,pm10:5.704,O2:0.000,NO2:0.000,SO2:0.000,NH3:5.536
12:28:18,0,0,0,0,0,0,0,0,0,0,0,514,0,0,0,0,0.0000000,0.0000000,0.0000000,0.0000000,8.00,38.4065666,-110.7925339,1402.0000000,0.0,17.5,1.0,0.0,0.0,791,127,0,0,860.24,20.45,18.70,# data time:15890,pm2.5:6.445,pm10:5.704,O2:0.000,NO2:0.000,SO2:0.000,NH3:5.536
12:28:19,0,0,0,0,0,0,0,0,0,0,0,514,0,0,0,0,0.0000000,0.0000000,0.0000000,0.0000000,8.00,38.4065666,-110.7925339,1402.0000000,0.0,17.5,1.0,0.0,0.0,790,126,0,0,860.25,20.46,18.70,# data time:15890,pm2.5:6.445,pm10:5.704,O2:0.000,NO2:0.000,SO2:0.000,NH3:5.536
12:28:20,0,0,0,0,0,0,0,0,0,0,0,514,0,0,0,0,0.0000000,0.0000000,0.0000000,0.0000000,8.00,38.4065666,-110.7925339,1402.0000000,0.0,17.5,1.0,0.0,0.0,791,127,0,0,860.25,20.46,18.70,# data time:15890,pm2.5:6.445,pm10:5.704,O2:0.000,NO2:0.000,SO2:0.000,NH3:5.536
12:28:21,0,0,0,0,0,0,0,0,0,0,0,515,0,0,0,0,0.0000000,0.0000000,0.0000000,0.0000000,8.00,38.4065666,-110.7925339,1402.0000000,0.0,17.5,1.0,0.0,0.0,790,125,0,0,860.21,20.49,18.70,# data time:15890,pm2.5:6.445,pm10:5.704,O2:0.000,NO2:0.000,SO2:0.000,NH3:5.536
12:28:22,0,0,0,0,0,0,0,0,0,0,0,515,0,0,0,0,0.0000000,0.0000000,0.0000000,0.0000000,8.00,38.4065666,-110.7925339,1402.0000000,0.0,17.5,1.0,0.0,0.0,789,126,0,0,860.27,20.52,18.70,# data time:15890,pm2.5:6.445,pm10:5.704,O2:0.000,NO2:0.000,SO2:0.000,NH3:5.536
12:28:23,0,0,0,0,0,0,0,0,0,0,0,514,0,0,0,0,0.0000000,0.0000000,0.0000000,0.0000000,8.00,38.4065666,-110.7925339,1402.0000000,0.0,17.5,1.0,0.0,0.0,790,128,0,0,860.23,20.52,18.70,# data time:15890,pm2.5:6.445,pm10:5.704,O2:0.000,NO2:0.000,SO2:0.000,NH3:5.536
12:28:24,0,0,0,0,0,0,0,0,0,0,0,514,0,0,0,0,0.0000000,0.0000000,0.0000000,0.0000000,8.00,38.4065666,-110.7925339,1402.0000000,0.0,17.5,1.0,0.0,0.0,790,128,0,0,860.21,20.52,18.70,# data time:15890,pm2.5:6.445,pm10:5.704,O2:0.000,NO2:0.000,SO2:0.000,NH3:5.536
12:28:25,0,0,0,0,0,0,0,0,0,0,0,514,0,0,0,0,0.0000000,0.0000000,0.0000000,0.0000000,8.00,38.4065666,-110.7925339,1402.0000000,0.0,17.5,1.0,0.0,0.0,790,127,0,0,860.26,20.55,18.70,# data time:15890,pm2.5:6.445,pm10:5.704,O2:0.000,NO2:0.000,SO2:0.000,NH3:5.536
12:28:26,0,0,0,0,0,0,0,0,0,0,0,514,0,0,0,0,0.0000000,0.0000000,0.0000000,0.0000000,8.00,38.4065666,-110.7925339,1402.0000000,0.0,17.5,1.0,0.0,0.0,790,127,0,0,860.21,20.55,18.70,# data time:15890,pm2.5:6.445,pm10:5.704,O2:0.000,NO2:0.000,SO2:0.000,NH3:5.536
12:28:27,0,0,0,0,0,0,0,0,0,0,0,514,0,0,0,0,0.0000000,0.0000000,0.0000000,0.0000000,8.00,38.4065666,-110.7925339,1402.0000000,0.0,17.5,1.0,0.0,0.0,790,126,0,0,860.23,20.48,18.60,# data time:15900,pm2.5:5.640,pm10:4.991,O2:0.000,NO2:0.000,SO2:0.000,NH3:5.536
12:28:28,0,0,0,0,0,0,0,0,0,0,0,513,0,0,0,0,0.0000000,0.0000000,0.0000000,0.0000000,8.00,38.4065666,-110.7925339,1402.0000000,0.0,17.5,1.0,0.0,0.0,790,129,0,0,860.20,20.49,18.60,# data time:15900,pm2.5:5.640,pm10:4.991,O2:0.000,NO2:0.000,SO2:0.000,NH3:5.536
12:28:29,0,0,0,0,0,0,0,0,0,0,0,515,0,0,0,0,0.0000000,0.0000000,0.0000000,0.0000000,8.00,38.4065666,-110.7925339,1402.0000000,0.0,17.5,1.0,0.0,0.0,790,129,0,0,860.19,20.52,18.62,# data time:15900,pm2.5:5.640,pm10:4.991,O2:0.000,NO2:0.000,SO2:0.000,NH3:5.536
12:28:30,0,0,0,0,0,0,0,0,0,0,0,514,0,0,0,0,0.0000000,0.0000000,0.0000000,0.0000000,8.00,38.4065666,-110.7925339,1402.0000000,0.0,17.5,1.0,0.0,0.0,790,128,0,0,860.21,20.51,18.62,# data time:15900,pm2.5:5.640,pm10:4.991,O2:0.000,NO2:0.000,SO2:0.000,NH3:5.536
