Time, Motor A Speed, Motor A Dir, Motor B Speed, Motor B Dir, Servo Rail Current Sensor, Servo Pos - Arm L, Servo Pos - Arm R, Servo Pos - End, Servo Pos - Hopper, Servo Pos - Lid, Servo Pos - Extra, Servo Current, LED - Front L, LED - Front R, LED - Back L, LED - Back R, IMU Pitch, IMU Roll, IMU Yaw, Compass Heading, GPS Sats, GPS Latitude, GPS Longitude, GPS Altitude, GPS Speed, GPS Angle, GPS HDOP, GPS VDOP, GPS PDOP, Battery, Wind, Comm Xbee Latency, Comm Arduino Latency, Pressure, Humidity, Temperature, uRADMonitor
9:03:39,0,0,0,0,0,0,0,0,0,0,0,514,0,0,0,0,0.0000000,0.0000000,0.0000000,0.0000000,9.00,38.4174232,-110.7749100,1389.6999512,5.5,157.5,1.0,0.0,0.0,860,138,0,0,857.66,30.56,15.10,# data time:3600,pm2.5:6.445,pm10:5.704,O2:0.000,NO2:0.000,SO2:0.000,NH3:5.988
9:03:40,0,0,0,0,0,0,0,0,0,0,0,513,0,0,0,0,0.0000000,0.0000000,0.0000000,0.0000000,9.00,38.4174004,-110.7749023,1389.6999512,5.5,156.9,1.0,0.0,0.0,860,140,0,0,857.60,30.55,15.12,# data time:3600,pm2.5:6.445,pm10:5.704,O2:0.000,NO2:0.000,SO2:0.000,NH3:5.988
9:03:41,0,0,0,0,0,0,0,0,0,0,0,513,0,0,0,0,0.0000000,0.0000000,0.0000000,0.0000000,9.00,38.4173775,-110.7748871,1389.5000000,5.5,155.5,1.0,0.0,0.0,859,146,0,0,857.65,30.55,15.15,# data time:3600,pm2.5:6.445,pm10:5.704,O2:0.000,NO2:0.000,SO2:0.000,NH3:5.988
9:03:42,0,0,0,0,0,0,0,0,0,0,0,514,0,0,0,0,0.0000000,0.0000000,0.0000000,0.0000000,9.00,38.4173584,-110.7748718,1389.4000244,4.8,155.0,1.0,0.0,0.0,860,144,0,0,857.64,30.52,15.15,# data time:3600,pm2.5:6.445,pm10:5.704,O2:0.000,NO2:0.000,SO2:0.000,NH3:5.988
9:03:43,0,0,0,0,0,0,0,0,0,0,0,514,0,0,0,0,0.0000000,0.0000000,0.0000000,0.0000000,9.00,38.4173393,-110.7748642,1389.3000488,4.2,153.3,1.0,0.0,0.0,859,137,0,0,857.67,30.53,15.18,# data time:3600,pm2.5:6.445,pm10:5.704,O2:0.000,NO2:0.000,SO2:0.000,NH3:5.988
9:03:44,0,0,0,0,0,0,0,0,0,0,0,513,0,0,0,0,0.0000000,0.0000000,0.0000000,0.0000000,9.00,38.4173203,-110.7748489,1389.1999512,3.9,153.2,1.0,0.0,0.0,859,138,0,0,857.71,30.52,15.22,# data time:3610,pm2.5:5.640,pm10:4.991,O2:0.000,NO2:0.000,SO2:0.000,NH3:5.988
9:03:45,0,0,0,0,0,0,0,0,0,0,0,513,0,0,0,0,0.0000000,0.0000000,0.0000000,0.0000000,9.00,38.4173012,-110.7748489,1389.0999756,4.0,152.6,1.0,0.0,0.0,859,133,0,0,857.71,30.47,15.23,# data time:3610,pm2.5:5.640,pm10:4.991,O2:0.000,NO2:0.000,SO2:0.000,NH3:5.988
9:03:46,0,0,0,0,0,0,0,0,0,0,0,513,0,0,0,0,0.0000000,0.0000000,0.0000000,0.0000000,9.00,38.4172859,-110.7748337,1389.0999756,4.2,151.2,1.0,0.0,0.0,859,143,0,0,857.71,30.46,15.23,# data time:3610,pm2.5:5.640,pm10:4.991,O2:0.000,NO2:0.000,SO2:0.000,NH3:5.988
9:03:47,0,0,0,0,0,0,0,0,0,0,0,514,0,0,0,0,0.0000000,0.0000000,0.0000000,0.0000000,9.00,38.4172707,-110.7748260,1389.0000000,4.3,149.3,1.0,0.0,0.0,860,135,0,0,857.75,30.43,15.25,# data time:3610,pm2.5:5.640,pm10:4.991,O2:0.000,NO2:0.000,SO2:0.000,NH3:5.988
9:03:48,0,0,0,0,0,0,0,0,0,0,0,514,0,0,0,0,0.0000000,0.0000000,0.0000000,0.0000000,9.00,38.4172516,-110.7748108,1389.0000000,4.3,147.2,1.0,0.0,0.0,859,137,0,0,857.76,30.40,15.26,# data time:3610,pm2.5:5.640,pm10:4.991,O2:0.000,NO2:0.000,SO2:0.000,NH3:5.988
9:03:49,0,0,0,0,0,0,0,0,0,0,0,514,0,0,0,0,0.0000000,0.0000000,0.0000000,0.0000000,9.00,38.4172363,-110.7747955,1389.0999756,4.5,144.5,1.0,0.0,0.0,859,136,0,0,857.72,30.37,15.26,# data time:3610,pm2.5:5.640,pm10:4.991,O2:0.000,NO2:0.000,SO2:0.000,NH3:5.988
9:03:50,0,0,0,0,0,0,0,0,0,0,0,514,0,0,0,0,0.0000000,0.0000000,0.0000000,0.0000000,9.00,38.4172211,-110.7747726,1389.0000000,4.5,142.5,1.0,0.0,0.0,859,137,0,0,857.76,30.35,15.25,# data time:3610,pm2.5:5.640,pm10:4.991,O2:0.000,NO2:0.000,SO2:0.000,NH3:5.988
9:03:51,0,0,0,0,0,0,0,0,0,0,0,513,0,0,0,0,0.0000000,0.0000000,0.0000000,0.0000000,9.00,38.4172020,-110.7747574,1389.0999756,4.3,141.2,1.0,0.0,0.0,859,133,0,0,857.82,30.35,15.21,# data time:3610,pm2.5:5.640,pm10:4.991,O2:0.000,NO2:0.000,SO2:0.000,NH3:5.988
9:03:52,0,0,0,0,0,0,0,0,0,0,0,514,0,0,0,0,0.0000000,0.0000000,0.0000000,0.0000000,9.00,38.4171906,-110.7747421,1388.9000244,4.0,137.8,1.0,0.0,0.0,859,136,0,0,857.81,30.37,15.19,# data time:3610,pm2.5:5.640,pm10:4.991,O2:0.000,NO2:0.000,SO2:0.000,NH3:5.988
9:03:53,0,0,0,0,0,0,0,0,0,0,0,514,0,0,0,0,0.0000000,0.0000000,0.0000000,0.0000000,8.00,38.4171791,-110.7747192,1388.6999512,3.7,134.3,1.0,0.0,0.0,859,138,0,0,857.86,30.40,15.14,# data time:3610,pm2.5:5.640,pm10:4.991,O2:0.000,NO2:0.000,SO2:0.000,NH3:5.988
9:03:54,0,0,0,0,0,0,0,0,0,0,0,514,0,0,0,0,0.0000000,0.0000000,0.0000000,0.0000000,9.00,38.4171638,-110.7747040,1388.5000000,2.9,134.3,0.9,0.0,0.0,860,146,0,0,857.85,30.44,15.13,# data time:3620,pm2.5:6.445,pm10:5.704,O2:0.000,NO2:0.000,SO2:0.000,NH3:5.988
9:03:55,0,0,0,0,0,0,0,0,0,0,0,514,0,0,0,0,0.0000000,0.0000000,0.0000000,0.0000000,9.00,38.4171600,-110.7746964,1388.3000488,2.3,134.3,0.9,0.0,0.0,860,150,0,0,857.80,30.46,15.09,# data time:3620,pm2.5:6.445,pm10:5.704,O2:0.000,NO2:0.000,SO2:0.000,NH3:5.988
9:03:56,0,0,0,0,0,0,0,0,0,0,0,513,0,0,0,0,0.0000000,0.0000000,0.0000000,0.0000000,9.00,38.4171524,-110.7746811,1388.3000488,2.0,134.3,0.9,0.0,0.0,859,166,0,0,857.87,30.46,15.10,# data time:3620,pm2.5:6.445,pm10:5.704,O2:0.000,NO2:0.000,SO2:0.000,NH3:5.988
9:03:57,0,0,0,0,0,0,0,0,0,0,0,514,0,0,0,0,0.0000000,0.0000000,0.0000000,0.0000000,9.00,38.4171448,-110.7746811,1388.1999512,1.9,134.3,0.9,0.0,0.0,860,164,0,0,857.84,30.52,15.09,# data time:3620,pm2.5:6.445,pm10:5.704,O2:0.000,NO2:0.000,SO2:0.000,NH3:5.988
9:03:58,0,0,0,0,0,0,0,0,0,0,0,514,0,0,0,0,0.0000000,0.0000000,0.0000000,0.0000000,9.00,38.4171410,-110.7746658,1388.1999512,1.9,134.3,0.9,0.0,0.0,860,160,0,0,857.80,30.55,15.13,# data time:3620,pm2.5:6.445,pm10:5.704,O2:0.000,NO2:0.000,SO2:0.000,NH3:5.988
9:03:59,0,0,0,0,0,0,0,0,0,0,0,514,0,0,0,0,0.0000000,0.0000000,0.0000000,0.0000000,9.00,38.4171371,-110.7746582,1388.0999756,1.7,134.3,0.9,0.0,0.0,860,158,0,0,857.77,30.53,15.15,# data time:3620,pm2.5:6.445,pm10:5.704,O2:0.000,NO2:0.000,SO2:0.000,NH3:5.988
9:04:00,0,0,0,0,0,0,0,0,0,0,0,515,0,0,0,0,0.0000000,0.0000000,0.0000000,0.0000000,9.00,38.4171333,-110.7746582,1388.0999756,0.0,134.3,0.9,0.0,0.0,860,153,0,0,857.81,30.53,15.20,# data time:3620,pm2.5:6.445,pm10:5.704,O2:0.000,NO2:0.000,SO2:0.000,NH3:5.988
9:04:01,0,0,0,0,0,0,0,0,0,0,0,513,0,0,0,0,0.0000000,0.0000000,0.0000000,0.0000000,9.00,38.4171333,-110.7746582,1388.1999512,0.0,134.3,0.9,0.0,0.0,860,148,0,0,857.82,30.50,15.22,# data time:3620,pm2.5:6.445,pm10:5.704,O2:0.000,NO2:0.000,SO2:0.000,NH3:5.988
9:04:02,0,0,0,0,0,0,0,0,0,0,0,514,0,0,0,0,0.0000000,0.0000000,0.0000000,0.0000000,9.00,38.4171333,-110.7746582,1388.1999512,0.0,134.3,0.9,0.0,0.0,860,151,0,0,857.80,30.46,15.25,# data time:3620,pm2.5:6.445,pm10:5.704,O2:0.000,NO2:0.000,SO2:0.000,NH3:5.988
9:04:03,0,0,0,0,0,0,0,0,0,0,0,514,0,0,0,0,0.0000000,0.0000000,0.0000000,0.0000000,9.00,38.4171333,-110.7746582,1388.1999512,0.0,134.3,0.9,0.0,0.0,859,148,0,0,857.77,30.44,15.27,# data time:3620,pm2.5:6.445,pm10:5.704,O2:0.000,NO2:0.000,SO2:0.000,NH3:5.988
9:04:04,0,0,0,0,0,0,0,0,0,0,0,514,0,0,0,0,0.0000000,0.0000000,0.0000000,0.0000000,9.00,38.4171333,-110.7746582,1388.1999512,0.0,134.3,0.9,0.0,0.0,860,148,0,0,857.75,30.37,15.28,# data time:3630,pm2.5:6.445,pm10:5.704,O2:0.000,NO2:0.000,SO2:0.000,NH3:5.988
9:04:05,0,0,0,0,0,0,0,0,0,0,0,513,0,0,0,0,0.0000000,0.0000000,0.0000000,0.0000000,9.00,38.4171333,-110.7746582,1388.1999512,0.0,134.3,1.0,0.0,0.0,859,146,0,0,857.88,30.33,15.29,# data time:3630,pm2.5:6.445,pm10:5.704,O2:0.000,NO2:0.000,SO2:0.000,NH3:5.988
9:04:06,0,0,0,0,0,0,0,0,0,0,0,513,0,0,0,0,0.0000000,0.0000000,0.0000000,0.0000000,9.00,38.4171333,-110.7746582,1388.1999512,0.0,134.3,1.0,0.0,0.0,859,150,0,0,857.82,30.32,15.30,# data time:3630,pm2.5:6.445,pm10:5.704,O2:0.000,NO2:0.000,SO2:0.000,NH3:5.988
9:04:07,0,0,0,0,0,0,0,0,0,0,0,514,0,0,0,0,0.0000000,0.0000000,0.0000000,0.0000000,9.00,38.4171371,-110.7746582,1388.1999512,0.0,134.3,1.0,0.0,0.0,859,149,0,0,857.87,30.30,15.31,# data time:3630,pm2.5:6.445,pm10:5.704,O2:0.000,NO2:0.000,SO2:0.000,NH3:5.988
9:04:08,0,0,0,0,0,0,0,0,0,0,0,512,0,0,0,0,0.0000000,0.0000000,0.0000000,0.0000000,9.00,38.4171371,-110.7746582,1388.1999512,0.0,134.3,0.9,0.0,0.0,859,142,0,0,857.84,30.32,15.34,# data time:3630,pm2.5:6.445,pm10:5.704,O2:0.000,NO2:0.000,SO2:0.000,NH3:5.988
9:04:09,0,0,0,0,0,0,0,0,0,0,0,513,0,0,0,0,0.0000000,0.0000000,0.0000000,0.0000000,9.00,38.4171371,-110.7746582,1388.1999512,0.0,134.3,0.9,0.0,0.0,858,139,0,0,857.86,30.29,15.35,# data time:3630,pm2.5:6.445,pm10:5.704,O2:0.000,NO2:0.000,SO2:0.000,NH3:5.988
9:04:10,0,0,0,0,0,0,0,0,0,0,0,513,0,0,0,0,0.0000000,0.0000000,0.0000000,0.0000000,9.00,38.4171371,-110.7746582,1388.1999512,0.0,134.3,0.9,0.0,0.0,861,139,0,0,857.91,30.23,15.36,# data time:3630,pm2.5:6.445,pm10:5.704,O2:0.000,NO2:0.000,SO2:0.000,NH3:5.988
9:04:11,0,0,0,0,0,0,0,0,0,0,0,515,0,0,0,0,0.0000000,0.0000000,0.0000000,0.0000000,9.00,38.4171371,-110.7746582,1388.1999512,0.0,134.3,0.9,0.0,0.0,859,139,0,0,857.89,30.20,15.37,# data time:3630,pm2.5:6.445,pm10:5.704,O2:0.000,NO2:0.000,SO2:0.000,NH3:5.988
9:04:13,0,0,0,0,0,0,0,0,0,0,0,514,0,0,0,0,0.0000000,0.0000000,0.0000000,0.0000000,9.00,38.4171371,-110.7746582,1388.1999512,0.0,134.3,0.9,0.0,0.0,859,140,0,0,857.87,30.20,15.40,# data time:3630,pm2.5:6.445,pm10:5.704,O2:0.000,NO2:0.000,SO2:0.000,NH3:5.988
9:04:14,0,0,0,0,0,0,0,0,0,0,0,514,0,0,0,0,0.0000000,0.0000000,0.0000000,0.0000000,9.00,38.4171333,-110.7746582,1388.1999512,0.0,134.3,0.9,0.0,0.0,859,143,0,0,857.86,30.18,15.41,# data time:3630,pm2.5:6.445,pm10:5.704,O2:0.000,NO2:0.000,SO2:0.000,NH3:5.988
9:04:15,0,0,0,0,0,0,0,0,0,0,0,513,0,0,0,0,0.0000000,0.0000000,0.0000000,0.0000000,9.00,38.4171333,-110.7746582,1388.1999512,0.0,134.3,0.9,0.0,0.0,860,143,0,0,857.87,30.14,15.35,# data time:3640,pm2.5:6.445,pm10:5.704,O2:0.000,NO2:0.000,SO2:0.000,NH3:5.988
9:04:16,0,0,0,0,0,0,0,0,0,0,0,513,0,0,0,0,0.0000000,0.0000000,0.0000000,0.0000000,9.00,38.4171333,-110.7746582,1388.1999512,0.0,134.3,0.9,0.0,0.0,860,144,0,0,857.84,30.12,15.39,# data time:3640,pm2.5:6.445,pm10:5.704,O2:0.000,NO2:0.000,SO2:0.000,NH3:5.988
9:04:17,0,0,0,0,0,0,0,0,0,0,0,513,0,0,0,0,0.0000000,0.0000000,0.0000000,0.0000000,9.00,38.4171333,-110.7746582,1388.1999512,0.0,134.3,0.9,0.0,0.0,859,136,0,0,857.80,30.08,15.39,# data time:3640,pm2.5:6.445,pm10:5.704,O2:0.000,NO2:0.000,SO2:0.000,NH3:5.988
9:04:18,0,0,0,0,0,0,0,0,0,0,0,514,0,0,0,0,0.0000000,0.0000000,0.0000000,0.0000000,9.00,38.4171333,-110.7746582,1388.1999512,0.0,134.3,0.9,0.0,0.0,860,140,0,0,857.81,30.08,15.39,# data time:3640,pm2.5:6.445,pm10:5.704,O2:0.000,NO2:0.000,SO2:0.000,NH3:5.988
9:04:19,0,0,0,0,0,0,0,0,0,0,0,513,0,0,0,0,0.0000000,0.0000000,0.0000000,0.0000000,9.00,38.4171333,-110.7746582,1388.1999512,0.0,134.3,1.0,0.0,0.0,860,139,0,0,857.90,30.06,15.41,# data time:3640,pm2.5:6.445,pm10:5.704,O2:0.000,NO2:0.000,SO2:0.000,NH3:5.988
9:04:20,0,0,0,0,0,0,0,0,0,0,0,514,0,0,0,0,0.0000000,0.0000000,0.0000000,0.0000000,9.00,38.4171371,-110.7746582,1388.1999512,0.0,134.3,0.9,0.0,0.0,859,148,0,0,857.85,30.03,15.41,# data time:3640,pm2.5:6.445,pm10:5.704,O2:0.000,NO2:0.000,SO2:0.000,NH3:5.988
9:04:21,0,0,0,0,0,0,0,0,0,0,0,513,0,0,0,0,0.0000000,0.0000000,0.0000000,0.0000000,9.00,38.4171371,-110.7746582,1388.1999512,0.0,134.3,1.0,0.0,0.0,859,148,0,0,857.87,30.06,15.43,# data time:3640,pm2.5:6.445,pm10:5.704,O2:0.000,NO2:0.000,SO2:0.000,NH3:5.988
9:04:22,0,0,0,0,0,0,0,0,0,0,0,514,0,0,0,0,0.0000000,0.0000000,0.0000000,0.0000000,9.00,38.4171371,-110.7746582,1388.3000488,0.0,134.3,0.9,0.0,0.0,859,144,0,0,857.91,30.08,15.43,# data time:3640,pm2.5:6.445,pm10:5.704,O2:0.000,NO2:0.000,SO2:0.000,NH3:5.988
9:04:23,0,0,0,0,0,0,0,0,0,0,0,513,0,0,0,0,0.0000000,0.0000000,0.0000000,0.0000000,9.00,38.4171371,-110.7746582,1388.3000488,0.0,134.3,0.9,0.0,0.0,859,140,0,0,857.87,30.08,15.47,# data time:3640,pm2.5:6.445,pm10:5.704,O2:0.000,NO2:0.000,SO2:0.000,NH3:5.988
9:04:24,0,0,0,0,0,0,0,0,0,0,0,514,0,0,0,0,0.0000000,0.0000000,0.0000000,0.0000000,9.00,38.4171333,-110.7746582,1388.3000488,0.1,134.3,0.9,0.0,0.0,860,139,0,0,857.88,30.06,15.46,# data time:3640,pm2.5:6.445,pm10:5.704,O2:0.000,NO2:0.000,SO2:0.000,NH3:5.988
9:04:25,0,0,0,0,0,0,0,0,0,0,0,513,0,0,0,0,0.0000000,0.0000000,0.0000000,0.0000000,9.00,38.4171333,-110.7746582,1388.3000488,0.1,134.3,0.9,0.0,0.0,859,144,0,0,857.90,30.09,15.47,# data time:3650,pm2.5:6.445,pm10:5.704,O2:0.000,NO2:0.000,SO2:0.000,NH3:5.762
9:04:26,0,0,0,0,0,0,0,0,0,0,0,514,0,0,0,0,0.0000000,0.0000000,0.0000000,0.0000000,9.00,38.4171333,-110.7746582,1388.3000488,0.3,134.3,0.9,0.0,0.0,860,145,0,0,857.89,30.12,15.44,# data time:3650,pm2.5:6.445,pm10:5.704,O2:0.000,NO2:0.000,SO2:0.000,NH3:5.762
9:04:27,0,0,0,0,0,0,0,0,0,0,0,515,0,0,0,0,0.0000000,0.0000000,0.0000000,0.0000000,9.00,38.4171333,-110.7746582,1388.3000488,0.9,134.3,0.9,0.0,0.0,860,146,0,0,857.86,30.15,15.43,# data time:3650,pm2.5:6.445,pm10:5.704,O2:0.000,NO2:0.000,SO2:0.000,NH3:5.762
9:04:28,0,0,0,0,0,0,0,0,0,0,0,514,0,0,0,0,0.0000000,0.0000000,0.0000000,0.0000000,9.00,38.4171295,-110.7746429,1388.3000488,1.8,134.3,0.9,0.0,0.0,859,142,0,0,857.90,30.15,15.46,# data time:3650,pm2.5:6.445,pm10:5.704,O2:0.000,NO2:0.000,SO2:0.000,NH3:5.762
9:04:29,0,0,0,0,0,0,0,0,0,0,0,513,0,0,0,0,0.0000000,0.0000000,0.0000000,0.0000000,9.00,38.4171257,-110.7746429,1388.1999512,2.5,134.3,0.9,0.0,0.0,860,143,0,0,857.92,30.21,15.47,# data time:3650,pm2.5:6.445,pm10:5.704,O2:0.000,NO2:0.000,SO2:0.000,NH3:5.762
9:04:30,0,0,0,0,0,0,0,0,0,0,0,514,0,0,0,0,0.0000000,0.0000000,0.0000000,0.0000000,8.00,38.4171219,-110.7746277,1388.1999512,2.8,119.7,1.1,0.0,0.0,860,141,0,0,857.87,30.23,15.48,# data time:3650,pm2.5:6.445,pm10:5.704,O2:0.000,NO2:0.000,SO2:0.000,NH3:5.762
9:04:31,0,0,0,0,0,0,0,0,0,0,0,514,0,0,0,0,0.0000000,0.0000000,0.0000000,0.0000000,9.00,38.4171143,-110.7746201,1388.0999756,3.0,120.8,0.9,0.0,0.0,860,143,0,0,857.94,30.23,15.49,# data time:3650,pm2.5:6.445,pm10:5.704,O2:0.000,NO2:0.000,SO2:0.000,NH3:5.762
9:04:32,0,0,0,0,0,0,0,0,0,0,0,514,0,0,0,0,0.0000000,0.0000000,0.0000000,0.0000000,9.00,38.4171104,-110.7746048,1387.9000244,3.2,118.2,0.9,0.0,0.0,859,141,0,0,857.95,30.18,15.50,# data time:3650,pm2.5:6.445,pm10:5.704,O2:0.000,NO2:0.000,SO2:0.000,NH3:5.762
9:04:33,0,0,0,0,0,0,0,0,0,0,0,514,0,0,0,0,0.0000000,0.0000000,0.0000000,0.0000000,9.00,38.4170990,-110.7745819,1387.5000000,3.5,116.2,0.9,0.0,0.0,859,136,0,0,858.00,30.18,15.49,# data time:3650,pm2.5:6.445,pm10:5.704,O2:0.000,NO2:0.000,SO2:0.000,NH3:5.762
9:04:34,0,0,0,0,0,0,0,0,0,0,0,514,0,0,0,0,0.0000000,0.0000000,0.0000000,0.0000000,9.00,38.4170990,-110.7745667,1387.1999512,3.7,114.4,0.9,0.0,0.0,860,137,0,0,858.05,30.14,15.48,# data time:3650,pm2.5:6.445,pm10:5.704,O2:0.000,NO2:0.000,SO2:0.000,NH3:5.762
9:04:35,0,0,0,0,0,0,0,0,0,0,0,513,0,0,0,0,0.0000000,0.0000000,0.0000000,0.0000000,9.00,38.4170914,-110.7745514,1386.9000244,3.7,114.1,0.9,0.0,0.0,859,139,0,0,858.01,30.12,15.48,# data time:3660,pm2.5:6.445,pm10:5.704,O2:0.000,NO2:0.000,SO2:0.000,NH3:5.988
9:04:36,0,0,0,0,0,0,0,0,0,0,0,514,0,0,0,0,0.0000000,0.0000000,0.0000000,0.0000000,9.00,38.4170837,-110.7745285,1386.6999512,3.7,112.4,0.9,0.0,0.0,859,140,0,0,858.05,30.12,15.45,# data time:3660,pm2.5:6.445,pm10:5.704,O2:0.000,NO2:0.000,SO2:0.000,NH3:5.988
9:04:37,0,0,0,0,0,0,0,0,0,0,0,513,0,0,0,0,0.0000000,0.0000000,0.0000000,0.0000000,9.00,38.4170799,-110.7745056,1386.5000000,3.4,112.0,0.9,0.0,0.0,860,140,0,0,858.10,30.14,15.44,# data time:3660,pm2.5:6.445,pm10:5.704,O2:0.000,NO2:0.000,SO2:0.000,NH3:5.988
9:04:38,0,0,0,0,0,0,0,0,0,0,0,514,0,0,0,0,0.0000000,0.0000000,0.0000000,0.0000000,9.00,38.4170723,-110.7744904,1386.1999512,3.6,110.5,0.9,0.0,0.0,859,140,0,0,858.10,30.12,15.44,# data time:3660,pm2.5:6.445,pm10:5.704,O2:0.000,NO2:0.000,SO2:0.000,NH3:5.988
9:04:39,0,0,0,0,0,0,0,0,0,0,0,514,0,0,0,0,0.0000000,0.0000000,0.0000000,0.0000000,9.00,38.4170647,-110.7744675,1386.0000000,3.4,109.4,0.9,0.0,0.0,859,145,0,0,858.12,30.09,15.45,# data time:3660,pm2.5:6.445,pm10:5.704,O2:0.000,NO2:0.000,SO2:0.000,NH3:5.988
9:04:40,0,0,0,0,0,0,0,0,0,0,0,514,0,0,0,0,0.0000000,0.0000000,0.0000000,0.0000000,9.00,38.4170609,-110.7744370,1386.0000000,3.3,111.1,0.9,0.0,0.0,859,140,0,0,858.17,30.09,15.45,# data time:3660,pm2.5:6.445,pm10:5.704,O2:0.000,NO2:0.000,SO2:0.000,NH3:5.988
9:04:41,0,0,0,0,0,0,0,0,0,0,0,514,0,0,0,0,0.0000000,0.0000000,0.0000000,0.0000000,9.00,38.4170532,-110.7744293,1385.6999512,3.3,109.4,0.9,0.0,0.0,860,148,0,0,858.14,30.11,15.42,# data time:3660,pm2.5:6.445,pm10:5.704,O2:0.000,NO2:0.000,SO2:0.000,NH3:5.988
9:04:42,0,0,0,0,0,0,0,0,0,0,0,514,0,0,0,0,0.0000000,0.0000000,0.0000000,0.0000000,9.00,38.4170494,-110.7743988,1385.4000244,3.3,107.6,0.9,0.0,0.0,859,151,0,0,858.20,30.11,15.38,# data time:3660,pm2.5:6.445,pm10:5.704,O2:0.000,NO2:0.000,SO2:0.000,NH3:5.988
9:04:43,0,0,0,0,0,0,0,0,0,0,0,513,0,0,0,0,0.0000000,0.0000000,0.0000000,0.0000000,9.00,38.4170418,-110.7743835,1385.0999756,3.8,105.1,0.9,0.0,0.0,859,150,0,0,858.18,30.15,15.36,# data time:3660,pm2.5:6.445,pm10:5.704,O2:0.000,NO2:0.000,SO2:0.000,NH3:5.988
9:04:44,0,0,0,0,0,0,0,0,0,0,0,514,0,0,0,0,0.0000000,0.0000000,0.0000000,0.0000000,9.00,38.4170380,-110.7743607,1384.9000244,4.1,104.9,0.9,0.0,0.0,860,157,0,0,858.23,30.18,15.31,# data time:3670,pm2.5:6.445,pm10:5.704,O2:0.000,NO2:0.000,SO2:0.000,NH3:5.988
9:04:45,0,0,0,0,0,0,0,0,0,0,0,513,0,0,0,0,0.0000000,0.0000000,0.0000000,0.0000000,9.00,38.4170341,-110.7743378,1384.5999756,4.5,99.4,1.0,0.0,0.0,859,164,0,0,858.26,30.23,15.27,# data time:3670,pm2.5:6.445,pm10:5.704,O2:0.000,NO2:0.000,SO2:0.000,NH3:5.988
9:04:46,0,0,0,0,0,0,0,0,0,0,0,514,0,0,0,0,0.0000000,0.0000000,0.0000000,0.0000000,9.00,38.4170265,-110.7743073,1384.4000244,4.7,98.1,1.0,0.0,0.0,859,160,0,0,858.24,30.26,15.29,# data time:3670,pm2.5:6.445,pm10:5.704,O2:0.000,NO2:0.000,SO2:0.000,NH3:5.988
9:04:47,0,0,0,0,0,0,0,0,0,0,0,514,0,0,0,0,0.0000000,0.0000000,0.0000000,0.0000000,9.00,38.4170227,-110.7742691,1384.3000488,4.7,92.3,1.0,0.0,0.0,859,159,0,0,858.29,30.27,15.28,# data time:3670,pm2.5:6.445,pm10:5.704,O2:0.000,NO2:0.000,SO2:0.000,NH3:5.988
9:04:48,0,0,0,0,0,0,0,0,0,0,0,514,0,0,0,0,0.0000000,0.0000000,0.0000000,0.0000000,9.00,38.4170265,-110.7742462,1384.0999756,4.7,87.3,1.0,0.0,0.0,860,156,0,0,858.27,30.23,15.26,# data time:3670,pm2.5:6.445,pm10:5.704,O2:0.000,NO2:0.000,SO2:0.000,NH3:5.988
9:04:49,0,0,0,0,0,0,0,0,0,0,0,514,0,0,0,0,0.0000000,0.0000000,0.0000000,0.0000000,9.00,38.4170265,-110.7742233,1384.0000000,4.3,89.9,1.0,0.0,0.0,860,151,0,0,858.33,30.29,15.27,# data time:3670,pm2.5:6.445,pm10:5.704,O2:0.000,NO2:0.000,SO2:0.000,NH3:5.988
9:04:50,0,0,0,0,0,0,0,0,0,0,0,514,0,0,0,0,0.0000000,0.0000000,0.0000000,0.0000000,9.00,38.4170265,-110.7741928,1383.9000244,3.9,82.3,1.0,0.0,0.0,860,151,0,0,858.32,30.27,15.29,# data time:3670,pm2.5:6.445,pm10:5.704,O2:0.000,NO2:0.000,SO2:0.000,NH3:5.988
9:04:51,0,0,0,0,0,0,0,0,0,0,0,514,0,0,0,0,0.0000000,0.0000000,0.0000000,0.0000000,9.00,38.4170303,-110.7741852,1383.5000000,3.2,79.2,0.9,0.0,0.0,859,148,0,0,858.37,30.27,15.27,# data time:3670,pm2.5:6.445,pm10:5.704,O2:0.000,NO2:0.000,SO2:0.000,NH3:5.988
9:04:52,0,0,0,0,0,0,0,0,0,0,0,514,0,0,0,0,0.0000000,0.0000000,0.0000000,0.0000000,9.00,38.4170303,-110.7741699,1383.5000000,2.7,80.4,0.9,0.0,0.0,859,148,0,0,858.35,30.32,15.28,# data time:3670,pm2.5:6.445,pm10:5.704,O2:0.000,NO2:0.000,SO2:0.000,NH3:5.988
9:04:53,0,0,0,0,0,0,0,0,0,0,0,514,0,0,0,0,0.0000000,0.0000000,0.0000000,0.0000000,9.00,38.4170341,-110.7741470,1383.4000244,2.7,79.0,0.9,0.0,0.0,860,146,0,0,858.36,30.32,15.29,# data time:3670,pm2.5:6.445,pm10:5.704,O2:0.000,NO2:0.000,SO2:0.000,NH3:5.988
9:04:54,0,0,0,0,0,0,0,0,0,0,0,514,0,0,0,0,0.0000000,0.0000000,0.0000000,0.0000000,9.00,38.4170341,-110.7741318,1383.4000244,3.0,79.1,0.9,0.0,0.0,859,143,0,0,858.32,30.30,15.31,# data time:3680,pm2.5:6.445,pm10:5.704,O2:0.000,NO2:0.000,SO2:0.000,NH3:5.988
9:04:55,0,0,0,0,0,0,0,0,0,0,0,514,0,0,0,0,0.0000000,0.0000000,0.0000000,0.0000000,9.00,38.4170418,-110.7741165,1383.3000488,3.8,77.2,0.9,0.0,0.0,859,144,0,0,858.32,30.29,15.33,# data time:3680,pm2.5:6.445,pm10:5.704,O2:0.000,NO2:0.000,SO2:0.000,NH3:5.988
9:04:56,0,0,0,0,0,0,0,0,0,0,0,513,0,0,0,0,0.0000000,0.0000000,0.0000000,0.0000000,9.00,38.4170418,-110.7740936,1383.1999512,4.5,80.2,0.9,0.0,0.0,860,144,0,0,858.29,30.21,15.31,# data time:3680,pm2.5:6.445,pm10:5.704,O2:0.000,NO2:0.000,SO2:0.000,NH3:5.988
9:04:57,0,0,0,0,0,0,0,0,0,0,0,514,0,0,0,0,0.0000000,0.0000000,0.0000000,0.0000000,9.00,38.4170456,-110.7740707,1383.1999512,4.5,82.5,1.0,0.0,0.0,859,144,0,0,858.35,30.23,15.29,# data time:3680,pm2.5:6.445,pm10:5.704,O2:0.000,NO2:0.000,SO2:0.000,NH3:5.988
9:04:58,0,0,0,0,0,0,0,0,0,0,0,513,0,0,0,0,0.0000000,0.0000000,0.0000000,0.0000000,9.00,38.4170494,-110.7740402,1383.1999512,4.0,84.4,1.0,0.0,0.0,860,150,0,0,858.28,30.24,15.30,# data time:3680,pm2.5:6.445,pm10:5.704,O2:0.000,NO2:0.000,SO2:0.000,NH3:5.988
9:04:59,0,0,0,0,0,0,0,0,0,0,0,514,0,0,0,0,0.0000000,0.0000000,0.0000000,0.0000000,9.00,38.4170494,-110.7740173,1383.0999756,3.6,86.8,1.0,0.0,0.0,859,145,0,0,858.35,30.21,15.34,# data time:3680,pm2.5:6.445,pm10:5.704,O2:0.000,NO2:0.000,SO2:0.000,NH3:5.988
9:05:00,0,0,0,0,0,0,0,0,0,0,0,514,0,0,0,0,0.0000000,0.0000000,0.0000000,0.0000000,9.00,38.4170532,-110.7739868,1383.0999756,3.6,84.4,0.9,0.0,0.0,860,144,0,0,858.32,30.17,15.37,# data time:3680,pm2.5:6.445,pm10:5.704,O2:0.000,NO2:0.000,SO2:0.000,NH3:5.988
9:05:01,0,0,0,0,0,0,0,0,0,0,0,513,0,0,0,0,0.0000000,0.0000000,0.0000000,0.0000000,9.00,38.4170532,-110.7739792,1383.0999756,3.8,83.9,0.9,0.0,0.0,860,142,0,0,858.36,30.20,15.36,# data time:3680,pm2.5:6.445,pm10:5.704,O2:0.000,NO2:0.000,SO2:0.000,NH3:5.988
9:05:02,0,0,0,0,0,0,0,0,0,0,0,513,0,0,0,0,0.0000000,0.0000000,0.0000000,0.0000000,9.00,38.4170532,-110.7739487,1383.1999512,4.1,82.2,0.9,0.0,0.0,860,141,0,0,858.37,30.17,15.40,# data time:3680,pm2.5:6.445,pm10:5.704,O2:0.000,NO2:0.000,SO2:0.000,NH3:5.988
9:05:03,0,0,0,0,0,0,0,0,0,0,0,513,0,0,0,0,0.0000000,0.0000000,0.0000000,0.0000000,9.00,38.4170532,-110.7739258,1383.1999512,4.2,79.4,1.0,0.0,0.0,860,144,0,0,858.46,30.12,15.41,# data time:3680,pm2.5:6.445,pm10:5.704,O2:0.000,NO2:0.000,SO2:0.000,NH3:5.988
9:05:04,0,0,0,0,0,0,0,0,0,0,0,513,0,0,0,0,0.0000000,0.0000000,0.0000000,0.0000000,9.00,38.4170570,-110.7739029,1383.0000000,4.3,74.9,1.0,0.0,0.0,860,141,0,0,858.46,30.12,15.43,# data time:3690,pm2.5:6.445,pm10:5.704,O2:0.000,NO2:0.000,SO2:0.000,NH3:5.988
9:05:05,0,0,0,0,0,0,0,0,0,0,0,514,0,0,0,0,0.0000000,0.0000000,0.0000000,0.0000000,9.00,38.4170609,-110.7738724,1382.9000244,4.4,72.0,1.0,0.0,0.0,859,145,0,0,858.50,30.09,15.45,# data time:3690,pm2.5:6.445,pm10:5.704,O2:0.000,NO2:0.000,SO2:0.000,NH3:5.988
9:05:06,0,0,0,0,0,0,0,0,0,0,0,510,0,0,0,0,0.0000000,0.0000000,0.0000000,0.0000000,9.00,38.4170685,-110.7738647,1382.9000244,4.1,68.3,1.0,0.0,0.0,861,150,0,0,858.55,30.09,15.47,# data time:3690,pm2.5:6.445,pm10:5.704,O2:0.000,NO2:0.000,SO2:0.000,NH3:5.988
9:05:07,0,0,0,0,0,0,0,0,0,0,0,519,0,0,0,0,0.0000000,0.0000000,0.0000000,0.0000000,9.00,38.4170761,-110.7738342,1382.9000244,3.5,63.8,1.0,0.0,0.0,861,145,0,0,858.52,30.06,15.47,# data time:3690,pm2.5:6.445,pm10:5.704,O2:0.000,NO2:0.000,SO2:0.000,NH3:5.988
9:05:08,0,0,0,0,0,0,0,0,0,0,0,516,0,0,0,0,0.0000000,0.0000000,0.0000000,0.0000000,9.00,38.4170837,-110.7738113,1382.9000244,3.2,62.6,0.9,0.0,0.0,858,137,0,0,858.50,30.05,15.49,# data time:3690,pm2.5:6.445,pm10:5.704,O2:0.000,NO2:0.000,SO2:0.000,NH3:5.988
9:05:09,0,0,0,0,0,0,0,0,0,0,0,514,0,0,0,0,0.0000000,0.0000000,0.0000000,0.0000000,9.00,38.4170914,-110.7737961,1382.8000488,3.2,60.8,0.9,0.0,0.0,861,135,0,0,858.57,30.00,15.51,# data time:3690,pm2.5:6.445,pm10:5.704,O2:0.000,NO2:0.000,SO2:0.000,NH3:5.988
9:05:10,0,0,0,0,0,0,0,0,0,0,0,512,0,0,0,0,0.0000000,0.0000000,0.0000000,0.0000000,9.00,38.4170990,-110.7737885,1382.6999512,3.3,61.2,0.9,0.0,0.0,857,150,0,0,858.57,29.98,15.53,# data time:3690,pm2.5:6.445,pm10:5.704,O2:0.000,NO2:0.000,SO2:0.000,NH3:5.988
9:05:11,0,0,0,0,0,0,0,0,0,0,0,511,0,0,0,0,0.0000000,0.0000000,0.0000000,0.0000000,9.00,38.4171104,-110.7737579,1382.5999756,3.7,57.2,0.9,0.0,0.0,861,134,0,0,858.59,29.94,15.52,# data time:3690,pm2.5:6.445,pm10:5.704,O2:0.000,NO2:0.000,SO2:0.000,NH3:5.988
9:05:12,0,0,0,0,0,0,0,0,0,0,0,513,0,0,0,0,0.0000000,0.0000000,0.0000000,0.0000000,9.00,38.4171219,-110.7737503,1382.5000000,3.9,56.3,0.9,0.0,0.0,860,139,0,0,858.73,29.95,15.53,# data time:3690,pm2.5:6.445,pm10:5.704,O2:0.000,NO2:0.000,SO2:0.000,NH3:5.988
9:05:13,0,0,0,0,0,0,0,0,0,0,0,514,0,0,0,0,0.0000000,0.0000000,0.0000000,0.0000000,9.00,38.4171333,-110.7737198,1382.4000244,3.9,56.7,1.0,0.0,0.0,859,134,0,0,858.57,29.95,15.53,# data time:3690,pm2.5:6.445,pm10:5.704,O2:0.000,NO2:0.000,SO2:0.000,NH3:5.988
9:05:14,0,0,0,0,0,0,0,0,0,0,0,513,0,0,0,0,0.0000000,0.0000000,0.0000000,0.0000000,9.00,38.4171410,-110.7737122,1382.4000244,3.9,57.0,1.0,0.0,0.0,859,137,0,0,858.68,29.91,15.55,# data time:3700,pm2.5:5.640,pm10:4.991,O2:0.000,NO2:0.000,SO2:0.000,NH3:5.988
9:05:15,0,0,0,0,0,0,0,0,0,0,0,514,0,0,0,0,0.0000000,0.0000000,0.0000000,0.0000000,9.00,38.4171524,-110.7736816,1382.3000488,3.8,55.1,1.0,0.0,0.0,859,137,0,0,858.77,29.89,15.55,# data time:3700,pm2.5:5.640,pm10:4.991,O2:0.000,NO2:0.000,SO2:0.000,NH3:5.988
9:05:16,0,0,0,0,0,0,0,0,0,0,0,514,0,0,0,0,0.0000000,0.0000000,0.0000000,0.0000000,9.00,38.4171600,-110.7736740,1382.3000488,3.8,55.4,0.9,0.0,0.0,859,137,0,0,858.72,29.88,15.55,# data time:3700,pm2.5:5.640,pm10:4.991,O2:0.000,NO2:0.000,SO2:0.000,NH3:5.988
9:05:18,0,0,0,0,0,0,0,0,0,0,0,513,0,0,0,0,0.0000000,0.0000000,0.0000000,0.0000000,9.00,38.4171753,-110.7736435,1382.0999756,3.5,54.0,0.9,0.0,0.0,859,135,0,0,858.72,29.86,15.54,# data time:3700,pm2.5:5.640,pm10:4.991,O2:0.000,NO2:0.000,SO2:0.000,NH3:5.988
9:05:19,0,0,0,0,0,0,0,0,0,0,0,514,0,0,0,0,0.0000000,0.0000000,0.0000000,0.0000000,9.00,38.4171791,-110.7736282,1382.0000000,3.2,54.9,0.9,0.0,0.0,859,136,0,0,858.70,29.85,15.55,# data time:3700,pm2.5:5.640,pm10:4.991,O2:0.000,NO2:0.000,SO2:0.000,NH3:5.988
9:05:20,0,0,0,0,0,0,0,0,0,0,0,513,0,0,0,0,0.0000000,0.0000000,0.0000000,0.0000000,9.00,38.4171906,-110.7736206,1381.9000244,2.9,53.8,0.9,0.0,0.0,859,137,0,0,858.68,29.85,15.55,# data time:3700,pm2.5:5.640,pm10:4.991,O2:0.000,NO2:0.000,SO2:0.000,NH3:5.988
9:05:21,0,0,0,0,0,0,0,0,0,0,0,514,0,0,0,0,0.0000000,0.0000000,0.0000000,0.0000000,9.00,38.4171982,-110.7736053,1381.6999512,2.8,54.3,0.9,0.0,0.0,859,136,0,0,858.70,29.82,15.56,# data time:3700,pm2.5:5.640,pm10:4.991,O2:0.000,NO2:0.000,SO2:0.000,NH3:5.988
9:05:22,0,0,0,0,0,0,0,0,0,0,0,514,0,0,0,0,0.0000000,0.0000000,0.0000000,0.0000000,9.00,38.4172058,-110.7735901,1381.5000000,3.0,55.0,0.9,0.0,0.0,859,135,0,0,858.83,29.74,15.57,# data time:3700,pm2.5:5.640,pm10:4.991,O2:0.000,NO2:0.000,SO2:0.000,NH3:5.988
9:05:23,0,0,0,0,0,0,0,0,0,0,0,514,0,0,0,0,0.0000000,0.0000000,0.0000000,0.0000000,9.00,38.4172134,-110.7735825,1381.5000000,3.3,63.1,0.9,0.0,0.0,859,134,0,0,858.70,29.79,15.44,# data time:3700,pm2.5:5.640,pm10:4.991,O2:0.000,NO2:0.000,SO2:0.000,NH3:5.988
9:05:24,0,0,0,0,0,0,0,0,0,0,0,514,0,0,0,0,0.0000000,0.0000000,0.0000000,0.0000000,9.00,38.4172211,-110.7735519,1381.1999512,3.3,59.4,0.9,0.0,0.0,859,137,0,0,858.55,29.85,15.41,# data time:3700,pm2.5:5.640,pm10:4.991,O2:0.000,NO2:0.000,SO2:0.000,NH3:5.988
9:05:25,0,0,0,0,0,0,0,0,0,0,0,513,0,0,0,0,0.0000000,0.0000000,0.0000000,0.0000000,9.00,38.4172249,-110.7735443,1381.4000244,3.3,59.4,0.9,0.0,0.0,859,136,0,0,858.64,29.88,15.36,# data time:3710,pm2.5:6.445,pm10:5.704,O2:0.000,NO2:0.000,SO2:0.000,NH3:5.988
9:05:26,0,0,0,0,0,0,0,0,0,0,0,514,0,0,0,0,0.0000000,0.0000000,0.0000000,0.0000000,9.00,38.4172440,-110.7735138,1381.5999756,2.4,54.0,0.9,0.0,0.0,859,139,0,0,858.52,29.92,15.44,# data time:3710,pm2.5:6.445,pm10:5.704,O2:0.000,NO2:0.000,SO2:0.000,NH3:5.988
9:05:27,0,0,0,0,0,0,0,0,0,0,0,514,0,0,0,0,0.0000000,0.0000000,0.0000000,0.0000000,9.00,38.4172592,-110.7734909,1381.6999512,3.7,34.7,1.0,0.0,0.0,859,136,0,0,858.55,29.89,15.48,# data time:3710,pm2.5:6.445,pm10:5.704,O2:0.000,NO2:0.000,SO2:0.000,NH3:5.988
9:05:28,0,0,0,0,0,0,0,0,0,0,0,514,0,0,0,0,0.0000000,0.0000000,0.0000000,0.0000000,9.00,38.4172745,-110.7734909,1381.8000488,3.9,26.3,0.9,0.0,0.0,860,142,0,0,858.49,29.85,15.51,# data time:3710,pm2.5:6.445,pm10:5.704,O2:0.000,NO2:0.000,SO2:0.000,NH3:5.988
9:05:29,0,0,0,0,0,0,0,0,0,0,0,513,0,0,0,0,0.0000000,0.0000000,0.0000000,0.0000000,9.00,38.4172897,-110.7734756,1381.9000244,4.3,22.4,0.9,0.0,0.0,860,145,0,0,858.52,29.83,15.53,# data time:3710,pm2.5:6.445,pm10:5.704,O2:0.000,NO2:0.000,SO2:0.000,NH3:5.988
9:05:30,0,0,0,0,0,0,0,0,0,0,0,514,0,0,0,0,0.0000000,0.0000000,0.0000000,0.0000000,9.00,38.4173088,-110.7734680,1381.9000244,4.3,17.7,1.0,0.0,0.0,860,141,0,0,858.47,29.83,15.55,# data time:3710,pm2.5:6.445,pm10:5.704,O2:0.000,NO2:0.000,SO2:0.000,NH3:5.988
9:05:31,0,0,0,0,0,0,0,0,0,0,0,514,0,0,0,0,0.0000000,0.0000000,0.0000000,0.0000000,9.00,38.4173279,-110.7734680,1382.0999756,4.6,12.8,1.0,0.0,0.0,859,142,0,0,858.45,29.80,15.57,# data time:3710,pm2.5:6.445,pm10:5.704,O2:0.000,NO2:0.000,SO2:0.000,NH3:5.988
9:05:32,0,0,0,0,0,0,0,0,0,0,0,514,0,0,0,0,0.0000000,0.0000000,0.0000000,0.0000000,9.00,38.4173508,-110.7734528,1382.3000488,4.8,10.4,1.0,0.0,0.0,860,140,0,0,858.36,29.79,15.57,# data time:3710,pm2.5:6.445,pm10:5.704,O2:0.000,NO2:0.000,SO2:0.000,NH3:5.988
9:05:33,0,0,0,0,0,0,0,0,0,0,0,514,0,0,0,0,0.0000000,0.0000000,0.0000000,0.0000000,9.00,38.4173775,-110.7734528,1382.4000244,5.0,8.4,1.0,0.0,0.0,859,136,0,0,858.44,29.82,15.55,# data time:3710,pm2.5:6.445,pm10:5.704,O2:0.000,NO2:0.000,SO2:0.000,NH3:5.988
9:05:34,0,0,0,0,0,0,0,0,0,0,0,514,0,0,0,0,0.0000000,0.0000000,0.0000000,0.0000000,9.00,38.4173965,-110.7734528,1382.3000488,4.5,5.9,1.0,0.0,0.0,860,139,0,0,858.38,29.82,15.55,# data time:3710,pm2.5:6.445,pm10:5.704,O2:0.000,NO2:0.000,SO2:0.000,NH3:5.988
9:05:35,0,0,0,0,0,0,0,0,0,0,0,514,0,0,0,0,0.0000000,0.0000000,0.0000000,0.0000000,9.00,38.4174194,-110.7734528,1382.1999512,4.2,10.4,1.0,0.0,0.0,860,141,0,0,858.38,29.86,15.56,# data time:3720,pm2.5:6.445,pm10:5.704,O2:0.000,NO2:0.000,SO2:0.000,NH3:5.988
9:05:36,0,0,0,0,0,0,0,0,0,0,0,513,0,0,0,0,0.0000000,0.0000000,0.0000000,0.0000000,9.00,38.4174385,-110.7734528,1382.1999512,3.5,357.3,1.0,0.0,0.0,859,139,0,0,858.39,29.85,15.56,# data time:3720,pm2.5:6.445,pm10:5.704,O2:0.000,NO2:0.000,SO2:0.000,NH3:5.988
9:05:37,0,0,0,0,0,0,0,0,0,0,0,514,0,0,0,0,0.0000000,0.0000000,0.0000000,0.0000000,9.00,38.4174576,-110.7734375,1382.1999512,3.5,11.9,1.0,0.0,0.0,860,142,0,0,858.38,29.82,15.56,# data time:3720,pm2.5:6.445,pm10:5.704,O2:0.000,NO2:0.000,SO2:0.000,NH3:5.988
9:05:38,0,0,0,0,0,0,0,0,0,0,0,513,0,0,0,0,0.0000000,0.0000000,0.0000000,0.0000000,9.00,38.4174728,-110.7734375,1382.3000488,3.8,8.9,1.0,0.0,0.0,859,140,0,0,858.43,29.80,15.54,# data time:3720,pm2.5:6.445,pm10:5.704,O2:0.000,NO2:0.000,SO2:0.000,NH3:5.988
9:05:39,0,0,0,0,0,0,0,0,0,0,0,514,0,0,0,0,0.0000000,0.0000000,0.0000000,0.0000000,9.00,38.4174881,-110.7734375,1382.1999512,4.4,9.4,1.0,0.0,0.0,859,139,0,0,858.38,29.80,15.53,# data time:3720,pm2.5:6.445,pm10:5.704,O2:0.000,NO2:0.000,SO2:0.000,NH3:5.988
9:05:40,0,0,0,0,0,0,0,0,0,0,0,513,0,0,0,0,0.0000000,0.0000000,0.0000000,0.0000000,9.00,38.4175110,-110.7734375,1382.3000488,4.9,7.9,1.0,0.0,0.0,859,138,0,0,858.32,29.80,15.52,# data time:3720,pm2.5:6.445,pm10:5.704,O2:0.000,NO2:0.000,SO2:0.000,NH3:5.988
9:05:41,0,0,0,0,0,0,0,0,0,0,0,514,0,0,0,0,0.0000000,0.0000000,0.0000000,0.0000000,9.00,38.4175339,-110.7734375,1382.5999756,5.5,5.7,1.0,0.0,0.0,859,144,0,0,858.40,29.82,15.50,# data time:3720,pm2.5:6.445,pm10:5.704,O2:0.000,NO2:0.000,SO2:0.000,NH3:5.988
9:05:42,0,0,0,0,0,0,0,0,0,0,0,513,0,0,0,0,0.0000000,0.0000000,0.0000000,0.0000000,9.00,38.4175606,-110.7734375,1382.4000244,5.8,4.7,1.0,0.0,0.0,859,140,0,0,858.44,29.83,15.52,# data time:3720,pm2.5:6.445,pm10:5.704,O2:0.000,NO2:0.000,SO2:0.000,NH3:5.988
9:05:43,0,0,0,0,0,0,0,0,0,0,0,513,0,0,0,0,0.0000000,0.0000000,0.0000000,0.0000000,9.00,38.4175873,-110.7734375,1382.0999756,5.8,4.2,1.0,0.0,0.0,859,139,0,0,858.49,29.82,15.52,# data time:3720,pm2.5:6.445,pm10:5.704,O2:0.000,NO2:0.000,SO2:0.000,NH3:5.988
9:05:44,0,0,0,0,0,0,0,0,0,0,0,514,0,0,0,0,0.0000000,0.0000000,0.0000000,0.0000000,9.00,38.4176140,-110.7734375,1382.0000000,5.7,5.5,1.0,0.0,0.0,860,138,0,0,858.47,29.82,15.53,# data time:3730,pm2.5:6.445,pm10:5.704,O2:0.000,NO2:0.000,SO2:0.000,NH3:5.762
9:05:45,0,0,0,0,0,0,0,0,0,0,0,513,0,0,0,0,0.0000000,0.0000000,0.0000000,0.0000000,9.00,38.4176407,-110.7734299,1382.0000000,5.3,6.1,1.0,0.0,0.0,858,137,0,0,858.48,29.80,15.52,# data time:3730,pm2.5:6.445,pm10:5.704,O2:0.000,NO2:0.000,SO2:0.000,NH3:5.762
9:05:46,0,0,0,0,0,0,0,0,0,0,0,514,0,0,0,0,0.0000000,0.0000000,0.0000000,0.0000000,9.00,38.4176598,-110.7734299,1382.0000000,4.5,6.3,1.0,0.0,0.0,859,134,0,0,858.50,29.82,15.51,# data time:3730,pm2.5:6.445,pm10:5.704,O2:0.000,NO2:0.000,SO2:0.000,NH3:5.762
9:05:47,0,0,0,0,0,0,0,0,0,0,0,514,0,0,0,0,0.0000000,0.0000000,0.0000000,0.0000000,9.00,38.4176826,-110.7734299,1382.0000000,4.2,4.6,1.0,0.0,0.0,860,136,0,0,858.50,29.77,15.52,# data time:3730,pm2.5:6.445,pm10:5.704,O2:0.000,NO2:0.000,SO2:0.000,NH3:5.762
9:05:48,0,0,0,0,0,0,0,0,0,0,0,514,0,0,0,0,0.0000000,0.0000000,0.0000000,0.0000000,9.00,38.4176979,-110.7734299,1382.0999756,4.3,9.4,1.0,0.0,0.0,859,138,0,0,858.52,29.82,15.52,# data time:3730,pm2.5:6.445,pm10:5.704,O2:0.000,NO2:0.000,SO2:0.000,NH3:5.762
9:05:49,0,0,0,0,0,0,0,0,0,0,0,513,0,0,0,0,0.0000000,0.0000000,0.0000000,0.0000000,9.00,38.4177208,-110.7734299,1382.1999512,4.5,14.4,1.0,0.0,0.0,859,132,0,0,858.53,29.82,15.55,# data time:3730,pm2.5:6.445,pm10:5.704,O2:0.000,NO2:0.000,SO2:0.000,NH3:5.762
9:05:50,0,0,0,0,0,0,0,0,0,0,0,514,0,0,0,0,0.0000000,0.0000000,0.0000000,0.0000000,9.00,38.4177399,-110.7734146,1382.3000488,4.7,16.9,1.0,0.0,0.0,860,139,0,0,858.52,29.79,15.54,# data time:3730,pm2.5:6.445,pm10:5.704,O2:0.000,NO2:0.000,SO2:0.000,NH3:5.762
9:05:51,0,0,0,0,0,0,0,0,0,0,0,514,0,0,0,0,0.0000000,0.0000000,0.0000000,0.0000000,9.00,38.4177628,-110.7733994,1382.3000488,4.7,19.6,1.0,0.0,0.0,860,140,0,0,858.59,29.85,15.50,# data time:3730,pm2.5:6.445,pm10:5.704,O2:0.000,NO2:0.000,SO2:0.000,NH3:5.762
9:05:52,0,0,0,0,0,0,0,0,0,0,0,513,0,0,0,0,0.0000000,0.0000000,0.0000000,0.0000000,9.00,38.4177818,-110.7733994,1382.4000244,4.8,28.1,1.0,0.0,0.0,859,137,0,0,858.62,29.86,15.51,# data time:3730,pm2.5:6.445,pm10:5.704,O2:0.000,NO2:0.000,SO2:0.000,NH3:5.762
9:05:53,0,0,0,0,0,0,0,0,0,0,0,514,0,0,0,0,0.0000000,0.0000000,0.0000000,0.0000000,9.00,38.4178047,-110.7733765,1382.4000244,4.7,31.9,1.0,0.0,0.0,860,135,0,0,858.61,29.89,15.53,# data time:3730,pm2.5:6.445,pm10:5.704,O2:0.000,NO2:0.000,SO2:0.000,NH3:5.762
9:05:54,0,0,0,0,0,0,0,0,0,0,0,514,0,0,0,0,0.0000000,0.0000000,0.0000000,0.0000000,9.00,38.4178200,-110.7733612,1382.4000244,4.4,31.1,1.0,0.0,0.0,859,136,0,0,858.65,29.94,15.55,# data time:3740,pm2.5:6.445,pm10:5.704,O2:0.000,NO2:0.000,SO2:0.000,NH3:5.762
9:05:55,0,0,0,0,0,0,0,0,0,0,0,513,0,0,0,0,0.0000000,0.0000000,0.0000000,0.0000000,9.00,38.4178391,-110.7733536,1382.3000488,4.3,32.3,1.0,0.0,0.0,859,134,0,0,858.67,29.91,15.55,# data time:3740,pm2.5:6.445,pm10:5.704,O2:0.000,NO2:0.000,SO2:0.000,NH3:5.762
9:05:56,0,0,0,0,0,0,0,0,0,0,0,514,0,0,0,0,0.0000000,0.0000000,0.0000000,0.0000000,9.00,38.4178543,-110.7733383,1382.1999512,4.4,40.5,1.0,0.0,0.0,858,137,0,0,858.67,29.94,15.54,# data time:3740,pm2.5:6.445,pm10:5.704,O2:0.000,NO2:0.000,SO2:0.000,NH3:5.762
9:05:57,0,0,0,0,0,0,0,0,0,0,0,513,0,0,0,0,0.0000000,0.0000000,0.0000000,0.0000000,9.00,38.4178734,-110.7733154,1382.1999512,4.4,40.7,1.0,0.0,0.0,860,132,0,0,858.68,29.92,15.51,# data time:3740,pm2.5:6.445,pm10:5.704,O2:0.000,NO2:0.000,SO2:0.000,NH3:5.762
9:05:58,0,0,0,0,0,0,0,0,0,0,0,513,0,0,0,0,0.0000000,0.0000000,0.0000000,0.0000000,9.00,38.4178848,-110.7733002,1382.0999756,4.4,45.3,1.0,0.0,0.0,859,137,0,0,858.71,29.92,15.50,# data time:3740,pm2.5:6.445,pm10:5.704,O2:0.000,NO2:0.000,SO2:0.000,NH3:5.762
9:05:59,0,0,0,0,0,0,0,0,0,0,0,514,0,0,0,0,0.0000000,0.0000000,0.0000000,0.0000000,9.00,38.4178963,-110.7732849,1382.0000000,4.2,47.2,1.0,0.0,0.0,859,139,0,0,858.73,29.91,15.52,# data time:3740,pm2.5:6.445,pm10:5.704,O2:0.000,NO2:0.000,SO2:0.000,NH3:5.762
9:06:00,0,0,0,0,0,0,0,0,0,0,0,514,0,0,0,0,0.0000000,0.0000000,0.0000000,0.0000000,9.00,38.4179115,-110.7732620,1381.8000488,3.9,49.0,1.0,0.0,0.0,859,142,0,0,858.76,29.92,15.54,# data time:3740,pm2.5:6.445,pm10:5.704,O2:0.000,NO2:0.000,SO2:0.000,NH3:5.762
9:06:01,0,0,0,0,0,0,0,0,0,0,0,514,0,0,0,0,0.0000000,0.0000000,0.0000000,0.0000000,9.00,38.4179230,-110.7732468,1381.5999756,3.8,50.7,1.0,0.0,0.0,859,141,0,0,858.72,29.91,15.55,# data time:3740,pm2.5:6.445,pm10:5.704,O2:0.000,NO2:0.000,SO2:0.000,NH3:5.762
9:06:02,0,0,0,0,0,0,0,0,0,0,0,514,0,0,0,0,0.0000000,0.0000000,0.0000000,0.0000000,9.00,38.4179344,-110.7732239,1381.4000244,3.8,49.4,0.9,0.0,0.0,859,138,0,0,858.72,29.86,15.55,# data time:3740,pm2.5:6.445,pm10:5.704,O2:0.000,NO2:0.000,SO2:0.000,NH3:5.762
9:06:03,0,0,0,0,0,0,0,0,0,0,0,514,0,0,0,0,0.0000000,0.0000000,0.0000000,0.0000000,9.00,38.4179459,-110.7732086,1381.5000000,3.6,48.5,1.0,0.0,0.0,859,138,0,0,858.72,29.91,15.53,# data time:3740,pm2.5:6.445,pm10:5.704,O2:0.000,NO2:0.000,SO2:0.000,NH3:5.762
9:06:04,0,0,0,0,0,0,0,0,0,0,0,512,0,0,0,0,0.0000000,0.0000000,0.0000000,0.0000000,9.00,38.4179535,-110.7731934,1381.5999756,3.2,45.1,1.0,0.0,0.0,859,135,0,0,858.77,29.88,15.52,# data time:3750,pm2.5:5.640,pm10:4.991,O2:0.000,NO2:0.000,SO2:0.000,NH3:5.762
9:06:05,0,0,0,0,0,0,0,0,0,0,0,513,0,0,0,0,0.0000000,0.0000000,0.0000000,0.0000000,9.00,38.4179687,-110.7731857,1381.5999756,3.2,43.2,0.9,0.0,0.0,859,138,0,0,858.72,29.91,15.53,# data time:3750,pm2.5:5.640,pm10:4.991,O2:0.000,NO2:0.000,SO2:0.000,NH3:5.762
9:06:06,0,0,0,0,0,0,0,0,0,0,0,514,0,0,0,0,0.0000000,0.0000000,0.0000000,0.0000000,9.00,38.4179802,-110.7731705,1381.5000000,3.7,43.2,1.0,0.0,0.0,859,134,0,0,858.75,29.88,15.56,# data time:3750,pm2.5:5.640,pm10:4.991,O2:0.000,NO2:0.000,SO2:0.000,NH3:5.762
9:06:07,0,0,0,0,0,0,0,0,0,0,0,513,0,0,0,0,0.0000000,0.0000000,0.0000000,0.0000000,9.00,38.4179955,-110.7731552,1381.4000244,4.2,38.3,1.0,0.0,0.0,860,136,0,0,858.78,29.83,15.57,# data time:3750,pm2.5:5.640,pm10:4.991,O2:0.000,NO2:0.000,SO2:0.000,NH3:5.762
9:06:08,0,0,0,0,0,0,0,0,0,0,0,513,0,0,0,0,0.0000000,0.0000000,0.0000000,0.0000000,9.00,38.4180107,-110.7731323,1381.3000488,4.5,38.0,1.0,0.0,0.0,859,136,0,0,858.78,29.83,15.60,# data time:3750,pm2.5:5.640,pm10:4.991,O2:0.000,NO2:0.000,SO2:0.000,NH3:5.762
9:06:09,0,0,0,0,0,0,0,0,0,0,0,513,0,0,0,0,0.0000000,0.0000000,0.0000000,0.0000000,9.00,38.4180260,-110.7731171,1381.1999512,4.6,37.1,1.0,0.0,0.0,859,134,0,0,858.83,29.82,15.62,# data time:3750,pm2.5:5.640,pm10:4.991,O2:0.000,NO2:0.000,SO2:0.000,NH3:5.762
9:06:10,0,0,0,0,0,0,0,0,0,0,0,513,0,0,0,0,0.0000000,0.0000000,0.0000000,0.0000000,9.00,38.4180412,-110.7731094,1381.0999756,4.2,35.7,1.0,0.0,0.0,859,135,0,0,858.81,29.79,15.62,# data time:3750,pm2.5:5.640,pm10:4.991,O2:0.000,NO2:0.000,SO2:0.000,NH3:5.762
9:06:11,0,0,0,0,0,0,0,0,0,0,0,513,0,0,0,0,0.0000000,0.0000000,0.0000000,0.0000000,9.00,38.4180527,-110.7730942,1380.9000244,4.0,32.6,1.0,0.0,0.0,859,137,0,0,858.87,29.76,15.64,# data time:3750,pm2.5:5.640,pm10:4.991,O2:0.000,NO2:0.000,SO2:0.000,NH3:5.762
9:06:12,0,0,0,0,0,0,0,0,0,0,0,514,0,0,0,0,0.0000000,0.0000000,0.0000000,0.0000000,9.00,38.4180717,-110.7730789,1380.8000488,3.5,32.5,1.0,0.0,0.0,859,139,0,0,858.88,29.76,15.66,# data time:3750,pm2.5:5.640,pm10:4.991,O2:0.000,NO2:0.000,SO2:0.000,NH3:5.762
9:06:13,0,0,0,0,0,0,0,0,0,0,0,514,0,0,0,0,0.0000000,0.0000000,0.0000000,0.0000000,9.00,38.4180832,-110.7730713,1380.5999756,3.1,32.5,1.0,0.0,0.0,860,135,0,0,858.88,29.72,15.65,# data time:3750,pm2.5:5.640,pm10:4.991,O2:0.000,NO2:0.000,SO2:0.000,NH3:5.762
9:06:14,0,0,0,0,0,0,0,0,0,0,0,514,0,0,0,0,0.0000000,0.0000000,0.0000000,0.0000000,9.00,38.4180946,-110.7730560,1380.4000244,3.1,29.1,1.0,0.0,0.0,859,136,0,0,858.97,29.72,15.64,# data time:3760,pm2.5:6.445,pm10:5.704,O2:0.000,NO2:0.000,SO2:0.000,NH3:5.988
9:06:16,0,0,0,0,0,0,0,0,0,0,0,513,0,0,0,0,0.0000000,0.0000000,0.0000000,0.0000000,9.00,38.4181061,-110.7730408,1380.1999512,3.5,28.4,1.0,0.0,0.0,859,135,0,0,858.94,29.69,15.64,# data time:3760,pm2.5:6.445,pm10:5.704,O2:0.000,NO2:0.000,SO2:0.000,NH3:5.988
9:06:17,0,0,0,0,0,0,0,0,0,0,0,513,0,0,0,0,0.0000000,0.0000000,0.0000000,0.0000000,9.00,38.4181213,-110.7730408,1380.0000000,4.1,25.9,1.0,0.0,0.0,859,133,0,0,859.01,29.68,15.65,# data time:3760,pm2.5:6.445,pm10:5.704,O2:0.000,NO2:0.000,SO2:0.000,NH3:5.988
9:06:18,0,0,0,0,0,0,0,0,0,0,0,513,0,0,0,0,0.0000000,0.0000000,0.0000000,0.0000000,9.00,38.4181404,-110.7730331,1379.6999512,4.8,24.0,1.0,0.0,0.0,859,133,0,0,859.02,29.65,15.68,# data time:3760,pm2.5:6.445,pm10:5.704,O2:0.000,NO2:0.000,SO2:0.000,NH3:5.988
9:06:19,0,0,0,0,0,0,0,0,0,0,0,514,0,0,0,0,0.0000000,0.0000000,0.0000000,0.0000000,9.00,38.4181595,-110.7730179,1379.5000000,5.0,22.4,1.0,0.0,0.0,859,132,0,0,859.02,29.62,15.58,# data time:3760,pm2.5:6.445,pm10:5.704,O2:0.000,NO2:0.000,SO2:0.000,NH3:5.988
9:06:20,0,0,0,0,0,0,0,0,0,0,0,513,0,0,0,0,0.0000000,0.0000000,0.0000000,0.0000000,9.00,38.4181786,-110.7730026,1379.5000000,5.0,27.8,1.0,0.0,0.0,859,131,0,0,859.03,29.60,15.57,# data time:3760,pm2.5:6.445,pm10:5.704,O2:0.000,NO2:0.000,SO2:0.000,NH3:5.988
9:06:21,0,0,0,0,0,0,0,0,0,0,0,514,0,0,0,0,0.0000000,0.0000000,0.0000000,0.0000000,9.00,38.4181976,-110.7729950,1379.0999756,3.6,30.3,1.0,0.0,0.0,859,134,0,0,859.05,29.63,15.55,# data time:3760,pm2.5:6.445,pm10:5.704,O2:0.000,NO2:0.000,SO2:0.000,NH3:5.988
9:06:22,0,0,0,0,0,0,0,0,0,0,0,514,0,0,0,0,0.0000000,0.0000000,0.0000000,0.0000000,9.00,38.4182129,-110.7729797,1378.9000244,3.3,31.6,1.0,0.0,0.0,860,129,0,0,859.04,29.65,15.54,# data time:3760,pm2.5:6.445,pm10:5.704,O2:0.000,NO2:0.000,SO2:0.000,NH3:5.988
9:06:23,0,0,0,0,0,0,0,0,0,0,0,513,0,0,0,0,0.0000000,0.0000000,0.0000000,0.0000000,9.00,38.4182434,-110.7729568,1378.9000244,3.7,35.4,1.0,0.0,0.0,859,131,0,0,859.01,29.65,15.60,# data time:3760,pm2.5:6.445,pm10:5.704,O2:0.000,NO2:0.000,SO2:0.000,NH3:5.988
9:06:24,0,0,0,0,0,0,0,0,0,0,0,514,0,0,0,0,0.0000000,0.0000000,0.0000000,0.0000000,9.00,38.4182510,-110.7729416,1378.9000244,3.7,35.4,1.0,0.0,0.0,859,133,0,0,859.03,29.68,15.62,# data time:3760,pm2.5:6.445,pm10:5.704,O2:0.000,NO2:0.000,SO2:0.000,NH3:5.988
9:06:25,0,0,0,0,0,0,0,0,0,0,0,513,0,0,0,0,0.0000000,0.0000000,0.0000000,0.0000000,9.00,38.4182625,-110.7729187,1378.8000488,3.6,66.3,1.0,0.0,0.0,859,129,0,0,859.06,29.59,15.68,# data time:3770,pm2.5:6.445,pm10:5.704,O2:0.000,NO2:0.000,SO2:0.000,NH3:5.762
9:06:26,0,0,0,0,0,0,0,0,0,0,0,513,0,0,0,0,0.0000000,0.0000000,0.0000000,0.0000000,9.00,38.4182701,-110.7728882,1378.6999512,4.5,69.7,1.0,0.0,0.0,859,132,0,0,858.94,29.59,15.68,# data time:3770,pm2.5:6.445,pm10:5.704,O2:0.000,NO2:0.000,SO2:0.000,NH3:5.762
9:06:27,0,0,0,0,0,0,0,0,0,0,0,513,0,0,0,0,0.0000000,0.0000000,0.0000000,0.0000000,9.00,38.4182739,-110.7728653,1378.5999756,4.6,82.1,1.0,0.0,0.0,859,131,0,0,858.86,29.60,15.67,# data time:3770,pm2.5:6.445,pm10:5.704,O2:0.000,NO2:0.000,SO2:0.000,NH3:5.762
9:06:28,0,0,0,0,0,0,0,0,0,0,0,513,0,0,0,0,0.0000000,0.0000000,0.0000000,0.0000000,9.00,38.4182739,-110.7728348,1378.5000000,5.2,93.9,1.0,0.0,0.0,859,142,0,0,858.93,29.62,15.64,# data time:3770,pm2.5:6.445,pm10:5.704,O2:0.000,NO2:0.000,SO2:0.000,NH3:5.762
9:06:29,0,0,0,0,0,0,0,0,0,0,0,513,0,0,0,0,0.0000000,0.0000000,0.0000000,0.0000000,9.00,38.4182701,-110.7728119,1378.4000244,4.9,97.9,1.0,0.0,0.0,859,150,0,0,858.96,29.60,15.61,# data time:3770,pm2.5:6.445,pm10:5.704,O2:0.000,NO2:0.000,SO2:0.000,NH3:5.762
9:06:30,0,0,0,0,0,0,0,0,0,0,0,514,0,0,0,0,0.0000000,0.0000000,0.0000000,0.0000000,9.00,38.4182663,-110.7727890,1378.4000244,4.2,103.5,1.0,0.0,0.0,858,166,0,0,859.00,29.62,15.58,# data time:3770,pm2.5:6.445,pm10:5.704,O2:0.000,NO2:0.000,SO2:0.000,NH3:5.762
9:06:31,0,0,0,0,0,0,0,0,0,0,0,514,0,0,0,0,0.0000000,0.0000000,0.0000000,0.0000000,9.00,38.4182587,-110.7727585,1378.0000000,3.5,103.6,1.0,0.0,0.0,859,168,0,0,858.95,29.65,15.55,# data time:3770,pm2.5:6.445,pm10:5.704,O2:0.000,NO2:0.000,SO2:0.000,NH3:5.762
9:06:32,0,0,0,0,0,0,0,0,0,0,0,514,0,0,0,0,0.0000000,0.0000000,0.0000000,0.0000000,9.00,38.4182549,-110.7727509,1377.9000244,3.0,114.6,1.0,0.0,0.0,859,161,0,0,858.85,29.69,15.55,# data time:3770,pm2.5:6.445,pm10:5.704,O2:0.000,NO2:0.000,SO2:0.000,NH3:5.762
9:06:33,0,0,0,0,0,0,0,0,0,0,0,516,0,0,0,0,0.0000000,0.0000000,0.0000000,0.0000000,9.00,38.4182472,-110.7727203,1377.5999756,3.4,124.9,1.0,0.0,0.0,859,154,0,0,858.94,29.80,15.57,# data time:3770,pm2.5:6.445,pm10:5.704,O2:0.000,NO2:0.000,SO2:0.000,NH3:5.762
9:06:34,0,0,0,0,0,0,0,0,0,0,0,512,0,0,0,0,0.0000000,0.0000000,0.0000000,0.0000000,9.00,38.4182396,-110.7727127,1377.4000244,3.4,120.7,1.0,0.0,0.0,858,157,0,0,858.82,29.83,15.54,# data time:3780,pm2.5:6.445,pm10:5.704,O2:0.000,NO2:0.000,SO2:0.000,NH3:5.762
9:06:35,0,0,0,0,0,0,0,0,0,0,0,514,0,0,0,0,0.0000000,0.0000000,0.0000000,0.0000000,9.00,38.4182243,-110.7726822,1377.3000488,3.1,126.9,1.0,0.0,0.0,859,151,0,0,858.92,29.95,15.52,# data time:3780,pm2.5:6.445,pm10:5.704,O2:0.000,NO2:0.000,SO2:0.000,NH3:5.762
9:06:36,0,0,0,0,0,0,0,0,0,0,0,513,0,0,0,0,0.0000000,0.0000000,0.0000000,0.0000000,9.00,38.4182129,-110.7726746,1377.1999512,2.5,133.9,1.0,0.0,0.0,859,158,0,0,858.93,30.03,15.47,# data time:3780,pm2.5:6.445,pm10:5.704,O2:0.000,NO2:0.000,SO2:0.000,NH3:5.762
9:06:37,0,0,0,0,0,0,0,0,0,0,0,514,0,0,0,0,0.0000000,0.0000000,0.0000000,0.0000000,9.00,38.4182053,-110.7726746,1376.8000488,2.5,150.9,1.0,0.0,0.0,860,158,0,0,858.93,30.05,15.44,# data time:3780,pm2.5:6.445,pm10:5.704,O2:0.000,NO2:0.000,SO2:0.000,NH3:5.762
9:06:38,0,0,0,0,0,0,0,0,0,0,0,515,0,0,0,0,0.0000000,0.0000000,0.0000000,0.0000000,9.00,38.4181938,-110.7726593,1376.4000244,2.5,162.9,1.0,0.0,0.0,860,146,0,0,858.98,30.06,15.43,# data time:3780,pm2.5:6.445,pm10:5.704,O2:0.000,NO2:0.000,SO2:0.000,NH3:5.762
9:06:39,0,0,0,0,0,0,0,0,0,0,0,512,0,0,0,0,0.0000000,0.0000000,0.0000000,0.0000000,9.00,38.4181824,-110.7726593,1376.0000000,2.8,174.2,1.0,0.0,0.0,860,159,0,0,859.07,30.06,15.45,# data time:3780,pm2.5:6.445,pm10:5.704,O2:0.000,NO2:0.000,SO2:0.000,NH3:5.762
9:06:40,0,0,0,0,0,0,0,0,0,0,0,513,0,0,0,0,0.0000000,0.0000000,0.0000000,0.0000000,9.00,38.4181709,-110.7726593,1375.6999512,3.0,167.3,1.0,0.0,0.0,859,146,0,0,859.02,30.15,15.41,# data time:3780,pm2.5:6.445,pm10:5.704,O2:0.000,NO2:0.000,SO2:0.000,NH3:5.762
9:06:41,0,0,0,0,0,0,0,0,0,0,0,514,0,0,0,0,0.0000000,0.0000000,0.0000000,0.0000000,9.00,38.4181557,-110.7726440,1375.5000000,3.0,161.4,1.0,0.0,0.0,859,142,0,0,859.02,30.21,15.41,# data time:3780,pm2.5:6.445,pm10:5.704,O2:0.000,NO2:0.000,SO2:0.000,NH3:5.762
9:06:42,0,0,0,0,0,0,0,0,0,0,0,514,0,0,0,0,0.0000000,0.0000000,0.0000000,0.0000000,9.00,38.4181442,-110.7726440,1375.3000488,3.6,163.0,1.0,0.0,0.0,859,140,0,0,859.04,30.23,15.42,# data time:3780,pm2.5:6.445,pm10:5.704,O2:0.000,NO2:0.000,SO2:0.000,NH3:5.762
9:06:43,0,0,0,0,0,0,0,0,0,0,0,514,0,0,0,0,0.0000000,0.0000000,0.0000000,0.0000000,9.00,38.4181252,-110.7726440,1375.0000000,4.2,165.3,1.0,0.0,0.0,858,142,0,0,859.10,30.24,15.39,# data time:3780,pm2.5:6.445,pm10:5.704,O2:0.000,NO2:0.000,SO2:0.000,NH3:5.762
9:06:44,0,0,0,0,0,0,0,0,0,0,0,514,0,0,0,0,0.0000000,0.0000000,0.0000000,0.0000000,9.00,38.4181023,-110.7726364,1374.8000488,4.7,164.6,1.0,0.0,0.0,859,150,0,0,859.12,30.33,15.35,# data time:3790,pm2.5:6.445,pm10:5.704,O2:0.000,NO2:0.000,SO2:0.000,NH3:5.536
9:06:45,0,0,0,0,0,0,0,0,0,0,0,515,0,0,0,0,0.0000000,0.0000000,0.0000000,0.0000000,9.00,38.4180870,-110.7726212,1374.6999512,4.7,162.4,1.0,0.0,0.0,860,140,0,0,859.11,30.32,15.39,# data time:3790,pm2.5:6.445,pm10:5.704,O2:0.000,NO2:0.000,SO2:0.000,NH3:5.536
9:06:46,0,0,0,0,0,0,0,0,0,0,0,511,0,0,0,0,0.0000000,0.0000000,0.0000000,0.0000000,9.00,38.4180641,-110.7726212,1374.5999756,4.9,162.3,1.0,0.0,0.0,859,134,0,0,859.21,30.32,15.42,# data time:3790,pm2.5:6.445,pm10:5.704,O2:0.000,NO2:0.000,SO2:0.000,NH3:5.536
9:06:47,0,0,0,0,0,0,0,0,0,0,0,515,0,0,0,0,0.0000000,0.0000000,0.0000000,0.0000000,9.00,38.4180450,-110.7726059,1374.5000000,4.8,159.0,1.0,0.0,0.0,859,148,0,0,859.20,30.30,15.41,# data time:3790,pm2.5:6.445,pm10:5.704,O2:0.000,NO2:0.000,SO2:0.000,NH3:5.536
9:06:48,0,0,0,0,0,0,0,0,0,0,0,510,0,0,0,0,0.0000000,0.0000000,0.0000000,0.0000000,9.00,38.4180222,-110.7725983,1374.3000488,4.6,160.5,1.0,0.0,0.0,857,148,0,0,859.25,30.30,15.44,# data time:3790,pm2.5:6.445,pm10:5.704,O2:0.000,NO2:0.000,SO2:0.000,NH3:5.536
9:06:49,0,0,0,0,0,0,0,0,0,0,0,514,0,0,0,0,0.0000000,0.0000000,0.0000000,0.0000000,9.00,38.4180069,-110.7725983,1374.3000488,4.1,163.2,1.0,0.0,0.0,860,149,0,0,859.27,30.26,15.49,# data time:3790,pm2.5:6.445,pm10:5.704,O2:0.000,NO2:0.000,SO2:0.000,NH3:5.536
9:06:50,0,0,0,0,0,0,0,0,0,0,0,511,0,0,0,0,0.0000000,0.0000000,0.0000000,0.0000000,9.00,38.4179916,-110.7725830,1374.1999512,3.5,157.7,1.0,0.0,0.0,859,132,0,0,859.27,30.32,15.50,# data time:3790,pm2.5:6.445,pm10:5.704,O2:0.000,NO2:0.000,SO2:0.000,NH3:5.536
9:06:51,0,0,0,0,0,0,0,0,0,0,0,514,0,0,0,0,0.0000000,0.0000000,0.0000000,0.0000000,9.00,38.4179726,-110.7725677,1374.0999756,3.5,160.7,1.0,0.0,0.0,859,148,0,0,859.35,30.18,15.50,# data time:3790,pm2.5:6.445,pm10:5.704,O2:0.000,NO2:0.000,SO2:0.000,NH3:5.536
9:06:52,0,0,0,0,0,0,0,0,0,0,0,517,0,0,0,0,0.0000000,0.0000000,0.0000000,0.0000000,9.00,38.4179611,-110.7725677,1374.0000000,3.5,166.4,1.0,0.0,0.0,859,141,0,0,859.43,30.14,15.51,# data time:3790,pm2.5:6.445,pm10:5.704,O2:0.000,NO2:0.000,SO2:0.000,NH3:5.536
9:06:53,0,0,0,0,0,0,0,0,0,0,0,514,0,0,0,0,0.0000000,0.0000000,0.0000000,0.0000000,9.00,38.4179459,-110.7725677,1373.8000488,3.5,171.2,1.0,0.0,0.0,859,141,0,0,859.33,30.14,15.53,# data time:3790,pm2.5:6.445,pm10:5.704,O2:0.000,NO2:0.000,SO2:0.000,NH3:5.536
9:06:54,0,0,0,0,0,0,0,0,0,0,0,513,0,0,0,0,0.0000000,0.0000000,0.0000000,0.0000000,9.00,38.4179306,-110.7725677,1373.6999512,3.6,173.4,1.0,0.0,0.0,859,138,0,0,859.26,30.15,15.56,# data time:3800,pm2.5:6.445,pm10:5.704,O2:0.000,NO2:0.000,SO2:0.000,NH3:5.762
9:06:55,0,0,0,0,0,0,0,0,0,0,0,515,0,0,0,0,0.0000000,0.0000000,0.0000000,0.0000000,9.00,38.4179153,-110.7725677,1373.5000000,3.9,178.9,1.0,0.0,0.0,859,129,0,0,859.27,30.11,15.59,# data time:3800,pm2.5:6.445,pm10:5.704,O2:0.000,NO2:0.000,SO2:0.000,NH3:5.762
9:06:56,0,0,0,0,0,0,0,0,0,0,0,517,0,0,0,0,0.0000000,0.0000000,0.0000000,0.0000000,9.00,38.4178925,-110.7725677,1373.4000244,4.5,180.9,1.0,0.0,0.0,860,127,0,0,859.32,30.03,15.59,# data time:3800,pm2.5:6.445,pm10:5.704,O2:0.000,NO2:0.000,SO2:0.000,NH3:5.762
9:06:57,0,0,0,0,0,0,0,0,0,0,0,514,0,0,0,0,0.0000000,0.0000000,0.0000000,0.0000000,9.00,38.4178734,-110.7725677,1373.5000000,4.4,190.5,1.0,0.0,0.0,859,134,0,0,859.35,30.05,15.57,# data time:3800,pm2.5:6.445,pm10:5.704,O2:0.000,NO2:0.000,SO2:0.000,NH3:5.762
9:06:58,0,0,0,0,0,0,0,0,0,0,0,514,0,0,0,0,0.0000000,0.0000000,0.0000000,0.0000000,9.00,38.4178543,-110.7725677,1373.5000000,4.5,192.8,1.0,0.0,0.0,860,132,0,0,859.28,29.98,15.59,# data time:3800,pm2.5:6.445,pm10:5.704,O2:0.000,NO2:0.000,SO2:0.000,NH3:5.762
9:06:59,0,0,0,0,0,0,0,0,0,0,0,513,0,0,0,0,0.0000000,0.0000000,0.0000000,0.0000000,9.00,38.4178314,-110.7725830,1373.4000244,5.1,193.6,1.0,0.0,0.0,859,134,0,0,859.36,30.01,15.59,# data time:3800,pm2.5:6.445,pm10:5.704,O2:0.000,NO2:0.000,SO2:0.000,NH3:5.762
9:07:00,0,0,0,0,0,0,0,0,0,0,0,516,0,0,0,0,0.0000000,0.0000000,0.0000000,0.0000000,9.00,38.4178047,-110.7725830,1373.4000244,5.1,196.7,1.0,0.0,0.0,860,134,0,0,859.28,29.98,15.62,# data time:3800,pm2.5:6.445,pm10:5.704,O2:0.000,NO2:0.000,SO2:0.000,NH3:5.762
9:07:01,0,0,0,0,0,0,0,0,0,0,0,516,0,0,0,0,0.0000000,0.0000000,0.0000000,0.0000000,9.00,38.4177818,-110.7725983,1373.4000244,5.1,196.6,1.0,0.0,0.0,860,134,0,0,859.32,29.98,15.63,# data time:3800,pm2.5:6.445,pm10:5.704,O2:0.000,NO2:0.000,SO2:0.000,NH3:5.762
9:07:02,0,0,0,0,0,0,0,0,0,0,0,512,0,0,0,0,0.0000000,0.0000000,0.0000000,0.0000000,8.00,38.4177628,-110.7726059,1373.3000488,4.8,197.9,1.2,0.0,0.0,857,146,0,0,859.32,30.03,15.64,# data time:3800,pm2.5:6.445,pm10:5.704,O2:0.000,NO2:0.000,SO2:0.000,NH3:5.762
9:07:03,0,0,0,0,0,0,0,0,0,0,0,514,0,0,0,0,0.0000000,0.0000000,0.0000000,0.0000000,9.00,38.4177437,-110.7726212,1373.3000488,4.4,201.1,1.0,0.0,0.0,859,134,0,0,859.30,30.05,15.65,# data time:3800,pm2.5:6.445,pm10:5.704,O2:0.000,NO2:0.000,SO2:0.000,NH3:5.762
9:07:04,0,0,0,0,0,0,0,0,0,0,0,514,0,0,0,0,0.0000000,0.0000000,0.0000000,0.0000000,8.00,38.4177246,-110.7726212,1373.0999756,4.5,201.2,1.2,0.0,0.0,860,131,0,0,859.32,29.98,15.67,# data time:3810,pm2.5:6.445,pm10:5.704,O2:0.000,NO2:0.000,SO2:0.000,NH3:5.762
9:07:05,0,0,0,0,0,0,0,0,0,0,0,514,0,0,0,0,0.0000000,0.0000000,0.0000000,0.0000000,8.00,38.4177055,-110.7726364,1372.9000244,4.7,202.7,1.2,0.0,0.0,860,134,0,0,859.35,29.95,15.70,# data time:3810,pm2.5:6.445,pm10:5.704,O2:0.000,NO2:0.000,SO2:0.000,NH3:5.762
9:07:06,0,0,0,0,0,0,0,0,0,0,0,514,0,0,0,0,0.0000000,0.0000000,0.0000000,0.0000000,9.00,38.4176865,-110.7726440,1372.9000244,5.0,202.6,1.0,0.0,0.0,859,127,0,0,859.31,29.91,15.70,# data time:3810,pm2.5:6.445,pm10:5.704,O2:0.000,NO2:0.000,SO2:0.000,NH3:5.762
9:07:07,0,0,0,0,0,0,0,0,0,0,0,514,0,0,0,0,0.0000000,0.0000000,0.0000000,0.0000000,9.00,38.4176674,-110.7726593,1372.6999512,4.7,203.6,1.0,0.0,0.0,859,127,0,0,859.40,29.85,15.71,# data time:3810,pm2.5:6.445,pm10:5.704,O2:0.000,NO2:0.000,SO2:0.000,NH3:5.762
9:07:08,0,0,0,0,0,0,0,0,0,0,0,513,0,0,0,0,0.0000000,0.0000000,0.0000000,0.0000000,9.00,38.4176483,-110.7726746,1372.5999756,4.8,200.8,1.0,0.0,0.0,858,129,0,0,859.35,29.83,15.72,# data time:3810,pm2.5:6.445,pm10:5.704,O2:0.000,NO2:0.000,SO2:0.000,NH3:5.762
9:07:09,0,0,0,0,0,0,0,0,0,0,0,513,0,0,0,0,0.0000000,0.0000000,0.0000000,0.0000000,9.00,38.4176292,-110.7726822,1372.5000000,4.5,202.9,1.0,0.0,0.0,859,132,0,0,859.39,29.86,15.72,# data time:3810,pm2.5:6.445,pm10:5.704,O2:0.000,NO2:0.000,SO2:0.000,NH3:5.762
9:07:10,0,0,0,0,0,0,0,0,0,0,0,513,0,0,0,0,0.0000000,0.0000000,0.0000000,0.0000000,9.00,38.4176102,-110.7726974,1372.4000244,4.4,194.3,1.0,0.0,0.0,859,131,0,0,859.41,29.83,15.71,# data time:3810,pm2.5:6.445,pm10:5.704,O2:0.000,NO2:0.000,SO2:0.000,NH3:5.762
9:07:12,0,0,0,0,0,0,0,0,0,0,0,516,0,0,0,0,0.0000000,0.0000000,0.0000000,0.0000000,9.00,38.4175949,-110.7727127,1372.5000000,3.8,196.2,1.0,0.0,0.0,860,131,0,0,859.45,29.89,15.74,# data time:3810,pm2.5:6.445,pm10:5.704,O2:0.000,NO2:0.000,SO2:0.000,NH3:5.762
9:07:13,0,0,0,0,0,0,0,0,0,0,0,516,0,0,0,0,0.0000000,0.0000000,0.0000000,0.0000000,9.00,38.4175758,-110.7727203,1372.5000000,3.5,192.7,1.0,0.0,0.0,861,129,0,0,859.40,29.91,15.65,# data time:3810,pm2.5:6.445,pm10:5.704,O2:0.000,NO2:0.000,SO2:0.000,NH3:5.762
9:07:14,0,0,0,0,0,0,0,0,0,0,0,514,0,0,0,0,0.0000000,0.0000000,0.0000000,0.0000000,9.00,38.4175644,-110.7727203,1372.5999756,3.4,191.9,1.0,0.0,0.0,859,133,0,0,859.39,29.86,15.65,# data time:3810,pm2.5:6.445,pm10:5.704,O2:0.000,NO2:0.000,SO2:0.000,NH3:5.762
9:07:15,0,0,0,0,0,0,0,0,0,0,0,514,0,0,0,0,0.0000000,0.0000000,0.0000000,0.0000000,9.00,38.4175301,-110.7727356,1372.5999756,3.9,191.1,1.0,0.0,0.0,859,133,0,0,859.43,29.83,15.68,# data time:3820,pm2.5:6.445,pm10:5.704,O2:0.000,NO2:0.000,SO2:0.000,NH3:5.536
9:07:16,0,0,0,0,0,0,0,0,0,0,0,514,0,0,0,0,0.0000000,0.0000000,0.0000000,0.0000000,9.00,38.4175110,-110.7727509,1372.5000000,4.9,195.5,1.0,0.0,0.0,859,133,0,0,859.44,29.83,15.72,# data time:3820,pm2.5:6.445,pm10:5.704,O2:0.000,NO2:0.000,SO2:0.000,NH3:5.536
9:07:17,0,0,0,0,0,0,0,0,0,0,0,514,0,0,0,0,0.0000000,0.0000000,0.0000000,0.0000000,9.00,38.4174881,-110.7727509,1372.5000000,5.2,193.6,1.0,0.0,0.0,859,130,0,0,859.42,29.88,15.73,# data time:3820,pm2.5:6.445,pm10:5.704,O2:0.000,NO2:0.000,SO2:0.000,NH3:5.536
9:07:18,0,0,0,0,0,0,0,0,0,0,0,513,0,0,0,0,0.0000000,0.0000000,0.0000000,0.0000000,9.00,38.4174652,-110.7727585,1372.5000000,4.8,190.4,1.0,0.0,0.0,859,133,0,0,859.43,29.86,15.75,# data time:3820,pm2.5:6.445,pm10:5.704,O2:0.000,NO2:0.000,SO2:0.000,NH3:5.536
9:07:19,0,0,0,0,0,0,0,0,0,0,0,514,0,0,0,0,0.0000000,0.0000000,0.0000000,0.0000000,9.00,38.4174461,-110.7727585,1372.5999756,4.3,187.6,1.0,0.0,0.0,859,133,0,0,859.39,29.86,15.76,# data time:3820,pm2.5:6.445,pm10:5.704,O2:0.000,NO2:0.000,SO2:0.000,NH3:5.536
9:07:20,0,0,0,0,0,0,0,0,0,0,0,514,0,0,0,0,0.0000000,0.0000000,0.0000000,0.0000000,9.00,38.4174309,-110.7727737,1372.6999512,4.0,186.9,1.0,0.0,0.0,859,133,0,0,859.41,29.85,15.77,# data time:3820,pm2.5:6.445,pm10:5.704,O2:0.000,NO2:0.000,SO2:0.000,NH3:5.536
9:07:21,0,0,0,0,0,0,0,0,0,0,0,513,0,0,0,0,0.0000000,0.0000000,0.0000000,0.0000000,9.00,38.4174118,-110.7727737,1372.5999756,3.8,189.0,1.0,0.0,0.0,859,135,0,0,859.37,29.79,15.78,# data time:3820,pm2.5:6.445,pm10:5.704,O2:0.000,NO2:0.000,SO2:0.000,NH3:5.536
9:07:22,0,0,0,0,0,0,0,0,0,0,0,514,0,0,0,0,0.0000000,0.0000000,0.0000000,0.0000000,9.00,38.4173965,-110.7727737,1372.6999512,3.7,192.6,1.0,0.0,0.0,859,134,0,0,859.37,29.82,15.79,# data time:3820,pm2.5:6.445,pm10:5.704,O2:0.000,NO2:0.000,SO2:0.000,NH3:5.536
9:07:23,0,0,0,0,0,0,0,0,0,0,0,514,0,0,0,0,0.0000000,0.0000000,0.0000000,0.0000000,9.00,38.4173775,-110.7727737,1372.5000000,3.7,190.4,1.0,0.0,0.0,859,130,0,0,859.42,29.83,15.80,# data time:3820,pm2.5:6.445,pm10:5.704,O2:0.000,NO2:0.000,SO2:0.000,NH3:5.536
9:07:24,0,0,0,0,0,0,0,0,0,0,0,513,0,0,0,0,0.0000000,0.0000000,0.0000000,0.0000000,9.00,38.4173584,-110.7727890,1372.4000244,4.1,184.9,1.0,0.0,0.0,859,130,0,0,859.47,29.82,15.79,# data time:3820,pm2.5:6.445,pm10:5.704,O2:0.000,NO2:0.000,SO2:0.000,NH3:5.536
9:07:25,0,0,0,0,0,0,0,0,0,0,0,513,0,0,0,0,0.0000000,0.0000000,0.0000000,0.0000000,9.00,38.4173393,-110.7727890,1372.4000244,4.3,182.3,1.0,0.0,0.0,858,125,0,0,859.49,29.86,15.80,# data time:3830,pm2.5:6.445,pm10:5.704,O2:0.000,NO2:0.000,SO2:0.000,NH3:5.536
9:07:26,0,0,0,0,0,0,0,0,0,0,0,513,0,0,0,0,0.0000000,0.0000000,0.0000000,0.0000000,9.00,38.4173203,-110.7727890,1372.4000244,4.6,184.4,1.0,0.0,0.0,859,127,0,0,859.41,29.80,15.81,# data time:3830,pm2.5:6.445,pm10:5.704,O2:0.000,NO2:0.000,SO2:0.000,NH3:5.536
9:07:27,0,0,0,0,0,0,0,0,0,0,0,514,0,0,0,0,0.0000000,0.0000000,0.0000000,0.0000000,9.00,38.4172974,-110.7727890,1372.4000244,4.4,188.0,1.0,0.0,0.0,859,128,0,0,859.48,29.76,15.82,# data time:3830,pm2.5:6.445,pm10:5.704,O2:0.000,NO2:0.000,SO2:0.000,NH3:5.536
9:07:28,0,0,0,0,0,0,0,0,0,0,0,514,0,0,0,0,0.0000000,0.0000000,0.0000000,0.0000000,9.00,38.4172783,-110.7727890,1372.4000244,4.4,188.7,1.0,0.0,0.0,859,129,0,0,859.46,29.68,15.85,# data time:3830,pm2.5:6.445,pm10:5.704,O2:0.000,NO2:0.000,SO2:0.000,NH3:5.536
9:07:29,0,0,0,0,0,0,0,0,0,0,0,514,0,0,0,0,0.0000000,0.0000000,0.0000000,0.0000000,9.00,38.4172554,-110.7727890,1372.3000488,4.5,186.8,1.0,0.0,0.0,859,129,0,0,859.46,29.68,15.85,# data time:3830,pm2.5:6.445,pm10:5.704,O2:0.000,NO2:0.000,SO2:0.000,NH3:5.536
9:07:30,0,0,0,0,0,0,0,0,0,0,0,514,0,0,0,0,0.0000000,0.0000000,0.0000000,0.0000000,9.00,38.4172325,-110.7727890,1372.1999512,4.5,189.0,1.0,0.0,0.0,859,129,0,0,859.54,29.68,15.86,# data time:3830,pm2.5:6.445,pm10:5.704,O2:0.000,NO2:0.000,SO2:0.000,NH3:5.536
9:07:31,0,0,0,0,0,0,0,0,0,0,0,513,0,0,0,0,0.0000000,0.0000000,0.0000000,0.0000000,9.00,38.4172134,-110.7727966,1372.0999756,4.3,188.2,1.0,0.0,0.0,859,129,0,0,859.53,29.71,15.87,# data time:3830,pm2.5:6.445,pm10:5.704,O2:0.000,NO2:0.000,SO2:0.000,NH3:5.536
9:07:32,0,0,0,0,0,0,0,0,0,0,0,514,0,0,0,0,0.0000000,0.0000000,0.0000000,0.0000000,9.00,38.4171944,-110.7727966,1372.0999756,3.7,189.3,1.0,0.0,0.0,860,129,0,0,859.57,29.71,15.90,# data time:3830,pm2.5:6.445,pm10:5.704,O2:0.000,NO2:0.000,SO2:0.000,NH3:5.536
9:07:33,0,0,0,0,0,0,0,0,0,0,0,514,0,0,0,0,0.0000000,0.0000000,0.0000000,0.0000000,9.00,38.4171791,-110.7727966,1372.1999512,3.7,184.1,1.0,0.0,0.0,860,126,0,0,859.53,29.66,15.90,# data time:3830,pm2.5:6.445,pm10:5.704,O2:0.000,NO2:0.000,SO2:0.000,NH3:5.536
