Time, Motor A Speed, Motor A Dir, Motor B Speed, Motor B Dir, Servo Rail Current Sensor, Servo Pos - Arm L, Servo Pos - Arm R, Servo Pos - End, Servo Pos - Hopper, Servo Pos - Lid, Servo Pos - Extra, Servo Current, LED - Front L, LED - Front R, LED - Back L, LED - Back R, IMU Pitch, IMU Roll, IMU Yaw, Compass Heading, GPS Sats, GPS Latitude, GPS Longitude, GPS Altitude, GPS Speed, GPS Angle, GPS HDOP, GPS VDOP, GPS PDOP, Battery, Wind, Comm Xbee Latency, Comm Arduino Latency, Pressure, Humidity, Temperature, uRADMonitor
10:40:44,0,0,0,0,0,0,0,0,0,0,0,514,0,0,0,0,0.0000000,0.0000000,0.0000000,0.0000000,9.00,38.4063873,-110.7921295,1379.0999756,0.0,17.5,0.9,0.0,0.0,844,125,0,0,860.53,21.03,18.83,# data time:9430,pm2.5:6.445,pm10:5.704,O2:0.000,NO2:0.000,SO2:0.000,NH3:5.988
10:40:45,0,0,0,0,0,0,0,0,0,0,0,514,0,0,0,0,0.0000000,0.0000000,0.0000000,0.0000000,9.00,38.4063873,-110.7921295,1379.0999756,0.0,17.5,0.9,0.0,0.0,844,127,0,0,860.55,21.04,18.83,# data time:9430,pm2.5:6.445,pm10:5.704,O2:0.000,NO2:0.000,SO2:0.000,NH3:5.988
10:40:46,0,0,0,0,0,0,0,0,0,0,0,514,0,0,0,0,0.0000000,0.0000000,0.0000000,0.0000000,9.00,38.4063873,-110.7921295,1379.0999756,0.0,17.5,0.9,0.0,0.0,844,128,0,0,860.54,21.03,18.82,# data time:9430,pm2.5:6.445,pm10:5.704,O2:0.000,NO2:0.000,SO2:0.000,NH3:5.988
10:40:47,0,0,0,0,0,0,0,0,0,0,0,514,0,0,0,0,0.0000000,0.0000000,0.0000000,0.0000000,9.00,38.4063873,-110.7921295,1379.0999756,0.0,17.5,0.9,0.0,0.0,844,127,0,0,860.51,21.10,18.82,# data time:9430,pm2.5:6.445,pm10:5.704,O2:0.000,NO2:0.000,SO2:0.000,NH3:5.988
10:40:48,0,0,0,0,0,0,0,0,0,0,0,514,0,0,0,0,0.0000000,0.0000000,0.0000000,0.0000000,9.00,38.4063873,-110.7921295,1379.0999756,0.0,17.5,0.9,0.0,0.0,844,130,0,0,860.50,21.12,18.81,# data time:9430,pm2.5:6.445,pm10:5.704,O2:0.000,NO2:0.000,SO2:0.000,NH3:5.988
10:40:49,0,0,0,0,0,0,0,0,0,0,0,514,0,0,0,0,0.0000000,0.0000000,0.0000000,0.0000000,9.00,38.4063873,-110.7921295,1379.0999756,0.0,17.5,0.9,0.0,0.0,844,129,0,0,860.52,21.10,18.81,# data time:9430,pm2.5:6.445,pm10:5.704,O2:0.000,NO2:0.000,SO2:0.000,NH3:5.988
10:40:50,0,0,0,0,0,0,0,0,0,0,0,514,0,0,0,0,0.0000000,0.0000000,0.0000000,0.0000000,9.00,38.4063873,-110.7921295,1379.0999756,0.0,17.5,0.9,0.0,0.0,844,128,0,0,860.56,21.13,18.81,# data time:9430,pm2.5:6.445,pm10:5.704,O2:0.000,NO2:0.000,SO2:0.000,NH3:5.988
10:40:51,0,0,0,0,0,0,0,0,0,0,0,514,0,0,0,0,0.0000000,0.0000000,0.0000000,0.0000000,9.00,38.4063873,-110.7921295,1379.0999756,0.0,17.5,0.9,0.0,0.0,844,129,0,0,860.50,21.16,18.71,# data time:9440,pm2.5:5.640,pm10:4.991,O2:0.000,NO2:0.000,SO2:NH3:5.988
10:40:52,0,0,0,0,0,0,0,0,0,0,0,514,0,0,0,0,0.0000000,0.0000000,0.0000000,0.0000000,9.00,38.4063873,-110.7921295,1379.0999756,0.0,17.5,0.9,0.0,0.0,844,128,0,0,860.53,21.13,18.75,# data time:9440,pm2.5:5.640,pm10:4.991,O2:0.000,NO2:0.000,SO2:NH3:5.988
10:40:53,0,0,0,0,0,0,0,0,0,0,0,514,0,0,0,0,0.0000000,0.0000000,0.0000000,0.0000000,9.00,38.4063873,-110.7921295,1379.0999756,0.0,17.5,0.9,0.0,0.0,844,129,0,0,860.53,21.15,18.79,# data time:9440,pm2.5:5.640,pm10:4.991,O2:0.000,NO2:0.000,SO2:NH3:5.988
10:40:54,0,0,0,0,0,0,0,0,0,0,0,514,0,0,0,0,0.0000000,0.0000000,0.0000000,0.0000000,9.00,38.4063873,-110.7921295,1379.0999756,0.0,17.5,0.9,0.0,0.0,844,129,0,0,860.51,21.15,18.78,# data time:9440,pm2.5:5.640,pm10:4.991,O2:0.000,NO2:0.000,SO2:NH3:5.988
10:40:55,0,0,0,0,0,0,0,0,0,0,0,514,0,0,0,0,0.0000000,0.0000000,0.0000000,0.0000000,9.00,38.4063873,-110.7921295,1379.0999756,0.0,17.5,0.9,0.0,0.0,844,128,0,0,860.54,21.15,18.77,# data time:9440,pm2.5:5.640,pm10:4.991,O2:0.000,NO2:0.000,SO2:NH3:5.988
10:40:56,0,0,0,0,0,0,0,0,0,0,0,514,0,0,0,0,0.0000000,0.0000000,0.0000000,0.0000000,9.00,38.4063873,-110.7921295,1379.0999756,0.0,17.5,0.9,0.0,0.0,844,128,0,0,860.51,21.16,18.77,# data time:9440,pm2.5:5.640,pm10:4.991,O2:0.000,NO2:0.000,SO2:NH3:5.988
10:40:57,0,0,0,0,0,0,0,0,0,0,0,514,0,0,0,0,0.0000000,0.0000000,0.0000000,0.0000000,9.00,38.4063873,-110.7921295,1379.0999756,0.0,17.5,0.9,0.0,0.0,844,128,0,0,860.50,21.13,18.76,# data time:9440,pm2.5:5.640,pm10:4.991,O2:0.000,NO2:0.000,SO2:NH3:5.988
10:40:58,0,0,0,0,0,0,0,0,0,0,0,514,0,0,0,0,0.0000000,0.0000000,0.0000000,0.0000000,9.00,38.4063873,-110.7921295,1379.0999756,0.0,17.5,0.9,0.0,0.0,844,132,0,0,860.58,21.18,18.75,# data time:9440,pm2.5:5.640,pm10:4.991,O2:0.000,NO2:0.000,SO2:NH3:5.988
10:40:59,0,0,0,0,0,0,0,0,0,0,0,514,0,0,0,0,0.0000000,0.0000000,0.0000000,0.0000000,9.00,38.4063873,-110.7921295,1379.0999756,0.0,17.5,0.9,0.0,0.0,844,129,0,0,860.51,21.18,18.75,# data time:9440,pm2.5:5.640,pm10:4.991,O2:0.000,NO2:0.000,SO2:NH3:5.988
10:41:00,0,0,0,0,0,0,0,0,0,0,0,514,0,0,0,0,0.0000000,0.0000000,0.0000000,0.0000000,9.00,38.4063873,-110.7921295,1379.0999756,0.0,17.5,0.9,0.0,0.0,844,128,0,0,860.52,21.16,18.74,# data time:9440,pm2.5:5.640,pm10:4.991,O2:0.000,NO2:0.000,SO2:NH3:5.988
10:41:01,0,0,0,0,0,0,0,0,0,0,0,514,0,0,0,0,0.0000000,0.0000000,0.0000000,0.0000000,9.00,38.4063873,-110.7921295,1379.0999756,0.0,17.5,0.9,0.0,0.0,844,129,0,0,860.49,21.19,18.65,# data time:9450,pm2.5:6.445,pm10:5.704,O2:0.000,NO2:0.000,SO2:0.000,NH3:5.988
10:41:02,0,0,0,0,0,0,0,0,0,0,0,515,0,0,0,0,0.0000000,0.0000000,0.0000000,0.0000000,9.00,38.4063873,-110.7921295,1379.0999756,0.0,17.5,0.9,0.0,0.0,844,129,0,0,860.49,21.19,18.69,# data time:9450,pm2.5:6.445,pm10:5.704,O2:0.000,NO2:0.000,SO2:0.000,NH3:5.988
10:41:03,0,0,0,0,0,0,0,0,0,0,0,514,0,0,0,0,0.0000000,0.0000000,0.0000000,0.0000000,9.00,38.4063873,-110.7921295,1379.0999756,0.0,17.5,0.9,0.0,0.0,844,128,0,0,860.47,21.23,18.73,# data time:9450,pm2.5:6.445,pm10:5.704,O2:0.000,NO2:0.000,SO2:0.000,NH3:5.988
10:41:04,0,0,0,0,0,0,0,0,0,0,0,514,0,0,0,0,0.0000000,0.0000000,0.0000000,0.0000000,9.00,38.4063873,-110.7921295,1379.0999756,0.0,17.5,0.9,0.0,0.0,844,129,0,0,860.51,21.23,18.72,# data time:9450,pm2.5:6.445,pm10:5.704,O2:0.000,NO2:0.000,SO2:0.000,NH3:5.988
10:41:05,0,0,0,0,0,0,0,0,0,0,0,515,0,0,0,0,0.0000000,0.0000000,0.0000000,0.0000000,9.00,38.4063873,-110.7921295,1379.0999756,0.0,17.5,0.9,0.0,0.0,844,129,0,0,860.55,21.24,18.72,# data time:9450,pm2.5:6.445,pm10:5.704,O2:0.000,NO2:0.000,SO2:0.000,NH3:5.988
10:41:06,0,0,0,0,0,0,0,0,0,0,0,514,0,0,0,0,0.0000000,0.0000000,0.0000000,0.0000000,9.00,38.4063873,-110.7921295,1379.0999756,0.0,17.5,0.9,0.0,0.0,844,129,0,0,860.53,21.26,18.71,# data time:9450,pm2.5:6.445,pm10:5.704,O2:0.000,NO2:0.000,SO2:0.000,NH3:5.988
10:41:07,0,0,0,0,0,0,0,0,0,0,0,514,0,0,0,0,0.0000000,0.0000000,0.0000000,0.0000000,9.00,38.4063873,-110.7921295,1379.0999756,0.0,17.5,0.9,0.0,0.0,845,132,0,0,860.50,21.24,18.70,# data time:9450,pm2.5:6.445,pm10:5.704,O2:0.000,NO2:0.000,SO2:0.000,NH3:5.988
10:41:08,0,0,0,0,0,0,0,0,0,0,0,515,0,0,0,0,0.0000000,0.0000000,0.0000000,0.0000000,9.00,38.4063873,-110.7921295,1379.0999756,0.0,17.5,0.9,0.0,0.0,844,130,0,0,860.53,21.27,18.70,# data time:9450,pm2.5:6.445,pm10:5.704,O2:0.000,NO2:0.000,SO2:0.000,NH3:5.988
10:41:09,0,0,0,0,0,0,0,0,0,0,0,514,0,0,0,0,0.0000000,0.0000000,0.0000000,0.0000000,9.00,38.4063873,-110.7921295,1379.0999756,0.0,17.5,0.9,0.0,0.0,844,129,0,0,860.53,21.26,18.69,# data time:9450,pm2.5:6.445,pm10:5.704,O2:0.000,NO2:0.000,SO2:0.000,NH3:5.988
10:41:10,0,0,0,0,0,0,0,0,0,0,0,514,0,0,0,0,0.0000000,0.0000000,0.0000000,0.0000000,9.00,38.4063873,-110.7921295,1379.0999756,0.0,17.5,0.9,0.0,0.0,844,128,0,0,860.53,21.26,18.68,# data time:9450,pm2.5:6.445,pm10:5.704,O2:0.000,NO2:0.000,SO2:0.000,NH3:5.988
10:41:11,0,0,0,0,0,0,0,0,0,0,0,514,0,0,0,0,0.0000000,0.0000000,0.0000000,0.0000000,9.00,38.4063873,-110.7921295,1379.0999756,0.0,17.5,0.9,0.0,0.0,844,128,0,0,860.52,21.27,18.59,# data time:9460,pm2.5:6.445,pm10:5.704,O2:0.000,NO2:0.000,SO2:0.000,NH3:5.536
10:41:12,0,0,0,0,0,0,0,0,0,0,0,514,0,0,0,0,0.0000000,0.0000000,0.0000000,0.0000000,9.00,38.4063873,-110.7921295,1379.0999756,0.0,17.5,0.9,0.0,0.0,844,129,0,0,860.52,21.30,18.63,# data time:9460,pm2.5:6.445,pm10:5.704,O2:0.000,NO2:0.000,SO2:0.000,NH3:5.536
10:41:13,0,0,0,0,0,0,0,0,0,0,0,514,0,0,0,0,0.0000000,0.0000000,0.0000000,0.0000000,9.00,38.4063873,-110.7921295,1379.0999756,0.0,17.5,0.9,0.0,0.0,844,129,0,0,860.59,21.30,18.67,# data time:9460,pm2.5:6.445,pm10:5.704,O2:0.000,NO2:0.000,SO2:0.000,NH3:5.536
10:41:14,0,0,0,0,0,0,0,0,0,0,0,514,0,0,0,0,0.0000000,0.0000000,0.0000000,0.0000000,9.00,38.4063873,-110.7921295,1379.0999756,0.0,17.5,0.9,0.0,0.0,844,127,0,0,860.53,21.30,18.66,# data time:9460,pm2.5:6.445,pm10:5.704,O2:0.000,NO2:0.000,SO2:0.000,NH3:5.536
10:41:15,0,0,0,0,0,0,0,0,0,0,0,514,0,0,0,0,0.0000000,0.0000000,0.0000000,0.0000000,9.00,38.4063873,-110.7921295,1379.0999756,0.0,17.5,0.9,0.0,0.0,844,127,0,0,860.58,21.30,18.65,# data time:9460,pm2.5:6.445,pm10:5.704,O2:0.000,NO2:0.000,SO2:0.000,NH3:5.536
10:41:16,0,0,0,0,0,0,0,0,0,0,0,514,0,0,0,0,0.0000000,0.0000000,0.0000000,0.0000000,9.00,38.4063873,-110.7921295,1379.0999756,0.0,17.5,0.9,0.0,0.0,844,129,0,0,860.52,21.39,18.63,# data time:9460,pm2.5:6.445,pm10:5.704,O2:0.000,NO2:0.000,SO2:0.000,NH3:5.536
10:41:17,0,0,0,0,0,0,0,0,0,0,0,515,0,0,0,0,0.0000000,0.0000000,0.0000000,0.0000000,9.00,38.4063873,-110.7921295,1379.0999756,0.0,17.5,0.9,0.0,0.0,844,130,0,0,860.51,21.39,18.63,# data time:9460,pm2.5:6.445,pm10:5.704,O2:0.000,NO2:0.000,SO2:0.000,NH3:5.536
10:41:18,0,0,0,0,0,0,0,0,0,0,0,514,0,0,0,0,0.0000000,0.0000000,0.0000000,0.0000000,9.00,38.4063873,-110.7921295,1379.0999756,0.0,17.5,0.9,0.0,0.0,843,130,0,0,860.55,21.39,18.62,# data time:9460,pm2.5:6.445,pm10:5.704,O2:0.000,NO2:0.000,SO2:0.000,NH3:5.536
10:41:19,0,0,0,0,0,0,0,0,0,0,0,514,0,0,0,0,0.0000000,0.0000000,0.0000000,0.0000000,9.00,38.4063873,-110.7921295,1379.0999756,0.0,17.5,0.9,0.0,0.0,844,129,0,0,860.46,21.39,18.53,# data time:9460,pm2.5:6.445,pm10:5.704,O2:0.000,NO2:0.000,SO2:0.000,NH3:5.536
10:41:20,0,0,0,0,0,0,0,0,0,0,0,514,0,0,0,0,0.0000000,0.0000000,0.0000000,0.0000000,9.00,38.4063873,-110.7921295,1379.0999756,0.0,17.5,0.9,0.0,0.0,844,128,0,0,860.48,21.39,18.52,# data time:9460,pm2.5:6.445,pm10:5.704,O2:0.000,NO2:0.000,SO2:0.000,NH3:5.536
10:41:21,0,0,0,0,0,0,0,0,0,0,0,514,0,0,0,0,0.0000000,0.0000000,0.0000000,0.0000000,9.00,38.4063873,-110.7921295,1379.0999756,0.0,17.5,0.9,0.0,0.0,844,128,0,0,860.48,21.39,18.52,# data time:9470,pm2.5:6.445,pm10:5.704,O2:0.000,NO2:0.000,SO2:0.000,NH3:5.762
10:41:22,0,0,0,0,0,0,0,0,0,0,0,514,0,0,0,0,0.0000000,0.0000000,0.0000000,0.0000000,9.00,38.4063873,-110.7921295,1379.0999756,0.0,17.5,0.9,0.0,0.0,844,129,0,0,860.53,21.45,18.56,# data time:9470,pm2.5:6.445,pm10:5.704,O2:0.000,NO2:0.000,SO2:0.000,NH3:5.762
10:41:23,0,0,0,0,0,0,0,0,0,0,0,514,0,0,0,0,0.0000000,0.0000000,0.0000000,0.0000000,9.00,38.4063873,-110.7921295,1379.0999756,0.0,17.5,0.9,0.0,0.0,844,126,0,0,860.53,21.50,18.55,# data time:9470,pm2.5:6.445,pm10:5.704,O2:0.000,NO2:0.000,SO2:0.000,NH3:5.762
10:41:25,0,0,0,0,0,0,0,0,0,0,0,514,0,0,0,0,0.0000000,0.0000000,0.0000000,0.0000000,9.00,38.4063873,-110.7921295,1379.0999756,0.0,17.5,0.9,0.0,0.0,844,129,0,0,860.60,21.56,18.54,# data time:9470,pm2.5:6.445,pm10:5.704,O2:0.000,NO2:0.000,SO2:0.000,NH3:5.762
10:41:26,0,0,0,0,0,0,0,0,0,0,0,514,0,0,0,0,0.0000000,0.0000000,0.0000000,0.0000000,9.00,38.4063873,-110.7921295,1379.0999756,0.0,17.5,0.9,0.0,0.0,844,128,0,0,860.58,21.64,18.57,# data time:9470,pm2.5:6.445,pm10:5.704,O2:0.000,NO2:0.000,SO2:0.000,NH3:5.762
10:41:27,0,0,0,0,0,0,0,0,0,0,0,515,0,0,0,0,0.0000000,0.0000000,0.0000000,0.0000000,9.00,38.4063873,-110.7921295,1379.0999756,0.0,17.5,0.9,0.0,0.0,844,126,0,0,860.56,21.64,18.56,# data time:9470,pm2.5:6.445,pm10:5.704,O2:0.000,NO2:0.000,SO2:0.000,NH3:5.762
10:41:28,0,0,0,0,0,0,0,0,0,0,0,514,0,0,0,0,0.0000000,0.0000000,0.0000000,0.0000000,9.00,38.4063873,-110.7921295,1379.0999756,0.0,17.5,0.9,0.0,0.0,843,130,0,0,860.51,21.64,18.56,# data time:9470,pm2.5:6.445,pm10:5.704,O2:0.000,NO2:0.000,SO2:0.000,NH3:5.762
10:41:29,0,0,0,0,0,0,0,0,0,0,0,513,0,0,0,0,0.0000000,0.0000000,0.0000000,0.0000000,9.00,38.4063873,-110.7921295,1379.0999756,0.0,17.5,0.9,0.0,0.0,843,128,0,0,860.55,21.62,18.56,# data time:9470,pm2.5:6.445,pm10:5.704,O2:0.000,NO2:0.000,SO2:0.000,NH3:5.762
10:41:30,0,0,0,0,0,0,0,0,0,0,0,514,0,0,0,0,0.0000000,0.0000000,0.0000000,0.0000000,9.00,38.4063873,-110.7921295,1379.0999756,0.0,17.5,0.9,0.0,0.0,844,131,0,0,860.54,21.65,18.56,# data time:9470,pm2.5:6.445,pm10:5.704,O2:0.000,NO2:0.000,SO2:0.000,NH3:5.762
10:41:31,0,0,0,0,0,0,0,0,0,0,0,514,0,0,0,0,0.0000000,0.0000000,0.0000000,0.0000000,9.00,38.4063873,-110.7921295,1379.0999756,0.0,17.5,0.9,0.0,0.0,845,127,0,0,860.54,21.64,18.49,# data time:9480,pm2.5:6.445,pm10:5.704,O2:0.000,NO2:0.000,SO2:0.000,NH3:5.988
10:41:32,0,0,0,0,0,0,0,0,0,0,0,514,0,0,0,0,0.0000000,0.0000000,0.0000000,0.0000000,9.00,38.4063873,-110.7921295,1379.0999756,0.0,17.5,0.9,0.0,0.0,843,128,0,0,860.52,21.62,18.52,# data time:9480,pm2.5:6.445,pm10:5.704,O2:0.000,NO2:0.000,SO2:0.000,NH3:5.988
10:41:33,0,0,0,0,0,0,0,0,0,0,0,515,0,0,0,0,0.0000000,0.0000000,0.0000000,0.0000000,9.00,38.4063873,-110.7921295,1379.0999756,0.0,17.5,0.9,0.0,0.0,843,129,0,0,860.49,21.61,18.55,# data time:9480,pm2.5:6.445,pm10:5.704,O2:0.000,NO2:0.000,SO2:0.000,NH3:5.988
10:41:34,0,0,0,0,0,0,0,0,0,0,0,515,0,0,0,0,0.0000000,0.0000000,0.0000000,0.0000000,9.00,38.4063873,-110.7921143,1379.0999756,0.0,17.5,0.9,0.0,0.0,844,129,0,0,860.52,21.62,18.56,# data time:9480,pm2.5:6.445,pm10:5.704,O2:0.000,NO2:0.000,SO2:0.000,NH3:5.988
10:41:35,0,0,0,0,0,0,0,0,0,0,0,515,0,0,0,0,0.0000000,0.0000000,0.0000000,0.0000000,9.00,38.4063873,-110.7921143,1379.0999756,0.0,17.5,0.9,0.0,0.0,843,130,0,0,860.52,21.61,18.55,# data time:9480,pm2.5:6.445,pm10:5.704,O2:0.000,NO2:0.000,SO2:0.000,NH3:5.988
10:41:36,0,0,0,0,0,0,0,0,0,0,0,514,0,0,0,0,0.0000000,0.0000000,0.0000000,0.0000000,9.00,38.4063873,-110.7921143,1379.0999756,0.0,17.5,0.9,0.0,0.0,843,131,0,0,860.53,21.62,18.55,# data time:9480,pm2.5:6.445,pm10:5.704,O2:0.000,NO2:0.000,SO2:0.000,NH3:5.988
10:41:37,0,0,0,0,0,0,0,0,0,0,0,514,0,0,0,0,0.0000000,0.0000000,0.0000000,0.0000000,9.00,38.4063873,-110.7921143,1379.0999756,0.0,17.5,0.9,0.0,0.0,844,127,0,0,860.56,21.59,18.55,# data time:9480,pm2.5:6.445,pm10:5.704,O2:0.000,NO2:0.000,SO2:0.000,NH3:5.988
10:41:38,0,0,0,0,0,0,0,0,0,0,0,514,0,0,0,0,0.0000000,0.0000000,0.0000000,0.0000000,9.00,38.4063873,-110.7921143,1379.0999756,0.0,17.5,0.9,0.0,0.0,844,128,0,0,860.55,21.61,18.55,# data time:9480,pm2.5:6.445,pm10:5.704,O2:0.000,NO2:0.000,SO2:0.000,NH3:5.988
10:41:39,0,0,0,0,0,0,0,0,0,0,0,514,0,0,0,0,0.0000000,0.0000000,0.0000000,0.0000000,9.00,38.4063873,-110.7921295,1379.0999756,0.0,17.5,0.9,0.0,0.0,844,129,0,0,860.55,21.61,18.54,# data time:9480,pm2.5:6.445,pm10:5.704,O2:0.000,NO2:0.000,SO2:0.000,NH3:5.988
10:41:40,0,0,0,0,0,0,0,0,0,0,0,515,0,0,0,0,0.0000000,0.0000000,0.0000000,0.0000000,9.00,38.4063873,-110.7921295,1379.0999756,0.0,17.5,0.9,0.0,0.0,844,128,0,0,860.58,21.61,18.54,# data time:9480,pm2.5:6.445,pm10:5.704,O2:0.000,NO2:0.000,SO2:0.000,NH3:5.988
10:41:41,0,0,0,0,0,0,0,0,0,0,0,514,0,0,0,0,0.0000000,0.0000000,0.0000000,0.0000000,9.00,38.4063873,-110.7921295,1379.0999756,0.0,17.5,0.9,0.0,0.0,844,129,0,0,860.56,21.62,18.47,# data time:9490,pm2.5:6.445,pm10:5.704,O2:0.000,NO2:0.000,SO2:0.000,NH3:5.536
10:41:42,0,0,0,0,0,0,0,0,0,0,0,514,0,0,0,0,0.0000000,0.0000000,0.0000000,0.0000000,9.00,38.4063873,-110.7921295,1379.0999756,0.0,17.5,0.9,0.0,0.0,844,131,0,0,860.59,21.61,18.50,# data time:9490,pm2.5:6.445,pm10:5.704,O2:0.000,NO2:0.000,SO2:0.000,NH3:5.536
10:41:43,0,0,0,0,0,0,0,0,0,0,0,514,0,0,0,0,0.0000000,0.0000000,0.0000000,0.0000000,9.00,38.4063873,-110.7921295,1379.0999756,0.0,17.5,0.9,0.0,0.0,844,129,0,0,860.53,21.62,18.53,# data time:9490,pm2.5:6.445,pm10:5.704,O2:0.000,NO2:0.000,SO2:0.000,NH3:5.536
10:41:44,0,0,0,0,0,0,0,0,0,0,0,514,0,0,0,0,0.0000000,0.0000000,0.0000000,0.0000000,9.00,38.4063873,-110.7921295,1379.0999756,0.0,17.5,0.9,0.0,0.0,844,129,0,0,860.57,21.62,18.53,# data time:9490,pm2.5:6.445,pm10:5.704,O2:0.000,NO2:0.000,SO2:0.000,NH3:5.536
10:41:45,0,0,0,0,0,0,0,0,0,0,0,514,0,0,0,0,0.0000000,0.0000000,0.0000000,0.0000000,9.00,38.4063873,-110.7921295,1379.0999756,0.0,17.5,0.9,0.0,0.0,844,130,0,0,860.60,21.64,18.53,# data time:9490,pm2.5:6.445,pm10:5.704,O2:0.000,NO2:0.000,SO2:0.000,NH3:5.536
10:41:46,0,0,0,0,0,0,0,0,0,0,0,515,0,0,0,0,0.0000000,0.0000000,0.0000000,0.0000000,9.00,38.4063873,-110.7921295,1379.0999756,0.0,17.5,0.9,0.0,0.0,844,133,0,0,860.56,21.65,18.52,# data time:9490,pm2.5:6.445,pm10:5.704,O2:0.000,NO2:0.000,SO2:0.000,NH3:5.536
10:41:47,0,0,0,0,0,0,0,0,0,0,0,514,0,0,0,0,0.0000000,0.0000000,0.0000000,0.0000000,9.00,38.4063873,-110.7921295,1379.0999756,0.0,17.5,0.9,0.0,0.0,844,129,0,0,860.56,21.68,18.52,# data time:9490,pm2.5:6.445,pm10:5.704,O2:0.000,NO2:0.000,SO2:0.000,NH3:5.536
10:41:48,0,0,0,0,0,0,0,0,0,0,0,514,0,0,0,0,0.0000000,0.0000000,0.0000000,0.0000000,9.00,38.4063873,-110.7921295,1379.0999756,0.0,17.5,0.9,0.0,0.0,844,128,0,0,860.54,21.70,18.52,# data time:9490,pm2.5:6.445,pm10:5.704,O2:0.000,NO2:0.000,SO2:0.000,NH3:5.536
10:41:49,0,0,0,0,0,0,0,0,0,0,0,514,0,0,0,0,0.0000000,0.0000000,0.0000000,0.0000000,9.00,38.4063873,-110.7921295,1379.0999756,0.0,17.5,0.9,0.0,0.0,844,124,0,0,860.55,21.70,18.52,# data time:9490,pm2.5:6.445,pm10:5.704,O2:0.000,NO2:0.000,SO2:0.000,NH3:5.536
10:41:50,0,0,0,0,0,0,0,0,0,0,0,514,0,0,0,0,0.0000000,0.0000000,0.0000000,0.0000000,9.00,38.4063873,-110.7921295,1379.0999756,0.0,17.5,0.9,0.0,0.0,844,124,0,0,860.59,21.71,18.51,# data time:9490,pm2.5:6.445,pm10:5.704,O2:0.000,NO2:0.000,SO2:0.000,NH3:5.536
10:41:51,0,0,0,0,0,0,0,0,0,0,0,514,0,0,0,0,0.0000000,0.0000000,0.0000000,0.0000000,9.00,38.4063873,-110.7921295,1379.0999756,0.0,17.5,0.9,0.0,0.0,844,128,0,0,860.56,21.74,18.41,# data time:9500,pm2.5:6.445,pm10:5.704,O2:0.000,NO2:0.000,SO2:0.000,NH3:5.536
10:41:52,0,0,0,0,0,0,0,0,0,0,0,515,0,0,0,0,0.0000000,0.0000000,0.0000000,0.0000000,9.00,38.4063873,-110.7921295,1379.0999756,0.0,17.5,0.9,0.0,0.0,844,125,0,0,860.58,21.82,18.45,# data time:9500,pm2.5:6.445,pm10:5.704,O2:0.000,NO2:0.000,SO2:0.000,NH3:5.536
10:41:53,0,0,0,0,0,0,0,0,0,0,0,513,0,0,0,0,0.0000000,0.0000000,0.0000000,0.0000000,9.00,38.4063873,-110.7921295,1379.0999756,0.0,17.5,0.9,0.0,0.0,843,127,0,0,860.59,21.88,18.49,# data time:9500,pm2.5:6.445,pm10:5.704,O2:0.000,NO2:0.000,SO2:0.000,NH3:5.536
10:41:54,0,0,0,0,0,0,0,0,0,0,0,514,0,0,0,0,0.0000000,0.0000000,0.0000000,0.0000000,9.00,38.4063873,-110.7921295,1379.0999756,0.0,17.5,0.9,0.0,0.0,844,129,0,0,860.58,21.93,18.49,# data time:9500,pm2.5:6.445,pm10:5.704,O2:0.000,NO2:0.000,SO2:0.000,NH3:5.536
10:41:55,0,0,0,0,0,0,0,0,0,0,0,515,0,0,0,0,0.0000000,0.0000000,0.0000000,0.0000000,9.00,38.4063873,-110.7921295,1379.0999756,0.0,17.5,0.9,0.0,0.0,844,131,0,0,860.61,21.93,18.49,# data time:9500,pm2.5:6.445,pm10:5.704,O2:0.000,NO2:0.000,SO2:0.000,NH3:5.536
10:41:56,0,0,0,0,0,0,0,0,0,0,0,514,0,0,0,0,0.0000000,0.0000000,0.0000000,0.0000000,9.00,38.4063873,-110.7921295,1379.0999756,0.0,17.5,0.9,0.0,0.0,844,131,0,0,860.52,21.94,18.48,# data time:9500,pm2.5:6.445,pm10:5.704,O2:0.000,NO2:0.000,SO2:0.000,NH3:5.536
10:41:57,0,0,0,0,0,0,0,0,0,0,0,514,0,0,0,0,0.0000000,0.0000000,0.0000000,0.0000000,9.00,38.4063873,-110.7921295,1379.0999756,0.0,17.5,0.9,0.0,0.0,843,130,0,0,860.52,21.96,18.47,# data time:9500,pm2.5:6.445,pm10:5.704,O2:0.000,NO2:0.000,SO2:0.000,NH3:5.536
10:41:58,0,0,0,0,0,0,0,0,0,0,0,514,0,0,0,0,0.0000000,0.0000000,0.0000000,0.0000000,9.00,38.4063873,-110.7921295,1379.0999756,0.0,17.5,0.9,0.0,0.0,844,129,0,0,860.55,21.96,18.47,# data time:9500,pm2.5:6.445,pm10:5.704,O2:0.000,NO2:0.000,SO2:0.000,NH3:5.536
10:41:59,0,0,0,0,0,0,0,0,0,0,0,515,0,0,0,0,0.0000000,0.0000000,0.0000000,0.0000000,9.00,38.4063873,-110.7921295,1379.0999756,0.0,17.5,0.9,0.0,0.0,844,131,0,0,860.57,21.97,18.47,# data time:9500,pm2.5:6.445,pm10:5.704,O2:0.000,NO2:0.000,SO2:0.000,NH3:5.536
10:42:00,0,0,0,0,0,0,0,0,0,0,0,514,0,0,0,0,0.0000000,0.0000000,0.0000000,0.0000000,9.00,38.4063873,-110.7921295,1379.0999756,0.0,17.5,0.9,0.0,0.0,844,128,0,0,860.60,21.99,18.46,# data time:9500,pm2.5:6.445,pm10:5.704,O2:0.000,NO2:0.000,SO2:0.000,NH3:5.536
10:42:01,0,0,0,0,0,0,0,0,0,0,0,513,0,0,0,0,0.0000000,0.0000000,0.0000000,0.0000000,9.00,38.4063873,-110.7921295,1379.0999756,0.0,17.5,0.9,0.0,0.0,843,133,0,0,860.54,21.99,18.37,# data time:9510,pm2.5:6.445,pm10:5.704,O2:0.000,NO2:0.000,SO
10:42:02,0,0,0,0,0,0,0,0,0,0,0,514,0,0,0,0,0.0000000,0.0000000,0.0000000,0.0000000,9.00,38.4063873,-110.7921295,1379.0999756,0.0,17.5,0.9,0.0,0.0,843,127,0,0,860.56,21.99,18.45,# data time:9510,pm2.5:6.445,pm10:5.704,O2:0.000,NO2:0.000,SO
10:42:03,0,0,0,0,0,0,0,0,0,0,0,514,0,0,0,0,0.0000000,0.0000000,0.0000000,0.0000000,9.00,38.4063873,-110.7921295,1379.0999756,0.0,17.5,0.9,0.0,0.0,844,128,0,0,860.57,22.00,18.45,# data time:9510,pm2.5:6.445,pm10:5.704,O2:0.000,NO2:0.000,SO
10:42:04,0,0,0,0,0,0,0,0,0,0,0,514,0,0,0,0,0.0000000,0.0000000,0.0000000,0.0000000,9.00,38.4063873,-110.7921295,1379.0999756,0.0,17.5,0.9,0.0,0.0,844,130,0,0,860.62,22.00,18.45,# data time:9510,pm2.5:6.445,pm10:5.704,O2:0.000,NO2:0.000,SO
10:42:05,0,0,0,0,0,0,0,0,0,0,0,514,0,0,0,0,0.0000000,0.0000000,0.0000000,0.0000000,9.00,38.4063873,-110.7921295,1379.0999756,0.0,17.5,0.9,0.0,0.0,844,128,0,0,860.59,21.97,18.44,# data time:9510,pm2.5:6.445,pm10:5.704,O2:0.000,NO2:0.000,SO
10:42:06,0,0,0,0,0,0,0,0,0,0,0,515,0,0,0,0,0.0000000,0.0000000,0.0000000,0.0000000,9.00,38.4063873,-110.7921295,1379.0999756,0.0,17.5,0.9,0.0,0.0,844,129,0,0,860.59,21.93,18.44,# data time:9510,pm2.5:6.445,pm10:5.704,O2:0.000,NO2:0.000,SO
10:42:07,0,0,0,0,0,0,0,0,0,0,0,514,0,0,0,0,0.0000000,0.0000000,0.0000000,0.0000000,9.00,38.4063873,-110.7921295,1379.0999756,0.0,17.5,0.9,0.0,0.0,844,130,0,0,860.57,21.94,18.44,# data time:9510,pm2.5:6.445,pm10:5.704,O2:0.000,NO2:0.000,SO
10:42:08,0,0,0,0,0,0,0,0,0,0,0,515,0,0,0,0,0.0000000,0.0000000,0.0000000,0.0000000,9.00,38.4063873,-110.7921295,1379.0999756,0.0,17.5,0.9,0.0,0.0,843,129,0,0,860.55,21.93,18.43,# data time:9510,pm2.5:6.445,pm10:5.704,O2:0.000,NO2:0.000,SO
10:42:09,0,0,0,0,0,0,0,0,0,0,0,514,0,0,0,0,0.0000000,0.0000000,0.0000000,0.0000000,9.00,38.4063873,-110.7921295,1379.0999756,0.0,17.5,0.9,0.0,0.0,844,130,0,0,860.59,21.91,18.43,# data time:9510,pm2.5:6.445,pm10:5.704,O2:0.000,NO2:0.000,SO
10:42:10,0,0,0,0,0,0,0,0,0,0,0,514,0,0,0,0,0.0000000,0.0000000,0.0000000,0.0000000,9.00,38.4063873,-110.7921295,1379.0999756,0.0,17.5,0.9,0.0,0.0,843,132,0,0,860.58,21.91,18.43,# data time:9510,pm2.5:6.445,pm10:5.704,O2:0.000,NO2:0.000,SO
10:42:11,0,0,0,0,0,0,0,0,0,0,0,514,0,0,0,0,0.0000000,0.0000000,0.0000000,0.0000000,9.00,38.4063873,-110.7921295,1379.0999756,0.0,17.5,0.9,0.0,0.0,844,129,0,0,860.50,21.93,18.33,# data time:9520,pm2.5:6.445,pm10:5.704,O2:0.000,NO2:0.000,SO2:NH3:5.536
10:42:12,0,0,0,0,0,0,0,0,0,0,0,514,0,0,0,0,0.0000000,0.0000000,0.0000000,0.0000000,9.00,38.4063873,-110.7921295,1379.0999756,0.0,17.5,0.9,0.0,0.0,844,127,0,0,860.54,21.96,18.37,# data time:9520,pm2.5:6.445,pm10:5.704,O2:0.000,NO2:0.000,SO2:NH3:5.536
10:42:13,0,0,0,0,0,0,0,0,0,0,0,514,0,0,0,0,0.0000000,0.0000000,0.0000000,0.0000000,9.00,38.4063873,-110.7921295,1379.0999756,0.0,17.5,0.9,0.0,0.0,843,128,0,0,860.57,22.00,18.40,# data time:9520,pm2.5:6.445,pm10:5.704,O2:0.000,NO2:0.000,SO2:NH3:5.536
10:42:14,0,0,0,0,0,0,0,0,0,0,0,514,0,0,0,0,0.0000000,0.0000000,0.0000000,0.0000000,9.00,38.4063873,-110.7921295,1379.0999756,0.0,17.5,0.9,0.0,0.0,844,129,0,0,860.56,22.00,18.39,# data time:9520,pm2.5:6.445,pm10:5.704,O2:0.000,NO2:0.000,SO2:NH3:5.536
10:42:15,0,0,0,0,0,0,0,0,0,0,0,515,0,0,0,0,0.0000000,0.0000000,0.0000000,0.0000000,9.00,38.4063873,-110.7921295,1379.0999756,0.0,17.5,0.9,0.0,0.0,844,131,0,0,860.58,22.00,18.39,# data time:9520,pm2.5:6.445,pm10:5.704,O2:0.000,NO2:0.000,SO2:NH3:5.536
10:42:16,0,0,0,0,0,0,0,0,0,0,0,514,0,0,0,0,0.0000000,0.0000000,0.0000000,0.0000000,9.00,38.4063873,-110.7921295,1379.0999756,0.0,17.5,0.9,0.0,0.0,844,133,0,0,860.56,21.99,18.39,# data time:9520,pm2.5:6.445,pm10:5.704,O2:0.000,NO2:0.000,SO2:NH3:5.536
10:42:17,0,0,0,0,0,0,0,0,0,0,0,514,0,0,0,0,0.0000000,0.0000000,0.0000000,0.0000000,9.00,38.4063873,-110.7921295,1379.0999756,0.0,17.5,0.9,0.0,0.0,844,128,0,0,860.56,21.97,18.39,# data time:9520,pm2.5:6.445,pm10:5.704,O2:0.000,NO2:0.000,SO2:NH3:5.536
10:42:18,0,0,0,0,0,0,0,0,0,0,0,514,0,0,0,0,0.0000000,0.0000000,0.0000000,0.0000000,9.00,38.4063873,-110.7921295,1379.0999756,0.0,17.5,0.9,0.0,0.0,844,127,0,0,860.53,22.00,18.39,# data time:9520,pm2.5:6.445,pm10:5.704,O2:0.000,NO2:0.000,SO2:NH3:5.536
10:42:19,0,0,0,0,0,0,0,0,0,0,0,514,0,0,0,0,0.0000000,0.0000000,0.0000000,0.0000000,9.00,38.4063873,-110.7921295,1379.0999756,0.0,17.5,0.9,0.0,0.0,843,126,0,0,860.58,22.05,18.37,# data time:9520,pm2.5:6.445,pm10:5.704,O2:0.000,NO2:0.000,SO2:NH3:5.536
10:42:20,0,0,0,0,0,0,0,0,0,0,0,514,0,0,0,0,0.0000000,0.0000000,0.0000000,0.0000000,9.00,38.4063873,-110.7921295,1379.0999756,0.0,17.5,0.9,0.0,0.0,843,130,0,0,860.59,22.08,18.36,# data time:9520,pm2.5:6.445,pm10:5.704,O2:0.000,NO2:0.000,SO2:NH3:5.536
10:42:21,0,0,0,0,0,0,0,0,0,0,0,514,0,0,0,0,0.0000000,0.0000000,0.0000000,0.0000000,9.00,38.4063873,-110.7921295,1379.0999756,0.0,17.5,0.9,0.0,0.0,843,128,0,0,860.50,22.10,18.25,# data time:9530,pm2.5:6.445,pm10:5.704,O2:0.000,NO2:0.000,SO2:0.000,NH3:5.762
10:42:22,0,0,0,0,0,0,0,0,0,0,0,514,0,0,0,0,0.0000000,0.0000000,0.0000000,0.0000000,9.00,38.4063873,-110.7921295,1379.0999756,0.0,17.5,0.9,0.0,0.0,844,128,0,0,860.52,22.05,18.25,# data time:9530,pm2.5:6.445,pm10:5.704,O2:0.000,NO2:0.000,SO2:0.000,NH3:5.762
10:42:23,0,0,0,0,0,0,0,0,0,0,0,513,0,0,0,0,0.0000000,0.0000000,0.0000000,0.0000000,9.00,38.4063873,-110.7921295,1379.0999756,0.0,17.5,0.9,0.0,0.0,844,126,0,0,860.54,22.08,18.24,# data time:9530,pm2.5:6.445,pm10:5.704,O2:0.000,NO2:0.000,SO2:0.000,NH3:5.762
10:42:24,0,0,0,0,0,0,0,0,0,0,0,514,0,0,0,0,0.0000000,0.0000000,0.0000000,0.0000000,9.00,38.4063873,-110.7921295,1379.0999756,0.0,17.5,0.9,0.0,0.0,845,127,0,0,860.48,22.06,18.24,# data time:9530,pm2.5:6.445,pm10:5.704,O2:0.000,NO2:0.000,SO2:0.000,NH3:5.762
10:42:25,0,0,0,0,0,0,0,0,0,0,0,514,0,0,0,0,0.0000000,0.0000000,0.0000000,0.0000000,9.00,38.4063873,-110.7921295,1379.0999756,0.0,17.5,0.9,0.0,0.0,843,127,0,0,860.47,22.05,18.24,# data time:9530,pm2.5:6.445,pm10:5.704,O2:0.000,NO2:0.000,SO2:0.000,NH3:5.762
10:42:26,0,0,0,0,0,0,0,0,0,0,0,514,0,0,0,0,0.0000000,0.0000000,0.0000000,0.0000000,9.00,38.4063873,-110.7921295,1379.0999756,0.0,17.5,0.9,0.0,0.0,844,128,0,0,860.48,22.10,18.31,# data time:9530,pm2.5:6.445,pm10:5.704,O2:0.000,NO2:0.000,SO2:0.000,NH3:5.762
10:42:27,0,0,0,0,0,0,0,0,0,0,0,515,0,0,0,0,0.0000000,0.0000000,0.0000000,0.0000000,9.00,38.4063873,-110.7921295,1379.0999756,0.0,17.5,0.9,0.0,0.0,843,128,0,0,860.51,22.03,18.24,# data time:9530,pm2.5:6.445,pm10:5.704,O2:0.000,NO2:0.000,SO2:0.000,NH3:5.762
10:42:28,0,0,0,0,0,0,0,0,0,0,0,514,0,0,0,0,0.0000000,0.0000000,0.0000000,0.0000000,9.00,38.4063873,-110.7921295,1379.0999756,0.0,17.5,0.9,0.0,0.0,844,128,0,0,860.54,22.06,18.29,# data time:9530,pm2.5:6.445,pm10:5.704,O2:0.000,NO2:0.000,SO2:0.000,NH3:5.762
10:42:30,0,0,0,0,0,0,0,0,0,0,0,514,0,0,0,0,0.0000000,0.0000000,0.0000000,0.0000000,9.00,38.4063873,-110.7921295,1379.0999756,0.0,17.5,0.9,0.0,0.0,844,125,0,0,860.55,22.08,18.29,# data time:9530,pm2.5:6.445,pm10:5.704,O2:0.000,NO2:0.000,SO2:0.000,NH3:5.762
10:42:31,0,0,0,0,0,0,0,0,0,0,0,514,0,0,0,0,0.0000000,0.0000000,0.0000000,0.0000000,9.00,38.4063873,-110.7921295,1379.0999756,0.0,17.5,0.9,0.0,0.0,843,129,0,0,860.53,22.11,18.22,# data time:9540,pm2.5:6.445,pm10:5.704,O2:0.000,NO2:0.000,SO
10:42:32,0,0,0,0,0,0,0,0,0,0,0,514,0,0,0,0,0.0000000,0.0000000,0.0000000,0.0000000,9.00,38.4063873,-110.7921295,1379.0999756,0.0,17.5,0.9,0.0,0.0,843,128,0,0,860.54,22.11,18.31,# data time:9540,pm2.5:6.445,pm10:5.704,O2:0.000,NO2:0.000,SO
10:42:33,0,0,0,0,0,0,0,0,0,0,0,515,0,0,0,0,0.0000000,0.0000000,0.0000000,0.0000000,9.00,38.4063873,-110.7921295,1379.0999756,0.0,17.5,0.9,0.0,0.0,843,127,0,0,860.56,22.11,18.32,# data time:9540,pm2.5:6.445,pm10:5.704,O2:0.000,NO2:0.000,SO
10:42:34,0,0,0,0,0,0,0,0,0,0,0,515,0,0,0,0,0.0000000,0.0000000,0.0000000,0.0000000,9.00,38.4063873,-110.7921295,1379.0999756,0.0,17.5,0.9,0.0,0.0,844,127,0,0,860.59,22.13,18.32,# data time:9540,pm2.5:6.445,pm10:5.704,O2:0.000,NO2:0.000,SO
10:42:35,0,0,0,0,0,0,0,0,0,0,0,514,0,0,0,0,0.0000000,0.0000000,0.0000000,0.0000000,9.00,38.4063873,-110.7921295,1379.0999756,0.0,17.5,0.9,0.0,0.0,843,132,0,0,860.56,22.10,18.31,# data time:9540,pm2.5:6.445,pm10:5.704,O2:0.000,NO2:0.000,SO
10:42:36,0,0,0,0,0,0,0,0,0,0,0,514,0,0,0,0,0.0000000,0.0000000,0.0000000,0.0000000,9.00,38.4063873,-110.7921295,1379.0999756,0.0,17.5,0.9,0.0,0.0,844,129,0,0,860.53,22.11,18.31,# data time:9540,pm2.5:6.445,pm10:5.704,O2:0.000,NO2:0.000,SO
10:42:37,0,0,0,0,0,0,0,0,0,0,0,514,0,0,0,0,0.0000000,0.0000000,0.0000000,0.0000000,9.00,38.4063873,-110.7921295,1379.0999756,0.0,17.5,0.9,0.0,0.0,843,128,0,0,860.57,22.14,18.31,# data time:9540,pm2.5:6.445,pm10:5.704,O2:0.000,NO2:0.000,SO
10:42:38,0,0,0,0,0,0,0,0,0,0,0,515,0,0,0,0,0.0000000,0.0000000,0.0000000,0.0000000,9.00,38.4063873,-110.7921295,1379.0999756,0.0,17.5,0.9,0.0,0.0,843,131,0,0,860.56,22.13,18.30,# data time:9540,pm2.5:6.445,pm10:5.704,O2:0.000,NO2:0.000,SO
10:42:39,0,0,0,0,0,0,0,0,0,0,0,514,0,0,0,0,0.0000000,0.0000000,0.0000000,0.0000000,9.00,38.4063873,-110.7921295,1379.0999756,0.0,17.5,0.9,0.0,0.0,843,127,0,0,860.52,22.17,18.30,# data time:9540,pm2.5:6.445,pm10:5.704,O2:0.000,NO2:0.000,SO
10:42:40,0,0,0,0,0,0,0,0,0,0,0,514,0,0,0,0,0.0000000,0.0000000,0.0000000,0.0000000,9.00,38.4063873,-110.7921295,1379.0999756,0.0,17.5,0.9,0.0,0.0,844,129,0,0,860.58,22.19,18.29,# data time:9540,pm2.5:6.445,pm10:5.704,O2:0.000,NO2:0.000,SO
10:42:41,0,0,0,0,0,0,0,0,0,0,0,515,0,0,0,0,0.0000000,0.0000000,0.0000000,0.0000000,9.00,38.4063873,-110.7921295,1379.0999756,0.0,17.5,0.9,0.0,0.0,844,129,0,0,860.51,22.20,18.18,# data time:9550,pm2.5:6.445,pm10:5.704,O2:0.000,NO2:0.000,SO2:0.000,NH3:5.762
10:42:42,0,0,0,0,0,0,0,0,0,0,0,514,0,0,0,0,0.0000000,0.0000000,0.0000000,0.0000000,9.00,38.4063873,-110.7921295,1379.0999756,0.0,17.5,0.9,0.0,0.0,844,130,0,0,860.61,22.19,18.23,# data time:9550,pm2.5:6.445,pm10:5.704,O2:0.000,NO2:0.000,SO2:0.000,NH3:5.762
10:42:43,0,0,0,0,0,0,0,0,0,0,0,514,0,0,0,0,0.0000000,0.0000000,0.0000000,0.0000000,9.00,38.4063873,-110.7921295,1379.0999756,0.0,17.5,0.9,0.0,0.0,844,135,0,0,860.57,22.20,18.28,# data time:9550,pm2.5:6.445,pm10:5.704,O2:0.000,NO2:0.000,SO2:0.000,NH3:5.762
10:42:44,0,0,0,0,0,0,0,0,0,0,0,513,0,0,0,0,0.0000000,0.0000000,0.0000000,0.0000000,9.00,38.4063873,-110.7921295,1379.0999756,0.0,17.5,0.9,0.0,0.0,844,129,0,0,860.57,22.20,18.28,# data time:9550,pm2.5:6.445,pm10:5.704,O2:0.000,NO2:0.000,SO2:0.000,NH3:5.762
10:42:45,0,0,0,0,0,0,0,0,0,0,0,513,0,0,0,0,0.0000000,0.0000000,0.0000000,0.0000000,9.00,38.4063873,-110.7921295,1379.0999756,0.0,17.5,0.9,0.0,0.0,844,131,0,0,860.57,22.22,18.28,# data time:9550,pm2.5:6.445,pm10:5.704,O2:0.000,NO2:0.000,SO2:0.000,NH3:5.762
10:42:46,0,0,0,0,0,0,0,0,0,0,0,514,0,0,0,0,0.0000000,0.0000000,0.0000000,0.0000000,9.00,38.4063873,-110.7921295,1379.0999756,0.0,17.5,0.9,0.0,0.0,843,129,0,0,860.57,22.25,18.27,# data time:9550,pm2.5:6.445,pm10:5.704,O2:0.000,NO2:0.000,SO2:0.000,NH3:5.762
10:42:47,0,0,0,0,0,0,0,0,0,0,0,514,0,0,0,0,0.0000000,0.0000000,0.0000000,0.0000000,9.00,38.4063873,-110.7921295,1379.0999756,0.0,17.5,0.9,0.0,0.0,844,131,0,0,860.64,22.20,18.27,# data time:9550,pm2.5:6.445,pm10:5.704,O2:0.000,NO2:0.000,SO2:0.000,NH3:5.762
10:42:48,0,0,0,0,0,0,0,0,0,0,0,514,0,0,0,0,0.0000000,0.0000000,0.0000000,0.0000000,9.00,38.4063873,-110.7921295,1379.0999756,0.0,17.5,0.9,0.0,0.0,844,127,0,0,860.59,22.22,18.28,# data time:9550,pm2.5:6.445,pm10:5.704,O2:0.000,NO2:0.000,SO2:0.000,NH3:5.762
10:42:49,0,0,0,0,0,0,0,0,0,0,0,514,0,0,0,0,0.0000000,0.0000000,0.0000000,0.0000000,9.00,38.4063873,-110.7921295,1379.0999756,0.0,17.5,0.9,0.0,0.0,843,127,0,0,860.58,22.20,18.26,# data time:9550,pm2.5:6.445,pm10:5.704,O2:0.000,NO2:0.000,SO2:0.000,NH3:5.762
10:42:50,0,0,0,0,0,0,0,0,0,0,0,514,0,0,0,0,0.0000000,0.0000000,0.0000000,0.0000000,9.00,38.4063873,-110.7921295,1379.0999756,0.0,17.5,0.9,0.0,0.0,843,128,0,0,860.58,22.19,18.26,# data time:9550,pm2.5:6.445,pm10:5.704,O2:0.000,NO2:0.000,SO2:0.000,NH3:5.762
10:42:51,0,0,0,0,0,0,0,0,0,0,0,513,0,0,0,0,0.0000000,0.0000000,0.0000000,0.0000000,9.00,38.4063873,-110.7921295,1379.0999756,0.0,17.5,0.9,0.0,0.0,844,130,0,0,860.58,22.19,18.16,# data time:9560,pm2.5:6.445,pm10:5.704,O2:0.000,NO2:0.000,SO2:0.000,NH3:5.988
10:42:52,0,0,0,0,0,0,0,0,0,0,0,514,0,0,0,0,0.0000000,0.0000000,0.0000000,0.0000000,9.00,38.4063911,-110.7921295,1379.0999756,0.0,17.5,0.9,0.0,0.0,844,129,0,0,860.53,22.19,18.25,# data time:9560,pm2.5:6.445,pm10:5.704,O2:0.000,NO2:0.000,SO2:0.000,NH3:5.988
10:42:53,0,0,0,0,0,0,0,0,0,0,0,515,0,0,0,0,0.0000000,0.0000000,0.0000000,0.0000000,9.00,38.4063911,-110.7921295,1379.0999756,0.0,17.5,0.9,0.0,0.0,843,131,0,0,860.57,22.19,18.25,# data time:9560,pm2.5:6.445,pm10:5.704,O2:0.000,NO2:0.000,SO2:0.000,NH3:5.988
10:42:54,0,0,0,0,0,0,0,0,0,0,0,514,0,0,0,0,0.0000000,0.0000000,0.0000000,0.0000000,9.00,38.4063911,-110.7921295,1379.0999756,0.0,17.5,0.9,0.0,0.0,843,127,0,0,860.58,22.19,18.25,# data time:9560,pm2.5:6.445,pm10:5.704,O2:0.000,NO2:0.000,SO2:0.000,NH3:5.988
10:42:55,0,0,0,0,0,0,0,0,0,0,0,514,0,0,0,0,0.0000000,0.0000000,0.0000000,0.0000000,9.00,38.4063911,-110.7921295,1379.0999756,0.0,17.5,0.9,0.0,0.0,843,128,0,0,860.59,22.20,18.25,# data time:9560,pm2.5:6.445,pm10:5.704,O2:0.000,NO2:0.000,SO2:0.000,NH3:5.988
10:42:56,0,0,0,0,0,0,0,0,0,0,0,514,0,0,0,0,0.0000000,0.0000000,0.0000000,0.0000000,9.00,38.4063911,-110.7921295,1379.0999756,0.0,17.5,0.9,0.0,0.0,844,133,0,0,860.60,22.19,18.24,# data time:9560,pm2.5:6.445,pm10:5.704,O2:0.000,NO2:0.000,SO2:0.000,NH3:5.988
10:42:57,0,0,0,0,0,0,0,0,0,0,0,514,0,0,0,0,0.0000000,0.0000000,0.0000000,0.0000000,9.00,38.4063911,-110.7921295,1379.0999756,0.0,17.5,0.9,0.0,0.0,843,133,0,0,860.60,22.20,18.24,# data time:9560,pm2.5:6.445,pm10:5.704,O2:0.000,NO2:0.000,SO2:0.000,NH3:5.988
10:42:58,0,0,0,0,0,0,0,0,0,0,0,514,0,0,0,0,0.0000000,0.0000000,0.0000000,0.0000000,9.00,38.4063911,-110.7921295,1379.0999756,0.0,17.5,0.9,0.0,0.0,844,131,0,0,860.65,22.23,18.24,# data time:9560,pm2.5:6.445,pm10:5.704,O2:0.000,NO2:0.000,SO2:0.000,NH3:5.988
10:42:59,0,0,0,0,0,0,0,0,0,0,0,514,0,0,0,0,0.0000000,0.0000000,0.0000000,0.0000000,9.00,38.4063911,-110.7921295,1379.0999756,0.0,17.5,0.9,0.0,0.0,844,130,0,0,860.62,22.23,18.23,# data time:9560,pm2.5:6.445,pm10:5.704,O2:0.000,NO2:0.000,SO2:0.000,NH3:5.988
10:43:00,0,0,0,0,0,0,0,0,0,0,0,514,0,0,0,0,0.0000000,0.0000000,0.0000000,0.0000000,9.00,38.4063911,-110.7921295,1379.0999756,0.0,17.5,0.9,0.0,0.0,844,128,0,0,860.55,22.20,18.22,# data time:9560,pm2.5:6.445,pm10:5.704,O2:0.000,NO2:0.000,SO2:0.000,NH3:5.988
10:43:01,0,0,0,0,0,0,0,0,0,0,0,515,0,0,0,0,0.0000000,0.0000000,0.0000000,0.0000000,9.00,38.4063911,-110.7921295,1379.0999756,0.0,17.5,0.9,0.0,0.0,844,131,0,0,860.55,22.23,18.12,# data time:9570,pm2.5:6.445,pm10:5.704,O2:0.000,NO2:0.000,SO2:0.000,NH3:5.988
10:43:02,0,0,0,0,0,0,0,0,0,0,0,514,0,0,0,0,0.0000000,0.0000000,0.0000000,0.0000000,9.00,38.4063911,-110.7921295,1379.0999756,0.0,17.5,0.9,0.0,0.0,843,128,0,0,860.53,22.22,18.17,# data time:9570,pm2.5:6.445,pm10:5.704,O2:0.000,NO2:0.000,SO2:0.000,NH3:5.988
10:43:03,0,0,0,0,0,0,0,0,0,0,0,514,0,0,0,0,0.0000000,0.0000000,0.0000000,0.0000000,9.00,38.4063911,-110.7921295,1379.0999756,0.0,17.5,0.9,0.0,0.0,844,129,0,0,860.57,22.23,18.21,# data time:9570,pm2.5:6.445,pm10:5.704,O2:0.000,NO2:0.000,SO2:0.000,NH3:5.988
10:43:04,0,0,0,0,0,0,0,0,0,0,0,514,0,0,0,0,0.0000000,0.0000000,0.0000000,0.0000000,9.00,38.4063911,-110.7921295,1379.0999756,0.0,17.5,0.9,0.0,0.0,843,126,0,0,860.59,22.23,18.21,# data time:9570,pm2.5:6.445,pm10:5.704,O2:0.000,NO2:0.000,SO2:0.000,NH3:5.988
10:43:05,0,0,0,0,0,0,0,0,0,0,0,514,0,0,0,0,0.0000000,0.0000000,0.0000000,0.0000000,9.00,38.4063911,-110.7921295,1379.0999756,0.0,17.5,0.9,0.0,0.0,843,129,0,0,860.55,22.23,18.21,# data time:9570,pm2.5:6.445,pm10:5.704,O2:0.000,NO2:0.000,SO2:0.000,NH3:5.988
10:43:06,0,0,0,0,0,0,0,0,0,0,0,513,0,0,0,0,0.0000000,0.0000000,0.0000000,0.0000000,9.00,38.4063911,-110.7921295,1379.0999756,0.0,17.5,0.9,0.0,0.0,843,133,0,0,860.54,22.23,18.20,# data time:9570,pm2.5:6.445,pm10:5.704,O2:0.000,NO2:0.000,SO2:0.000,NH3:5.988
10:43:07,0,0,0,0,0,0,0,0,0,0,0,514,0,0,0,0,0.0000000,0.0000000,0.0000000,0.0000000,9.00,38.4063911,-110.7921295,1379.0999756,0.0,17.5,0.9,0.0,0.0,843,130,0,0,860.59,22.22,18.20,# data time:9570,pm2.5:6.445,pm10:5.704,O2:0.000,NO2:0.000,SO2:0.000,NH3:5.988
10:43:08,0,0,0,0,0,0,0,0,0,0,0,514,0,0,0,0,0.0000000,0.0000000,0.0000000,0.0000000,9.00,38.4063911,-110.7921295,1379.0999756,0.0,17.5,0.9,0.0,0.0,844,128,0,0,860.59,22.25,18.20,# data time:9570,pm2.5:6.445,pm10:5.704,O2:0.000,NO2:0.000,SO2:0.000,NH3:5.988
10:43:09,0,0,0,0,0,0,0,0,0,0,0,514,0,0,0,0,0.0000000,0.0000000,0.0000000,0.0000000,9.00,38.4063911,-110.7921295,1379.0999756,0.1,17.5,0.9,0.0,0.0,844,130,0,0,860.58,22.25,18.19,# data time:9570,pm2.5:6.445,pm10:5.704,O2:0.000,NO2:0.000,SO2:0.000,NH3:5.988
10:43:10,0,0,0,0,0,0,0,0,0,0,0,515,0,0,0,0,0.0000000,0.0000000,0.0000000,0.0000000,9.00,38.4063911,-110.7921295,1379.0999756,0.0,17.5,0.9,0.0,0.0,843,127,0,0,860.58,22.29,18.19,# data time:9570,pm2.5:6.445,pm10:5.704,O2:0.000,NO2:0.000,SO2:0.000,NH3:5.988
10:43:11,0,0,0,0,0,0,0,0,0,0,0,514,0,0,0,0,0.0000000,0.0000000,0.0000000,0.0000000,9.00,38.4063911,-110.7921295,1379.0999756,0.0,17.5,0.9,0.0,0.0,844,129,0,0,860.53,22.29,18.10,# data time:9580,pm2.5:6.445,pm10:5.704,O2:0.000,NO2:0.000,SO2::5.988
10:43:12,0,0,0,0,0,0,0,0,0,0,0,515,0,0,0,0,0.0000000,0.0000000,0.0000000,0.0000000,9.00,38.4063911,-110.7921295,1379.0999756,0.0,17.5,0.9,0.0,0.0,844,133,0,0,860.55,22.28,18.18,# data time:9580,pm2.5:6.445,pm10:5.704,O2:0.000,NO2:0.000,SO2::5.988
10:43:13,0,0,0,0,0,0,0,0,0,0,0,514,0,0,0,0,0.0000000,0.0000000,0.0000000,0.0000000,9.00,38.4063911,-110.7921295,1379.0999756,0.0,17.5,0.9,0.0,0.0,844,127,0,0,860.54,22.28,18.19,# data time:9580,pm2.5:6.445,pm10:5.704,O2:0.000,NO2:0.000,SO2::5.988
10:43:14,0,0,0,0,0,0,0,0,0,0,0,513,0,0,0,0,0.0000000,0.0000000,0.0000000,0.0000000,9.00,38.4063911,-110.7921295,1379.0999756,0.0,17.5,0.9,0.0,0.0,843,129,0,0,860.61,22.26,18.18,# data time:9580,pm2.5:6.445,pm10:5.704,O2:0.000,NO2:0.000,SO2::5.988
10:43:15,0,0,0,0,0,0,0,0,0,0,0,513,0,0,0,0,0.0000000,0.0000000,0.0000000,0.0000000,9.00,38.4063911,-110.7921295,1379.0999756,0.0,17.5,0.9,0.0,0.0,844,128,0,0,860.59,22.29,18.18,# data time:9580,pm2.5:6.445,pm10:5.704,O2:0.000,NO2:0.000,SO2::5.988
10:43:16,0,0,0,0,0,0,0,0,0,0,0,514,0,0,0,0,0.0000000,0.0000000,0.0000000,0.0000000,9.00,38.4063911,-110.7921295,1379.0999756,0.0,17.5,0.9,0.0,0.0,843,132,0,0,860.55,22.29,18.18,# data time:9580,pm2.5:6.445,pm10:5.704,O2:0.000,NO2:0.000,SO2::5.988
10:43:17,0,0,0,0,0,0,0,0,0,0,0,514,0,0,0,0,0.0000000,0.0000000,0.0000000,0.0000000,9.00,38.4063911,-110.7921295,1379.0999756,0.0,17.5,0.9,0.0,0.0,843,129,0,0,860.58,22.31,18.18,# data time:9580,pm2.5:6.445,pm10:5.704,O2:0.000,NO2:0.000,SO2::5.988
10:43:18,0,0,0,0,0,0,0,0,0,0,0,514,0,0,0,0,0.0000000,0.0000000,0.0000000,0.0000000,9.00,38.4063911,-110.7921295,1379.0999756,0.0,17.5,0.9,0.0,0.0,844,131,0,0,860.58,22.29,18.15,# data time:9580,pm2.5:6.445,pm10:5.704,O2:0.000,NO2:0.000,SO2::5.988
10:43:19,0,0,0,0,0,0,0,0,0,0,0,514,0,0,0,0,0.0000000,0.0000000,0.0000000,0.0000000,9.00,38.4063911,-110.7921295,1379.0999756,0.0,17.5,0.9,0.0,0.0,843,130,0,0,860.53,22.28,18.13,# data time:9580,pm2.5:6.445,pm10:5.704,O2:0.000,NO2:0.000,SO2::5.988
10:43:20,0,0,0,0,0,0,0,0,0,0,0,514,0,0,0,0,0.0000000,0.0000000,0.0000000,0.0000000,9.00,38.4063911,-110.7921295,1379.0999756,0.0,17.5,0.9,0.0,0.0,844,128,0,0,860.57,22.31,18.17,# data time:9580,pm2.5:6.445,pm10:5.704,O2:0.000,NO2:0.000,SO2::5.988
10:43:21,0,0,0,0,0,0,0,0,0,0,0,514,0,0,0,0,0.0000000,0.0000000,0.0000000,0.0000000,9.00,38.4063911,-110.7921295,1379.0999756,0.0,17.5,0.9,0.0,0.0,844,129,0,0,860.56,22.34,18.16,# data time:9590,pm2.5:6.445,pm10:5.704,O2:0.000,NO2:0.000,SO2:0.000,NH3:5.762
10:43:22,0,0,0,0,0,0,0,0,0,0,0,514,0,0,0,0,0.0000000,0.0000000,0.0000000,0.0000000,9.00,38.4063911,-110.7921295,1379.0999756,0.0,17.5,0.9,0.0,0.0,843,131,0,0,860.56,22.31,18.16,# data time:9590,pm2.5:6.445,pm10:5.704,O2:0.000,NO2:0.000,SO2:0.000,NH3:5.762
10:43:23,0,0,0,0,0,0,0,0,0,0,0,514,0,0,0,0,0.0000000,0.0000000,0.0000000,0.0000000,9.00,38.4063911,-110.7921295,1379.0999756,0.0,17.5,0.9,0.0,0.0,843,128,0,0,860.57,22.29,18.16,# data time:9590,pm2.5:6.445,pm10:5.704,O2:0.000,NO2:0.000,SO2:0.000,NH3:5.762
10:43:24,0,0,0,0,0,0,0,0,0,0,0,514,0,0,0,0,0.0000000,0.0000000,0.0000000,0.0000000,9.00,38.4063911,-110.7921295,1379.0999756,0.0,17.5,0.9,0.0,0.0,843,129,0,0,860.54,22.29,18.15,# data time:9590,pm2.5:6.445,pm10:5.704,O2:0.000,NO2:0.000,SO2:0.000,NH3:5.762
10:43:25,0,0,0,0,0,0,0,0,0,0,0,514,0,0,0,0,0.0000000,0.0000000,0.0000000,0.0000000,9.00,38.4063911,-110.7921295,1379.0999756,0.0,17.5,0.9,0.0,0.0,844,132,0,0,860.59,22.29,18.15,# data time:9590,pm2.5:6.445,pm10:5.704,O2:0.000,NO2:0.000,SO2:0.000,NH3:5.762
10:43:26,0,0,0,0,0,0,0,0,0,0,0,515,0,0,0,0,0.0000000,0.0000000,0.0000000,0.0000000,9.00,38.4063911,-110.7921295,1379.0999756,0.0,17.5,0.9,0.0,0.0,843,133,0,0,860.55,22.31,18.14,# data time:9590,pm2.5:6.445,pm10:5.704,O2:0.000,NO2:0.000,SO2:0.000,NH3:5.762
10:43:27,0,0,0,0,0,0,0,0,0,0,0,515,0,0,0,0,0.0000000,0.0000000,0.0000000,0.0000000,9.00,38.4063911,-110.7921295,1379.0999756,0.0,17.5,0.9,0.0,0.0,844,132,0,0,860.58,22.31,18.14,# data time:9590,pm2.5:6.445,pm10:5.704,O2:0.000,NO2:0.000,SO2:0.000,NH3:5.762
10:43:28,0,0,0,0,0,0,0,0,0,0,0,514,0,0,0,0,0.0000000,0.0000000,0.0000000,0.0000000,9.00,38.4063911,-110.7921295,1379.0999756,0.0,17.5,0.9,0.0,0.0,843,122,0,0,860.59,22.34,18.14,# data time:9590,pm2.5:6.445,pm10:5.704,O2:0.000,NO2:0.000,SO2:0.000,NH3:5.762
10:43:29,0,0,0,0,0,0,0,0,0,0,0,514,0,0,0,0,0.0000000,0.0000000,0.0000000,0.0000000,9.00,38.4063911,-110.7921295,1379.0999756,0.0,17.5,0.9,0.0,0.0,843,125,0,0,860.55,22.34,18.13,# data time:9590,pm2.5:6.445,pm10:5.704,O2:0.000,NO2:0.000,SO2:0.000,NH3:5.762
10:43:30,0,0,0,0,0,0,0,0,0,0,0,514,0,0,0,0,0.0000000,0.0000000,0.0000000,0.0000000,9.00,38.4063911,-110.7921295,1379.0999756,0.0,17.5,0.9,0.0,0.0,844,128,0,0,860.56,22.32,18.13,# data time:9600,pm2.5:6.445,pm10:5.704,O2:0.000,NO2:0.000,SO2:0.000,NH3:5.988
10:43:31,0,0,0,0,0,0,0,0,0,0,0,514,0,0,0,0,0.0000000,0.0000000,0.0000000,0.0000000,9.00,38.4063911,-110.7921295,1379.0999756,0.0,17.5,0.9,0.0,0.0,844,130,0,0,860.54,22.37,18.12,# data time:9600,pm2.5:6.445,pm10:5.704,O2:0.000,NO2:0.000,SO2:0.000,NH3:5.988
10:43:32,0,0,0,0,0,0,0,0,0,0,0,514,0,0,0,0,0.0000000,0.0000000,0.0000000,0.0000000,9.00,38.4063911,-110.7921295,1379.0999756,0.0,17.5,0.9,0.0,0.0,844,127,0,0,860.55,22.39,18.11,# data time:9600,pm2.5:6.445,pm10:5.704,O2:0.000,NO2:0.000,SO2:0.000,NH3:5.988
10:43:33,0,0,0,0,0,0,0,0,0,0,0,514,0,0,0,0,0.0000000,0.0000000,0.0000000,0.0000000,9.00,38.4063911,-110.7921295,1379.0999756,0.0,17.5,0.9,0.0,0.0,844,129,0,0,860.55,22.39,18.12,# data time:9600,pm2.5:6.445,pm10:5.704,O2:0.000,NO2:0.000,SO2:0.000,NH3:5.988
10:43:35,0,0,0,0,0,0,0,0,0,0,0,514,0,0,0,0,0.0000000,0.0000000,0.0000000,0.0000000,9.00,38.4063911,-110.7921295,1379.0999756,0.0,17.5,0.9,0.0,0.0,843,127,0,0,860.55,22.35,18.12,# data time:9600,pm2.5:6.445,pm10:5.704,O2:0.000,NO2:0.000,SO2:0.000,NH3:5.988
10:43:36,0,0,0,0,0,0,0,0,0,0,0,514,0,0,0,0,0.0000000,0.0000000,0.0000000,0.0000000,9.00,38.4063911,-110.7921295,1379.0999756,0.0,17.5,0.9,0.0,0.0,843,128,0,0,860.54,22.37,18.12,# data time:9600,pm2.5:6.445,pm10:5.704,O2:0.000,NO2:0.000,SO2:0.000,NH3:5.988
10:43:37,0,0,0,0,0,0,0,0,0,0,0,514,0,0,0,0,0.0000000,0.0000000,0.0000000,0.0000000,9.00,38.4063911,-110.7921295,1379.0999756,0.1,17.5,0.9,0.0,0.0,844,128,0,0,860.54,22.34,18.12,# data time:9600,pm2.5:6.445,pm10:5.704,O2:0.000,NO2:0.000,SO2:0.000,NH3:5.988
10:43:38,0,0,0,0,0,0,0,0,0,0,0,513,0,0,0,0,0.0000000,0.0000000,0.0000000,0.0000000,9.00,38.4063911,-110.7921295,1379.0999756,0.0,17.5,0.9,0.0,0.0,844,134,0,0,860.58,22.35,18.11,# data time:9600,pm2.5:6.445,pm10:5.704,O2:0.000,NO2:0.000,SO2:0.000,NH3:5.988
10:43:39,0,0,0,0,0,0,0,0,0,0,0,513,0,0,0,0,0.0000000,0.0000000,0.0000000,0.0000000,9.00,38.4063911,-110.7921295,1379.0999756,0.0,17.5,0.9,0.0,0.0,843,135,0,0,860.57,22.39,18.11,# data time:9600,pm2.5:6.445,pm10:5.704,O2:0.000,NO2:0.000,SO2:0.000,NH3:5.988
10:43:40,0,0,0,0,0,0,0,0,0,0,0,513,0,0,0,0,0.0000000,0.0000000,0.0000000,0.0000000,9.00,38.4063911,-110.7921295,1379.0999756,0.0,17.5,0.9,0.0,0.0,843,127,0,0,860.54,22.40,18.09,# data time:9600,pm2.5:6.445,pm10:5.704,O2:0.000,NO2:0.000,SO2:0.000,NH3:5.988
10:43:41,0,0,0,0,0,0,0,0,0,0,0,514,0,0,0,0,0.0000000,0.0000000,0.0000000,0.0000000,9.00,38.4063911,-110.7921295,1379.0999756,0.0,17.5,0.9,0.0,0.0,843,128,0,0,860.55,22.40,18.00,# data time:9610,pm2.5:6.445,pm10:5.704,O2:0.000,NO2:0.000,SO2:0.000,NH3:5.536
10:43:42,0,0,0,0,0,0,0,0,0,0,0,513,0,0,0,0,0.0000000,0.0000000,0.0000000,0.0000000,9.00,38.4063911,-110.7921295,1379.0999756,0.0,17.5,0.9,0.0,0.0,844,132,0,0,860.56,22.42,18.05,# data time:9610,pm2.5:6.445,pm10:5.704,O2:0.000,NO2:0.000,SO2:0.000,NH3:5.536
10:43:43,0,0,0,0,0,0,0,0,0,0,0,514,0,0,0,0,0.0000000,0.0000000,0.0000000,0.0000000,9.00,38.4063911,-110.7921295,1379.0999756,0.0,17.5,0.9,0.0,0.0,844,132,0,0,860.55,22.43,18.09,# data time:9610,pm2.5:6.445,pm10:5.704,O2:0.000,NO2:0.000,SO2:0.000,NH3:5.536
10:43:44,0,0,0,0,0,0,0,0,0,0,0,514,0,0,0,0,0.0000000,0.0000000,0.0000000,0.0000000,9.00,38.4063911,-110.7921295,1379.0999756,0.0,17.5,0.9,0.0,0.0,844,129,0,0,860.56,22.42,18.09,# data time:9610,pm2.5:6.445,pm10:5.704,O2:0.000,NO2:0.000,SO2:0.000,NH3:5.536
10:43:45,0,0,0,0,0,0,0,0,0,0,0,513,0,0,0,0,0.0000000,0.0000000,0.0000000,0.0000000,9.00,38.4063911,-110.7921295,1379.0999756,0.0,17.5,0.9,0.0,0.0,843,129,0,0,860.55,22.45,18.09,# data time:9610,pm2.5:6.445,pm10:5.704,O2:0.000,NO2:0.000,SO2:0.000,NH3:5.536
10:43:46,0,0,0,0,0,0,0,0,0,0,0,515,0,0,0,0,0.0000000,0.0000000,0.0000000,0.0000000,9.00,38.4063911,-110.7921295,1379.0999756,0.0,17.5,0.9,0.0,0.0,843,126,0,0,860.59,22.45,18.09,# data time:9610,pm2.5:6.445,pm10:5.704,O2:0.000,NO2:0.000,SO2:0.000,NH3:5.536
10:43:47,0,0,0,0,0,0,0,0,0,0,0,514,0,0,0,0,0.0000000,0.0000000,0.0000000,0.0000000,9.00,38.4063911,-110.7921295,1379.0999756,0.0,17.5,0.9,0.0,0.0,843,129,0,0,860.54,22.46,18.08,# data time:9610,pm2.5:6.445,pm10:5.704,O2:0.000,NO2:0.000,SO2:0.000,NH3:5.536
10:43:48,0,0,0,0,0,0,0,0,0,0,0,514,0,0,0,0,0.0000000,0.0000000,0.0000000,0.0000000,9.00,38.4063911,-110.7921295,1379.0999756,0.0,17.5,0.9,0.0,0.0,844,131,0,0,860.64,22.49,18.08,# data time:9610,pm2.5:6.445,pm10:5.704,O2:0.000,NO2:0.000,SO2:0.000,NH3:5.536
10:43:49,0,0,0,0,0,0,0,0,0,0,0,515,0,0,0,0,0.0000000,0.0000000,0.0000000,0.0000000,9.00,38.4063911,-110.7921295,1379.0999756,0.0,17.5,0.9,0.0,0.0,842,129,0,0,860.56,22.48,18.08,# data time:9610,pm2.5:6.445,pm10:5.704,O2:0.000,NO2:0.000,SO2:0.000,NH3:5.536
10:43:50,0,0,0,0,0,0,0,0,0,0,0,514,0,0,0,0,0.0000000,0.0000000,0.0000000,0.0000000,9.00,38.4063911,-110.7921295,1379.0999756,0.0,17.5,0.9,0.0,0.0,843,127,0,0,860.57,22.46,18.08,# data time:9610,pm2.5:6.445,pm10:5.704,O2:0.000,NO2:0.000,SO2:0.000,NH3:5.536
10:43:51,0,0,0,0,0,0,0,0,0,0,0,514,0,0,0,0,0.0000000,0.0000000,0.0000000,0.0000000,9.00,38.4063911,-110.7921295,1379.0999756,0.0,17.5,0.9,0.0,0.0,843,128,0,0,860.56,22.45,17.98,# data time:9620,pm2.5:6.445,pm10:5.704,O2:0.000,NO2:0.000,SO2:0.000,NH3:5.762
10:43:52,0,0,0,0,0,0,0,0,0,0,0,515,0,0,0,0,0.0000000,0.0000000,0.0000000,0.0000000,9.00,38.4063911,-110.7921295,1379.0999756,0.0,17.5,0.9,0.0,0.0,843,130,0,0,860.59,22.46,18.03,# data time:9620,pm2.5:6.445,pm10:5.704,O2:0.000,NO2:0.000,SO2:0.000,NH3:5.762
10:43:53,0,0,0,0,0,0,0,0,0,0,0,514,0,0,0,0,0.0000000,0.0000000,0.0000000,0.0000000,9.00,38.4063911,-110.7921295,1379.0999756,0.0,17.5,0.9,0.0,0.0,843,126,0,0,860.58,22.43,18.07,# data time:9620,pm2.5:6.445,pm10:5.704,O2:0.000,NO2:0.000,SO2:0.000,NH3:5.762
10:43:54,0,0,0,0,0,0,0,0,0,0,0,514,0,0,0,0,0.0000000,0.0000000,0.0000000,0.0000000,9.00,38.4063911,-110.7921295,1379.0999756,0.0,17.5,0.9,0.0,0.0,843,128,0,0,860.58,22.48,18.06,# data time:9620,pm2.5:6.445,pm10:5.704,O2:0.000,NO2:0.000,SO2:0.000,NH3:5.762
10:43:55,0,0,0,0,0,0,0,0,0,0,0,514,0,0,0,0,0.0000000,0.0000000,0.0000000,0.0000000,9.00,38.4063911,-110.7921295,1379.0999756,0.0,17.5,0.9,0.0,0.0,843,129,0,0,860.53,22.45,18.07,# data time:9620,pm2.5:6.445,pm10:5.704,O2:0.000,NO2:0.000,SO2:0.000,NH3:5.762
10:43:56,0,0,0,0,0,0,0,0,0,0,0,514,0,0,0,0,0.0000000,0.0000000,0.0000000,0.0000000,9.00,38.4063911,-110.7921295,1379.0999756,0.0,17.5,0.9,0.0,0.0,844,131,0,0,860.57,22.43,18.07,# data time:9620,pm2.5:6.445,pm10:5.704,O2:0.000,NO2:0.000,SO2:0.000,NH3:5.762
10:43:57,0,0,0,0,0,0,0,0,0,0,0,514,0,0,0,0,0.0000000,0.0000000,0.0000000,0.0000000,9.00,38.4063911,-110.7921295,1379.0999756,0.0,17.5,0.9,0.0,0.0,843,128,0,0,860.52,22.42,18.06,# data time:9620,pm2.5:6.445,pm10:5.704,O2:0.000,NO2:0.000,SO2:0.000,NH3:5.762
10:43:58,0,0,0,0,0,0,0,0,0,0,0,514,0,0,0,0,0.0000000,0.0000000,0.0000000,0.0000000,9.00,38.4063911,-110.7921295,1379.0999756,0.0,17.5,0.9,0.0,0.0,844,128,0,0,860.51,22.43,18.07,# data time:9620,pm2.5:6.445,pm10:5.704,O2:0.000,NO2:0.000,SO2:0.000,NH3:5.762
10:43:59,0,0,0,0,0,0,0,0,0,0,0,514,0,0,0,0,0.0000000,0.0000000,0.0000000,0.0000000,9.00,38.4063911,-110.7921295,1379.0999756,0.0,17.5,0.9,0.0,0.0,843,127,0,0,860.57,22.43,18.06,# data time:9620,pm2.5:6.445,pm10:5.704,O2:0.000,NO2:0.000,SO2:0.000,NH3:5.762
10:44:00,0,0,0,0,0,0,0,0,0,0,0,514,0,0,0,0,0.0000000,0.0000000,0.0000000,0.0000000,9.00,38.4063950,-110.7921295,1379.0999756,0.0,17.5,0.9,0.0,0.0,843,132,0,0,860.58,22.45,18.06,# data time:9620,pm2.5:6.445,pm10:5.704,O2:0.000,NO2:0.000,SO2:0.000,NH3:5.762
10:44:01,0,0,0,0,0,0,0,0,0,0,0,515,0,0,0,0,0.0000000,0.0000000,0.0000000,0.0000000,9.00,38.4063950,-110.7921295,1379.0999756,0.0,17.5,0.9,0.0,0.0,843,129,0,0,860.52,22.46,17.96,# data time:9630,pm2.5:6.445,pm10:5.704,O2:0.000,NO2:0.000,SO2:0.000,NH3:5.536
10:44:02,0,0,0,0,0,0,0,0,0,0,0,514,0,0,0,0,0.0000000,0.0000000,0.0000000,0.0000000,9.00,38.4063950,-110.7921295,1379.0999756,0.0,17.5,0.9,0.0,0.0,843,130,0,0,860.57,22.46,18.05,# data time:9630,pm2.5:6.445,pm10:5.704,O2:0.000,NO2:0.000,SO2:0.000,NH3:5.536
10:44:03,0,0,0,0,0,0,0,0,0,0,0,514,0,0,0,0,0.0000000,0.0000000,0.0000000,0.0000000,9.00,38.4063950,-110.7921295,1379.0999756,0.0,17.5,0.9,0.0,0.0,844,129,0,0,860.56,22.48,18.04,# data time:9630,pm2.5:6.445,pm10:5.704,O2:0.000,NO2:0.000,SO2:0.000,NH3:5.536
10:44:04,0,0,0,0,0,0,0,0,0,0,0,514,0,0,0,0,0.0000000,0.0000000,0.0000000,0.0000000,9.00,38.4063950,-110.7921295,1379.0999756,0.0,17.5,0.9,0.0,0.0,843,127,0,0,860.53,22.46,18.04,# data time:9630,pm2.5:6.445,pm10:5.704,O2:0.000,NO2:0.000,SO2:0.000,NH3:5.536
10:44:05,0,0,0,0,0,0,0,0,0,0,0,514,0,0,0,0,0.0000000,0.0000000,0.0000000,0.0000000,9.00,38.4063950,-110.7921295,1379.0999756,0.0,17.5,0.9,0.0,0.0,843,132,0,0,860.57,22.48,18.04,# data time:9630,pm2.5:6.445,pm10:5.704,O2:0.000,NO2:0.000,SO2:0.000,NH3:5.536
10:44:06,0,0,0,0,0,0,0,0,0,0,0,514,0,0,0,0,0.0000000,0.0000000,0.0000000,0.0000000,9.00,38.4063950,-110.7921371,1379.0999756,0.0,17.5,0.9,0.0,0.0,843,133,0,0,860.59,22.49,18.04,# data time:9630,pm2.5:6.445,pm10:5.704,O2:0.000,NO2:0.000,SO2:0.000,NH3:5.536
10:44:07,0,0,0,0,0,0,0,0,0,0,0,514,0,0,0,0,0.0000000,0.0000000,0.0000000,0.0000000,9.00,38.4063950,-110.7921295,1379.0999756,0.0,17.5,0.9,0.0,0.0,843,134,0,0,860.54,22.49,18.04,# data time:9630,pm2.5:6.445,pm10:5.704,O2:0.000,NO2:0.000,SO2:0.000,NH3:5.536
10:44:08,0,0,0,0,0,0,0,0,0,0,0,514,0,0,0,0,0.0000000,0.0000000,0.0000000,0.0000000,9.00,38.4063950,-110.7921295,1379.0999756,0.0,17.5,0.9,0.0,0.0,843,127,0,0,860.58,22.49,18.03,# data time:9630,pm2.5:6.445,pm10:5.704,O2:0.000,NO2:0.000,SO2:0.000,NH3:5.536
10:44:09,0,0,0,0,0,0,0,0,0,0,0,514,0,0,0,0,0.0000000,0.0000000,0.0000000,0.0000000,9.00,38.4063950,-110.7921371,1379.0999756,0.0,17.5,0.9,0.0,0.0,843,127,0,0,860.56,22.46,18.04,# data time:9630,pm2.5:6.445,pm10:5.704,O2:0.000,NO2:0.000,SO2:0.000,NH3:5.536
10:44:10,0,0,0,0,0,0,0,0,0,0,0,513,0,0,0,0,0.0000000,0.0000000,0.0000000,0.0000000,9.00,38.4063950,-110.7921371,1379.0999756,0.0,17.5,0.9,0.0,0.0,843,132,0,0,860.57,22.46,18.04,# data time:9630,pm2.5:6.445,pm10:5.704,O2:0.000,NO2:0.000,SO2:0.000,NH3:5.536
10:44:11,0,0,0,0,0,0,0,0,0,0,0,515,0,0,0,0,0.0000000,0.0000000,0.0000000,0.0000000,9.00,38.4063950,-110.7921371,1379.0999756,0.0,17.5,0.9,0.0,0.0,843,131,0,0,860.53,22.48,17.94,# data time:9640,pm2.5:5.640,pm10:4.991,O2:0.000,NO2:0.000,SO2:0.000,NH3:5.536
10:44:12,0,0,0,0,0,0,0,0,0,0,0,515,0,0,0,0,0.0000000,0.0000000,0.0000000,0.0000000,9.00,38.4063950,-110.7921371,1379.0999756,0.0,17.5,0.9,0.0,0.0,843,129,0,0,860.58,22.51,18.02,# data time:9640,pm2.5:5.640,pm10:4.991,O2:0.000,NO2:0.000,SO2:0.000,NH3:5.536
10:44:13,0,0,0,0,0,0,0,0,0,0,0,514,0,0,0,0,0.0000000,0.0000000,0.0000000,0.0000000,9.00,38.4063911,-110.7921371,1379.0999756,0.1,17.5,0.9,0.0,0.0,843,126,0,0,860.60,22.54,18.02,# data time:9640,pm2.5:5.640,pm10:4.991,O2:0.000,NO2:0.000,SO2:0.000,NH3:5.536
10:44:14,0,0,0,0,0,0,0,0,0,0,0,515,0,0,0,0,0.0000000,0.0000000,0.0000000,0.0000000,9.00,38.4063911,-110.7921371,1379.0999756,0.1,17.5,0.9,0.0,0.0,843,126,0,0,860.57,22.52,18.02,# data time:9640,pm2.5:5.640,pm10:4.991,O2:0.000,NO2:0.000,SO2:0.000,NH3:5.536
10:44:15,0,0,0,0,0,0,0,0,0,0,0,514,0,0,0,0,0.0000000,0.0000000,0.0000000,0.0000000,9.00,38.4063911,-110.7921371,1379.0999756,0.1,17.5,0.9,0.0,0.0,842,128,0,0,860.58,22.58,18.01,# data time:9640,pm2.5:5.640,pm10:4.991,O2:0.000,NO2:0.000,SO2:0.000,NH3:5.536
10:44:16,0,0,0,0,0,0,0,0,0,0,0,514,0,0,0,0,0.0000000,0.0000000,0.0000000,0.0000000,9.00,38.4063911,-110.7921371,1379.0999756,0.1,17.5,0.9,0.0,0.0,842,128,0,0,860.58,22.55,18.02,# data time:9640,pm2.5:5.640,pm10:4.991,O2:0.000,NO2:0.000,SO2:0.000,NH3:5.536
10:44:17,0,0,0,0,0,0,0,0,0,0,0,514,0,0,0,0,0.0000000,0.0000000,0.0000000,0.0000000,9.00,38.4063911,-110.7921371,1379.0999756,0.1,17.5,0.9,0.0,0.0,843,130,0,0,860.57,22.55,18.02,# data time:9640,pm2.5:5.640,pm10:4.991,O2:0.000,NO2:0.000,SO2:0.000,NH3:5.536
10:44:18,0,0,0,0,0,0,0,0,0,0,0,515,0,0,0,0,0.0000000,0.0000000,0.0000000,0.0000000,9.00,38.4063911,-110.7921371,1379.0999756,0.1,17.5,0.9,0.0,0.0,844,128,0,0,860.60,22.58,18.02,# data time:9640,pm2.5:5.640,pm10:4.991,O2:0.000,NO2:0.000,SO2:0.000,NH3:5.536
10:44:19,0,0,0,0,0,0,0,0,0,0,0,514,0,0,0,0,0.0000000,0.0000000,0.0000000,0.0000000,9.00,38.4063911,-110.7921371,1379.0999756,0.1,17.5,0.9,0.0,0.0,843,134,0,0,860.56,22.58,18.01,# data time:9640,pm2.5:5.640,pm10:4.991,O2:0.000,NO2:0.000,SO2:0.000,NH3:5.536
10:44:20,0,0,0,0,0,0,0,0,0,0,0,514,0,0,0,0,0.0000000,0.0000000,0.0000000,0.0000000,9.00,38.4063911,-110.7921371,1379.0999756,0.1,17.5,0.9,0.0,0.0,843,130,0,0,860.56,22.58,18.00,# data time:9640,pm2.5:5.640,pm10:4.991,O2:0.000,NO2:0.000,SO2:0.000,NH3:5.536
10:44:21,0,0,0,0,0,0,0,0,0,0,0,514,0,0,0,0,0.0000000,0.0000000,0.0000000,0.0000000,9.00,38.4063911,-110.7921371,1379.0999756,0.1,17.5,0.9,0.0,0.0,843,128,0,0,860.56,22.60,17.91,# data time:9650,pm2.5:6.445,pm10:5.704,O2:0.000,NO2:0.000,SO2:0.000,NH3:5.536
10:44:22,0,0,0,0,0,0,0,0,0,0,0,514,0,0,0,0,0.0000000,0.0000000,0.0000000,0.0000000,9.00,38.4063911,-110.7921371,1379.0999756,0.1,17.5,0.9,0.0,0.0,844,135,0,0,860.58,22.60,17.98,# data time:9650,pm2.5:6.445,pm10:5.704,O2:0.000,NO2:0.000,SO2:0.000,NH3:5.536
10:44:23,0,0,0,0,0,0,0,0,0,0,0,514,0,0,0,0,0.0000000,0.0000000,0.0000000,0.0000000,9.00,38.4063911,-110.7921371,1379.0999756,0.1,17.5,0.9,0.0,0.0,842,130,0,0,860.63,22.60,17.99,# data time:9650,pm2.5:6.445,pm10:5.704,O2:0.000,NO2:0.000,SO2:0.000,NH3:5.536
10:44:24,0,0,0,0,0,0,0,0,0,0,0,514,0,0,0,0,0.0000000,0.0000000,0.0000000,0.0000000,9.00,38.4063911,-110.7921371,1379.0999756,0.1,17.5,0.9,0.0,0.0,843,131,0,0,860.57,22.61,17.99,# data time:9650,pm2.5:6.445,pm10:5.704,O2:0.000,NO2:0.000,SO2:0.000,NH3:5.536
10:44:25,0,0,0,0,0,0,0,0,0,0,0,514,0,0,0,0,0.0000000,0.0000000,0.0000000,0.0000000,9.00,38.4063911,-110.7921371,1379.0999756,0.1,17.5,0.9,0.0,0.0,843,129,0,0,860.54,22.57,17.99,# data time:9650,pm2.5:6.445,pm10:5.704,O2:0.000,NO2:0.000,SO2:0.000,NH3:5.536
10:44:26,0,0,0,0,0,0,0,0,0,0,0,513,0,0,0,0,0.0000000,0.0000000,0.0000000,0.0000000,9.00,38.4063911,-110.7921371,1379.0999756,0.1,17.5,0.9,0.0,0.0,843,133,0,0,860.55,22.57,17.99,# data time:9650,pm2.5:6.445,pm10:5.704,O2:0.000,NO2:0.000,SO2:0.000,NH3:5.536
10:44:27,0,0,0,0,0,0,0,0,0,0,0,515,0,0,0,0,0.0000000,0.0000000,0.0000000,0.0000000,9.00,38.4063911,-110.7921371,1379.0999756,0.1,17.5,0.9,0.0,0.0,843,128,0,0,860.57,22.58,17.99,# data time:9650,pm2.5:6.445,pm10:5.704,O2:0.000,NO2:0.000,SO2:0.000,NH3:5.536
10:44:28,0,0,0,0,0,0,0,0,0,0,0,514,0,0,0,0,0.0000000,0.0000000,0.0000000,0.0000000,9.00,38.4063911,-110.7921371,1379.0999756,0.1,17.5,0.9,0.0,0.0,843,129,0,0,860.55,22.58,17.99,# data time:9650,pm2.5:6.445,pm10:5.704,O2:0.000,NO2:0.000,SO2:0.000,NH3:5.536
10:44:29,0,0,0,0,0,0,0,0,0,0,0,514,0,0,0,0,0.0000000,0.0000000,0.0000000,0.0000000,9.00,38.4063911,-110.7921371,1379.0999756,0.1,17.5,0.9,0.0,0.0,843,127,0,0,860.59,22.54,17.99,# data time:9650,pm2.5:6.445,pm10:5.704,O2:0.000,NO2:0.000,SO2:0.000,NH3:5.536
10:44:30,0,0,0,0,0,0,0,0,0,0,0,515,0,0,0,0,0.0000000,0.0000000,0.0000000,0.0000000,9.00,38.4063911,-110.7921371,1379.0999756,0.1,17.5,0.9,0.0,0.0,843,128,0,0,860.60,22.55,17.98,# data time:9650,pm2.5:6.445,pm10:5.704,O2:0.000,NO2:0.000,SO2:0.000,NH3:5.536
10:44:31,0,0,0,0,0,0,0,0,0,0,0,514,0,0,0,0,0.0000000,0.0000000,0.0000000,0.0000000,9.00,38.4063911,-110.7921371,1379.0999756,0.1,17.5,0.9,0.0,0.0,843,129,0,0,860.53,22.54,17.89,# data time:9660,pm2.5:6.445,pm10:5.704,O2:0.000,NO2:0.000,SO2:0.000,NH3:5.536
10:44:32,0,0,0,0,0,0,0,0,0,0,0,515,0,0,0,0,0.0000000,0.0000000,0.0000000,0.0000000,9.00,38.4063911,-110.7921371,1379.0999756,0.1,17.5,0.9,0.0,0.0,843,126,0,0,860.54,22.55,17.98,# data time:9660,pm2.5:6.445,pm10:5.704,O2:0.000,NO2:0.000,SO2:0.000,NH3:5.536
10:44:33,0,0,0,0,0,0,0,0,0,0,0,513,0,0,0,0,0.0000000,0.0000000,0.0000000,0.0000000,9.00,38.4063911,-110.7921371,1379.0999756,0.1,17.5,0.9,0.0,0.0,843,131,0,0,860.60,22.54,17.98,# data time:9660,pm2.5:6.445,pm10:5.704,O2:0.000,NO2:0.000,SO2:0.000,NH3:5.536
10:44:34,0,0,0,0,0,0,0,0,0,0,0,514,0,0,0,0,0.0000000,0.0000000,0.0000000,0.0000000,9.00,38.4063873,-110.7921371,1379.0999756,0.1,17.5,0.9,0.0,0.0,843,127,0,0,860.59,22.52,17.98,# data time:9660,pm2.5:6.445,pm10:5.704,O2:0.000,NO2:0.000,SO2:0.000,NH3:5.536
10:44:35,0,0,0,0,0,0,0,0,0,0,0,514,0,0,0,0,0.0000000,0.0000000,0.0000000,0.0000000,9.00,38.4063873,-110.7921371,1379.0999756,0.1,17.5,0.9,0.0,0.0,843,124,0,0,860.55,22.52,17.97,# data time:9660,pm2.5:6.445,pm10:5.704,O2:0.000,NO2:0.000,SO2:0.000,NH3:5.536
10:44:36,0,0,0,0,0,0,0,0,0,0,0,514,0,0,0,0,0.0000000,0.0000000,0.0000000,0.0000000,9.00,38.4063873,-110.7921371,1379.0999756,0.1,17.5,0.9,0.0,0.0,843,131,0,0,860.56,22.51,17.97,# data time:9660,pm2.5:6.445,pm10:5.704,O2:0.000,NO2:0.000,SO2:0.000,NH3:5.536
10:44:37,0,0,0,0,0,0,0,0,0,0,0,514,0,0,0,0,0.0000000,0.0000000,0.0000000,0.0000000,9.00,38.4063873,-110.7921524,1379.0999756,0.1,17.5,0.9,0.0,0.0,843,128,0,0,860.57,22.52,17.88,# data time:9660,pm2.5:6.445,pm10:5.704,O2:0.000,NO2:0.000,SO2:0.000,NH3:5.536
10:44:38,0,0,0,0,0,0,0,0,0,0,0,514,0,0,0,0,0.0000000,0.0000000,0.0000000,0.0000000,9.00,38.4063873,-110.7921524,1379.0999756,0.1,17.5,0.9,0.0,0.0,843,129,0,0,860.53,22.54,17.88,# data time:9660,pm2.5:6.445,pm10:5.704,O2:0.000,NO2:0.000,SO2:0.000,NH3:5.536
10:44:39,0,0,0,0,0,0,0,0,0,0,0,514,0,0,0,0,0.0000000,0.0000000,0.0000000,0.0000000,9.00,38.4063873,-110.7921524,1379.0999756,0.1,17.5,0.9,0.0,0.0,843,127,0,0,860.60,22.51,17.93,# data time:9660,pm2.5:6.445,pm10:5.704,O2:0.000,NO2:0.000,SO2:0.000,NH3:5.536
