Time, Motor A Speed, Motor A Dir, Motor B Speed, Motor B Dir, Servo Rail Current Sensor, Servo Pos - Arm L, Servo Pos - Arm R, Servo Pos - End, Servo Pos - Hopper, Servo Pos - Lid, Servo Pos - Extra, Servo Current, LED - Front L, LED - Front R, LED - Back L, LED - Back R, IMU Pitch, IMU Roll, IMU Yaw, Compass Heading, GPS Sats, GPS Latitude, GPS Longitude, GPS Altitude, GPS Speed, GPS Angle, GPS HDOP, GPS VDOP, GPS PDOP, Battery, Wind, Comm Xbee Latency, Comm Arduino Latency, Pressure, Humidity, Temperature, uRADMonitor
11:55:43,0,0,0,0,0,0,0,0,0,0,0,513,0,0,0,0,0.0000000,0.0000000,0.0000000,0.0000000,8.00,38.4066467,-110.7925262,1400.3000488,0.0,17.5,1.0,0.0,0.0,818,126,0,0,860.40,21.13,18.31,# data time:13930,pm2.5:6.445,pm10:5.704,O2:0.000,NO2:0.000,SO2:0.000,NH3:5.536
11:55:44,0,0,0,0,0,0,0,0,0,0,0,514,0,0,0,0,0.0000000,0.0000000,0.0000000,0.0000000,8.00,38.4066467,-110.7925262,1400.3000488,0.0,17.5,1.0,0.0,0.0,817,126,0,0,860.37,21.13,18.31,# data time:13930,pm2.5:6.445,pm10:5.704,O2:0.000,NO2:0.000,SO2:0.000,NH3:5.536
11:55:45,0,0,0,0,0,0,0,0,0,0,0,516,0,0,0,0,0.0000000,0.0000000,0.0000000,0.0000000,8.00,38.4066467,-110.7925262,1400.3000488,0.1,17.5,1.0,0.0,0.0,818,128,0,0,860.37,21.10,18.32,# data time:13930,pm2.5:6.445,pm10:5.704,O2:0.000,NO2:0.000,SO2:0.000,NH3:5.536
11:55:46,0,0,0,0,0,0,0,0,0,0,0,512,0,0,0,0,0.0000000,0.0000000,0.0000000,0.0000000,8.00,38.4066467,-110.7925262,1400.3000488,0.0,17.5,1.0,0.0,0.0,819,123,0,0,860.36,21.09,18.32,# data time:13930,pm2.5:6.445,pm10:5.704,O2:0.000,NO2:0.000,SO2:0.000,NH3:5.536
11:55:47,0,0,0,0,0,0,0,0,0,0,0,514,0,0,0,0,0.0000000,0.0000000,0.0000000,0.0000000,8.00,38.4066467,-110.7925262,1400.3000488,0.0,17.5,1.0,0.0,0.0,816,132,0,0,860.36,21.10,18.32,# data time:13930,pm2.5:6.445,pm10:5.704,O2:0.000,NO2:0.000,SO2:0.000,NH3:5.536
11:55:48,0,0,0,0,0,0,0,0,0,0,0,514,0,0,0,0,0.0000000,0.0000000,0.0000000,0.0000000,8.00,38.4066505,-110.7925262,1400.3000488,0.0,17.5,1.0,0.0,0.0,818,127,0,0,860.39,21.10,18.32,# data time:13940,pm2.5:6.445,pm10:5.704,O2:0.000,NO2:0.000,SO2:0.000,NH3:5.536
11:55:49,0,0,0,0,0,0,0,0,0,0,0,514,0,0,0,0,0.0000000,0.0000000,0.0000000,0.0000000,8.00,38.4066505,-110.7925262,1400.3000488,0.0,17.5,1.0,0.0,0.0,818,131,0,0,860.38,21.10,18.32,# data time:13940,pm2.5:6.445,pm10:5.704,O2:0.000,NO2:0.000,SO2:0.000,NH3:5.536
11:55:50,0,0,0,0,0,0,0,0,0,0,0,514,0,0,0,0,0.0000000,0.0000000,0.0000000,0.0000000,8.00,38.4066505,-110.7925262,1400.3000488,0.0,17.5,1.0,0.0,0.0,818,130,0,0,860.38,21.12,18.32,# data time:13940,pm2.5:6.445,pm10:5.704,O2:0.000,NO2:0.000,SO2:0.000,NH3:5.536
11:55:51,0,0,0,0,0,0,0,0,0,0,0,515,0,0,0,0,0.0000000,0.0000000,0.0000000,0.0000000,8.00,38.4066505,-110.7925262,1400.3000488,0.0,17.5,1.0,0.0,0.0,818,121,0,0,860.40,21.09,18.32,# data time:13940,pm2.5:6.445,pm10:5.704,O2:0.000,NO2:0.000,SO2:0.000,NH3:5.536
11:55:52,0,0,0,0,0,0,0,0,0,0,0,515,0,0,0,0,0.0000000,0.0000000,0.0000000,0.0000000,8.00,38.4066505,-110.7925262,1400.3000488,0.0,17.5,1.0,0.0,0.0,818,129,0,0,860.39,21.10,18.32,# data time:13940,pm2.5:6.445,pm10:5.704,O2:0.000,NO2:0.000,SO2:0.000,NH3:5.536
11:55:53,0,0,0,0,0,0,0,0,0,0,0,514,0,0,0,0,0.0000000,0.0000000,0.0000000,0.0000000,8.00,38.4066505,-110.7925262,1400.3000488,0.0,17.5,1.0,0.0,0.0,818,127,0,0,860.39,21.13,18.32,# data time:13940,pm2.5:6.445,pm10:5.704,O2:0.000,NO2:0.000,SO2:0.000,NH3:5.536
11:55:54,0,0,0,0,0,0,0,0,0,0,0,514,0,0,0,0,0.0000000,0.0000000,0.0000000,0.0000000,8.00,38.4066505,-110.7925262,1400.3000488,0.0,17.5,1.0,0.0,0.0,818,127,0,0,860.39,21.15,18.32,# data time:13940,pm2.5:6.445,pm10:5.704,O2:0.000,NO2:0.000,SO2:0.000,NH3:5.536
11:55:55,0,0,0,0,0,0,0,0,0,0,0,514,0,0,0,0,0.0000000,0.0000000,0.0000000,0.0000000,8.00,38.4066505,-110.7925262,1400.3000488,0.0,17.5,1.0,0.0,0.0,818,130,0,0,860.37,21.13,18.32,# data time:13940,pm2.5:6.445,pm10:5.704,O2:0.000,NO2:0.000,SO2:0.000,NH3:5.536
11:55:56,0,0,0,0,0,0,0,0,0,0,0,514,0,0,0,0,0.0000000,0.0000000,0.0000000,0.0000000,8.00,38.4066505,-110.7925262,1400.3000488,0.0,17.5,1.0,0.0,0.0,817,128,0,0,860.40,21.12,18.32,# data time:13940,pm2.5:6.445,pm10:5.704,O2:0.000,NO2:0.000,SO2:0.000,NH3:5.536
11:55:57,0,0,0,0,0,0,0,0,0,0,0,514,0,0,0,0,0.0000000,0.0000000,0.0000000,0.0000000,8.00,38.4066505,-110.7925262,1400.3000488,0.0,17.5,1.0,0.0,0.0,818,128,0,0,860.36,21.13,18.32,# data time:13940,pm2.5:6.445,pm10:5.704,O2:0.000,NO2:0.000,SO2:0.000,NH3:5.536
11:55:58,0,0,0,0,0,0,0,0,0,0,0,514,0,0,0,0,0.0000000,0.0000000,0.0000000,0.0000000,8.00,38.4066505,-110.7925262,1400.3000488,0.0,17.5,1.0,0.0,0.0,818,126,0,0,860.35,21.13,18.32,# data time:13950,pm2.5:6.445,pm10:5.704,O2:0.000,NO2:0.000,SO2:0.000,NH3:5.536
11:55:59,0,0,0,0,0,0,0,0,0,0,0,515,0,0,0,0,0.0000000,0.0000000,0.0000000,0.0000000,8.00,38.4066505,-110.7925262,1400.3000488,0.0,17.5,1.0,0.0,0.0,818,125,0,0,860.36,21.13,18.32,# data time:13950,pm2.5:6.445,pm10:5.704,O2:0.000,NO2:0.000,SO2:0.000,NH3:5.536
11:56:00,0,0,0,0,0,0,0,0,0,0,0,514,0,0,0,0,0.0000000,0.0000000,0.0000000,0.0000000,8.00,38.4066505,-110.7925262,1400.3000488,0.0,17.5,1.0,0.0,0.0,818,123,0,0,860.37,21.13,18.33,# data time:13950,pm2.5:6.445,pm10:5.704,O2:0.000,NO2:0.000,SO2:0.000,NH3:5.536
11:56:01,0,0,0,0,0,0,0,0,0,0,0,515,0,0,0,0,0.0000000,0.0000000,0.0000000,0.0000000,8.00,38.4066505,-110.7925262,1400.3000488,0.0,17.5,1.0,0.0,0.0,818,127,0,0,860.38,21.12,18.32,# data time:13950,pm2.5:6.445,pm10:5.704,O2:0.000,NO2:0.000,SO2:0.000,NH3:5.536
11:56:02,0,0,0,0,0,0,0,0,0,0,0,514,0,0,0,0,0.0000000,0.0000000,0.0000000,0.0000000,8.00,38.4066505,-110.7925262,1400.3000488,0.0,17.5,1.0,0.0,0.0,819,127,0,0,860.38,21.12,18.33,# data time:13950,pm2.5:6.445,pm10:5.704,O2:0.000,NO2:0.000,SO2:0.000,NH3:5.536
11:56:03,0,0,0,0,0,0,0,0,0,0,0,514,0,0,0,0,0.0000000,0.0000000,0.0000000,0.0000000,8.00,38.4066505,-110.7925262,1400.3000488,0.0,17.5,1.0,0.0,0.0,818,128,0,0,860.40,21.12,18.33,# data time:13950,pm2.5:6.445,pm10:5.704,O2:0.000,NO2:0.000,SO2:0.000,NH3:5.536
11:56:04,0,0,0,0,0,0,0,0,0,0,0,514,0,0,0,0,0.0000000,0.0000000,0.0000000,0.0000000,8.00,38.4066505,-110.7925262,1400.3000488,0.0,17.5,1.0,0.0,0.0,818,125,0,0,860.37,21.12,18.33,# data time:13950,pm2.5:6.445,pm10:5.704,O2:0.000,NO2:0.000,SO2:0.000,NH3:5.536
11:56:05,0,0,0,0,0,0,0,0,0,0,0,514,0,0,0,0,0.0000000,0.0000000,0.0000000,0.0000000,8.00,38.4066505,-110.7925262,1400.3000488,0.0,17.5,1.0,0.0,0.0,818,126,0,0,860.36,21.10,18.33,# data time:13950,pm2.5:6.445,pm10:5.704,O2:0.000,NO2:0.000,SO2:0.000,NH3:5.536
11:56:06,0,0,0,0,0,0,0,0,0,0,0,514,0,0,0,0,0.0000000,0.0000000,0.0000000,0.0000000,8.00,38.4066505,-110.7925262,1400.3000488,0.0,17.5,1.0,0.0,0.0,818,128,0,0,860.32,21.12,18.33,# data time:13950,pm2.5:6.445,pm10:5.704,O2:0.000,NO2:0.000,SO2:0.000,NH3:5.536
11:56:07,0,0,0,0,0,0,0,0,0,0,0,514,0,0,0,0,0.0000000,0.0000000,0.0000000,0.0000000,8.00,38.4066505,-110.7925262,1400.3000488,0.0,17.5,1.0,0.0,0.0,818,129,0,0,860.37,21.13,18.33,# data time:13950,pm2.5:6.445,pm10:5.704,O2:0.000,NO2:0.000,SO2:0.000,NH3:5.536
11:56:08,0,0,0,0,0,0,0,0,0,0,0,513,0,0,0,0,0.0000000,0.0000000,0.0000000,0.0000000,8.00,38.4066505,-110.7925262,1400.3000488,0.0,17.5,1.0,0.0,0.0,818,130,0,0,860.37,21.07,18.33,# data time:13960,pm2.5:6.445,pm10:5.704,O2:0.000,NO2:0.000,SO2:0.000,NH3:5.536
11:56:09,0,0,0,0,0,0,0,0,0,0,0,514,0,0,0,0,0.0000000,0.0000000,0.0000000,0.0000000,8.00,38.4066505,-110.7925262,1400.3000488,0.0,17.5,1.0,0.0,0.0,819,130,0,0,860.33,21.07,18.33,# data time:13960,pm2.5:6.445,pm10:5.704,O2:0.000,NO2:0.000,SO2:0.000,NH3:5.536
11:56:10,0,0,0,0,0,0,0,0,0,0,0,514,0,0,0,0,0.0000000,0.0000000,0.0000000,0.0000000,8.00,38.4066505,-110.7925262,1400.3000488,0.0,17.5,1.0,0.0,0.0,818,126,0,0,860.34,21.09,18.33,# data time:13960,pm2.5:6.445,pm10:5.704,O2:0.000,NO2:0.000,SO2:0.000,NH3:5.536
11:56:11,0,0,0,0,0,0,0,0,0,0,0,511,0,0,0,0,0.0000000,0.0000000,0.0000000,0.0000000,8.00,38.4066505,-110.7925262,1400.3000488,0.0,17.5,1.0,0.0,0.0,818,126,0,0,860.32,21.07,18.22,# data time:13960,pm2.5:6.445,pm10:5.704,O2:0.000,NO2:0.000,SO2:0.000,NH3:5.536
11:56:12,0,0,0,0,0,0,0,0,0,0,0,514,0,0,0,0,0.0000000,0.0000000,0.0000000,0.0000000,8.00,38.4066505,-110.7925262,1400.3000488,0.0,17.5,1.0,0.0,0.0,818,128,0,0,860.39,21.09,18.22,# data time:13960,pm2.5:6.445,pm10:5.704,O2:0.000,NO2:0.000,SO2:0.000,NH3:5.536
11:56:13,0,0,0,0,0,0,0,0,0,0,0,514,0,0,0,0,0.0000000,0.0000000,0.0000000,0.0000000,8.00,38.4066505,-110.7925262,1400.3000488,0.0,17.5,1.0,0.0,0.0,818,127,0,0,860.38,21.09,18.28,# data time:13960,pm2.5:6.445,pm10:5.704,O2:0.000,NO2:0.000,SO2:0.000,NH3:5.536
11:56:14,0,0,0,0,0,0,0,0,0,0,0,515,0,0,0,0,0.0000000,0.0000000,0.0000000,0.0000000,8.00,38.4066505,-110.7925262,1400.3000488,0.0,17.5,1.0,0.0,0.0,818,135,0,0,860.42,21.10,18.32,# data time:13960,pm2.5:6.445,pm10:5.704,O2:0.000,NO2:0.000,SO2:0.000,NH3:5.536
11:56:15,0,0,0,0,0,0,0,0,0,0,0,515,0,0,0,0,0.0000000,0.0000000,0.0000000,0.0000000,8.00,38.4066505,-110.7925262,1400.3000488,0.0,17.5,1.0,0.0,0.0,818,127,0,0,860.37,21.09,18.32,# data time:13960,pm2.5:6.445,pm10:5.704,O2:0.000,NO2:0.000,SO2:0.000,NH3:5.536
11:56:16,0,0,0,0,0,0,0,0,0,0,0,514,0,0,0,0,0.0000000,0.0000000,0.0000000,0.0000000,8.00,38.4066505,-110.7925262,1400.3000488,0.0,17.5,1.0,0.0,0.0,818,127,0,0,860.38,21.10,18.32,# data time:13960,pm2.5:6.445,pm10:5.704,O2:0.000,NO2:0.000,SO2:0.000,NH3:5.536
11:56:17,0,0,0,0,0,0,0,0,0,0,0,514,0,0,0,0,0.0000000,0.0000000,0.0000000,0.0000000,8.00,38.4066505,-110.7925262,1400.3000488,0.0,17.5,1.0,0.0,0.0,818,129,0,0,860.42,21.12,18.33,# data time:13960,pm2.5:6.445,pm10:5.704,O2:0.000,NO2:0.000,SO2:0.000,NH3:5.536
11:56:18,0,0,0,0,0,0,0,0,0,0,0,514,0,0,0,0,0.0000000,0.0000000,0.0000000,0.0000000,8.00,38.4066505,-110.7925262,1400.3000488,0.0,17.5,1.0,0.0,0.0,818,128,0,0,860.40,21.10,18.33,# data time:13970,pm2.5:6.445,pm10:5.704,O2:0.000,NO2:0.000,SO2:0.000,NH3:5.536
11:56:19,0,0,0,0,0,0,0,0,0,0,0,515,0,0,0,0,0.0000000,0.0000000,0.0000000,0.0000000,8.00,38.4066505,-110.7925262,1400.3000488,0.0,17.5,1.0,0.0,0.0,818,128,0,0,860.39,21.13,18.33,# data time:13970,pm2.5:6.445,pm10:5.704,O2:0.000,NO2:0.000,SO2:0.000,NH3:5.536
11:56:20,0,0,0,0,0,0,0,0,0,0,0,514,0,0,0,0,0.0000000,0.0000000,0.0000000,0.0000000,8.00,38.4066505,-110.7925262,1400.3000488,0.0,17.5,1.0,0.0,0.0,818,127,0,0,860.43,21.12,18.33,# data time:13970,pm2.5:6.445,pm10:5.704,O2:0.000,NO2:0.000,SO2:0.000,NH3:5.536
11:56:21,0,0,0,0,0,0,0,0,0,0,0,515,0,0,0,0,0.0000000,0.0000000,0.0000000,0.0000000,8.00,38.4066505,-110.7925262,1400.3000488,0.0,17.5,1.0,0.0,0.0,818,127,0,0,860.43,21.12,18.33,# data time:13970,pm2.5:6.445,pm10:5.704,O2:0.000,NO2:0.000,SO2:0.000,NH3:5.536
11:56:23,0,0,0,0,0,0,0,0,0,0,0,514,0,0,0,0,0.0000000,0.0000000,0.0000000,0.0000000,8.00,38.4066505,-110.7925262,1400.3000488,0.0,17.5,1.0,0.0,0.0,818,127,0,0,860.38,21.10,18.33,# data time:13970,pm2.5:6.445,pm10:5.704,O2:0.000,NO2:0.000,SO2:0.000,NH3:5.536
11:56:24,0,0,0,0,0,0,0,0,0,0,0,514,0,0,0,0,0.0000000,0.0000000,0.0000000,0.0000000,8.00,38.4066467,-110.7925262,1400.3000488,0.0,17.5,1.0,0.0,0.0,818,126,0,0,860.43,21.09,18.33,# data time:13970,pm2.5:6.445,pm10:5.704,O2:0.000,NO2:0.000,SO2:0.000,NH3:5.536
11:56:25,0,0,0,0,0,0,0,0,0,0,0,514,0,0,0,0,0.0000000,0.0000000,0.0000000,0.0000000,8.00,38.4066467,-110.7925262,1400.3000488,0.0,17.5,1.0,0.0,0.0,818,128,0,0,860.38,21.07,18.33,# data time:13970,pm2.5:6.445,pm10:5.704,O2:0.000,NO2:0.000,SO2:0.000,NH3:5.536
11:56:26,0,0,0,0,0,0,0,0,0,0,0,515,0,0,0,0,0.0000000,0.0000000,0.0000000,0.0000000,8.00,38.4066467,-110.7925262,1400.3000488,0.0,17.5,1.0,0.0,0.0,818,126,0,0,860.39,21.07,18.33,# data time:13970,pm2.5:6.445,pm10:5.704,O2:0.000,NO2:0.000,SO2:0.000,NH3:5.536
11:56:27,0,0,0,0,0,0,0,0,0,0,0,514,0,0,0,0,0.0000000,0.0000000,0.0000000,0.0000000,8.00,38.4066467,-110.7925262,1400.3000488,0.0,17.5,1.0,0.0,0.0,819,126,0,0,860.37,21.10,18.33,# data time:13970,pm2.5:6.445,pm10:5.704,O2:0.000,NO2:0.000,SO2:0.000,NH3:5.536
11:56:28,0,0,0,0,0,0,0,0,0,0,0,514,0,0,0,0,0.0000000,0.0000000,0.0000000,0.0000000,8.00,38.4066467,-110.7925262,1400.3000488,0.0,17.5,1.0,0.0,0.0,818,126,0,0,860.39,21.12,18.33,# data time:13970,pm2.5:6.445,pm10:5.704,O2:0.000,NO2:0.000,SO2:0.000,NH3:5.536
11:56:29,0,0,0,0,0,0,0,0,0,0,0,514,0,0,0,0,0.0000000,0.0000000,0.0000000,0.0000000,8.00,38.4066467,-110.7925262,1400.3000488,0.0,17.5,1.0,0.0,0.0,818,129,0,0,860.38,21.12,18.33,# data time:13980,pm2.5:6.445,pm10:5.704,O2:0.000,NO2:0.000,SO2:0.000,NH3:5.536
11:56:30,0,0,0,0,0,0,0,0,0,0,0,514,0,0,0,0,0.0000000,0.0000000,0.0000000,0.0000000,8.00,38.4066467,-110.7925262,1400.3000488,0.0,17.5,1.0,0.0,0.0,818,126,0,0,860.39,21.12,18.34,# data time:13980,pm2.5:6.445,pm10:5.704,O2:0.000,NO2:0.000,SO2:0.000,NH3:5.536
11:56:31,0,0,0,0,0,0,0,0,0,0,0,514,0,0,0,0,0.0000000,0.0000000,0.0000000,0.0000000,8.00,38.4066467,-110.7925262,1400.3000488,0.0,17.5,1.0,0.0,0.0,818,126,0,0,860.43,21.13,18.33,# data time:13980,pm2.5:6.445,pm10:5.704,O2:0.000,NO2:0.000,SO2:0.000,NH3:5.536
11:56:32,0,0,0,0,0,0,0,0,0,0,0,515,0,0,0,0,0.0000000,0.0000000,0.0000000,0.0000000,8.00,38.4066467,-110.7925262,1400.3000488,0.0,17.5,1.0,0.0,0.0,817,124,0,0,860.43,21.10,18.34,# data time:13980,pm2.5:6.445,pm10:5.704,O2:0.000,NO2:0.000,SO2:0.000,NH3:5.536
11:56:33,0,0,0,0,0,0,0,0,0,0,0,514,0,0,0,0,0.0000000,0.0000000,0.0000000,0.0000000,8.00,38.4066467,-110.7925262,1400.3000488,0.0,17.5,1.0,0.0,0.0,818,127,0,0,860.39,21.12,18.34,# data time:13980,pm2.5:6.445,pm10:5.704,O2:0.000,NO2:0.000,SO2:0.000,NH3:5.536
11:56:34,0,0,0,0,0,0,0,0,0,0,0,515,0,0,0,0,0.0000000,0.0000000,0.0000000,0.0000000,8.00,38.4066467,-110.7925262,1400.3000488,0.0,17.5,1.0,0.0,0.0,818,128,0,0,860.38,21.13,18.34,# data time:13980,pm2.5:6.445,pm10:5.704,O2:0.000,NO2:0.000,SO2:0.000,NH3:5.536
11:56:35,0,0,0,0,0,0,0,0,0,0,0,514,0,0,0,0,0.0000000,0.0000000,0.0000000,0.0000000,8.00,38.4066467,-110.7925262,1400.3000488,0.0,17.5,1.0,0.0,0.0,819,127,0,0,860.38,21.13,18.34,# data time:13980,pm2.5:6.445,pm10:5.704,O2:0.000,NO2:0.000,SO2:0.000,NH3:5.536
11:56:36,0,0,0,0,0,0,0,0,0,0,0,514,0,0,0,0,0.0000000,0.0000000,0.0000000,0.0000000,8.00,38.4066467,-110.7925262,1400.3000488,0.0,17.5,1.0,0.0,0.0,818,126,0,0,860.39,21.12,18.34,# data time:13980,pm2.5:6.445,pm10:5.704,O2:0.000,NO2:0.000,SO2:0.000,NH3:5.536
11:56:37,0,0,0,0,0,0,0,0,0,0,0,514,0,0,0,0,0.0000000,0.0000000,0.0000000,0.0000000,8.00,38.4066467,-110.7925262,1400.3000488,0.0,17.5,1.0,0.0,0.0,818,126,0,0,860.37,21.15,18.34,# data time:13980,pm2.5:6.445,pm10:5.704,O2:0.000,NO2:0.000,SO2:0.000,NH3:5.536
11:56:38,0,0,0,0,0,0,0,0,0,0,0,513,0,0,0,0,0.0000000,0.0000000,0.0000000,0.0000000,8.00,38.4066467,-110.7925262,1400.3000488,0.0,17.5,1.0,0.0,0.0,818,124,0,0,860.40,21.12,18.34,# data time:13990,pm2.5:6.445,pm10:5.704,O2:0.000,NO2:0.000,SO2:0.000,NH3:5.536
11:56:39,0,0,0,0,0,0,0,0,0,0,0,515,0,0,0,0,0.0000000,0.0000000,0.0000000,0.0000000,8.00,38.4066467,-110.7925262,1400.3000488,0.0,17.5,1.0,0.0,0.0,818,127,0,0,860.36,21.10,18.34,# data time:13990,pm2.5:6.445,pm10:5.704,O2:0.000,NO2:0.000,SO2:0.000,NH3:5.536
11:56:40,0,0,0,0,0,0,0,0,0,0,0,514,0,0,0,0,0.0000000,0.0000000,0.0000000,0.0000000,8.00,38.4066467,-110.7925262,1400.3000488,0.0,17.5,1.0,0.0,0.0,818,129,0,0,860.39,21.13,18.34,# data time:13990,pm2.5:6.445,pm10:5.704,O2:0.000,NO2:0.000,SO2:0.000,NH3:5.536
11:56:41,0,0,0,0,0,0,0,0,0,0,0,514,0,0,0,0,0.0000000,0.0000000,0.0000000,0.0000000,8.00,38.4066467,-110.7925262,1400.3000488,0.0,17.5,1.0,0.0,0.0,818,123,0,0,860.36,21.10,18.34,# data time:13990,pm2.5:6.445,pm10:5.704,O2:0.000,NO2:0.000,SO2:0.000,NH3:5.536
11:56:42,0,0,0,0,0,0,0,0,0,0,0,513,0,0,0,0,0.0000000,0.0000000,0.0000000,0.0000000,8.00,38.4066467,-110.7925262,1400.3000488,0.0,17.5,1.0,0.0,0.0,818,129,0,0,860.37,21.10,18.35,# data time:13990,pm2.5:6.445,pm10:5.704,O2:0.000,NO2:0.000,SO2:0.000,NH3:5.536
11:56:43,0,0,0,0,0,0,0,0,0,0,0,514,0,0,0,0,0.0000000,0.0000000,0.0000000,0.0000000,8.00,38.4066467,-110.7925262,1400.3000488,0.0,17.5,1.0,0.0,0.0,819,128,0,0,860.39,21.10,18.34,# data time:13990,pm2.5:6.445,pm10:5.704,O2:0.000,NO2:0.000,SO2:0.000,NH3:5.536
11:56:44,0,0,0,0,0,0,0,0,0,0,0,515,0,0,0,0,0.0000000,0.0000000,0.0000000,0.0000000,8.00,38.4066467,-110.7925262,1400.3000488,0.0,17.5,1.0,0.0,0.0,818,127,0,0,860.34,21.12,18.34,# data time:13990,pm2.5:6.445,pm10:5.704,O2:0.000,NO2:0.000,SO2:0.000,NH3:5.536
11:56:45,0,0,0,0,0,0,0,0,0,0,0,514,0,0,0,0,0.0000000,0.0000000,0.0000000,0.0000000,8.00,38.4066467,-110.7925262,1400.3000488,0.0,17.5,1.0,0.0,0.0,818,127,0,0,860.38,21.10,18.34,# data time:13990,pm2.5:6.445,pm10:5.704,O2:0.000,NO2:0.000,SO2:0.000,NH3:5.536
11:56:46,0,0,0,0,0,0,0,0,0,0,0,514,0,0,0,0,0.0000000,0.0000000,0.0000000,0.0000000,8.00,38.4066467,-110.7925262,1400.3000488,0.0,17.5,1.0,0.0,0.0,818,128,0,0,860.36,21.09,18.35,# data time:13990,pm2.5:6.445,pm10:5.704,O2:0.000,NO2:0.000,SO2:0.000,NH3:5.536
11:56:47,0,0,0,0,0,0,0,0,0,0,0,514,0,0,0,0,0.0000000,0.0000000,0.0000000,0.0000000,8.00,38.4066467,-110.7925262,1400.3000488,0.0,17.5,1.0,0.0,0.0,818,124,0,0,860.38,21.10,18.35,# data time:13990,pm2.5:6.445,pm10:5.704,O2:0.000,NO2:0.000,SO2:0.000,NH3:5.536
11:56:48,0,0,0,0,0,0,0,0,0,0,0,515,0,0,0,0,0.0000000,0.0000000,0.0000000,0.0000000,8.00,38.4066467,-110.7925262,1400.3000488,0.0,17.5,1.0,0.0,0.0,818,126,0,0,860.35,21.07,18.35,# data time:14000,pm2.5:6.445,pm10:5.704,O2:0.000,NO2:0.000,SO2:0.000,NH3:5.536
11:56:49,0,0,0,0,0,0,0,0,0,0,0,514,0,0,0,0,0.0000000,0.0000000,0.0000000,0.0000000,8.00,38.4066467,-110.7925262,1400.3000488,0.0,17.5,1.0,0.0,0.0,817,126,0,0,860.39,21.09,18.35,# data time:14000,pm2.5:6.445,pm10:5.704,O2:0.000,NO2:0.000,SO2:0.000,NH3:5.536
11:56:50,0,0,0,0,0,0,0,0,0,0,0,514,0,0,0,0,0.0000000,0.0000000,0.0000000,0.0000000,8.00,38.4066467,-110.7925262,1400.3000488,0.0,17.5,1.0,0.0,0.0,818,127,0,0,860.39,21.10,18.35,# data time:14000,pm2.5:6.445,pm10:5.704,O2:0.000,NO2:0.000,SO2:0.000,NH3:5.536
11:56:51,0,0,0,0,0,0,0,0,0,0,0,513,0,0,0,0,0.0000000,0.0000000,0.0000000,0.0000000,8.00,38.4066467,-110.7925262,1400.3000488,0.0,17.5,1.0,0.0,0.0,818,131,0,0,860.43,21.07,18.35,# data time:14000,pm2.5:6.445,pm10:5.704,O2:0.000,NO2:0.000,SO2:0.000,NH3:5.536
11:56:52,0,0,0,0,0,0,0,0,0,0,0,514,0,0,0,0,0.0000000,0.0000000,0.0000000,0.0000000,8.00,38.4066467,-110.7925262,1400.3000488,0.0,17.5,1.0,0.0,0.0,818,127,0,0,860.40,21.07,18.35,# data time:14000,pm2.5:6.445,pm10:5.704,O2:0.000,NO2:0.000,SO2:0.000,NH3:5.536
11:56:53,0,0,0,0,0,0,0,0,0,0,0,514,0,0,0,0,0.0000000,0.0000000,0.0000000,0.0000000,8.00,38.4066467,-110.7925262,1400.3000488,0.0,17.5,1.0,0.0,0.0,819,124,0,0,860.41,21.12,18.35,# data time:14000,pm2.5:6.445,pm10:5.704,O2:0.000,NO2:0.000,SO2:0.000,NH3:5.536
11:56:54,0,0,0,0,0,0,0,0,0,0,0,513,0,0,0,0,0.0000000,0.0000000,0.0000000,0.0000000,8.00,38.4066467,-110.7925262,1400.3000488,0.0,17.5,1.0,0.0,0.0,818,128,0,0,860.38,21.09,18.35,# data time:14000,pm2.5:6.445,pm10:5.704,O2:0.000,NO2:0.000,SO2:0.000,NH3:5.536
11:56:55,0,0,0,0,0,0,0,0,0,0,0,514,0,0,0,0,0.0000000,0.0000000,0.0000000,0.0000000,8.00,38.4066467,-110.7925262,1400.3000488,0.0,17.5,1.0,0.0,0.0,818,125,0,0,860.42,21.09,18.35,# data time:14000,pm2.5:6.445,pm10:5.704,O2:0.000,NO2:0.000,SO2:0.000,NH3:5.536
11:56:56,0,0,0,0,0,0,0,0,0,0,0,514,0,0,0,0,0.0000000,0.0000000,0.0000000,0.0000000,8.00,38.4066467,-110.7925262,1400.3000488,0.0,17.5,1.0,0.0,0.0,818,129,0,0,860.40,21.07,18.35,# data time:14000,pm2.5:6.445,pm10:5.704,O2:0.000,NO2:0.000,SO2:0.000,NH3:5.536
11:56:57,0,0,0,0,0,0,0,0,0,0,0,515,0,0,0,0,0.0000000,0.0000000,0.0000000,0.0000000,8.00,38.4066467,-110.7925262,1400.3000488,0.0,17.5,1.0,0.0,0.0,817,128,0,0,860.43,21.10,18.35,# data time:14000,pm2.5:6.445,pm10:5.704,O2:0.000,NO2:0.000,SO2:0.000,NH3:5.536
11:56:58,0,0,0,0,0,0,0,0,0,0,0,514,0,0,0,0,0.0000000,0.0000000,0.0000000,0.0000000,8.00,38.4066467,-110.7925262,1400.3000488,0.0,17.5,1.0,0.0,0.0,818,128,0,0,860.44,21.06,18.35,# data time:14010,pm2.5:6.445,pm10:5.704,O2:0.000,NO2:0.000,SO2:0.000,NH3:5.536
11:56:59,0,0,0,0,0,0,0,0,0,0,0,515,0,0,0,0,0.0000000,0.0000000,0.0000000,0.0000000,8.00,38.4066467,-110.7925262,1400.3000488,0.0,17.5,1.0,0.0,0.0,818,127,0,0,860.41,21.10,18.35,# data time:14010,pm2.5:6.445,pm10:5.704,O2:0.000,NO2:0.000,SO2:0.000,NH3:5.536
11:57:00,0,0,0,0,0,0,0,0,0,0,0,514,0,0,0,0,0.0000000,0.0000000,0.0000000,0.0000000,8.00,38.4066467,-110.7925262,1400.3000488,0.0,17.5,1.0,0.0,0.0,818,129,0,0,860.34,21.12,18.35,# data time:14010,pm2.5:6.445,pm10:5.704,O2:0.000,NO2:0.000,SO2:0.000,NH3:5.536
11:57:01,0,0,0,0,0,0,0,0,0,0,0,514,0,0,0,0,0.0000000,0.0000000,0.0000000,0.0000000,8.00,38.4066467,-110.7925262,1400.3000488,0.0,17.5,1.0,0.0,0.0,818,127,0,0,860.40,21.10,18.35,# data time:14010,pm2.5:6.445,pm10:5.704,O2:0.000,NO2:0.000,SO2:0.000,NH3:5.536
11:57:02,0,0,0,0,0,0,0,0,0,0,0,514,0,0,0,0,0.0000000,0.0000000,0.0000000,0.0000000,8.00,38.4066467,-110.7925262,1400.3000488,0.0,17.5,1.0,0.0,0.0,818,128,0,0,860.39,21.10,18.35,# data time:14010,pm2.5:6.445,pm10:5.704,O2:0.000,NO2:0.000,SO2:0.000,NH3:5.536
11:57:03,0,0,0,0,0,0,0,0,0,0,0,514,0,0,0,0,0.0000000,0.0000000,0.0000000,0.0000000,8.00,38.4066467,-110.7925262,1400.3000488,0.0,17.5,1.0,0.0,0.0,818,127,0,0,860.40,21.13,18.24,# data time:14010,pm2.5:6.445,pm10:5.704,O2:0.000,NO2:0.000,SO2:0.000,NH3:5.536
11:57:04,0,0,0,0,0,0,0,0,0,0,0,514,0,0,0,0,0.0000000,0.0000000,0.0000000,0.0000000,8.00,38.4066467,-110.7925262,1400.3000488,0.0,17.5,1.0,0.0,0.0,818,127,0,0,860.35,21.10,18.30,# data time:14010,pm2.5:6.445,pm10:5.704,O2:0.000,NO2:0.000,SO2:0.000,NH3:5.536
11:57:05,0,0,0,0,0,0,0,0,0,0,0,515,0,0,0,0,0.0000000,0.0000000,0.0000000,0.0000000,8.00,38.4066467,-110.7925262,1400.3000488,0.0,17.5,1.0,0.0,0.0,818,127,0,0,860.38,21.09,18.34,# data time:14010,pm2.5:6.445,pm10:5.704,O2:0.000,NO2:0.000,SO2:0.000,NH3:5.536
11:57:06,0,0,0,0,0,0,0,0,0,0,0,514,0,0,0,0,0.0000000,0.0000000,0.0000000,0.0000000,8.00,38.4066467,-110.7925262,1400.3000488,0.0,17.5,1.0,0.0,0.0,818,125,0,0,860.35,21.12,18.34,# data time:14010,pm2.5:6.445,pm10:5.704,O2:0.000,NO2:0.000,SO2:0.000,NH3:5.536
11:57:07,0,0,0,0,0,0,0,0,0,0,0,514,0,0,0,0,0.0000000,0.0000000,0.0000000,0.0000000,8.00,38.4066467,-110.7925262,1400.3000488,0.0,17.5,1.0,0.0,0.0,818,123,0,0,860.37,21.09,18.35,# data time:14010,pm2.5:6.445,pm10:5.704,O2:0.000,NO2:0.000,SO2:0.000,NH3:5.536
11:57:08,0,0,0,0,0,0,0,0,0,0,0,513,0,0,0,0,0.0000000,0.0000000,0.0000000,0.0000000,8.00,38.4066467,-110.7925262,1400.3000488,0.0,17.5,1.0,0.0,0.0,818,126,0,0,860.36,21.12,18.35,# data time:14020,pm2.5:6.445,pm10:5.704,O2:0.000,NO2:0.000,SO2:0.000,NH3:5.536
11:57:09,0,0,0,0,0,0,0,0,0,0,0,514,0,0,0,0,0.0000000,0.0000000,0.0000000,0.0000000,8.00,38.4066467,-110.7925262,1400.3000488,0.0,17.5,1.0,0.0,0.0,818,125,0,0,860.35,21.12,18.34,# data time:14020,pm2.5:6.445,pm10:5.704,O2:0.000,NO2:0.000,SO2:0.000,NH3:5.536
11:57:10,0,0,0,0,0,0,0,0,0,0,0,514,0,0,0,0,0.0000000,0.0000000,0.0000000,0.0000000,8.00,38.4066467,-110.7925262,1400.3000488,0.0,17.5,1.0,0.0,0.0,818,127,0,0,860.38,21.12,18.34,# data time:14020,pm2.5:6.445,pm10:5.704,O2:0.000,NO2:0.000,SO2:0.000,NH3:5.536
11:57:11,0,0,0,0,0,0,0,0,0,0,0,514,0,0,0,0,0.0000000,0.0000000,0.0000000,0.0000000,8.00,38.4066467,-110.7925262,1400.3000488,0.0,17.5,1.0,0.0,0.0,818,127,0,0,860.34,21.10,18.35,# data time:14020,pm2.5:6.445,pm10:5.704,O2:0.000,NO2:0.000,SO2:0.000,NH3:5.536
11:57:13,0,0,0,0,0,0,0,0,0,0,0,513,0,0,0,0,0.0000000,0.0000000,0.0000000,0.0000000,8.00,38.4066467,-110.7925262,1400.3000488,0.0,17.5,1.0,0.0,0.0,818,126,0,0,860.32,21.10,18.35,# data time:14020,pm2.5:6.445,pm10:5.704,O2:0.000,NO2:0.000,SO2:0.000,NH3:5.536
11:57:14,0,0,0,0,0,0,0,0,0,0,0,514,0,0,0,0,0.0000000,0.0000000,0.0000000,0.0000000,8.00,38.4066467,-110.7925262,1400.3000488,0.0,17.5,1.0,0.0,0.0,816,127,0,0,860.34,21.10,18.35,# data time:14020,pm2.5:6.445,pm10:5.704,O2:0.000,NO2:0.000,SO2:0.000,NH3:5.536
11:57:15,0,0,0,0,0,0,0,0,0,0,0,514,0,0,0,0,0.0000000,0.0000000,0.0000000,0.0000000,8.00,38.4066467,-110.7925262,1400.3000488,0.0,17.5,1.0,0.0,0.0,818,125,0,0,860.33,21.09,18.35,# data time:14020,pm2.5:6.445,pm10:5.704,O2:0.000,NO2:0.000,SO2:0.000,NH3:5.536
11:57:16,0,0,0,0,0,0,0,0,0,0,0,514,0,0,0,0,0.0000000,0.0000000,0.0000000,0.0000000,8.00,38.4066467,-110.7925262,1400.3000488,0.0,17.5,1.0,0.0,0.0,818,126,0,0,860.33,21.12,18.35,# data time:14020,pm2.5:6.445,pm10:5.704,O2:0.000,NO2:0.000,SO2:0.000,NH3:5.536
11:57:17,0,0,0,0,0,0,0,0,0,0,0,514,0,0,0,0,0.0000000,0.0000000,0.0000000,0.0000000,8.00,38.4066467,-110.7925262,1400.3000488,0.0,17.5,1.0,0.0,0.0,817,126,0,0,860.35,21.13,18.35,# data time:14020,pm2.5:6.445,pm10:5.704,O2:0.000,NO2:0.000,SO2:0.000,NH3:5.536
11:57:18,0,0,0,0,0,0,0,0,0,0,0,515,0,0,0,0,0.0000000,0.0000000,0.0000000,0.0000000,8.00,38.4066467,-110.7925262,1400.3000488,0.0,17.5,1.0,0.0,0.0,818,122,0,0,860.36,21.10,18.36,# data time:14020,pm2.5:6.445,pm10:5.704,O2:0.000,NO2:0.000,SO2:0.000,NH3:5.536
11:57:19,0,0,0,0,0,0,0,0,0,0,0,514,0,0,0,0,0.0000000,0.0000000,0.0000000,0.0000000,8.00,38.4066467,-110.7925262,1400.3000488,0.0,17.5,1.0,0.0,0.0,818,127,0,0,860.32,21.12,18.35,# data time:14030,pm2.5:6.445,pm10:5.704,O2:0.000,NO2:0.000,SO2:0.000,NH3:5.536
11:57:20,0,0,0,0,0,0,0,0,0,0,0,515,0,0,0,0,0.0000000,0.0000000,0.0000000,0.0000000,8.00,38.4066467,-110.7925262,1400.3000488,0.0,17.5,1.0,0.0,0.0,818,129,0,0,860.34,21.12,18.36,# data time:14030,pm2.5:6.445,pm10:5.704,O2:0.000,NO2:0.000,SO2:0.000,NH3:5.536
11:57:21,0,0,0,0,0,0,0,0,0,0,0,514,0,0,0,0,0.0000000,0.0000000,0.0000000,0.0000000,8.00,38.4066467,-110.7925262,1400.3000488,0.0,17.5,1.0,0.0,0.0,818,127,0,0,860.35,21.12,18.35,# data time:14030,pm2.5:6.445,pm10:5.704,O2:0.000,NO2:0.000,SO2:0.000,NH3:5.536
11:57:22,0,0,0,0,0,0,0,0,0,0,0,514,0,0,0,0,0.0000000,0.0000000,0.0000000,0.0000000,8.00,38.4066467,-110.7925262,1400.3000488,0.0,17.5,1.0,0.0,0.0,817,128,0,0,860.36,21.07,18.36,# data time:14030,pm2.5:6.445,pm10:5.704,O2:0.000,NO2:0.000,SO2:0.000,NH3:5.536
11:57:23,0,0,0,0,0,0,0,0,0,0,0,514,0,0,0,0,0.0000000,0.0000000,0.0000000,0.0000000,8.00,38.4066467,-110.7925262,1400.3000488,0.0,17.5,1.0,0.0,0.0,817,127,0,0,860.40,21.12,18.36,# data time:14030,pm2.5:6.445,pm10:5.704,O2:0.000,NO2:0.000,SO2:0.000,NH3:5.536
11:57:24,0,0,0,0,0,0,0,0,0,0,0,514,0,0,0,0,0.0000000,0.0000000,0.0000000,0.0000000,8.00,38.4066467,-110.7925262,1400.3000488,0.0,17.5,1.0,0.0,0.0,817,128,0,0,860.36,21.10,18.36,# data time:14030,pm2.5:6.445,pm10:5.704,O2:0.000,NO2:0.000,SO2:0.000,NH3:5.536
11:57:25,0,0,0,0,0,0,0,0,0,0,0,514,0,0,0,0,0.0000000,0.0000000,0.0000000,0.0000000,8.00,38.4066467,-110.7925262,1400.3000488,0.0,17.5,1.0,0.0,0.0,818,129,0,0,860.37,21.10,18.36,# data time:14030,pm2.5:6.445,pm10:5.704,O2:0.000,NO2:0.000,SO2:0.000,NH3:5.536
11:57:26,0,0,0,0,0,0,0,0,0,0,0,514,0,0,0,0,0.0000000,0.0000000,0.0000000,0.0000000,8.00,38.4066467,-110.7925262,1400.3000488,0.0,17.5,1.0,0.0,0.0,818,125,0,0,860.32,21.10,18.36,# data time:14030,pm2.5:6.445,pm10:5.704,O2:0.000,NO2:0.000,SO2:0.000,NH3:5.536
11:57:27,0,0,0,0,0,0,0,0,0,0,0,515,0,0,0,0,0.0000000,0.0000000,0.0000000,0.0000000,8.00,38.4066467,-110.7925262,1400.3000488,0.0,17.5,1.0,0.0,0.0,818,125,0,0,860.29,21.10,18.36,# data time:14030,pm2.5:6.445,pm10:5.704,O2:0.000,NO2:0.000,SO2:0.000,NH3:5.536
11:57:28,0,0,0,0,0,0,0,0,0,0,0,514,0,0,0,0,0.0000000,0.0000000,0.0000000,0.0000000,8.00,38.4066467,-110.7925262,1400.3000488,0.0,17.5,1.0,0.0,0.0,818,126,0,0,860.35,21.10,18.36,# data time:14040,pm2.5:6.445,pm10:5.704,O2:0.000,NO2:0.000,SO2:0.000,NH3:5.536
11:57:29,0,0,0,0,0,0,0,0,0,0,0,514,0,0,0,0,0.0000000,0.0000000,0.0000000,0.0000000,8.00,38.4066467,-110.7925262,1400.3000488,0.0,17.5,1.0,0.0,0.0,818,129,0,0,860.37,21.09,18.37,# data time:14040,pm2.5:6.445,pm10:5.704,O2:0.000,NO2:0.000,SO2:0.000,NH3:5.536
11:57:30,0,0,0,0,0,0,0,0,0,0,0,513,0,0,0,0,0.0000000,0.0000000,0.0000000,0.0000000,8.00,38.4066467,-110.7925262,1400.3000488,0.0,17.5,1.0,0.0,0.0,817,127,0,0,860.31,21.09,18.37,# data time:14040,pm2.5:6.445,pm10:5.704,O2:0.000,NO2:0.000,SO2:0.000,NH3:5.536
11:57:31,0,0,0,0,0,0,0,0,0,0,0,514,0,0,0,0,0.0000000,0.0000000,0.0000000,0.0000000,8.00,38.4066467,-110.7925262,1400.3000488,0.0,17.5,1.0,0.0,0.0,816,132,0,0,860.35,21.09,18.37,# data time:14040,pm2.5:6.445,pm10:5.704,O2:0.000,NO2:0.000,SO2:0.000,NH3:5.536
11:57:32,0,0,0,0,0,0,0,0,0,0,0,515,0,0,0,0,0.0000000,0.0000000,0.0000000,0.0000000,8.00,38.4066467,-110.7925262,1400.3000488,0.0,17.5,1.0,0.0,0.0,816,127,0,0,860.33,21.09,18.37,# data time:14040,pm2.5:6.445,pm10:5.704,O2:0.000,NO2:0.000,SO2:0.000,NH3:5.536
11:57:33,0,0,0,0,0,0,0,0,0,0,0,514,0,0,0,0,0.0000000,0.0000000,0.0000000,0.0000000,8.00,38.4066467,-110.7925262,1400.3000488,0.0,17.5,1.0,0.0,0.0,818,131,0,0,860.29,21.10,18.37,# data time:14040,pm2.5:6.445,pm10:5.704,O2:0.000,NO2:0.000,SO2:0.000,NH3:5.536
11:57:34,0,0,0,0,0,0,0,0,0,0,0,514,0,0,0,0,0.0000000,0.0000000,0.0000000,0.0000000,8.00,38.4066467,-110.7925262,1400.3000488,0.0,17.5,1.0,0.0,0.0,817,125,0,0,860.32,21.07,18.37,# data time:14040,pm2.5:6.445,pm10:5.704,O2:0.000,NO2:0.000,SO2:0.000,NH3:5.536
11:57:35,0,0,0,0,0,0,0,0,0,0,0,514,0,0,0,0,0.0000000,0.0000000,0.0000000,0.0000000,8.00,38.4066467,-110.7925262,1400.3000488,0.0,17.5,1.0,0.0,0.0,817,129,0,0,860.33,21.07,18.37,# data time:14040,pm2.5:6.445,pm10:5.704,O2:0.000,NO2:0.000,SO2:0.000,NH3:5.536
11:57:36,0,0,0,0,0,0,0,0,0,0,0,515,0,0,0,0,0.0000000,0.0000000,0.0000000,0.0000000,8.00,38.4066467,-110.7925262,1400.3000488,0.0,17.5,1.0,0.0,0.0,817,131,0,0,860.33,21.09,18.37,# data time:14040,pm2.5:6.445,pm10:5.704,O2:0.000,NO2:0.000,SO2:0.000,NH3:5.536
11:57:37,0,0,0,0,0,0,0,0,0,0,0,513,0,0,0,0,0.0000000,0.0000000,0.0000000,0.0000000,8.00,38.4066467,-110.7925262,1400.3000488,0.0,17.5,1.0,0.0,0.0,818,124,0,0,860.28,21.04,18.37,# data time:14040,pm2.5:6.445,pm10:5.704,O2:0.000,NO2:0.000,SO2:0.000,NH3:5.536
11:57:38,0,0,0,0,0,0,0,0,0,0,0,514,0,0,0,0,0.0000000,0.0000000,0.0000000,0.0000000,8.00,38.4066467,-110.7925262,1400.3000488,0.0,17.5,1.0,0.0,0.0,818,128,0,0,860.37,21.09,18.38,# data time:14050,pm2.5:6.445,pm10:5.704,O2:0.000,NO2:0.000,SO2:0.000,NH3:5.536
11:57:39,0,0,0,0,0,0,0,0,0,0,0,515,0,0,0,0,0.0000000,0.0000000,0.0000000,0.0000000,8.00,38.4066467,-110.7925262,1400.3000488,0.0,17.5,1.0,0.0,0.0,818,128,0,0,860.35,21.09,18.38,# data time:14050,pm2.5:6.445,pm10:5.704,O2:0.000,NO2:0.000,SO2:0.000,NH3:5.536
11:57:40,0,0,0,0,0,0,0,0,0,0,0,514,0,0,0,0,0.0000000,0.0000000,0.0000000,0.0000000,8.00,38.4066467,-110.7925262,1400.3000488,0.0,17.5,1.0,0.0,0.0,818,127,0,0,860.37,21.09,18.38,# data time:14050,pm2.5:6.445,pm10:5.704,O2:0.000,NO2:0.000,SO2:0.000,NH3:5.536
11:57:41,0,0,0,0,0,0,0,0,0,0,0,514,0,0,0,0,0.0000000,0.0000000,0.0000000,0.0000000,8.00,38.4066467,-110.7925262,1400.3000488,0.0,17.5,1.0,0.0,0.0,818,126,0,0,860.36,21.07,18.38,# data time:14050,pm2.5:6.445,pm10:5.704,O2:0.000,NO2:0.000,SO2:0.000,NH3:5.536
11:57:42,0,0,0,0,0,0,0,0,0,0,0,514,0,0,0,0,0.0000000,0.0000000,0.0000000,0.0000000,8.00,38.4066467,-110.7925262,1400.3000488,0.0,17.5,1.0,0.0,0.0,818,127,0,0,860.37,21.09,18.38,# data time:14050,pm2.5:6.445,pm10:5.704,O2:0.000,NO2:0.000,SO2:0.000,NH3:5.536
11:57:43,0,0,0,0,0,0,0,0,0,0,0,514,0,0,0,0,0.0000000,0.0000000,0.0000000,0.0000000,8.00,38.4066467,-110.7925262,1400.3000488,0.0,17.5,1.0,0.0,0.0,818,126,0,0,860.36,21.06,18.38,# data time:14050,pm2.5:6.445,pm10:5.704,O2:0.000,NO2:0.000,SO2:0.000,NH3:5.536
11:57:44,0,0,0,0,0,0,0,0,0,0,0,514,0,0,0,0,0.0000000,0.0000000,0.0000000,0.0000000,8.00,38.4066467,-110.7925262,1400.3000488,0.0,17.5,1.0,0.0,0.0,818,127,0,0,860.34,21.06,18.37,# data time:14050,pm2.5:6.445,pm10:5.704,O2:0.000,NO2:0.000,SO2:0.000,NH3:5.536
11:57:45,0,0,0,0,0,0,0,0,0,0,0,514,0,0,0,0,0.0000000,0.0000000,0.0000000,0.0000000,8.00,38.4066467,-110.7925262,1400.3000488,0.0,17.5,1.0,0.0,0.0,817,126,0,0,860.34,21.03,18.38,# data time:14050,pm2.5:6.445,pm10:5.704,O2:0.000,NO2:0.000,SO2:0.000,NH3:5.536
11:57:46,0,0,0,0,0,0,0,0,0,0,0,514,0,0,0,0,0.0000000,0.0000000,0.0000000,0.0000000,8.00,38.4066467,-110.7925262,1400.3000488,0.0,17.5,1.0,0.0,0.0,817,126,0,0,860.31,21.04,18.38,# data time:14050,pm2.5:6.445,pm10:5.704,O2:0.000,NO2:0.000,SO2:0.000,NH3:5.536
11:57:47,0,0,0,0,0,0,0,0,0,0,0,515,0,0,0,0,0.0000000,0.0000000,0.0000000,0.0000000,8.00,38.4066467,-110.7925262,1400.3000488,0.0,17.5,1.0,0.0,0.0,818,127,0,0,860.33,21.00,18.38,# data time:14050,pm2.5:6.445,pm10:5.704,O2:0.000,NO2:0.000,SO2:0.000,NH3:5.536
11:57:48,0,0,0,0,0,0,0,0,0,0,0,514,0,0,0,0,0.0000000,0.0000000,0.0000000,0.0000000,8.00,38.4066467,-110.7925262,1400.3000488,0.0,17.5,1.0,0.0,0.0,818,126,0,0,860.37,21.03,18.38,# data time:14060,pm2.5:6.445,pm10:5.704,O2:0.000,NO2:0.000,SO2:0.000,NH3:5.536
11:57:49,0,0,0,0,0,0,0,0,0,0,0,514,0,0,0,0,0.0000000,0.0000000,0.0000000,0.0000000,8.00,38.4066467,-110.7925262,1400.3000488,0.0,17.5,1.0,0.0,0.0,818,126,0,0,860.34,21.01,18.38,# data time:14060,pm2.5:6.445,pm10:5.704,O2:0.000,NO2:0.000,SO2:0.000,NH3:5.536
11:57:50,0,0,0,0,0,0,0,0,0,0,0,514,0,0,0,0,0.0000000,0.0000000,0.0000000,0.0000000,8.00,38.4066467,-110.7925262,1400.3000488,0.0,17.5,1.0,0.0,0.0,818,126,0,0,860.36,21.03,18.38,# data time:14060,pm2.5:6.445,pm10:5.704,O2:0.000,NO2:0.000,SO2:0.000,NH3:5.536
11:57:51,0,0,0,0,0,0,0,0,0,0,0,514,0,0,0,0,0.0000000,0.0000000,0.0000000,0.0000000,8.00,38.4066467,-110.7925262,1400.3000488,0.0,17.5,1.0,0.0,0.0,817,124,0,0,860.37,21.03,18.38,# data time:14060,pm2.5:6.445,pm10:5.704,O2:0.000,NO2:0.000,SO2:0.000,NH3:5.536
11:57:52,0,0,0,0,0,0,0,0,0,0,0,514,0,0,0,0,0.0000000,0.0000000,0.0000000,0.0000000,8.00,38.4066467,-110.7925262,1400.3000488,0.0,17.5,1.0,0.0,0.0,818,128,0,0,860.38,21.04,18.39,# data time:14060,pm2.5:6.445,pm10:5.704,O2:0.000,NO2:0.000,SO2:0.000,NH3:5.536
11:57:53,0,0,0,0,0,0,0,0,0,0,0,514,0,0,0,0,0.0000000,0.0000000,0.0000000,0.0000000,8.00,38.4066467,-110.7925262,1400.3000488,0.0,17.5,1.0,0.0,0.0,817,125,0,0,860.36,21.03,18.38,# data time:14060,pm2.5:6.445,pm10:5.704,O2:0.000,NO2:0.000,SO2:0.000,NH3:5.536
11:57:54,0,0,0,0,0,0,0,0,0,0,0,514,0,0,0,0,0.0000000,0.0000000,0.0000000,0.0000000,8.00,38.4066467,-110.7925262,1400.3000488,0.0,17.5,1.0,0.0,0.0,817,127,0,0,860.40,21.01,18.38,# data time:14060,pm2.5:6.445,pm10:5.704,O2:0.000,NO2:0.000,SO2:0.000,NH3:5.536
11:57:55,0,0,0,0,0,0,0,0,0,0,0,514,0,0,0,0,0.0000000,0.0000000,0.0000000,0.0000000,8.00,38.4066467,-110.7925262,1400.3000488,0.0,17.5,1.0,0.0,0.0,818,126,0,0,860.38,21.00,18.38,# data time:14060,pm2.5:6.445,pm10:5.704,O2:0.000,NO2:0.000,SO2:0.000,NH3:5.536
11:57:56,0,0,0,0,0,0,0,0,0,0,0,514,0,0,0,0,0.0000000,0.0000000,0.0000000,0.0000000,8.00,38.4066467,-110.7925262,1400.3000488,0.0,17.5,1.0,0.0,0.0,818,128,0,0,860.30,20.97,18.29,# data time:14060,pm2.5:6.445,pm10:5.704,O2:0.000,NO2:0.000,SO2:0.000,NH3:5.536
11:57:57,0,0,0,0,0,0,0,0,0,0,0,514,0,0,0,0,0.0000000,0.0000000,0.0000000,0.0000000,8.00,38.4066467,-110.7925262,1400.3000488,0.0,17.5,1.0,0.0,0.0,818,127,0,0,860.33,20.98,18.28,# data time:14060,pm2.5:6.445,pm10:5.704,O2:0.000,NO2:0.000,SO2:0.000,NH3:5.536
11:57:58,0,0,0,0,0,0,0,0,0,0,0,515,0,0,0,0,0.0000000,0.0000000,0.0000000,0.0000000,8.00,38.4066467,-110.7925262,1400.3000488,0.0,17.5,1.0,0.0,0.0,818,132,0,0,860.33,21.00,18.28,# data time:14070,pm2.5:6.445,pm10:5.704,O2:0.000,NO2:0.000,SO2:0.000,NH3:5.536
11:57:59,0,0,0,0,0,0,0,0,0,0,0,514,0,0,0,0,0.0000000,0.0000000,0.0000000,0.0000000,8.00,38.4066467,-110.7925262,1400.3000488,0.0,17.5,1.0,0.0,0.0,818,125,0,0,860.32,21.01,18.34,# data time:14070,pm2.5:6.445,pm10:5.704,O2:0.000,NO2:0.000,SO2:0.000,NH3:5.536
11:58:00,0,0,0,0,0,0,0,0,0,0,0,514,0,0,0,0,0.0000000,0.0000000,0.0000000,0.0000000,8.00,38.4066467,-110.7925262,1400.3000488,0.0,17.5,1.0,0.0,0.0,818,126,0,0,860.28,20.98,18.27,# data time:14070,pm2.5:6.445,pm10:5.704,O2:0.000,NO2:0.000,SO2:0.000,NH3:5.536
11:58:01,0,0,0,0,0,0,0,0,0,0,0,513,0,0,0,0,0.0000000,0.0000000,0.0000000,0.0000000,8.00,38.4066467,-110.7925262,1400.3000488,0.0,17.5,1.0,0.0,0.0,818,126,0,0,860.36,21.01,18.37,# data time:14070,pm2.5:6.445,pm10:5.704,O2:0.000,NO2:0.000,SO2:0.000,NH3:5.536
11:58:02,0,0,0,0,0,0,0,0,0,0,0,514,0,0,0,0,0.0000000,0.0000000,0.0000000,0.0000000,8.00,38.4066467,-110.7925262,1400.3000488,0.0,17.5,1.0,0.0,0.0,818,123,0,0,860.33,21.01,18.38,# data time:14070,pm2.5:6.445,pm10:5.704,O2:0.000,NO2:0.000,SO2:0.000,NH3:5.536
11:58:03,0,0,0,0,0,0,0,0,0,0,0,514,0,0,0,0,0.0000000,0.0000000,0.0000000,0.0000000,8.00,38.4066467,-110.7925262,1400.3000488,0.0,17.5,1.0,0.0,0.0,818,125,0,0,860.36,21.04,18.38,# data time:14070,pm2.5:6.445,pm10:5.704,O2:0.000,NO2:0.000,SO2:0.000,NH3:5.536
11:58:04,0,0,0,0,0,0,0,0,0,0,0,515,0,0,0,0,0.0000000,0.0000000,0.0000000,0.0000000,8.00,38.4066467,-110.7925262,1400.3000488,0.0,17.5,1.0,0.0,0.0,817,129,0,0,860.37,21.03,18.38,# data time:14070,pm2.5:6.445,pm10:5.704,O2:0.000,NO2:0.000,SO2:0.000,NH3:5.536
11:58:05,0,0,0,0,0,0,0,0,0,0,0,513,0,0,0,0,0.0000000,0.0000000,0.0000000,0.0000000,8.00,38.4066467,-110.7925262,1400.3000488,0.0,17.5,1.0,0.0,0.0,818,129,0,0,860.37,21.03,18.39,# data time:14070,pm2.5:6.445,pm10:5.704,O2:0.000,NO2:0.000,SO2:0.000,NH3:5.536
11:58:06,0,0,0,0,0,0,0,0,0,0,0,514,0,0,0,0,0.0000000,0.0000000,0.0000000,0.0000000,8.00,38.4066467,-110.7925262,1400.3000488,0.0,17.5,1.0,0.0,0.0,817,124,0,0,860.36,21.03,18.39,# data time:14070,pm2.5:6.445,pm10:5.704,O2:0.000,NO2:0.000,SO2:0.000,NH3:5.536
11:58:07,0,0,0,0,0,0,0,0,0,0,0,515,0,0,0,0,0.0000000,0.0000000,0.0000000,0.0000000,8.00,38.4066467,-110.7925262,1400.3000488,0.0,17.5,1.0,0.0,0.0,818,124,0,0,860.34,21.04,18.39,# data time:14070,pm2.5:6.445,pm10:5.704,O2:0.000,NO2:0.000,SO2:0.000,NH3:5.536
11:58:08,0,0,0,0,0,0,0,0,0,0,0,514,0,0,0,0,0.0000000,0.0000000,0.0000000,0.0000000,8.00,38.4066467,-110.7925262,1400.3000488,0.0,17.5,1.0,0.0,0.0,818,128,0,0,860.42,21.07,18.39,# data time:14080,pm2.5:6.445,pm10:5.704,O2:0.000,NO2:0.000,SO2:0.000,NH3:5.536
11:58:10,0,0,0,0,0,0,0,0,0,0,0,515,0,0,0,0,0.0000000,0.0000000,0.0000000,0.0000000,8.00,38.4066467,-110.7925262,1400.3000488,0.0,17.5,1.0,0.0,0.0,818,130,0,0,860.33,21.04,18.39,# data time:14080,pm2.5:6.445,pm10:5.704,O2:0.000,NO2:0.000,SO2:0.000,NH3:5.536
11:58:11,0,0,0,0,0,0,0,0,0,0,0,515,0,0,0,0,0.0000000,0.0000000,0.0000000,0.0000000,8.00,38.4066467,-110.7925262,1400.3000488,0.0,17.5,1.0,0.0,0.0,818,127,0,0,860.35,21.06,18.39,# data time:14080,pm2.5:6.445,pm10:5.704,O2:0.000,NO2:0.000,SO2:0.000,NH3:5.536
11:58:12,0,0,0,0,0,0,0,0,0,0,0,514,0,0,0,0,0.0000000,0.0000000,0.0000000,0.0000000,8.00,38.4066467,-110.7925262,1400.3000488,0.0,17.5,1.0,0.0,0.0,817,129,0,0,860.36,21.07,18.39,# data time:14080,pm2.5:6.445,pm10:5.704,O2:0.000,NO2:0.000,SO2:0.000,NH3:5.536
11:58:13,0,0,0,0,0,0,0,0,0,0,0,514,0,0,0,0,0.0000000,0.0000000,0.0000000,0.0000000,8.00,38.4066467,-110.7925262,1400.3000488,0.0,17.5,1.0,0.0,0.0,818,125,0,0,860.34,21.04,18.39,# data time:14080,pm2.5:6.445,pm10:5.704,O2:0.000,NO2:0.000,SO2:0.000,NH3:5.536
11:58:14,0,0,0,0,0,0,0,0,0,0,0,515,0,0,0,0,0.0000000,0.0000000,0.0000000,0.0000000,8.00,38.4066467,-110.7925262,1400.3000488,0.0,17.5,1.0,0.0,0.0,817,127,0,0,860.33,21.03,18.40,# data time:14080,pm2.5:6.445,pm10:5.704,O2:0.000,NO2:0.000,SO2:0.000,NH3:5.536
11:58:15,0,0,0,0,0,0,0,0,0,0,0,514,0,0,0,0,0.0000000,0.0000000,0.0000000,0.0000000,8.00,38.4066467,-110.7925262,1400.3000488,0.0,17.5,1.0,0.0,0.0,817,126,0,0,860.36,21.06,18.40,# data time:14080,pm2.5:6.445,pm10:5.704,O2:0.000,NO2:0.000,SO2:0.000,NH3:5.536
11:58:16,0,0,0,0,0,0,0,0,0,0,0,514,0,0,0,0,0.0000000,0.0000000,0.0000000,0.0000000,8.00,38.4066467,-110.7925262,1400.3000488,0.0,17.5,1.0,0.0,0.0,818,126,0,0,860.36,21.04,18.39,# data time:14080,pm2.5:6.445,pm10:5.704,O2:0.000,NO2:0.000,SO2:0.000,NH3:5.536
11:58:17,0,0,0,0,0,0,0,0,0,0,0,514,0,0,0,0,0.0000000,0.0000000,0.0000000,0.0000000,8.00,38.4066467,-110.7925262,1400.3000488,0.0,17.5,1.0,0.0,0.0,817,127,0,0,860.34,21.03,18.40,# data time:14080,pm2.5:6.445,pm10:5.704,O2:0.000,NO2:0.000,SO2:0.000,NH3:5.536
11:58:18,0,0,0,0,0,0,0,0,0,0,0,514,0,0,0,0,0.0000000,0.0000000,0.0000000,0.0000000,8.00,38.4066467,-110.7925262,1400.3000488,0.0,17.5,1.0,0.0,0.0,817,128,0,0,860.34,21.04,18.39,# data time:14090,pm2.5:6.445,pm10:5.704,O2:0.000,NO2:0.000,SO2:0.000,NH3:5.536
11:58:19,0,0,0,0,0,0,0,0,0,0,0,514,0,0,0,0,0.0000000,0.0000000,0.0000000,0.0000000,8.00,38.4066467,-110.7925262,1400.3000488,0.0,17.5,1.0,0.0,0.0,818,127,0,0,860.37,21.04,18.39,# data time:14090,pm2.5:6.445,pm10:5.704,O2:0.000,NO2:0.000,SO2:0.000,NH3:5.536
11:58:20,0,0,0,0,0,0,0,0,0,0,0,514,0,0,0,0,0.0000000,0.0000000,0.0000000,0.0000000,8.00,38.4066467,-110.7925262,1400.3000488,0.0,17.5,1.0,0.0,0.0,817,127,0,0,860.34,21.04,18.39,# data time:14090,pm2.5:6.445,pm10:5.704,O2:0.000,NO2:0.000,SO2:0.000,NH3:5.536
11:58:21,0,0,0,0,0,0,0,0,0,0,0,514,0,0,0,0,0.0000000,0.0000000,0.0000000,0.0000000,8.00,38.4066467,-110.7925262,1400.3000488,0.0,17.5,1.0,0.0,0.0,818,128,0,0,860.36,21.03,18.39,# data time:14090,pm2.5:6.445,pm10:5.704,O2:0.000,NO2:0.000,SO2:0.000,NH3:5.536
11:58:22,0,0,0,0,0,0,0,0,0,0,0,514,0,0,0,0,0.0000000,0.0000000,0.0000000,0.0000000,8.00,38.4066467,-110.7925262,1400.3000488,0.0,17.5,1.0,0.0,0.0,817,120,0,0,860.36,21.00,18.39,# data time:14090,pm2.5:6.445,pm10:5.704,O2:0.000,NO2:0.000,SO2:0.000,NH3:5.536
11:58:23,0,0,0,0,0,0,0,0,0,0,0,514,0,0,0,0,0.0000000,0.0000000,0.0000000,0.0000000,8.00,38.4066467,-110.7925262,1400.3000488,0.0,17.5,1.0,0.0,0.0,817,124,0,0,860.39,21.03,18.39,# data time:14090,pm2.5:6.445,pm10:5.704,O2:0.000,NO2:0.000,SO2:0.000,NH3:5.536
11:58:24,0,0,0,0,0,0,0,0,0,0,0,514,0,0,0,0,0.0000000,0.0000000,0.0000000,0.0000000,8.00,38.4066467,-110.7925262,1400.3000488,0.0,17.5,1.0,0.0,0.0,817,126,0,0,860.40,21.03,18.39,# data time:14090,pm2.5:6.445,pm10:5.704,O2:0.000,NO2:0.000,SO2:0.000,NH3:5.536
11:58:25,0,0,0,0,0,0,0,0,0,0,0,514,0,0,0,0,0.0000000,0.0000000,0.0000000,0.0000000,8.00,38.4066467,-110.7925262,1400.3000488,0.0,17.5,1.0,0.0,0.0,818,125,0,0,860.34,21.01,18.39,# data time:14090,pm2.5:6.445,pm10:5.704,O2:0.000,NO2:0.000,SO2:0.000,NH3:5.536
11:58:26,0,0,0,0,0,0,0,0,0,0,0,514,0,0,0,0,0.0000000,0.0000000,0.0000000,0.0000000,8.00,38.4066467,-110.7925262,1400.3000488,0.0,17.5,1.0,0.0,0.0,817,123,0,0,860.35,21.01,18.40,# data time:14090,pm2.5:6.445,pm10:5.704,O2:0.000,NO2:0.000,SO2:0.000,NH3:5.536
11:58:27,0,0,0,0,0,0,0,0,0,0,0,514,0,0,0,0,0.0000000,0.0000000,0.0000000,0.0000000,8.00,38.4066467,-110.7925262,1400.3000488,0.0,17.5,1.0,0.0,0.0,817,125,0,0,860.39,21.03,18.39,# data time:14090,pm2.5:6.445,pm10:5.704,O2:0.000,NO2:0.000,SO2:0.000,NH3:5.536
11:58:28,0,0,0,0,0,0,0,0,0,0,0,513,0,0,0,0,0.0000000,0.0000000,0.0000000,0.0000000,8.00,38.4066467,-110.7925262,1400.3000488,0.0,17.5,1.0,0.0,0.0,817,127,0,0,860.35,20.98,18.39,# data time:14100,pm2.5:6.445,pm10:5.704,O2:0.000,NO2:0.000,SO2:0.000,NH3:5.536
11:58:29,0,0,0,0,0,0,0,0,0,0,0,514,0,0,0,0,0.0000000,0.0000000,0.0000000,0.0000000,8.00,38.4066467,-110.7925262,1400.3000488,0.0,17.5,1.0,0.0,0.0,817,127,0,0,860.33,21.00,18.40,# data time:14100,pm2.5:6.445,pm10:5.704,O2:0.000,NO2:0.000,SO2:0.000,NH3:5.536
11:58:30,0,0,0,0,0,0,0,0,0,0,0,514,0,0,0,0,0.0000000,0.0000000,0.0000000,0.0000000,8.00,38.4066467,-110.7925262,1400.3000488,0.0,17.5,1.0,0.0,0.0,817,128,0,0,860.32,21.01,18.40,# data time:14100,pm2.5:6.445,pm10:5.704,O2:0.000,NO2:0.000,SO2:0.000,NH3:5.536
11:58:31,0,0,0,0,0,0,0,0,0,0,0,514,0,0,0,0,0.0000000,0.0000000,0.0000000,0.0000000,8.00,38.4066467,-110.7925262,1400.3000488,0.0,17.5,1.0,0.0,0.0,817,130,0,0,860.36,21.04,18.40,# data time:14100,pm2.5:6.445,pm10:5.704,O2:0.000,NO2:0.000,SO2:0.000,NH3:5.536
11:58:32,0,0,0,0,0,0,0,0,0,0,0,514,0,0,0,0,0.0000000,0.0000000,0.0000000,0.0000000,8.00,38.4066467,-110.7925262,1400.3000488,0.0,17.5,1.0,0.0,0.0,817,129,0,0,860.37,21.03,18.39,# data time:14100,pm2.5:6.445,pm10:5.704,O2:0.000,NO2:0.000,SO2:0.000,NH3:5.536
11:58:33,0,0,0,0,0,0,0,0,0,0,0,514,0,0,0,0,0.0000000,0.0000000,0.0000000,0.0000000,8.00,38.4066467,-110.7925262,1400.3000488,0.0,17.5,1.0,0.0,0.0,817,126,0,0,860.36,21.01,18.39,# data time:14100,pm2.5:6.445,pm10:5.704,O2:0.000,NO2:0.000,SO2:0.000,NH3:5.536
11:58:34,0,0,0,0,0,0,0,0,0,0,0,515,0,0,0,0,0.0000000,0.0000000,0.0000000,0.0000000,8.00,38.4066467,-110.7925262,1400.3000488,0.0,17.5,1.0,0.0,0.0,817,127,0,0,860.33,21.04,18.39,# data time:14100,pm2.5:6.445,pm10:5.704,O2:0.000,NO2:0.000,SO2:0.000,NH3:5.536
11:58:35,0,0,0,0,0,0,0,0,0,0,0,515,0,0,0,0,0.0000000,0.0000000,0.0000000,0.0000000,8.00,38.4066467,-110.7925262,1400.3000488,0.0,17.5,1.0,0.0,0.0,817,127,0,0,860.37,21.04,18.39,# data time:14100,pm2.5:6.445,pm10:5.704,O2:0.000,NO2:0.000,SO2:0.000,NH3:5.536
11:58:36,0,0,0,0,0,0,0,0,0,0,0,514,0,0,0,0,0.0000000,0.0000000,0.0000000,0.0000000,8.00,38.4066467,-110.7925262,1400.3000488,0.0,17.5,1.0,0.0,0.0,817,127,0,0,860.32,21.01,18.38,# data time:14100,pm2.5:6.445,pm10:5.704,O2:0.000,NO2:0.000,SO2:0.000,NH3:5.536
11:58:37,0,0,0,0,0,0,0,0,0,0,0,514,0,0,0,0,0.0000000,0.0000000,0.0000000,0.0000000,8.00,38.4066467,-110.7925262,1400.3000488,0.0,17.5,1.0,0.0,0.0,817,131,0,0,860.34,21.01,18.38,# data time:14100,pm2.5:6.445,pm10:5.704,O2:0.000,NO2:0.000,SO2:0.000,NH3:5.536
11:58:38,0,0,0,0,0,0,0,0,0,0,0,514,0,0,0,0,0.0000000,0.0000000,0.0000000,0.0000000,8.00,38.4066467,-110.7925262,1400.3000488,0.0,17.5,1.0,0.0,0.0,817,125,0,0,860.33,21.03,18.38,# data time:14110,pm2.5:6.445,pm10:5.704,O2:0.000,NO2:0.000,SO2:0.000,NH3:5.536
11:58:39,0,0,0,0,0,0,0,0,0,0,0,514,0,0,0,0,0.0000000,0.0000000,0.0000000,0.0000000,8.00,38.4066467,-110.7925262,1400.3000488,0.0,17.5,1.0,0.0,0.0,817,128,0,0,860.31,21.04,18.39,# data time:14110,pm2.5:6.445,pm10:5.704,O2:0.000,NO2:0.000,SO2:0.000,NH3:5.536
11:58:40,0,0,0,0,0,0,0,0,0,0,0,514,0,0,0,0,0.0000000,0.0000000,0.0000000,0.0000000,8.00,38.4066467,-110.7925262,1400.3000488,0.0,17.5,1.0,0.0,0.0,817,129,0,0,860.34,21.01,18.39,# data time:14110,pm2.5:6.445,pm10:5.704,O2:0.000,NO2:0.000,SO2:0.000,NH3:5.536
11:58:41,0,0,0,0,0,0,0,0,0,0,0,515,0,0,0,0,0.0000000,0.0000000,0.0000000,0.0000000,8.00,38.4066467,-110.7925262,1400.3000488,0.0,17.5,1.0,0.0,0.0,817,124,0,0,860.32,21.03,18.39,# data time:14110,pm2.5:6.445,pm10:5.704,O2:0.000,NO2:0.000,SO2:0.000,NH3:5.536
11:58:42,0,0,0,0,0,0,0,0,0,0,0,514,0,0,0,0,0.0000000,0.0000000,0.0000000,0.0000000,8.00,38.4066467,-110.7925262,1400.3000488,0.0,17.5,1.0,0.0,0.0,817,129,0,0,860.37,21.04,18.39,# data time:14110,pm2.5:6.445,pm10:5.704,O2:0.000,NO2:0.000,SO2:0.000,NH3:5.536
11:58:43,0,0,0,0,0,0,0,0,0,0,0,515,0,0,0,0,0.0000000,0.0000000,0.0000000,0.0000000,8.00,38.4066467,-110.7925262,1400.3000488,0.0,17.5,1.0,0.0,0.0,817,127,0,0,860.33,21.04,18.39,# data time:14110,pm2.5:6.445,pm10:5.704,O2:0.000,NO2:0.000,SO2:0.000,NH3:5.536
11:58:44,0,0,0,0,0,0,0,0,0,0,0,514,0,0,0,0,0.0000000,0.0000000,0.0000000,0.0000000,8.00,38.4066467,-110.7925262,1400.3000488,0.0,17.5,1.0,0.0,0.0,818,126,0,0,860.32,21.04,18.39,# data time:14110,pm2.5:6.445,pm10:5.704,O2:0.000,NO2:0.000,SO2:0.000,NH3:5.536
11:58:45,0,0,0,0,0,0,0,0,0,0,0,514,0,0,0,0,0.0000000,0.0000000,0.0000000,0.0000000,8.00,38.4066467,-110.7925262,1400.3000488,0.0,17.5,1.0,0.0,0.0,817,119,0,0,860.32,21.04,18.39,# data time:14110,pm2.5:6.445,pm10:5.704,O2:0.000,NO2:0.000,SO2:0.000,NH3:5.536
11:58:46,0,0,0,0,0,0,0,0,0,0,0,515,0,0,0,0,0.0000000,0.0000000,0.0000000,0.0000000,8.00,38.4066467,-110.7925262,1400.3000488,0.0,17.5,1.0,0.0,0.0,817,131,0,0,860.29,21.03,18.40,# data time:14110,pm2.5:6.445,pm10:5.704,O2:0.000,NO2:0.000,SO2:0.000,NH3:5.536
11:58:47,0,0,0,0,0,0,0,0,0,0,0,514,0,0,0,0,0.0000000,0.0000000,0.0000000,0.0000000,8.00,38.4066467,-110.7925262,1400.3000488,0.0,17.5,1.0,0.0,0.0,817,128,0,0,860.34,21.06,18.40,# data time:14110,pm2.5:6.445,pm10:5.704,O2:0.000,NO2:0.000,SO2:0.000,NH3:5.536
11:58:48,0,0,0,0,0,0,0,0,0,0,0,514,0,0,0,0,0.0000000,0.0000000,0.0000000,0.0000000,8.00,38.4066467,-110.7925262,1400.3000488,0.0,17.5,1.0,0.0,0.0,817,128,0,0,860.33,21.06,18.40,# data time:14120,pm2.5:5.640,pm10:4.991,O2:0.000,NO2:0.000,SO2:0.000,NH3:5.536
11:58:49,0,0,0,0,0,0,0,0,0,0,0,514,0,0,0,0,0.0000000,0.0000000,0.0000000,0.0000000,8.00,38.4066467,-110.7925262,1400.3000488,0.0,17.5,1.0,0.0,0.0,817,127,0,0,860.31,21.03,18.40,# data time:14120,pm2.5:5.640,pm10:4.991,O2:0.000,NO2:0.000,SO2:0.000,NH3:5.536
11:58:50,0,0,0,0,0,0,0,0,0,0,0,514,0,0,0,0,0.0000000,0.0000000,0.0000000,0.0000000,8.00,38.4066467,-110.7925262,1400.3000488,0.0,17.5,1.0,0.0,0.0,817,127,0,0,860.29,21.04,18.30,# data time:14120,pm2.5:5.640,pm10:4.991,O2:0.000,NO2:0.000,SO2:0.000,NH3:5.536
11:58:51,0,0,0,0,0,0,0,0,0,0,0,513,0,0,0,0,0.0000000,0.0000000,0.0000000,0.0000000,8.00,38.4066467,-110.7925262,1400.3000488,0.0,17.5,1.0,0.0,0.0,818,128,0,0,860.30,21.00,18.35,# data time:14120,pm2.5:5.640,pm10:4.991,O2:0.000,NO2:0.000,SO2:0.000,NH3:5.536
11:58:52,0,0,0,0,0,0,0,0,0,0,0,514,0,0,0,0,0.0000000,0.0000000,0.0000000,0.0000000,8.00,38.4066467,-110.7925262,1400.3000488,0.0,17.5,1.0,0.0,0.0,817,127,0,0,860.28,21.03,18.35,# data time:14120,pm2.5:5.640,pm10:4.991,O2:0.000,NO2:0.000,SO2:0.000,NH3:5.536
11:58:53,0,0,0,0,0,0,0,0,0,0,0,513,0,0,0,0,0.0000000,0.0000000,0.0000000,0.0000000,8.00,38.4066467,-110.7925262,1400.3000488,0.0,17.5,1.0,0.0,0.0,818,128,0,0,860.30,21.06,18.35,# data time:14120,pm2.5:5.640,pm10:4.991,O2:0.000,NO2:0.000,SO2:0.000,NH3:5.536
11:58:54,0,0,0,0,0,0,0,0,0,0,0,515,0,0,0,0,0.0000000,0.0000000,0.0000000,0.0000000,8.00,38.4066467,-110.7925262,1400.3000488,0.0,17.5,1.0,0.0,0.0,817,127,0,0,860.32,21.04,18.39,# data time:14120,pm2.5:5.640,pm10:4.991,O2:0.000,NO2:0.000,SO2:0.000,NH3:5.536
11:58:55,0,0,0,0,0,0,0,0,0,0,0,514,0,0,0,0,0.0000000,0.0000000,0.0000000,0.0000000,8.00,38.4066467,-110.7925262,1400.3000488,0.0,17.5,1.0,0.0,0.0,817,125,0,0,860.31,21.07,18.39,# data time:14120,pm2.5:5.640,pm10:4.991,O2:0.000,NO2:0.000,SO2:0.000,NH3:5.536
11:58:56,0,0,0,0,0,0,0,0,0,0,0,514,0,0,0,0,0.0000000,0.0000000,0.0000000,0.0000000,8.00,38.4066467,-110.7925262,1400.3000488,0.0,17.5,1.0,0.0,0.0,817,127,0,0,860.30,21.03,18.40,# data time:14120,pm2.5:5.640,pm10:4.991,O2:0.000,NO2:0.000,SO2:0.000,NH3:5.536
11:58:57,0,0,0,0,0,0,0,0,0,0,0,515,0,0,0,0,0.0000000,0.0000000,0.0000000,0.0000000,8.00,38.4066467,-110.7925262,1400.3000488,0.0,17.5,1.0,0.0,0.0,817,123,0,0,860.26,21.04,18.40,# data time:14120,pm2.5:5.640,pm10:4.991,O2:0.000,NO2:0.000,SO2:0.000,NH3:5.536
11:58:58,0,0,0,0,0,0,0,0,0,0,0,514,0,0,0,0,0.0000000,0.0000000,0.0000000,0.0000000,8.00,38.4066467,-110.7925262,1400.3000488,0.0,17.5,1.0,0.0,0.0,816,129,0,0,860.30,21.06,18.40,# data time:14130,pm2.5:6.445,pm10:5.704,O2:0.000,NO2:0.000,SO2:0.000,NH3:5.536
11:58:59,0,0,0,0,0,0,0,0,0,0,0,514,0,0,0,0,0.0000000,0.0000000,0.0000000,0.0000000,8.00,38.4066467,-110.7925262,1400.3000488,0.0,17.5,1.0,0.0,0.0,817,125,0,0,860.32,21.04,18.40,# data time:14130,pm2.5:6.445,pm10:5.704,O2:0.000,NO2:0.000,SO2:0.000,NH3:5.536
11:59:01,0,0,0,0,0,0,0,0,0,0,0,515,0,0,0,0,0.0000000,0.0000000,0.0000000,0.0000000,8.00,38.4066467,-110.7925262,1400.3000488,0.0,17.5,1.0,0.0,0.0,817,125,0,0,860.32,21.04,18.40,# data time:14130,pm2.5:6.445,pm10:5.704,O2:0.000,NO2:0.000,SO2:0.000,NH3:5.536
11:59:02,0,0,0,0,0,0,0,0,0,0,0,514,0,0,0,0,0.0000000,0.0000000,0.0000000,0.0000000,8.00,38.4066467,-110.7925262,1400.3000488,0.0,17.5,1.0,0.0,0.0,817,126,0,0,860.31,21.03,18.40,# data time:14130,pm2.5:6.445,pm10:5.704,O2:0.000,NO2:0.000,SO2:0.000,NH3:5.536
11:59:03,0,0,0,0,0,0,0,0,0,0,0,515,0,0,0,0,0.0000000,0.0000000,0.0000000,0.0000000,8.00,38.4066467,-110.7925262,1400.3000488,0.0,17.5,1.0,0.0,0.0,817,128,0,0,860.27,21.04,18.40,# data time:14130,pm2.5:6.445,pm10:5.704,O2:0.000,NO2:0.000,SO2:0.000,NH3:5.536
11:59:04,0,0,0,0,0,0,0,0,0,0,0,515,0,0,0,0,0.0000000,0.0000000,0.0000000,0.0000000,8.00,38.4066467,-110.7925262,1400.3000488,0.0,17.5,1.0,0.0,0.0,817,133,0,0,860.33,21.03,18.41,# data time:14130,pm2.5:6.445,pm10:5.704,O2:0.000,NO2:0.000,SO2:0.000,NH3:5.536
11:59:05,0,0,0,0,0,0,0,0,0,0,0,514,0,0,0,0,0.0000000,0.0000000,0.0000000,0.0000000,8.00,38.4066467,-110.7925262,1400.3000488,0.0,17.5,1.0,0.0,0.0,817,130,0,0,860.32,21.03,18.40,# data time:14130,pm2.5:6.445,pm10:5.704,O2:0.000,NO2:0.000,SO2:0.000,NH3:5.536
11:59:06,0,0,0,0,0,0,0,0,0,0,0,514,0,0,0,0,0.0000000,0.0000000,0.0000000,0.0000000,8.00,38.4066467,-110.7925262,1400.3000488,0.0,17.5,1.0,0.0,0.0,818,127,0,0,860.34,21.03,18.40,# data time:14130,pm2.5:6.445,pm10:5.704,O2:0.000,NO2:0.000,SO2:0.000,NH3:5.536
11:59:07,0,0,0,0,0,0,0,0,0,0,0,514,0,0,0,0,0.0000000,0.0000000,0.0000000,0.0000000,8.00,38.4066467,-110.7925262,1400.3000488,0.0,17.5,1.0,0.0,0.0,817,126,0,0,860.39,21.01,18.41,# data time:14130,pm2.5:6.445,pm10:5.704,O2:0.000,NO2:0.000,SO2:0.000,NH3:5.536
11:59:08,0,0,0,0,0,0,0,0,0,0,0,515,0,0,0,0,0.0000000,0.0000000,0.0000000,0.0000000,8.00,38.4066467,-110.7925262,1400.3000488,0.0,17.5,1.0,0.0,0.0,817,123,0,0,860.35,21.01,18.41,# data time:14140,pm2.5:6.445,pm10:5.704,O2:0.000,NO2:0.000,SO2:0.000,NH3:5.536
11:59:09,0,0,0,0,0,0,0,0,0,0,0,514,0,0,0,0,0.0000000,0.0000000,0.0000000,0.0000000,8.00,38.4066467,-110.7925262,1400.3000488,0.0,17.5,1.0,0.0,0.0,817,129,0,0,860.34,21.00,18.40,# data time:14140,pm2.5:6.445,pm10:5.704,O2:0.000,NO2:0.000,SO2:0.000,NH3:5.536
11:59:10,0,0,0,0,0,0,0,0,0,0,0,514,0,0,0,0,0.0000000,0.0000000,0.0000000,0.0000000,8.00,38.4066467,-110.7925262,1400.3000488,0.0,17.5,1.0,0.0,0.0,817,127,0,0,860.35,21.00,18.40,# data time:14140,pm2.5:6.445,pm10:5.704,O2:0.000,NO2:0.000,SO2:0.000,NH3:5.536
11:59:11,0,0,0,0,0,0,0,0,0,0,0,515,0,0,0,0,0.0000000,0.0000000,0.0000000,0.0000000,8.00,38.4066467,-110.7925262,1400.3000488,0.0,17.5,1.0,0.0,0.0,817,122,0,0,860.33,21.03,18.41,# data time:14140,pm2.5:6.445,pm10:5.704,O2:0.000,NO2:0.000,SO2:0.000,NH3:5.536
11:59:12,0,0,0,0,0,0,0,0,0,0,0,514,0,0,0,0,0.0000000,0.0000000,0.0000000,0.0000000,8.00,38.4066467,-110.7925262,1400.3000488,0.0,17.5,1.0,0.0,0.0,817,124,0,0,860.34,21.03,18.41,# data time:14140,pm2.5:6.445,pm10:5.704,O2:0.000,NO2:0.000,SO2:0.000,NH3:5.536
11:59:13,0,0,0,0,0,0,0,0,0,0,0,514,0,0,0,0,0.0000000,0.0000000,0.0000000,0.0000000,8.00,38.4066467,-110.7925262,1400.3000488,0.0,17.5,1.0,0.0,0.0,817,127,0,0,860.32,21.04,18.41,# data time:14140,pm2.5:6.445,pm10:5.704,O2:0.000,NO2:0.000,SO2:0.000,NH3:5.536
11:59:14,0,0,0,0,0,0,0,0,0,0,0,513,0,0,0,0,0.0000000,0.0000000,0.0000000,0.0000000,8.00,38.4066467,-110.7925262,1400.3000488,0.0,17.5,1.0,0.0,0.0,817,126,0,0,860.29,21.01,18.41,# data time:14140,pm2.5:6.445,pm10:5.704,O2:0.000,NO2:0.000,SO2:0.000,NH3:5.536
11:59:15,0,0,0,0,0,0,0,0,0,0,0,514,0,0,0,0,0.0000000,0.0000000,0.0000000,0.0000000,8.00,38.4066467,-110.7925262,1400.3000488,0.0,17.5,1.0,0.0,0.0,817,126,0,0,860.34,21.03,18.41,# data time:14140,pm2.5:6.445,pm10:5.704,O2:0.000,NO2:0.000,SO2:0.000,NH3:5.536
11:59:16,0,0,0,0,0,0,0,0,0,0,0,514,0,0,0,0,0.0000000,0.0000000,0.0000000,0.0000000,8.00,38.4066467,-110.7925262,1400.3000488,0.0,17.5,1.0,0.0,0.0,817,130,0,0,860.33,21.04,18.40,# data time:14140,pm2.5:6.445,pm10:5.704,O2:0.000,NO2:0.000,SO2:0.000,NH3:5.536
11:59:17,0,0,0,0,0,0,0,0,0,0,0,513,0,0,0,0,0.0000000,0.0000000,0.0000000,0.0000000,8.00,38.4066467,-110.7925262,1400.3000488,0.0,17.5,1.0,0.0,0.0,817,128,0,0,860.33,21.01,18.41,# data time:14140,pm2.5:6.445,pm10:5.704,O2:0.000,NO2:0.000,SO2:0.000,NH3:5.536
11:59:18,0,0,0,0,0,0,0,0,0,0,0,514,0,0,0,0,0.0000000,0.0000000,0.0000000,0.0000000,8.00,38.4066467,-110.7925262,1400.3000488,0.0,17.5,1.0,0.0,0.0,817,128,0,0,860.29,21.04,18.41,# data time:14150,pm2.5:6.445,pm10:5.704,O2:0.000,NO2:0.000,SO2:0.000,NH3:5.536
11:59:19,0,0,0,0,0,0,0,0,0,0,0,515,0,0,0,0,0.0000000,0.0000000,0.0000000,0.0000000,8.00,38.4066467,-110.7925262,1400.3000488,0.0,17.5,1.0,0.0,0.0,817,128,0,0,860.33,21.04,18.41,# data time:14150,pm2.5:6.445,pm10:5.704,O2:0.000,NO2:0.000,SO2:0.000,NH3:5.536
11:59:20,0,0,0,0,0,0,0,0,0,0,0,515,0,0,0,0,0.0000000,0.0000000,0.0000000,0.0000000,8.00,38.4066467,-110.7925262,1400.3000488,0.0,17.5,1.0,0.0,0.0,817,123,0,0,860.34,21.03,18.41,# data time:14150,pm2.5:6.445,pm10:5.704,O2:0.000,NO2:0.000,SO2:0.000,NH3:5.536
11:59:21,0,0,0,0,0,0,0,0,0,0,0,514,0,0,0,0,0.0000000,0.0000000,0.0000000,0.0000000,8.00,38.4066467,-110.7925262,1400.3000488,0.0,17.5,1.0,0.0,0.0,817,129,0,0,860.32,21.01,18.41,# data time:14150,pm2.5:6.445,pm10:5.704,O2:0.000,NO2:0.000,SO2:0.000,NH3:5.536
11:59:22,0,0,0,0,0,0,0,0,0,0,0,514,0,0,0,0,0.0000000,0.0000000,0.0000000,0.0000000,8.00,38.4066467,-110.7925262,1400.3000488,0.0,17.5,1.0,0.0,0.0,817,125,0,0,860.32,21.00,18.41,# data time:14150,pm2.5:6.445,pm10:5.704,O2:0.000,NO2:0.000,SO2:0.000,NH3:5.536
11:59:23,0,0,0,0,0,0,0,0,0,0,0,514,0,0,0,0,0.0000000,0.0000000,0.0000000,0.0000000,8.00,38.4066467,-110.7925262,1400.3000488,0.0,17.5,1.0,0.0,0.0,817,127,0,0,860.32,21.01,18.42,# data time:14150,pm2.5:6.445,pm10:5.704,O2:0.000,NO2:0.000,SO2:0.000,NH3:5.536
11:59:24,0,0,0,0,0,0,0,0,0,0,0,514,0,0,0,0,0.0000000,0.0000000,0.0000000,0.0000000,8.00,38.4066467,-110.7925262,1400.3000488,0.0,17.5,1.0,0.0,0.0,817,127,0,0,860.33,21.01,18.42,# data time:14150,pm2.5:6.445,pm10:5.704,O2:0.000,NO2:0.000,SO2:0.000,NH3:5.536
11:59:25,0,0,0,0,0,0,0,0,0,0,0,514,0,0,0,0,0.0000000,0.0000000,0.0000000,0.0000000,8.00,38.4066467,-110.7925262,1400.3000488,0.0,17.5,1.0,0.0,0.0,817,129,0,0,860.36,21.06,18.41,# data time:14150,pm2.5:6.445,pm10:5.704,O2:0.000,NO2:0.000,SO2:0.000,NH3:5.536
11:59:26,0,0,0,0,0,0,0,0,0,0,0,514,0,0,0,0,0.0000000,0.0000000,0.0000000,0.0000000,8.00,38.4066467,-110.7925262,1400.3000488,0.0,17.5,1.0,0.0,0.0,817,127,0,0,860.35,21.04,18.41,# data time:14150,pm2.5:6.445,pm10:5.704,O2:0.000,NO2:0.000,SO2:0.000,NH3:5.536
11:59:27,0,0,0,0,0,0,0,0,0,0,0,514,0,0,0,0,0.0000000,0.0000000,0.0000000,0.0000000,8.00,38.4066467,-110.7925262,1400.3000488,0.0,17.5,1.0,0.0,0.0,817,126,0,0,860.35,21.03,18.42,# data time:14150,pm2.5:6.445,pm10:5.704,O2:0.000,NO2:0.000,SO2:0.000,NH3:5.536
11:59:28,0,0,0,0,0,0,0,0,0,0,0,515,0,0,0,0,0.0000000,0.0000000,0.0000000,0.0000000,8.00,38.4066467,-110.7925262,1400.3000488,0.0,17.5,1.0,0.0,0.0,817,125,0,0,860.30,21.01,18.41,# data time:14160,pm2.5:6.445,pm10:5.704,O2:0.000,NO2:0.000,SO2:0.000,NH3:5.536
11:59:29,0,0,0,0,0,0,0,0,0,0,0,514,0,0,0,0,0.0000000,0.0000000,0.0000000,0.0000000,8.00,38.4066467,-110.7925262,1400.3000488,0.0,17.5,1.0,0.0,0.0,817,128,0,0,860.32,21.04,18.42,# data time:14160,pm2.5:6.445,pm10:5.704,O2:0.000,NO2:0.000,SO2:0.000,NH3:5.536
11:59:30,0,0,0,0,0,0,0,0,0,0,0,514,0,0,0,0,0.0000000,0.0000000,0.0000000,0.0000000,8.00,38.4066467,-110.7925262,1400.3000488,0.0,17.5,1.0,0.0,0.0,817,131,0,0,860.30,21.03,18.42,# data time:14160,pm2.5:6.445,pm10:5.704,O2:0.000,NO2:0.000,SO2:0.000,NH3:5.536
11:59:31,0,0,0,0,0,0,0,0,0,0,0,514,0,0,0,0,0.0000000,0.0000000,0.0000000,0.0000000,8.00,38.4066467,-110.7925262,1400.3000488,0.0,17.5,1.0,0.0,0.0,817,127,0,0,860.30,21.03,18.42,# data time:14160,pm2.5:6.445,pm10:5.704,O2:0.000,NO2:0.000,SO2:0.000,NH3:5.536
11:59:32,0,0,0,0,0,0,0,0,0,0,0,514,0,0,0,0,0.0000000,0.0000000,0.0000000,0.0000000,8.00,38.4066467,-110.7925262,1400.3000488,0.0,17.5,1.0,0.0,0.0,817,128,0,0,860.32,21.03,18.42,# data time:14160,pm2.5:6.445,pm10:5.704,O2:0.000,NO2:0.000,SO2:0.000,NH3:5.536
11:59:33,0,0,0,0,0,0,0,0,0,0,0,514,0,0,0,0,0.0000000,0.0000000,0.0000000,0.0000000,8.00,38.4066467,-110.7925262,1400.3000488,0.0,17.5,1.0,0.0,0.0,818,127,0,0,860.30,21.04,18.42,# data time:14160,pm2.5:6.445,pm10:5.704,O2:0.000,NO2:0.000,SO2:0.000,NH3:5.536
11:59:34,0,0,0,0,0,0,0,0,0,0,0,514,0,0,0,0,0.0000000,0.0000000,0.0000000,0.0000000,8.00,38.4066467,-110.7925262,1400.3000488,0.0,17.5,1.0,0.0,0.0,818,129,0,0,860.28,21.01,18.42,# data time:14160,pm2.5:6.445,pm10:5.704,O2:0.000,NO2:0.000,SO2:0.000,NH3:5.536
11:59:35,0,0,0,0,0,0,0,0,0,0,0,515,0,0,0,0,0.0000000,0.0000000,0.0000000,0.0000000,8.00,38.4066467,-110.7925262,1400.3000488,0.0,17.5,1.0,0.0,0.0,817,126,0,0,860.31,21.00,18.42,# data time:14160,pm2.5:6.445,pm10:5.704,O2:0.000,NO2:0.000,SO2:0.000,NH3:5.536
11:59:36,0,0,0,0,0,0,0,0,0,0,0,514,0,0,0,0,0.0000000,0.0000000,0.0000000,0.0000000,8.00,38.4066467,-110.7925262,1400.3000488,0.0,17.5,1.0,0.0,0.0,817,126,0,0,860.33,20.97,18.41,# data time:14160,pm2.5:6.445,pm10:5.704,O2:0.000,NO2:0.000,SO2:0.000,NH3:5.536
