Time, Motor A Speed, Motor A Dir, Motor B Speed, Motor B Dir, Servo Rail Current Sensor, Servo Pos - Arm L, Servo Pos - Arm R, Servo Pos - End, Servo Pos - Hopper, Servo Pos - Lid, Servo Pos - Extra, Servo Current, LED - Front L, LED - Front R, LED - Back L, LED - Back R, IMU Pitch, IMU Roll, IMU Yaw, Compass Heading, GPS Sats, GPS Latitude, GPS Longitude, GPS Altitude, GPS Speed, GPS Angle, GPS HDOP, GPS VDOP, GPS PDOP, Battery, Wind, Comm Xbee Latency, Comm Arduino Latency, Pressure, Humidity, Temperature, uRADMonitor
12:10:44,0,0,0,0,0,0,0,0,0,0,0,515,0,0,0,0,0.0000000,0.0000000,0.0000000,0.0000000,8.00,38.4066277,-110.7925262,1400.1999512,0.0,17.5,1.0,0.0,0.0,813,127,0,0,860.30,20.81,18.53,# data time:14830,pm2.5:5.640,pm10:4.991,O2:0.000,NO2:0.000,SO2:0.000,NH3:5.536
12:10:45,0,0,0,0,0,0,0,0,0,0,0,515,0,0,0,0,0.0000000,0.0000000,0.0000000,0.0000000,8.00,38.4066277,-110.7925262,1400.1999512,0.0,17.5,1.0,0.0,0.0,813,126,0,0,860.28,20.80,18.53,# data time:14830,pm2.5:5.640,pm10:4.991,O2:0.000,NO2:0.000,SO2:0.000,NH3:5.536
12:10:46,0,0,0,0,0,0,0,0,0,0,0,515,0,0,0,0,0.0000000,0.0000000,0.0000000,0.0000000,8.00,38.4066277,-110.7925262,1400.1999512,0.0,17.5,1.0,0.0,0.0,813,126,0,0,860.24,20.78,18.53,# data time:14830,pm2.5:5.640,pm10:4.991,O2:0.000,NO2:0.000,SO2:0.000,NH3:5.536
12:10:47,0,0,0,0,0,0,0,0,0,0,0,514,0,0,0,0,0.0000000,0.0000000,0.0000000,0.0000000,8.00,38.4066277,-110.7925262,1400.1999512,0.0,17.5,1.0,0.0,0.0,813,129,0,0,860.19,20.81,18.54,# data time:14830,pm2.5:5.640,pm10:4.991,O2:0.000,NO2:0.000,SO2:0.000,NH3:5.536
12:10:48,0,0,0,0,0,0,0,0,0,0,0,514,0,0,0,0,0.0000000,0.0000000,0.0000000,0.0000000,8.00,38.4066277,-110.7925262,1400.1999512,0.0,17.5,1.0,0.0,0.0,813,128,0,0,860.22,20.81,18.44,# data time:14840,pm2.5:6.445,pm10:5.704,O2:0.000,NO2:0.000,SO2:0.000,NH3:5.536
12:10:49,0,0,0,0,0,0,0,0,0,0,0,514,0,0,0,0,0.0000000,0.0000000,0.0000000,0.0000000,8.00,38.4066277,-110.7925262,1400.1999512,0.0,17.5,1.0,0.0,0.0,813,127,0,0,860.26,20.83,18.49,# data time:14840,pm2.5:6.445,pm10:5.704,O2:0.000,NO2:0.000,SO2:0.000,NH3:5.536
12:10:50,0,0,0,0,0,0,0,0,0,0,0,513,0,0,0,0,0.0000000,0.0000000,0.0000000,0.0000000,8.00,38.4066277,-110.7925262,1400.1999512,0.0,17.5,1.0,0.0,0.0,814,125,0,0,860.27,20.84,18.53,# data time:14840,pm2.5:6.445,pm10:5.704,O2:0.000,NO2:0.000,SO2:0.000,NH3:5.536
12:10:51,0,0,0,0,0,0,0,0,0,0,0,515,0,0,0,0,0.0000000,0.0000000,0.0000000,0.0000000,8.00,38.4066277,-110.7925262,1400.1999512,0.0,17.5,1.0,0.0,0.0,813,128,0,0,860.21,20.80,18.53,# data time:14840,pm2.5:6.445,pm10:5.704,O2:0.000,NO2:0.000,SO2:0.000,NH3:5.536
12:10:52,0,0,0,0,0,0,0,0,0,0,0,514,0,0,0,0,0.0000000,0.0000000,0.0000000,0.0000000,8.00,38.4066277,-110.7925262,1400.1999512,0.0,17.5,1.0,0.0,0.0,813,127,0,0,860.26,20.81,18.53,# data time:14840,pm2.5:6.445,pm10:5.704,O2:0.000,NO2:0.000,SO2:0.000,NH3:5.536
12:10:53,0,0,0,0,0,0,0,0,0,0,0,515,0,0,0,0,0.0000000,0.0000000,0.0000000,0.0000000,8.00,38.4066277,-110.7925262,1400.1999512,0.0,17.5,1.0,0.0,0.0,813,128,0,0,860.24,20.81,18.53,# data time:14840,pm2.5:6.445,pm10:5.704,O2:0.000,NO2:0.000,SO2:0.000,NH3:5.536
12:10:54,0,0,0,0,0,0,0,0,0,0,0,514,0,0,0,0,0.0000000,0.0000000,0.0000000,0.0000000,8.00,38.4066277,-110.7925262,1400.1999512,0.0,17.5,1.0,0.0,0.0,813,135,0,0,860.30,20.83,18.54,# data time:14840,pm2.5:6.445,pm10:5.704,O2:0.000,NO2:0.000,SO2:0.000,NH3:5.536
12:10:55,0,0,0,0,0,0,0,0,0,0,0,514,0,0,0,0,0.0000000,0.0000000,0.0000000,0.0000000,8.00,38.4066277,-110.7925262,1400.1999512,0.0,17.5,1.0,0.0,0.0,813,127,0,0,860.25,20.84,18.54,# data time:14840,pm2.5:6.445,pm10:5.704,O2:0.000,NO2:0.000,SO2:0.000,NH3:5.536
12:10:56,0,0,0,0,0,0,0,0,0,0,0,514,0,0,0,0,0.0000000,0.0000000,0.0000000,0.0000000,8.00,38.4066277,-110.7925262,1400.1999512,0.0,17.5,1.0,0.0,0.0,814,134,0,0,860.22,20.83,18.54,# data time:14840,pm2.5:6.445,pm10:5.704,O2:0.000,NO2:0.000,SO2:0.000,NH3:5.536
12:10:57,0,0,0,0,0,0,0,0,0,0,0,514,0,0,0,0,0.0000000,0.0000000,0.0000000,0.0000000,8.00,38.4066277,-110.7925262,1400.1999512,0.0,17.5,1.0,0.0,0.0,813,128,0,0,860.25,20.80,18.54,# data time:14840,pm2.5:6.445,pm10:5.704,O2:0.000,NO2:0.000,SO2:0.000,NH3:5.536
12:10:58,0,0,0,0,0,0,0,0,0,0,0,514,0,0,0,0,0.0000000,0.0000000,0.0000000,0.0000000,8.00,38.4066277,-110.7925262,1400.1999512,0.0,17.5,1.0,0.0,0.0,813,127,0,0,860.15,20.81,18.45,# data time:14850,pm2.5:6.445,pm10:5.704,O2:0.000,NO2:0.000,SO23:5.536
12:10:59,0,0,0,0,0,0,0,0,0,0,0,514,0,0,0,0,0.0000000,0.0000000,0.0000000,0.0000000,8.00,38.4066277,-110.7925262,1400.1999512,0.0,17.5,1.0,0.0,0.0,812,127,0,0,860.21,20.80,18.53,# data time:14850,pm2.5:6.445,pm10:5.704,O2:0.000,NO2:0.000,SO23:5.536
12:11:00,0,0,0,0,0,0,0,0,0,0,0,515,0,0,0,0,0.0000000,0.0000000,0.0000000,0.0000000,8.00,38.4066277,-110.7925262,1400.1999512,0.0,17.5,1.0,0.0,0.0,813,127,0,0,860.28,20.81,18.54,# data time:14850,pm2.5:6.445,pm10:5.704,O2:0.000,NO2:0.000,SO23:5.536
12:11:01,0,0,0,0,0,0,0,0,0,0,0,513,0,0,0,0,0.0000000,0.0000000,0.0000000,0.0000000,8.00,38.4066277,-110.7925262,1400.1999512,0.0,17.5,1.0,0.0,0.0,813,127,0,0,860.22,20.83,18.54,# data time:14850,pm2.5:6.445,pm10:5.704,O2:0.000,NO2:0.000,SO23:5.536
12:11:02,0,0,0,0,0,0,0,0,0,0,0,515,0,0,0,0,0.0000000,0.0000000,0.0000000,0.0000000,8.00,38.4066277,-110.7925262,1400.1999512,0.0,17.5,1.0,0.0,0.0,813,127,0,0,860.25,20.84,18.54,# data time:14850,pm2.5:6.445,pm10:5.704,O2:0.000,NO2:0.000,SO23:5.536
12:11:03,0,0,0,0,0,0,0,0,0,0,0,514,0,0,0,0,0.0000000,0.0000000,0.0000000,0.0000000,8.00,38.4066277,-110.7925262,1400.1999512,0.0,17.5,1.0,0.0,0.0,813,130,0,0,860.21,20.84,18.54,# data time:14850,pm2.5:6.445,pm10:5.704,O2:0.000,NO2:0.000,SO23:5.536
12:11:04,0,0,0,0,0,0,0,0,0,0,0,514,0,0,0,0,0.0000000,0.0000000,0.0000000,0.0000000,8.00,38.4066277,-110.7925262,1400.1999512,0.0,17.5,1.0,0.0,0.0,813,125,0,0,860.25,20.84,18.54,# data time:14850,pm2.5:6.445,pm10:5.704,O2:0.000,NO2:0.000,SO23:5.536
12:11:05,0,0,0,0,0,0,0,0,0,0,0,514,0,0,0,0,0.0000000,0.0000000,0.0000000,0.0000000,8.00,38.4066277,-110.7925262,1400.1999512,0.0,17.5,1.0,0.0,0.0,812,128,0,0,860.25,20.86,18.54,# data time:14850,pm2.5:6.445,pm10:5.704,O2:0.000,NO2:0.000,SO23:5.536
12:11:06,0,0,0,0,0,0,0,0,0,0,0,513,0,0,0,0,0.0000000,0.0000000,0.0000000,0.0000000,8.00,38.4066277,-110.7925262,1400.1999512,0.0,17.5,1.0,0.0,0.0,813,128,0,0,860.26,20.86,18.54,# data time:14850,pm2.5:6.445,pm10:5.704,O2:0.000,NO2:0.000,SO23:5.536
12:11:07,0,0,0,0,0,0,0,0,0,0,0,514,0,0,0,0,0.0000000,0.0000000,0.0000000,0.0000000,8.00,38.4066277,-110.7925262,1400.1999512,0.0,17.5,1.0,0.0,0.0,813,128,0,0,860.26,20.83,18.55,# data time:14850,pm2.5:6.445,pm10:5.704,O2:0.000,NO2:0.000,SO23:5.536
12:11:08,0,0,0,0,0,0,0,0,0,0,0,514,0,0,0,0,0.0000000,0.0000000,0.0000000,0.0000000,8.00,38.4066277,-110.7925262,1400.1999512,0.0,17.5,1.0,0.0,0.0,813,126,0,0,860.17,20.84,18.44,# data time:14860,pm2.5:6.445,pm10:5.704,O2:0.000,NO2:0.000,S
12:11:09,0,0,0,0,0,0,0,0,0,0,0,514,0,0,0,0,0.0000000,0.0000000,0.0000000,0.0000000,8.00,38.4066277,-110.7925262,1400.1999512,0.0,17.5,1.0,0.0,0.0,812,125,0,0,860.24,20.84,18.53,# data time:14860,pm2.5:6.445,pm10:5.704,O2:0.000,NO2:0.000,S
12:11:10,0,0,0,0,0,0,0,0,0,0,0,514,0,0,0,0,0.0000000,0.0000000,0.0000000,0.0000000,8.00,38.4066277,-110.7925262,1400.1999512,0.0,17.5,1.0,0.0,0.0,813,125,0,0,860.24,20.80,18.53,# data time:14860,pm2.5:6.445,pm10:5.704,O2:0.000,NO2:0.000,S
12:11:11,0,0,0,0,0,0,0,0,0,0,0,514,0,0,0,0,0.0000000,0.0000000,0.0000000,0.0000000,8.00,38.4066277,-110.7925262,1400.1999512,0.0,17.5,1.0,0.0,0.0,813,128,0,0,860.23,20.81,18.54,# data time:14860,pm2.5:6.445,pm10:5.704,O2:0.000,NO2:0.000,S
12:11:12,0,0,0,0,0,0,0,0,0,0,0,515,0,0,0,0,0.0000000,0.0000000,0.0000000,0.0000000,8.00,38.4066277,-110.7925262,1400.1999512,0.0,17.5,1.0,0.0,0.0,813,130,0,0,860.25,20.78,18.54,# data time:14860,pm2.5:6.445,pm10:5.704,O2:0.000,NO2:0.000,S
12:11:13,0,0,0,0,0,0,0,0,0,0,0,515,0,0,0,0,0.0000000,0.0000000,0.0000000,0.0000000,8.00,38.4066238,-110.7925262,1400.1999512,0.0,17.5,1.0,0.0,0.0,812,126,0,0,860.26,20.83,18.55,# data time:14860,pm2.5:6.445,pm10:5.704,O2:0.000,NO2:0.000,S
12:11:14,0,0,0,0,0,0,0,0,0,0,0,514,0,0,0,0,0.0000000,0.0000000,0.0000000,0.0000000,8.00,38.4066238,-110.7925262,1400.1999512,0.0,17.5,1.0,0.0,0.0,813,128,0,0,860.24,20.80,18.54,# data time:14860,pm2.5:6.445,pm10:5.704,O2:0.000,NO2:0.000,S
12:11:15,0,0,0,0,0,0,0,0,0,0,0,514,0,0,0,0,0.0000000,0.0000000,0.0000000,0.0000000,8.00,38.4066238,-110.7925262,1400.1999512,0.0,17.5,1.0,0.0,0.0,813,129,0,0,860.26,20.78,18.54,# data time:14860,pm2.5:6.445,pm10:5.704,O2:0.000,NO2:0.000,S
12:11:16,0,0,0,0,0,0,0,0,0,0,0,514,0,0,0,0,0.0000000,0.0000000,0.0000000,0.0000000,8.00,38.4066238,-110.7925262,1400.1999512,0.0,17.5,1.0,0.0,0.0,813,127,0,0,860.22,20.81,18.55,# data time:14860,pm2.5:6.445,pm10:5.704,O2:0.000,NO2:0.000,S
12:11:17,0,0,0,0,0,0,0,0,0,0,0,515,0,0,0,0,0.0000000,0.0000000,0.0000000,0.0000000,8.00,38.4066238,-110.7925262,1400.1999512,0.0,17.5,1.0,0.0,0.0,813,125,0,0,860.25,20.80,18.54,# data time:14860,pm2.5:6.445,pm10:5.704,O2:0.000,NO2:0.000,S
12:11:18,0,0,0,0,0,0,0,0,0,0,0,515,0,0,0,0,0.0000000,0.0000000,0.0000000,0.0000000,8.00,38.4066238,-110.7925262,1400.1999512,0.0,17.5,1.0,0.0,0.0,813,126,0,0,860.27,20.81,18.44,# data time:14870,pm2.5:6.445,pm10:5.704,O2:0.000,NO2:0.000,SO2:0.000,NH3:5.536
12:11:19,0,0,0,0,0,0,0,0,0,0,0,514,0,0,0,0,0.0000000,0.0000000,0.0000000,0.0000000,8.00,38.4066238,-110.7925262,1400.1999512,0.0,17.5,1.0,0.0,0.0,812,127,0,0,860.18,20.78,18.49,# data time:14870,pm2.5:6.445,pm10:5.704,O2:0.000,NO2:0.000,SO2:0.000,NH3:5.536
12:11:20,0,0,0,0,0,0,0,0,0,0,0,514,0,0,0,0,0.0000000,0.0000000,0.0000000,0.0000000,8.00,38.4066238,-110.7925262,1400.1999512,0.0,17.5,1.0,0.0,0.0,812,129,0,0,860.23,20.78,18.45,# data time:14870,pm2.5:6.445,pm10:5.704,O2:0.000,NO2:0.000,SO2:0.000,NH3:5.536
12:11:21,0,0,0,0,0,0,0,0,0,0,0,515,0,0,0,0,0.0000000,0.0000000,0.0000000,0.0000000,8.00,38.4066238,-110.7925262,1400.1999512,0.0,17.5,1.0,0.0,0.0,812,126,0,0,860.20,20.78,18.45,# data time:14870,pm2.5:6.445,pm10:5.704,O2:0.000,NO2:0.000,SO2:0.000,NH3:5.536
12:11:22,0,0,0,0,0,0,0,0,0,0,0,514,0,0,0,0,0.0000000,0.0000000,0.0000000,0.0000000,8.00,38.4066238,-110.7925262,1400.1999512,0.0,17.5,1.0,0.0,0.0,814,125,0,0,860.23,20.80,18.45,# data time:14870,pm2.5:6.445,pm10:5.704,O2:0.000,NO2:0.000,SO2:0.000,NH3:5.536
12:11:23,0,0,0,0,0,0,0,0,0,0,0,514,0,0,0,0,0.0000000,0.0000000,0.0000000,0.0000000,8.00,38.4066238,-110.7925262,1400.1999512,0.0,17.5,1.0,0.0,0.0,813,133,0,0,860.26,20.81,18.50,# data time:14870,pm2.5:6.445,pm10:5.704,O2:0.000,NO2:0.000,SO2:0.000,NH3:5.536
12:11:24,0,0,0,0,0,0,0,0,0,0,0,514,0,0,0,0,0.0000000,0.0000000,0.0000000,0.0000000,8.00,38.4066238,-110.7925262,1400.1999512,0.0,17.5,1.0,0.0,0.0,813,126,0,0,860.22,20.77,18.53,# data time:14870,pm2.5:6.445,pm10:5.704,O2:0.000,NO2:0.000,SO2:0.000,NH3:5.536
12:11:25,0,0,0,0,0,0,0,0,0,0,0,514,0,0,0,0,0.0000000,0.0000000,0.0000000,0.0000000,8.00,38.4066238,-110.7925262,1400.1999512,0.0,17.5,1.0,0.0,0.0,813,128,0,0,860.24,20.80,18.54,# data time:14870,pm2.5:6.445,pm10:5.704,O2:0.000,NO2:0.000,SO2:0.000,NH3:5.536
12:11:26,0,0,0,0,0,0,0,0,0,0,0,515,0,0,0,0,0.0000000,0.0000000,0.0000000,0.0000000,8.00,38.4066238,-110.7925262,1400.1999512,0.0,17.5,1.0,0.0,0.0,813,129,0,0,860.25,20.78,18.54,# data time:14870,pm2.5:6.445,pm10:5.704,O2:0.000,NO2:0.000,SO2:0.000,NH3:5.536
12:11:27,0,0,0,0,0,0,0,0,0,0,0,514,0,0,0,0,0.0000000,0.0000000,0.0000000,0.0000000,8.00,38.4066238,-110.7925262,1400.1999512,0.0,17.5,1.0,0.0,0.0,813,127,0,0,860.20,20.80,18.45,# data time:14880,pm2.5:6.445,pm10:5.704,O2:0.000,NO2:0.000,S
12:11:28,0,0,0,0,0,0,0,0,0,0,0,513,0,0,0,0,0.0000000,0.0000000,0.0000000,0.0000000,8.00,38.4066238,-110.7925262,1400.1999512,0.0,17.5,1.0,0.0,0.0,813,135,0,0,860.21,20.81,18.54,# data time:14880,pm2.5:6.445,pm10:5.704,O2:0.000,NO2:0.000,S
12:11:29,0,0,0,0,0,0,0,0,0,0,0,514,0,0,0,0,0.0000000,0.0000000,0.0000000,0.0000000,8.00,38.4066238,-110.7925262,1400.1999512,0.0,17.5,1.0,0.0,0.0,813,128,0,0,860.24,20.77,18.54,# data time:14880,pm2.5:6.445,pm10:5.704,O2:0.000,NO2:0.000,S
12:11:30,0,0,0,0,0,0,0,0,0,0,0,514,0,0,0,0,0.0000000,0.0000000,0.0000000,0.0000000,8.00,38.4066238,-110.7925262,1400.1999512,0.0,17.5,1.0,0.0,0.0,813,125,0,0,860.25,20.78,18.54,# data time:14880,pm2.5:6.445,pm10:5.704,O2:0.000,NO2:0.000,S
12:11:32,0,0,0,0,0,0,0,0,0,0,0,514,0,0,0,0,0.0000000,0.0000000,0.0000000,0.0000000,8.00,38.4066238,-110.7925262,1400.1999512,0.0,17.5,1.0,0.0,0.0,813,128,0,0,860.20,20.80,18.54,# data time:14880,pm2.5:6.445,pm10:5.704,O2:0.000,NO2:0.000,S
12:11:33,0,0,0,0,0,0,0,0,0,0,0,514,0,0,0,0,0.0000000,0.0000000,0.0000000,0.0000000,8.00,38.4066238,-110.7925262,1400.1999512,0.0,17.5,1.0,0.0,0.0,813,130,0,0,860.22,20.80,18.54,# data time:14880,pm2.5:6.445,pm10:5.704,O2:0.000,NO2:0.000,S
12:11:34,0,0,0,0,0,0,0,0,0,0,0,513,0,0,0,0,0.0000000,0.0000000,0.0000000,0.0000000,8.00,38.4066200,-110.7925262,1400.1999512,0.0,17.5,1.0,0.0,0.0,813,126,0,0,860.18,20.78,18.54,# data time:14880,pm2.5:6.445,pm10:5.704,O2:0.000,NO2:0.000,S
12:11:35,0,0,0,0,0,0,0,0,0,0,0,514,0,0,0,0,0.0000000,0.0000000,0.0000000,0.0000000,8.00,38.4066200,-110.7925262,1400.1999512,0.0,17.5,1.0,0.0,0.0,813,126,0,0,860.22,20.78,18.55,# data time:14880,pm2.5:6.445,pm10:5.704,O2:0.000,NO2:0.000,S
12:11:36,0,0,0,0,0,0,0,0,0,0,0,513,0,0,0,0,0.0000000,0.0000000,0.0000000,0.0000000,8.00,38.4066200,-110.7925262,1400.1999512,0.0,17.5,1.0,0.0,0.0,813,129,0,0,860.23,20.81,18.54,# data time:14880,pm2.5:6.445,pm10:5.704,O2:0.000,NO2:0.000,S
12:11:37,0,0,0,0,0,0,0,0,0,0,0,514,0,0,0,0,0.0000000,0.0000000,0.0000000,0.0000000,8.00,38.4066200,-110.7925262,1400.1999512,0.0,17.5,1.0,0.0,0.0,813,128,0,0,860.21,20.81,18.55,# data time:14880,pm2.5:6.445,pm10:5.704,O2:0.000,NO2:0.000,S
12:11:38,0,0,0,0,0,0,0,0,0,0,0,514,0,0,0,0,0.0000000,0.0000000,0.0000000,0.0000000,8.00,38.4066200,-110.7925262,1400.1999512,0.0,17.5,1.0,0.0,0.0,813,127,0,0,860.23,20.78,18.45,# data time:14890,pm2.5:6.445,pm10:5.704,O2:0.000,NO2:0.000,S
12:11:39,0,0,0,0,0,0,0,0,0,0,0,514,0,0,0,0,0.0000000,0.0000000,0.0000000,0.0000000,8.00,38.4066200,-110.7925262,1400.1999512,0.0,17.5,1.0,0.0,0.0,813,127,0,0,860.24,20.80,18.54,# data time:14890,pm2.5:6.445,pm10:5.704,O2:0.000,NO2:0.000,S
12:11:40,0,0,0,0,0,0,0,0,0,0,0,515,0,0,0,0,0.0000000,0.0000000,0.0000000,0.0000000,8.00,38.4066200,-110.7925262,1400.1999512,0.0,17.5,1.0,0.0,0.0,812,125,0,0,860.20,20.81,18.54,# data time:14890,pm2.5:6.445,pm10:5.704,O2:0.000,NO2:0.000,S
12:11:41,0,0,0,0,0,0,0,0,0,0,0,514,0,0,0,0,0.0000000,0.0000000,0.0000000,0.0000000,8.00,38.4066200,-110.7925262,1400.1999512,0.0,17.5,1.0,0.0,0.0,813,127,0,0,860.25,20.78,18.54,# data time:14890,pm2.5:6.445,pm10:5.704,O2:0.000,NO2:0.000,S
12:11:42,0,0,0,0,0,0,0,0,0,0,0,513,0,0,0,0,0.0000000,0.0000000,0.0000000,0.0000000,8.00,38.4066200,-110.7925262,1400.1999512,0.0,17.5,1.0,0.0,0.0,813,128,0,0,860.22,20.80,18.54,# data time:14890,pm2.5:6.445,pm10:5.704,O2:0.000,NO2:0.000,S
12:11:43,0,0,0,0,0,0,0,0,0,0,0,514,0,0,0,0,0.0000000,0.0000000,0.0000000,0.0000000,8.00,38.4066200,-110.7925262,1400.1999512,0.0,17.5,1.0,0.0,0.0,812,128,0,0,860.23,20.81,18.54,# data time:14890,pm2.5:6.445,pm10:5.704,O2:0.000,NO2:0.000,S
12:11:44,0,0,0,0,0,0,0,0,0,0,0,514,0,0,0,0,0.0000000,0.0000000,0.0000000,0.0000000,8.00,38.4066200,-110.7925262,1400.1999512,0.0,17.5,1.0,0.0,0.0,813,127,0,0,860.21,20.81,18.54,# data time:14890,pm2.5:6.445,pm10:5.704,O2:0.000,NO2:0.000,S
12:11:45,0,0,0,0,0,0,0,0,0,0,0,514,0,0,0,0,0.0000000,0.0000000,0.0000000,0.0000000,8.00,38.4066200,-110.7925262,1400.1999512,0.0,17.5,1.0,0.0,0.0,813,126,0,0,860.22,20.80,18.54,# data time:14890,pm2.5:6.445,pm10:5.704,O2:0.000,NO2:0.000,S
12:11:46,0,0,0,0,0,0,0,0,0,0,0,514,0,0,0,0,0.0000000,0.0000000,0.0000000,0.0000000,8.00,38.4066200,-110.7925262,1400.1999512,0.0,17.5,1.0,0.0,0.0,812,127,0,0,860.27,20.78,18.54,# data time:14890,pm2.5:6.445,pm10:5.704,O2:0.000,NO2:0.000,S
12:11:47,0,0,0,0,0,0,0,0,0,0,0,514,0,0,0,0,0.0000000,0.0000000,0.0000000,0.0000000,8.00,38.4066200,-110.7925262,1400.1999512,0.0,17.5,1.0,0.0,0.0,813,126,0,0,860.25,20.78,18.54,# data time:14890,pm2.5:6.445,pm10:5.704,O2:0.000,NO2:0.000,S
12:11:48,0,0,0,0,0,0,0,0,0,0,0,514,0,0,0,0,0.0000000,0.0000000,0.0000000,0.0000000,8.00,38.4066200,-110.7925262,1400.1999512,0.0,17.5,1.0,0.0,0.0,813,128,0,0,860.22,20.80,18.44,# data time:14900,pm2.5:6.445,pm10:5.704,O2:0.000,NO2:0.000,S
12:11:49,0,0,0,0,0,0,0,0,0,0,0,515,0,0,0,0,0.0000000,0.0000000,0.0000000,0.0000000,8.00,38.4066200,-110.7925262,1400.1999512,0.0,17.5,1.0,0.0,0.0,813,127,0,0,860.26,20.81,18.53,# data time:14900,pm2.5:6.445,pm10:5.704,O2:0.000,NO2:0.000,S
12:11:50,0,0,0,0,0,0,0,0,0,0,0,514,0,0,0,0,0.0000000,0.0000000,0.0000000,0.0000000,8.00,38.4066200,-110.7925262,1400.1999512,0.0,17.5,1.0,0.0,0.0,813,123,0,0,860.28,20.77,18.54,# data time:14900,pm2.5:6.445,pm10:5.704,O2:0.000,NO2:0.000,S
12:11:51,0,0,0,0,0,0,0,0,0,0,0,515,0,0,0,0,0.0000000,0.0000000,0.0000000,0.0000000,8.00,38.4066200,-110.7925262,1400.1999512,0.0,17.5,1.0,0.0,0.0,812,126,0,0,860.23,20.78,18.54,# data time:14900,pm2.5:6.445,pm10:5.704,O2:0.000,NO2:0.000,S
12:11:52,0,0,0,0,0,0,0,0,0,0,0,514,0,0,0,0,0.0000000,0.0000000,0.0000000,0.0000000,8.00,38.4066200,-110.7925262,1400.1999512,0.0,17.5,1.0,0.0,0.0,812,129,0,0,860.27,20.81,18.53,# data time:14900,pm2.5:6.445,pm10:5.704,O2:0.000,NO2:0.000,S
12:11:53,0,0,0,0,0,0,0,0,0,0,0,513,0,0,0,0,0.0000000,0.0000000,0.0000000,0.0000000,8.00,38.4066200,-110.7925339,1400.1999512,0.0,17.5,1.0,0.0,0.0,812,125,0,0,860.28,20.78,18.54,# data time:14900,pm2.5:6.445,pm10:5.704,O2:0.000,NO2:0.000,S
12:11:54,0,0,0,0,0,0,0,0,0,0,0,514,0,0,0,0,0.0000000,0.0000000,0.0000000,0.0000000,8.00,38.4066200,-110.7925339,1400.1999512,0.0,17.5,1.0,0.0,0.0,813,128,0,0,860.30,20.78,18.54,# data time:14900,pm2.5:6.445,pm10:5.704,O2:0.000,NO2:0.000,S
12:11:55,0,0,0,0,0,0,0,0,0,0,0,514,0,0,0,0,0.0000000,0.0000000,0.0000000,0.0000000,8.00,38.4066200,-110.7925339,1400.1999512,0.0,17.5,1.0,0.0,0.0,813,127,0,0,860.24,20.81,18.54,# data time:14900,pm2.5:6.445,pm10:5.704,O2:0.000,NO2:0.000,S
12:11:56,0,0,0,0,0,0,0,0,0,0,0,515,0,0,0,0,0.0000000,0.0000000,0.0000000,0.0000000,8.00,38.4066200,-110.7925339,1400.1999512,0.0,17.5,1.0,0.0,0.0,813,126,0,0,860.23,20.78,18.54,# data time:14900,pm2.5:6.445,pm10:5.704,O2:0.000,NO2:0.000,S
12:11:57,0,0,0,0,0,0,0,0,0,0,0,514,0,0,0,0,0.0000000,0.0000000,0.0000000,0.0000000,8.00,38.4066162,-110.7925339,1400.1999512,0.0,17.5,1.0,0.0,0.0,812,134,0,0,860.26,20.81,18.54,# data time:14900,pm2.5:6.445,pm10:5.704,O2:0.000,NO2:0.000,S
12:11:58,0,0,0,0,0,0,0,0,0,0,0,514,0,0,0,0,0.0000000,0.0000000,0.0000000,0.0000000,8.00,38.4066162,-110.7925339,1400.1999512,0.0,17.5,1.0,0.0,0.0,812,127,0,0,860.23,20.80,18.44,# data time:14910,pm2.5:6.445,pm10:5.704,O2:0.000,NO2:0.000,S
12:11:59,0,0,0,0,0,0,0,0,0,0,0,515,0,0,0,0,0.0000000,0.0000000,0.0000000,0.0000000,8.00,38.4066162,-110.7925339,1400.1999512,0.0,17.5,1.0,0.0,0.0,812,127,0,0,860.22,20.78,18.53,# data time:14910,pm2.5:6.445,pm10:5.704,O2:0.000,NO2:0.000,S
12:12:00,0,0,0,0,0,0,0,0,0,0,0,515,0,0,0,0,0.0000000,0.0000000,0.0000000,0.0000000,8.00,38.4066162,-110.7925339,1400.1999512,0.0,17.5,1.0,0.0,0.0,813,128,0,0,860.23,20.78,18.53,# data time:14910,pm2.5:6.445,pm10:5.704,O2:0.000,NO2:0.000,S
12:12:01,0,0,0,0,0,0,0,0,0,0,0,514,0,0,0,0,0.0000000,0.0000000,0.0000000,0.0000000,8.00,38.4066162,-110.7925339,1400.1999512,0.0,17.5,1.0,0.0,0.0,812,123,0,0,860.29,20.78,18.54,# data time:14910,pm2.5:6.445,pm10:5.704,O2:0.000,NO2:0.000,S
12:12:02,0,0,0,0,0,0,0,0,0,0,0,515,0,0,0,0,0.0000000,0.0000000,0.0000000,0.0000000,8.00,38.4066162,-110.7925339,1400.1999512,0.0,17.5,1.0,0.0,0.0,813,123,0,0,860.27,20.78,18.54,# data time:14910,pm2.5:6.445,pm10:5.704,O2:0.000,NO2:0.000,S
12:12:03,0,0,0,0,0,0,0,0,0,0,0,515,0,0,0,0,0.0000000,0.0000000,0.0000000,0.0000000,8.00,38.4066162,-110.7925339,1400.1999512,0.0,17.5,1.0,0.0,0.0,813,128,0,0,860.28,20.81,18.54,# data time:14910,pm2.5:6.445,pm10:5.704,O2:0.000,NO2:0.000,S
12:12:04,0,0,0,0,0,0,0,0,0,0,0,514,0,0,0,0,0.0000000,0.0000000,0.0000000,0.0000000,8.00,38.4066162,-110.7925339,1400.1999512,0.0,17.5,1.0,0.0,0.0,812,127,0,0,860.28,20.80,18.54,# data time:14910,pm2.5:6.445,pm10:5.704,O2:0.000,NO2:0.000,S
12:12:05,0,0,0,0,0,0,0,0,0,0,0,514,0,0,0,0,0.0000000,0.0000000,0.0000000,0.0000000,8.00,38.4066162,-110.7925339,1400.1999512,0.0,17.5,1.0,0.0,0.0,813,127,0,0,860.26,20.83,18.54,# data time:14910,pm2.5:6.445,pm10:5.704,O2:0.000,NO2:0.000,S
12:12:06,0,0,0,0,0,0,0,0,0,0,0,514,0,0,0,0,0.0000000,0.0000000,0.0000000,0.0000000,8.00,38.4066162,-110.7925339,1400.1999512,0.0,17.5,1.0,0.0,0.0,813,128,0,0,860.27,20.84,18.54,# data time:14910,pm2.5:6.445,pm10:5.704,O2:0.000,NO2:0.000,S
12:12:07,0,0,0,0,0,0,0,0,0,0,0,515,0,0,0,0,0.0000000,0.0000000,0.0000000,0.0000000,8.00,38.4066162,-110.7925339,1400.1999512,0.0,17.5,1.0,0.0,0.0,813,128,0,0,860.26,20.84,18.55,# data time:14910,pm2.5:6.445,pm10:5.704,O2:0.000,NO2:0.000,S
12:12:08,0,0,0,0,0,0,0,0,0,0,0,514,0,0,0,0,0.0000000,0.0000000,0.0000000,0.0000000,8.00,38.4066162,-110.7925339,1400.1999512,0.0,17.5,1.0,0.0,0.0,812,125,0,0,860.19,20.84,18.45,# data time:14920,pm2.5:5.640,pm10:4.991,O2:0.000,NO2:0.000,SO2:0.000,NH3:5.536
12:12:09,0,0,0,0,0,0,0,0,0,0,0,514,0,0,0,0,0.0000000,0.0000000,0.0000000,0.0000000,8.00,38.4066162,-110.7925339,1400.1999512,0.0,17.5,1.0,0.0,0.0,813,127,0,0,860.26,20.87,18.54,# data time:14920,pm2.5:5.640,pm10:4.991,O2:0.000,NO2:0.000,SO2:0.000,NH3:5.536
12:12:10,0,0,0,0,0,0,0,0,0,0,0,514,0,0,0,0,0.0000000,0.0000000,0.0000000,0.0000000,8.00,38.4066162,-110.7925339,1400.1999512,0.0,17.5,1.0,0.0,0.0,813,125,0,0,860.23,20.86,18.54,# data time:14920,pm2.5:5.640,pm10:4.991,O2:0.000,NO2:0.000,SO2:0.000,NH3:5.536
12:12:11,0,0,0,0,0,0,0,0,0,0,0,514,0,0,0,0,0.0000000,0.0000000,0.0000000,0.0000000,8.00,38.4066162,-110.7925339,1400.1999512,0.0,17.5,1.0,0.0,0.0,813,127,0,0,860.26,20.86,18.54,# data time:14920,pm2.5:5.640,pm10:4.991,O2:0.000,NO2:0.000,SO2:0.000,NH3:5.536
12:12:12,0,0,0,0,0,0,0,0,0,0,0,514,0,0,0,0,0.0000000,0.0000000,0.0000000,0.0000000,8.00,38.4066162,-110.7925339,1400.1999512,0.0,17.5,1.0,0.0,0.0,812,126,0,0,860.30,20.87,18.55,# data time:14920,pm2.5:5.640,pm10:4.991,O2:0.000,NO2:0.000,SO2:0.000,NH3:5.536
12:12:13,0,0,0,0,0,0,0,0,0,0,0,514,0,0,0,0,0.0000000,0.0000000,0.0000000,0.0000000,8.00,38.4066162,-110.7925339,1400.1999512,0.0,17.5,1.0,0.0,0.0,812,129,0,0,860.25,20.87,18.55,# data time:14920,pm2.5:5.640,pm10:4.991,O2:0.000,NO2:0.000,SO2:0.000,NH3:5.536
12:12:14,0,0,0,0,0,0,0,0,0,0,0,515,0,0,0,0,0.0000000,0.0000000,0.0000000,0.0000000,8.00,38.4066162,-110.7925339,1400.1999512,0.0,17.5,1.0,0.0,0.0,812,128,0,0,860.22,20.89,18.55,# data time:14920,pm2.5:5.640,pm10:4.991,O2:0.000,NO2:0.000,SO2:0.000,NH3:5.536
12:12:15,0,0,0,0,0,0,0,0,0,0,0,512,0,0,0,0,0.0000000,0.0000000,0.0000000,0.0000000,8.00,38.4066162,-110.7925339,1400.1999512,0.0,17.5,1.0,0.0,0.0,808,123,0,0,860.23,20.89,18.55,# data time:14920,pm2.5:5.640,pm10:4.991,O2:0.000,NO2:0.000,SO2:0.000,NH3:5.536
12:12:16,0,0,0,0,0,0,0,0,0,0,0,514,0,0,0,0,0.0000000,0.0000000,0.0000000,0.0000000,8.00,38.4066162,-110.7925339,1400.1999512,0.0,17.5,1.0,0.0,0.0,813,127,0,0,860.21,20.87,18.55,# data time:14920,pm2.5:5.640,pm10:4.991,O2:0.000,NO2:0.000,SO2:0.000,NH3:5.536
12:12:17,0,0,0,0,0,0,0,0,0,0,0,515,0,0,0,0,0.0000000,0.0000000,0.0000000,0.0000000,8.00,38.4066162,-110.7925339,1400.1999512,0.0,17.5,1.0,0.0,0.0,812,126,0,0,860.25,20.89,18.56,# data time:14930,pm2.5:6.445,pm10:5.704,O2:0.000,NO2:0.000,SO2:0.000,NH3:5.536
12:12:18,0,0,0,0,0,0,0,0,0,0,0,514,0,0,0,0,0.0000000,0.0000000,0.0000000,0.0000000,8.00,38.4066162,-110.7925339,1400.1999512,0.0,17.5,1.0,0.0,0.0,813,128,0,0,860.20,20.87,18.50,# data time:14930,pm2.5:6.445,pm10:5.704,O2:0.000,NO2:0.000,SO2:0.000,NH3:5.536
12:12:19,0,0,0,0,0,0,0,0,0,0,0,514,0,0,0,0,0.0000000,0.0000000,0.0000000,0.0000000,8.00,38.4066162,-110.7925339,1400.1999512,0.0,17.5,1.0,0.0,0.0,813,128,0,0,860.23,20.89,18.51,# data time:14930,pm2.5:6.445,pm10:5.704,O2:0.000,NO2:0.000,SO2:0.000,NH3:5.536
12:12:20,0,0,0,0,0,0,0,0,0,0,0,515,0,0,0,0,0.0000000,0.0000000,0.0000000,0.0000000,8.00,38.4066162,-110.7925339,1400.1999512,0.0,17.5,1.0,0.0,0.0,812,126,0,0,860.23,20.89,18.55,# data time:14930,pm2.5:6.445,pm10:5.704,O2:0.000,NO2:0.000,SO2:0.000,NH3:5.536
12:12:21,0,0,0,0,0,0,0,0,0,0,0,514,0,0,0,0,0.0000000,0.0000000,0.0000000,0.0000000,8.00,38.4066162,-110.7925339,1400.1999512,0.0,17.5,1.0,0.0,0.0,813,127,0,0,860.28,20.89,18.55,# data time:14930,pm2.5:6.445,pm10:5.704,O2:0.000,NO2:0.000,SO2:0.000,NH3:5.536
12:12:22,0,0,0,0,0,0,0,0,0,0,0,514,0,0,0,0,0.0000000,0.0000000,0.0000000,0.0000000,8.00,38.4066162,-110.7925339,1400.1999512,0.0,17.5,1.0,0.0,0.0,812,126,0,0,860.19,20.84,18.56,# data time:14930,pm2.5:6.445,pm10:5.704,O2:0.000,NO2:0.000,SO2:0.000,NH3:5.536
12:12:23,0,0,0,0,0,0,0,0,0,0,0,514,0,0,0,0,0.0000000,0.0000000,0.0000000,0.0000000,8.00,38.4066162,-110.7925339,1400.1999512,0.0,17.5,1.0,0.0,0.0,812,128,0,0,860.27,20.87,18.56,# data time:14930,pm2.5:6.445,pm10:5.704,O2:0.000,NO2:0.000,SO2:0.000,NH3:5.536
12:12:24,0,0,0,0,0,0,0,0,0,0,0,514,0,0,0,0,0.0000000,0.0000000,0.0000000,0.0000000,8.00,38.4066162,-110.7925339,1400.1999512,0.0,17.5,1.0,0.0,0.0,812,127,0,0,860.29,20.86,18.56,# data time:14930,pm2.5:6.445,pm10:5.704,O2:0.000,NO2:0.000,SO2:0.000,NH3:5.536
12:12:25,0,0,0,0,0,0,0,0,0,0,0,514,0,0,0,0,0.0000000,0.0000000,0.0000000,0.0000000,8.00,38.4066162,-110.7925339,1400.1999512,0.0,17.5,1.0,0.0,0.0,812,128,0,0,860.21,20.84,18.56,# data time:14930,pm2.5:6.445,pm10:5.704,O2:0.000,NO2:0.000,SO2:0.000,NH3:5.536
12:12:26,0,0,0,0,0,0,0,0,0,0,0,514,0,0,0,0,0.0000000,0.0000000,0.0000000,0.0000000,8.00,38.4066162,-110.7925339,1400.1999512,0.0,17.5,1.0,0.0,0.0,812,127,0,0,860.26,20.86,18.56,# data time:14930,pm2.5:6.445,pm10:5.704,O2:0.000,NO2:0.000,SO2:0.000,NH3:5.536
12:12:28,0,0,0,0,0,0,0,0,0,0,0,515,0,0,0,0,0.0000000,0.0000000,0.0000000,0.0000000,8.00,38.4066162,-110.7925339,1400.1999512,0.0,17.5,1.0,0.0,0.0,813,128,0,0,860.23,20.84,18.46,# data time:14940,pm2.5:6.445,pm10:5.704,O2:0.000,NO2:0.000,SO2:0.000,NH3:5.536
12:12:29,0,0,0,0,0,0,0,0,0,0,0,514,0,0,0,0,0.0000000,0.0000000,0.0000000,0.0000000,8.00,38.4066162,-110.7925339,1400.1999512,0.0,17.5,1.0,0.0,0.0,812,126,0,0,860.28,20.84,18.55,# data time:14940,pm2.5:6.445,pm10:5.704,O2:0.000,NO2:0.000,SO2:0.000,NH3:5.536
12:12:30,0,0,0,0,0,0,0,0,0,0,0,514,0,0,0,0,0.0000000,0.0000000,0.0000000,0.0000000,8.00,38.4066162,-110.7925339,1400.1999512,0.0,17.5,1.0,0.0,0.0,812,128,0,0,860.28,20.86,18.55,# data time:14940,pm2.5:6.445,pm10:5.704,O2:0.000,NO2:0.000,SO2:0.000,NH3:5.536
12:12:31,0,0,0,0,0,0,0,0,0,0,0,514,0,0,0,0,0.0000000,0.0000000,0.0000000,0.0000000,8.00,38.4066162,-110.7925339,1400.1999512,0.0,17.5,1.0,0.0,0.0,813,125,0,0,860.26,20.84,18.55,# data time:14940,pm2.5:6.445,pm10:5.704,O2:0.000,NO2:0.000,SO2:0.000,NH3:5.536
12:12:32,0,0,0,0,0,0,0,0,0,0,0,513,0,0,0,0,0.0000000,0.0000000,0.0000000,0.0000000,8.00,38.4066162,-110.7925339,1400.1999512,0.0,17.5,1.0,0.0,0.0,813,126,0,0,860.24,20.84,18.55,# data time:14940,pm2.5:6.445,pm10:5.704,O2:0.000,NO2:0.000,SO2:0.000,NH3:5.536
12:12:33,0,0,0,0,0,0,0,0,0,0,0,514,0,0,0,0,0.0000000,0.0000000,0.0000000,0.0000000,8.00,38.4066162,-110.7925339,1400.1999512,0.0,17.5,1.0,0.0,0.0,812,128,0,0,860.22,20.83,18.55,# data time:14940,pm2.5:6.445,pm10:5.704,O2:0.000,NO2:0.000,SO2:0.000,NH3:5.536
12:12:34,0,0,0,0,0,0,0,0,0,0,0,514,0,0,0,0,0.0000000,0.0000000,0.0000000,0.0000000,8.00,38.4066162,-110.7925339,1400.1999512,0.0,17.5,1.0,0.0,0.0,812,124,0,0,860.23,20.84,18.55,# data time:14940,pm2.5:6.445,pm10:5.704,O2:0.000,NO2:0.000,SO2:0.000,NH3:5.536
12:12:35,0,0,0,0,0,0,0,0,0,0,0,514,0,0,0,0,0.0000000,0.0000000,0.0000000,0.0000000,8.00,38.4066162,-110.7925339,1400.1999512,0.0,17.5,1.0,0.0,0.0,812,123,0,0,860.21,20.83,18.55,# data time:14940,pm2.5:6.445,pm10:5.704,O2:0.000,NO2:0.000,SO2:0.000,NH3:5.536
12:12:36,0,0,0,0,0,0,0,0,0,0,0,513,0,0,0,0,0.0000000,0.0000000,0.0000000,0.0000000,8.00,38.4066162,-110.7925339,1400.1999512,0.0,17.5,1.0,0.0,0.0,813,127,0,0,860.27,20.89,18.55,# data time:14940,pm2.5:6.445,pm10:5.704,O2:0.000,NO2:0.000,SO2:0.000,NH3:5.536
12:12:37,0,0,0,0,0,0,0,0,0,0,0,514,0,0,0,0,0.0000000,0.0000000,0.0000000,0.0000000,8.00,38.4066162,-110.7925339,1400.1999512,0.0,17.5,1.0,0.0,0.0,813,126,0,0,860.26,20.86,18.55,# data time:14940,pm2.5:6.445,pm10:5.704,O2:0.000,NO2:0.000,SO2:0.000,NH3:5.536
12:12:38,0,0,0,0,0,0,0,0,0,0,0,514,0,0,0,0,0.0000000,0.0000000,0.0000000,0.0000000,8.00,38.4066162,-110.7925339,1400.1999512,0.0,17.5,1.0,0.0,0.0,813,126,0,0,860.22,20.86,18.46,# data time:14950,pm2.5:6.445,pm10:5.704,O2:0.000,NO2:0.000,SO2:0.000,NH3:5.536
12:12:39,0,0,0,0,0,0,0,0,0,0,0,514,0,0,0,0,0.0000000,0.0000000,0.0000000,0.0000000,8.00,38.4066162,-110.7925339,1400.1999512,0.0,17.5,1.0,0.0,0.0,812,129,0,0,860.28,20.87,18.55,# data time:14950,pm2.5:6.445,pm10:5.704,O2:0.000,NO2:0.000,SO2:0.000,NH3:5.536
12:12:40,0,0,0,0,0,0,0,0,0,0,0,514,0,0,0,0,0.0000000,0.0000000,0.0000000,0.0000000,8.00,38.4066162,-110.7925339,1400.1999512,0.0,17.5,1.0,0.0,0.0,812,125,0,0,860.26,20.87,18.55,# data time:14950,pm2.5:6.445,pm10:5.704,O2:0.000,NO2:0.000,SO2:0.000,NH3:5.536
12:12:41,0,0,0,0,0,0,0,0,0,0,0,514,0,0,0,0,0.0000000,0.0000000,0.0000000,0.0000000,8.00,38.4066162,-110.7925339,1400.1999512,0.0,17.5,1.0,0.0,0.0,813,129,0,0,860.22,20.86,18.55,# data time:14950,pm2.5:6.445,pm10:5.704,O2:0.000,NO2:0.000,SO2:0.000,NH3:5.536
12:12:42,0,0,0,0,0,0,0,0,0,0,0,513,0,0,0,0,0.0000000,0.0000000,0.0000000,0.0000000,8.00,38.4066162,-110.7925339,1400.1999512,0.0,17.5,1.0,0.0,0.0,812,127,0,0,860.23,20.86,18.55,# data time:14950,pm2.5:6.445,pm10:5.704,O2:0.000,NO2:0.000,SO2:0.000,NH3:5.536
12:12:43,0,0,0,0,0,0,0,0,0,0,0,514,0,0,0,0,0.0000000,0.0000000,0.0000000,0.0000000,8.00,38.4066162,-110.7925339,1400.1999512,0.0,17.5,1.0,0.0,0.0,812,124,0,0,860.26,20.84,18.55,# data time:14950,pm2.5:6.445,pm10:5.704,O2:0.000,NO2:0.000,SO2:0.000,NH3:5.536
12:12:44,0,0,0,0,0,0,0,0,0,0,0,514,0,0,0,0,0.0000000,0.0000000,0.0000000,0.0000000,8.00,38.4066162,-110.7925339,1400.1999512,0.0,17.5,1.0,0.0,0.0,812,127,0,0,860.30,20.84,18.55,# data time:14950,pm2.5:6.445,pm10:5.704,O2:0.000,NO2:0.000,SO2:0.000,NH3:5.536
12:12:45,0,0,0,0,0,0,0,0,0,0,0,514,0,0,0,0,0.0000000,0.0000000,0.0000000,0.0000000,8.00,38.4066162,-110.7925339,1400.1999512,0.0,17.5,1.0,0.0,0.0,813,119,0,0,860.26,20.80,18.56,# data time:14950,pm2.5:6.445,pm10:5.704,O2:0.000,NO2:0.000,SO2:0.000,NH3:5.536
12:12:46,0,0,0,0,0,0,0,0,0,0,0,514,0,0,0,0,0.0000000,0.0000000,0.0000000,0.0000000,8.00,38.4066162,-110.7925339,1400.1999512,0.0,17.5,1.0,0.0,0.0,812,126,0,0,860.26,20.83,18.55,# data time:14950,pm2.5:6.445,pm10:5.704,O2:0.000,NO2:0.000,SO2:0.000,NH3:5.536
12:12:47,0,0,0,0,0,0,0,0,0,0,0,514,0,0,0,0,0.0000000,0.0000000,0.0000000,0.0000000,8.00,38.4066162,-110.7925339,1400.1999512,0.0,17.5,1.0,0.0,0.0,813,127,0,0,860.28,20.81,18.56,# data time:14950,pm2.5:6.445,pm10:5.704,O2:0.000,NO2:0.000,SO2:0.000,NH3:5.536
12:12:48,0,0,0,0,0,0,0,0,0,0,0,514,0,0,0,0,0.0000000,0.0000000,0.0000000,0.0000000,8.00,38.4066162,-110.7925339,1400.1999512,0.0,17.5,1.0,0.0,0.0,813,125,0,0,860.21,20.81,18.46,# data time:14960,pm2.5:6.445,pm10:5.704,O2:0.000,NO2:0.000,SO2:0.000,NH3:5.536
12:12:49,0,0,0,0,0,0,0,0,0,0,0,514,0,0,0,0,0.0000000,0.0000000,0.0000000,0.0000000,8.00,38.4066162,-110.7925339,1400.1999512,0.1,17.5,1.0,0.0,0.0,812,126,0,0,860.25,20.80,18.55,# data time:14960,pm2.5:6.445,pm10:5.704,O2:0.000,NO2:0.000,SO2:0.000,NH3:5.536
12:12:50,0,0,0,0,0,0,0,0,0,0,0,515,0,0,0,0,0.0000000,0.0000000,0.0000000,0.0000000,8.00,38.4066162,-110.7925339,1400.1999512,0.0,17.5,1.0,0.0,0.0,812,125,0,0,860.27,20.84,18.55,# data time:14960,pm2.5:6.445,pm10:5.704,O2:0.000,NO2:0.000,SO2:0.000,NH3:5.536
12:12:51,0,0,0,0,0,0,0,0,0,0,0,514,0,0,0,0,0.0000000,0.0000000,0.0000000,0.0000000,8.00,38.4066162,-110.7925339,1400.1999512,0.0,17.5,1.0,0.0,0.0,812,127,0,0,860.23,20.83,18.56,# data time:14960,pm2.5:6.445,pm10:5.704,O2:0.000,NO2:0.000,SO2:0.000,NH3:5.536
12:12:52,0,0,0,0,0,0,0,0,0,0,0,514,0,0,0,0,0.0000000,0.0000000,0.0000000,0.0000000,8.00,38.4066162,-110.7925339,1400.1999512,0.0,17.5,1.0,0.0,0.0,812,125,0,0,860.24,20.84,18.56,# data time:14960,pm2.5:6.445,pm10:5.704,O2:0.000,NO2:0.000,SO2:0.000,NH3:5.536
12:12:53,0,0,0,0,0,0,0,0,0,0,0,514,0,0,0,0,0.0000000,0.0000000,0.0000000,0.0000000,8.00,38.4066162,-110.7925339,1400.1999512,0.0,17.5,1.0,0.0,0.0,812,128,0,0,860.22,20.83,18.56,# data time:14960,pm2.5:6.445,pm10:5.704,O2:0.000,NO2:0.000,SO2:0.000,NH3:5.536
12:12:54,0,0,0,0,0,0,0,0,0,0,0,514,0,0,0,0,0.0000000,0.0000000,0.0000000,0.0000000,8.00,38.4066162,-110.7925339,1400.1999512,0.0,17.5,1.0,0.0,0.0,812,127,0,0,860.24,20.81,18.56,# data time:14960,pm2.5:6.445,pm10:5.704,O2:0.000,NO2:0.000,SO2:0.000,NH3:5.536
12:12:55,0,0,0,0,0,0,0,0,0,0,0,514,0,0,0,0,0.0000000,0.0000000,0.0000000,0.0000000,8.00,38.4066162,-110.7925339,1400.1999512,0.0,17.5,1.0,0.0,0.0,812,127,0,0,860.28,20.80,18.56,# data time:14960,pm2.5:6.445,pm10:5.704,O2:0.000,NO2:0.000,SO2:0.000,NH3:5.536
12:12:56,0,0,0,0,0,0,0,0,0,0,0,514,0,0,0,0,0.0000000,0.0000000,0.0000000,0.0000000,8.00,38.4066162,-110.7925339,1400.1999512,0.0,17.5,1.0,0.0,0.0,812,127,0,0,860.24,20.80,18.56,# data time:14960,pm2.5:6.445,pm10:5.704,O2:0.000,NO2:0.000,SO2:0.000,NH3:5.536
12:12:57,0,0,0,0,0,0,0,0,0,0,0,515,0,0,0,0,0.0000000,0.0000000,0.0000000,0.0000000,8.00,38.4066162,-110.7925339,1400.1999512,0.0,17.5,1.0,0.0,0.0,812,128,0,0,860.24,20.78,18.56,# data time:14960,pm2.5:6.445,pm10:5.704,O2:0.000,NO2:0.000,SO2:0.000,NH3:5.536
12:12:58,0,0,0,0,0,0,0,0,0,0,0,514,0,0,0,0,0.0000000,0.0000000,0.0000000,0.0000000,8.00,38.4066162,-110.7925339,1400.1999512,0.0,17.5,1.0,0.0,0.0,812,126,0,0,860.21,20.80,18.46,# data time:14970,pm2.5:6.445,pm10:5.704,O2:0.000,NO2:0.000,SO2:0.000,NH3:5.536
12:12:59,0,0,0,0,0,0,0,0,0,0,0,515,0,0,0,0,0.0000000,0.0000000,0.0000000,0.0000000,8.00,38.4066162,-110.7925339,1400.1999512,0.0,17.5,1.0,0.0,0.0,812,127,0,0,860.31,20.78,18.55,# data time:14970,pm2.5:6.445,pm10:5.704,O2:0.000,NO2:0.000,SO2:0.000,NH3:5.536
12:13:00,0,0,0,0,0,0,0,0,0,0,0,514,0,0,0,0,0.0000000,0.0000000,0.0000000,0.0000000,8.00,38.4066162,-110.7925339,1400.1999512,0.0,17.5,1.0,0.0,0.0,813,129,0,0,860.25,20.78,18.54,# data time:14970,pm2.5:6.445,pm10:5.704,O2:0.000,NO2:0.000,SO2:0.000,NH3:5.536
12:13:01,0,0,0,0,0,0,0,0,0,0,0,514,0,0,0,0,0.0000000,0.0000000,0.0000000,0.0000000,8.00,38.4066162,-110.7925339,1400.1999512,0.0,17.5,1.0,0.0,0.0,812,125,0,0,860.24,20.81,18.55,# data time:14970,pm2.5:6.445,pm10:5.704,O2:0.000,NO2:0.000,SO2:0.000,NH3:5.536
12:13:02,0,0,0,0,0,0,0,0,0,0,0,514,0,0,0,0,0.0000000,0.0000000,0.0000000,0.0000000,8.00,38.4066162,-110.7925339,1400.1999512,0.0,17.5,1.0,0.0,0.0,812,129,0,0,860.22,20.80,18.55,# data time:14970,pm2.5:6.445,pm10:5.704,O2:0.000,NO2:0.000,SO2:0.000,NH3:5.536
12:13:03,0,0,0,0,0,0,0,0,0,0,0,514,0,0,0,0,0.0000000,0.0000000,0.0000000,0.0000000,8.00,38.4066162,-110.7925339,1400.1999512,0.0,17.5,1.0,0.0,0.0,812,129,0,0,860.30,20.84,18.55,# data time:14970,pm2.5:6.445,pm10:5.704,O2:0.000,NO2:0.000,SO2:0.000,NH3:5.536
12:13:04,0,0,0,0,0,0,0,0,0,0,0,513,0,0,0,0,0.0000000,0.0000000,0.0000000,0.0000000,8.00,38.4066162,-110.7925339,1400.1999512,0.0,17.5,1.0,0.0,0.0,812,129,0,0,860.27,20.84,18.55,# data time:14970,pm2.5:6.445,pm10:5.704,O2:0.000,NO2:0.000,SO2:0.000,NH3:5.536
12:13:05,0,0,0,0,0,0,0,0,0,0,0,515,0,0,0,0,0.0000000,0.0000000,0.0000000,0.0000000,8.00,38.4066162,-110.7925339,1400.1999512,0.0,17.5,1.0,0.0,0.0,812,128,0,0,860.29,20.84,18.55,# data time:14970,pm2.5:6.445,pm10:5.704,O2:0.000,NO2:0.000,SO2:0.000,NH3:5.536
12:13:06,0,0,0,0,0,0,0,0,0,0,0,514,0,0,0,0,0.0000000,0.0000000,0.0000000,0.0000000,8.00,38.4066162,-110.7925339,1400.1999512,0.0,17.5,1.0,0.0,0.0,813,127,0,0,860.27,20.84,18.55,# data time:14970,pm2.5:6.445,pm10:5.704,O2:0.000,NO2:0.000,SO2:0.000,NH3:5.536
12:13:07,0,0,0,0,0,0,0,0,0,0,0,515,0,0,0,0,0.0000000,0.0000000,0.0000000,0.0000000,8.00,38.4066162,-110.7925339,1400.1999512,0.0,17.5,1.0,0.0,0.0,812,129,0,0,860.26,20.84,18.55,# data time:14970,pm2.5:6.445,pm10:5.704,O2:0.000,NO2:0.000,SO2:0.000,NH3:5.536
12:13:08,0,0,0,0,0,0,0,0,0,0,0,515,0,0,0,0,0.0000000,0.0000000,0.0000000,0.0000000,8.00,38.4066162,-110.7925339,1400.1999512,0.0,17.5,1.0,0.0,0.0,811,127,0,0,860.21,20.89,18.50,# data time:14980,pm2.5:6.445,pm10:5.704,O2:0.000,NO2:0.000,SO2:0.000,NH3:5.536
12:13:09,0,0,0,0,0,0,0,0,0,0,0,514,0,0,0,0,0.0000000,0.0000000,0.0000000,0.0000000,8.00,38.4066162,-110.7925339,1400.1999512,0.0,17.5,1.0,0.0,0.0,812,128,0,0,860.26,20.84,18.55,# data time:14980,pm2.5:6.445,pm10:5.704,O2:0.000,NO2:0.000,SO2:0.000,NH3:5.536
12:13:10,0,0,0,0,0,0,0,0,0,0,0,514,0,0,0,0,0.0000000,0.0000000,0.0000000,0.0000000,8.00,38.4066162,-110.7925339,1400.1999512,0.0,17.5,1.0,0.0,0.0,812,126,0,0,860.26,20.86,18.55,# data time:14980,pm2.5:6.445,pm10:5.704,O2:0.000,NO2:0.000,SO2:0.000,NH3:5.536
12:13:11,0,0,0,0,0,0,0,0,0,0,0,514,0,0,0,0,0.0000000,0.0000000,0.0000000,0.0000000,8.00,38.4066162,-110.7925339,1400.1999512,0.0,17.5,1.0,0.0,0.0,812,125,0,0,860.25,20.86,18.55,# data time:14980,pm2.5:6.445,pm10:5.704,O2:0.000,NO2:0.000,SO2:0.000,NH3:5.536
12:13:12,0,0,0,0,0,0,0,0,0,0,0,514,0,0,0,0,0.0000000,0.0000000,0.0000000,0.0000000,8.00,38.4066162,-110.7925339,1400.1999512,0.0,17.5,1.0,0.0,0.0,812,127,0,0,860.23,20.87,18.55,# data time:14980,pm2.5:6.445,pm10:5.704,O2:0.000,NO2:0.000,SO2:0.000,NH3:5.536
12:13:13,0,0,0,0,0,0,0,0,0,0,0,515,0,0,0,0,0.0000000,0.0000000,0.0000000,0.0000000,8.00,38.4066162,-110.7925339,1400.1999512,0.0,17.5,1.0,0.0,0.0,812,128,0,0,860.22,20.86,18.55,# data time:14980,pm2.5:6.445,pm10:5.704,O2:0.000,NO2:0.000,SO2:0.000,NH3:5.536
12:13:14,0,0,0,0,0,0,0,0,0,0,0,513,0,0,0,0,0.0000000,0.0000000,0.0000000,0.0000000,8.00,38.4066162,-110.7925339,1400.1999512,0.0,17.5,1.0,0.0,0.0,812,126,0,0,860.21,20.86,18.54,# data time:14980,pm2.5:6.445,pm10:5.704,O2:0.000,NO2:0.000,SO2:0.000,NH3:5.536
12:13:15,0,0,0,0,0,0,0,0,0,0,0,514,0,0,0,0,0.0000000,0.0000000,0.0000000,0.0000000,8.00,38.4066162,-110.7925339,1400.1999512,0.0,17.5,1.0,0.0,0.0,812,129,0,0,860.26,20.87,18.54,# data time:14980,pm2.5:6.445,pm10:5.704,O2:0.000,NO2:0.000,SO2:0.000,NH3:5.536
12:13:16,0,0,0,0,0,0,0,0,0,0,0,514,0,0,0,0,0.0000000,0.0000000,0.0000000,0.0000000,8.00,38.4066162,-110.7925339,1400.1999512,0.0,17.5,1.0,0.0,0.0,812,125,0,0,860.26,20.87,18.54,# data time:14980,pm2.5:6.445,pm10:5.704,O2:0.000,NO2:0.000,SO2:0.000,NH3:5.536
12:13:17,0,0,0,0,0,0,0,0,0,0,0,514,0,0,0,0,0.0000000,0.0000000,0.0000000,0.0000000,8.00,38.4066162,-110.7925339,1400.1999512,0.0,17.5,1.0,0.0,0.0,812,128,0,0,860.28,20.91,18.54,# data time:14990,pm2.5:5.640,pm10:4.991,O2:0.000,NO2:0.000,SO2:0.000,NH3:5.536
12:13:18,0,0,0,0,0,0,0,0,0,0,0,514,0,0,0,0,0.0000000,0.0000000,0.0000000,0.0000000,8.00,38.4066162,-110.7925339,1400.1999512,0.0,17.5,1.0,0.0,0.0,812,125,0,0,860.23,20.86,18.50,# data time:14990,pm2.5:5.640,pm10:4.991,O2:0.000,NO2:0.000,SO2:0.000,NH3:5.536
12:13:19,0,0,0,0,0,0,0,0,0,0,0,514,0,0,0,0,0.0000000,0.0000000,0.0000000,0.0000000,8.00,38.4066162,-110.7925339,1400.1999512,0.0,17.5,1.0,0.0,0.0,812,129,0,0,860.21,20.91,18.44,# data time:14990,pm2.5:5.640,pm10:4.991,O2:0.000,NO2:0.000,SO2:0.000,NH3:5.536
12:13:20,0,0,0,0,0,0,0,0,0,0,0,514,0,0,0,0,0.0000000,0.0000000,0.0000000,0.0000000,8.00,38.4066162,-110.7925339,1400.1999512,0.0,17.5,1.0,0.0,0.0,812,125,0,0,860.26,20.91,18.54,# data time:14990,pm2.5:5.640,pm10:4.991,O2:0.000,NO2:0.000,SO2:0.000,NH3:5.536
12:13:21,0,0,0,0,0,0,0,0,0,0,0,514,0,0,0,0,0.0000000,0.0000000,0.0000000,0.0000000,8.00,38.4066162,-110.7925339,1400.1999512,0.0,17.5,1.0,0.0,0.0,812,128,0,0,860.27,20.87,18.54,# data time:14990,pm2.5:5.640,pm10:4.991,O2:0.000,NO2:0.000,SO2:0.000,NH3:5.536
12:13:22,0,0,0,0,0,0,0,0,0,0,0,514,0,0,0,0,0.0000000,0.0000000,0.0000000,0.0000000,8.00,38.4066162,-110.7925339,1400.1999512,0.0,17.5,1.0,0.0,0.0,812,128,0,0,860.30,20.92,18.55,# data time:14990,pm2.5:5.640,pm10:4.991,O2:0.000,NO2:0.000,SO2:0.000,NH3:5.536
12:13:23,0,0,0,0,0,0,0,0,0,0,0,514,0,0,0,0,0.0000000,0.0000000,0.0000000,0.0000000,8.00,38.4066162,-110.7925339,1400.1999512,0.0,17.5,1.0,0.0,0.0,811,123,0,0,860.28,20.91,18.55,# data time:14990,pm2.5:5.640,pm10:4.991,O2:0.000,NO2:0.000,SO2:0.000,NH3:5.536
12:13:24,0,0,0,0,0,0,0,0,0,0,0,515,0,0,0,0,0.0000000,0.0000000,0.0000000,0.0000000,8.00,38.4066162,-110.7925339,1400.1999512,0.0,17.5,1.0,0.0,0.0,812,125,0,0,860.27,20.89,18.55,# data time:14990,pm2.5:5.640,pm10:4.991,O2:0.000,NO2:0.000,SO2:0.000,NH3:5.536
12:13:25,0,0,0,0,0,0,0,0,0,0,0,514,0,0,0,0,0.0000000,0.0000000,0.0000000,0.0000000,8.00,38.4066162,-110.7925339,1400.1999512,0.0,17.5,1.0,0.0,0.0,812,131,0,0,860.27,20.89,18.55,# data time:14990,pm2.5:5.640,pm10:4.991,O2:0.000,NO2:0.000,SO2:0.000,NH3:5.536
12:13:26,0,0,0,0,0,0,0,0,0,0,0,514,0,0,0,0,0.0000000,0.0000000,0.0000000,0.0000000,8.00,38.4066162,-110.7925339,1400.1999512,0.0,17.5,1.0,0.0,0.0,812,128,0,0,860.24,20.91,18.56,# data time:14990,pm2.5:5.640,pm10:4.991,O2:0.000,NO2:0.000,SO2:0.000,NH3:5.536
12:13:28,0,0,0,0,0,0,0,0,0,0,0,514,0,0,0,0,0.0000000,0.0000000,0.0000000,0.0000000,8.00,38.4066162,-110.7925339,1400.1999512,0.0,17.5,1.0,0.0,0.0,812,128,0,0,860.21,20.87,18.46,# data time:15000,pm2.5:6.445,pm10:5.704,O2:0.000,NO2:0.000,SO2:0.000,NH3:5.536
12:13:29,0,0,0,0,0,0,0,0,0,0,0,514,0,0,0,0,0.0000000,0.0000000,0.0000000,0.0000000,8.00,38.4066162,-110.7925339,1400.1999512,0.0,17.5,1.0,0.0,0.0,812,129,0,0,860.25,20.91,18.54,# data time:15000,pm2.5:6.445,pm10:5.704,O2:0.000,NO2:0.000,SO2:0.000,NH3:5.536
12:13:30,0,0,0,0,0,0,0,0,0,0,0,514,0,0,0,0,0.0000000,0.0000000,0.0000000,0.0000000,8.00,38.4066162,-110.7925339,1400.1999512,0.0,17.5,1.0,0.0,0.0,812,124,0,0,860.29,20.87,18.55,# data time:15000,pm2.5:6.445,pm10:5.704,O2:0.000,NO2:0.000,SO2:0.000,NH3:5.536
12:13:31,0,0,0,0,0,0,0,0,0,0,0,513,0,0,0,0,0.0000000,0.0000000,0.0000000,0.0000000,8.00,38.4066162,-110.7925339,1400.1999512,0.0,17.5,1.0,0.0,0.0,812,126,0,0,860.29,20.86,18.55,# data time:15000,pm2.5:6.445,pm10:5.704,O2:0.000,NO2:0.000,SO2:0.000,NH3:5.536
12:13:32,0,0,0,0,0,0,0,0,0,0,0,514,0,0,0,0,0.0000000,0.0000000,0.0000000,0.0000000,8.00,38.4066162,-110.7925339,1400.1999512,0.0,17.5,1.0,0.0,0.0,812,127,0,0,860.26,20.84,18.55,# data time:15000,pm2.5:6.445,pm10:5.704,O2:0.000,NO2:0.000,SO2:0.000,NH3:5.536
12:13:33,0,0,0,0,0,0,0,0,0,0,0,514,0,0,0,0,0.0000000,0.0000000,0.0000000,0.0000000,8.00,38.4066162,-110.7925339,1400.1999512,0.0,17.5,1.0,0.0,0.0,812,125,0,0,860.26,20.83,18.55,# data time:15000,pm2.5:6.445,pm10:5.704,O2:0.000,NO2:0.000,SO2:0.000,NH3:5.536
12:13:34,0,0,0,0,0,0,0,0,0,0,0,514,0,0,0,0,0.0000000,0.0000000,0.0000000,0.0000000,8.00,38.4066124,-110.7925339,1400.1999512,0.0,17.5,1.0,0.0,0.0,812,129,0,0,860.26,20.83,18.55,# data time:15000,pm2.5:6.445,pm10:5.704,O2:0.000,NO2:0.000,SO2:0.000,NH3:5.536
12:13:35,0,0,0,0,0,0,0,0,0,0,0,514,0,0,0,0,0.0000000,0.0000000,0.0000000,0.0000000,8.00,38.4066124,-110.7925339,1400.1999512,0.0,17.5,1.0,0.0,0.0,812,125,0,0,860.28,20.84,18.56,# data time:15000,pm2.5:6.445,pm10:5.704,O2:0.000,NO2:0.000,SO2:0.000,NH3:5.536
12:13:36,0,0,0,0,0,0,0,0,0,0,0,514,0,0,0,0,0.0000000,0.0000000,0.0000000,0.0000000,8.00,38.4066124,-110.7925339,1400.1999512,0.0,17.5,1.0,0.0,0.0,811,127,0,0,860.34,20.83,18.55,# data time:15000,pm2.5:6.445,pm10:5.704,O2:0.000,NO2:0.000,SO2:0.000,NH3:5.536
12:13:37,0,0,0,0,0,0,0,0,0,0,0,514,0,0,0,0,0.0000000,0.0000000,0.0000000,0.0000000,8.00,38.4066124,-110.7925339,1400.1999512,0.0,17.5,1.0,0.0,0.0,812,125,0,0,860.26,20.83,18.56,# data time:15000,pm2.5:6.445,pm10:5.704,O2:0.000,NO2:0.000,SO2:0.000,NH3:5.536
12:13:38,0,0,0,0,0,0,0,0,0,0,0,515,0,0,0,0,0.0000000,0.0000000,0.0000000,0.0000000,8.00,38.4066124,-110.7925339,1400.1999512,0.0,17.5,1.0,0.0,0.0,812,128,0,0,860.22,20.81,18.50,# data time:15010,pm2.5:6.445,pm10:5.704,O2:0.000,NO2:0.000,SO2:0.000,NH3:5.536
12:13:39,0,0,0,0,0,0,0,0,0,0,0,514,0,0,0,0,0.0000000,0.0000000,0.0000000,0.0000000,8.00,38.4066124,-110.7925339,1400.1999512,0.0,17.5,1.0,0.0,0.0,812,129,0,0,860.27,20.84,18.56,# data time:15010,pm2.5:6.445,pm10:5.704,O2:0.000,NO2:0.000,SO2:0.000,NH3:5.536
12:13:40,0,0,0,0,0,0,0,0,0,0,0,514,0,0,0,0,0.0000000,0.0000000,0.0000000,0.0000000,8.00,38.4066124,-110.7925339,1400.1999512,0.0,17.5,1.0,0.0,0.0,811,130,0,0,860.27,20.81,18.56,# data time:15010,pm2.5:6.445,pm10:5.704,O2:0.000,NO2:0.000,SO2:0.000,NH3:5.536
12:13:41,0,0,0,0,0,0,0,0,0,0,0,514,0,0,0,0,0.0000000,0.0000000,0.0000000,0.0000000,8.00,38.4066124,-110.7925339,1400.1999512,0.0,17.5,1.0,0.0,0.0,812,127,0,0,860.28,20.83,18.55,# data time:15010,pm2.5:6.445,pm10:5.704,O2:0.000,NO2:0.000,SO2:0.000,NH3:5.536
12:13:42,0,0,0,0,0,0,0,0,0,0,0,515,0,0,0,0,0.0000000,0.0000000,0.0000000,0.0000000,8.00,38.4066124,-110.7925339,1400.1999512,0.0,17.5,1.0,0.0,0.0,812,124,0,0,860.25,20.80,18.55,# data time:15010,pm2.5:6.445,pm10:5.704,O2:0.000,NO2:0.000,SO2:0.000,NH3:5.536
12:13:43,0,0,0,0,0,0,0,0,0,0,0,515,0,0,0,0,0.0000000,0.0000000,0.0000000,0.0000000,8.00,38.4066124,-110.7925339,1400.1999512,0.0,17.5,1.0,0.0,0.0,812,131,0,0,860.26,20.81,18.54,# data time:15010,pm2.5:6.445,pm10:5.704,O2:0.000,NO2:0.000,SO2:0.000,NH3:5.536
12:13:44,0,0,0,0,0,0,0,0,0,0,0,514,0,0,0,0,0.0000000,0.0000000,0.0000000,0.0000000,8.00,38.4066124,-110.7925339,1400.1999512,0.0,17.5,1.0,0.0,0.0,812,128,0,0,860.26,20.84,18.54,# data time:15010,pm2.5:6.445,pm10:5.704,O2:0.000,NO2:0.000,SO2:0.000,NH3:5.536
12:13:45,0,0,0,0,0,0,0,0,0,0,0,514,0,0,0,0,0.0000000,0.0000000,0.0000000,0.0000000,8.00,38.4066124,-110.7925339,1400.1999512,0.0,17.5,1.0,0.0,0.0,812,129,0,0,860.25,20.83,18.54,# data time:15010,pm2.5:6.445,pm10:5.704,O2:0.000,NO2:0.000,SO2:0.000,NH3:5.536
12:13:46,0,0,0,0,0,0,0,0,0,0,0,515,0,0,0,0,0.0000000,0.0000000,0.0000000,0.0000000,8.00,38.4066124,-110.7925339,1400.1999512,0.0,17.5,1.0,0.0,0.0,812,127,0,0,860.27,20.86,18.54,# data time:15010,pm2.5:6.445,pm10:5.704,O2:0.000,NO2:0.000,SO2:0.000,NH3:5.536
12:13:47,0,0,0,0,0,0,0,0,0,0,0,513,0,0,0,0,0.0000000,0.0000000,0.0000000,0.0000000,8.00,38.4066124,-110.7925339,1400.1999512,0.0,17.5,1.0,0.0,0.0,812,123,0,0,860.25,20.84,18.54,# data time:15010,pm2.5:6.445,pm10:5.704,O2:0.000,NO2:0.000,SO2:0.000,NH3:5.536
12:13:48,0,0,0,0,0,0,0,0,0,0,0,514,0,0,0,0,0.0000000,0.0000000,0.0000000,0.0000000,8.00,38.4066124,-110.7925339,1400.1999512,0.0,17.5,1.0,0.0,0.0,812,128,0,0,860.19,20.83,18.45,# data time:15020,pm2.5:6.445,pm10:5.704,O2:0.000,NO2:0.000,SO2:0.000,NH3:5.536
12:13:49,0,0,0,0,0,0,0,0,0,0,0,514,0,0,0,0,0.0000000,0.0000000,0.0000000,0.0000000,8.00,38.4066124,-110.7925339,1400.1999512,0.0,17.5,1.0,0.0,0.0,812,128,0,0,860.23,20.84,18.54,# data time:15020,pm2.5:6.445,pm10:5.704,O2:0.000,NO2:0.000,SO2:0.000,NH3:5.536
12:13:50,0,0,0,0,0,0,0,0,0,0,0,514,0,0,0,0,0.0000000,0.0000000,0.0000000,0.0000000,8.00,38.4066124,-110.7925339,1400.1999512,0.0,17.5,1.0,0.0,0.0,812,126,0,0,860.21,20.87,18.54,# data time:15020,pm2.5:6.445,pm10:5.704,O2:0.000,NO2:0.000,SO2:0.000,NH3:5.536
12:13:51,0,0,0,0,0,0,0,0,0,0,0,514,0,0,0,0,0.0000000,0.0000000,0.0000000,0.0000000,8.00,38.4066124,-110.7925339,1400.1999512,0.0,17.5,1.0,0.0,0.0,811,125,0,0,860.26,20.86,18.54,# data time:15020,pm2.5:6.445,pm10:5.704,O2:0.000,NO2:0.000,SO2:0.000,NH3:5.536
12:13:52,0,0,0,0,0,0,0,0,0,0,0,514,0,0,0,0,0.0000000,0.0000000,0.0000000,0.0000000,8.00,38.4066124,-110.7925339,1400.1999512,0.0,17.5,1.0,0.0,0.0,812,126,0,0,860.29,20.86,18.55,# data time:15020,pm2.5:6.445,pm10:5.704,O2:0.000,NO2:0.000,SO2:0.000,NH3:5.536
12:13:53,0,0,0,0,0,0,0,0,0,0,0,514,0,0,0,0,0.0000000,0.0000000,0.0000000,0.0000000,8.00,38.4066124,-110.7925339,1400.1999512,0.0,17.5,1.0,0.0,0.0,811,127,0,0,860.29,20.84,18.55,# data time:15020,pm2.5:6.445,pm10:5.704,O2:0.000,NO2:0.000,SO2:0.000,NH3:5.536
12:13:54,0,0,0,0,0,0,0,0,0,0,0,514,0,0,0,0,0.0000000,0.0000000,0.0000000,0.0000000,8.00,38.4066124,-110.7925339,1400.1999512,0.0,17.5,1.0,0.0,0.0,812,128,0,0,860.27,20.87,18.54,# data time:15020,pm2.5:6.445,pm10:5.704,O2:0.000,NO2:0.000,SO2:0.000,NH3:5.536
12:13:55,0,0,0,0,0,0,0,0,0,0,0,514,0,0,0,0,0.0000000,0.0000000,0.0000000,0.0000000,8.00,38.4066124,-110.7925339,1400.1999512,0.0,17.5,1.0,0.0,0.0,812,127,0,0,860.28,20.87,18.54,# data time:15020,pm2.5:6.445,pm10:5.704,O2:0.000,NO2:0.000,SO2:0.000,NH3:5.536
12:13:56,0,0,0,0,0,0,0,0,0,0,0,514,0,0,0,0,0.0000000,0.0000000,0.0000000,0.0000000,8.00,38.4066124,-110.7925339,1400.1999512,0.0,17.5,1.0,0.0,0.0,811,126,0,0,860.20,20.87,18.54,# data time:15020,pm2.5:6.445,pm10:5.704,O2:0.000,NO2:0.000,SO2:0.000,NH3:5.536
12:13:57,0,0,0,0,0,0,0,0,0,0,0,514,0,0,0,0,0.0000000,0.0000000,0.0000000,0.0000000,8.00,38.4066124,-110.7925339,1400.1999512,0.0,17.5,1.0,0.0,0.0,812,125,0,0,860.26,20.89,18.53,# data time:15020,pm2.5:6.445,pm10:5.704,O2:0.000,NO2:0.000,SO2:0.000,NH3:5.536
12:13:58,0,0,0,0,0,0,0,0,0,0,0,514,0,0,0,0,0.0000000,0.0000000,0.0000000,0.0000000,8.00,38.4066124,-110.7925339,1400.1999512,0.0,17.5,1.0,0.0,0.0,812,126,0,0,860.21,20.89,18.44,# data time:15030,pm2.5:6.445,pm10:5.704,O2:0.000,NO2:0.000,SO2:0.000,NH3:5.536
12:13:59,0,0,0,0,0,0,0,0,0,0,0,514,0,0,0,0,0.0000000,0.0000000,0.0000000,0.0000000,8.00,38.4066124,-110.7925339,1400.1999512,0.0,17.5,1.0,0.0,0.0,811,125,0,0,860.23,20.89,18.53,# data time:15030,pm2.5:6.445,pm10:5.704,O2:0.000,NO2:0.000,SO2:0.000,NH3:5.536
12:14:00,0,0,0,0,0,0,0,0,0,0,0,514,0,0,0,0,0.0000000,0.0000000,0.0000000,0.0000000,8.00,38.4066124,-110.7925339,1400.1999512,0.0,17.5,1.0,0.0,0.0,811,126,0,0,860.25,20.89,18.54,# data time:15030,pm2.5:6.445,pm10:5.704,O2:0.000,NO2:0.000,SO2:0.000,NH3:5.536
12:14:01,0,0,0,0,0,0,0,0,0,0,0,514,0,0,0,0,0.0000000,0.0000000,0.0000000,0.0000000,8.00,38.4066124,-110.7925339,1400.1999512,0.0,17.5,1.0,0.0,0.0,811,126,0,0,860.25,20.92,18.54,# data time:15030,pm2.5:6.445,pm10:5.704,O2:0.000,NO2:0.000,SO2:0.000,NH3:5.536
12:14:02,0,0,0,0,0,0,0,0,0,0,0,515,0,0,0,0,0.0000000,0.0000000,0.0000000,0.0000000,8.00,38.4066124,-110.7925339,1400.1999512,0.0,17.5,1.0,0.0,0.0,812,129,0,0,860.26,20.87,18.54,# data time:15030,pm2.5:6.445,pm10:5.704,O2:0.000,NO2:0.000,SO2:0.000,NH3:5.536
12:14:03,0,0,0,0,0,0,0,0,0,0,0,514,0,0,0,0,0.0000000,0.0000000,0.0000000,0.0000000,8.00,38.4066124,-110.7925339,1400.1999512,0.0,17.5,1.0,0.0,0.0,812,123,0,0,860.24,20.91,18.54,# data time:15030,pm2.5:6.445,pm10:5.704,O2:0.000,NO2:0.000,SO2:0.000,NH3:5.536
12:14:04,0,0,0,0,0,0,0,0,0,0,0,514,0,0,0,0,0.0000000,0.0000000,0.0000000,0.0000000,8.00,38.4066124,-110.7925339,1400.1999512,0.0,17.5,1.0,0.0,0.0,812,131,0,0,860.26,20.89,18.54,# data time:15030,pm2.5:6.445,pm10:5.704,O2:0.000,NO2:0.000,SO2:0.000,NH3:5.536
12:14:05,0,0,0,0,0,0,0,0,0,0,0,515,0,0,0,0,0.0000000,0.0000000,0.0000000,0.0000000,8.00,38.4066124,-110.7925339,1400.1999512,0.0,17.5,1.0,0.0,0.0,812,129,0,0,860.24,20.92,18.54,# data time:15030,pm2.5:6.445,pm10:5.704,O2:0.000,NO2:0.000,SO2:0.000,NH3:5.536
12:14:06,0,0,0,0,0,0,0,0,0,0,0,514,0,0,0,0,0.0000000,0.0000000,0.0000000,0.0000000,8.00,38.4066124,-110.7925339,1400.1999512,0.0,17.5,1.0,0.0,0.0,812,131,0,0,860.22,20.91,18.54,# data time:15030,pm2.5:6.445,pm10:5.704,O2:0.000,NO2:0.000,SO2:0.000,NH3:5.536
12:14:07,0,0,0,0,0,0,0,0,0,0,0,514,0,0,0,0,0.0000000,0.0000000,0.0000000,0.0000000,8.00,38.4066124,-110.7925339,1400.1999512,0.0,17.5,1.0,0.0,0.0,812,128,0,0,860.27,20.89,18.54,# data time:15040,pm2.5:6.445,pm10:5.704,O2:0.000,NO2:0.000,SO2:0.000,NH3:5.536
12:14:08,0,0,0,0,0,0,0,0,0,0,0,514,0,0,0,0,0.0000000,0.0000000,0.0000000,0.0000000,8.00,38.4066124,-110.7925339,1400.1999512,0.0,17.5,1.0,0.0,0.0,811,128,0,0,860.24,20.89,18.44,# data time:15040,pm2.5:6.445,pm10:5.704,O2:0.000,NO2:0.000,SO2:0.000,NH3:5.536
12:14:09,0,0,0,0,0,0,0,0,0,0,0,514,0,0,0,0,0.0000000,0.0000000,0.0000000,0.0000000,8.00,38.4066124,-110.7925339,1400.1999512,0.0,17.5,1.0,0.0,0.0,811,131,0,0,860.21,20.91,18.45,# data time:15040,pm2.5:6.445,pm10:5.704,O2:0.000,NO2:0.000,SO2:0.000,NH3:5.536
12:14:10,0,0,0,0,0,0,0,0,0,0,0,514,0,0,0,0,0.0000000,0.0000000,0.0000000,0.0000000,8.00,38.4066124,-110.7925339,1400.1999512,0.0,17.5,1.0,0.0,0.0,812,128,0,0,860.18,20.91,18.45,# data time:15040,pm2.5:6.445,pm10:5.704,O2:0.000,NO2:0.000,SO2:0.000,NH3:5.536
12:14:11,0,0,0,0,0,0,0,0,0,0,0,514,0,0,0,0,0.0000000,0.0000000,0.0000000,0.0000000,8.00,38.4066124,-110.7925339,1400.1999512,0.0,17.5,1.0,0.0,0.0,812,127,0,0,860.23,20.91,18.50,# data time:15040,pm2.5:6.445,pm10:5.704,O2:0.000,NO2:0.000,SO2:0.000,NH3:5.536
12:14:12,0,0,0,0,0,0,0,0,0,0,0,515,0,0,0,0,0.0000000,0.0000000,0.0000000,0.0000000,8.00,38.4066124,-110.7925339,1400.1999512,0.0,17.5,1.0,0.0,0.0,812,128,0,0,860.23,20.92,18.45,# data time:15040,pm2.5:6.445,pm10:5.704,O2:0.000,NO2:0.000,SO2:0.000,NH3:5.536
12:14:13,0,0,0,0,0,0,0,0,0,0,0,514,0,0,0,0,0.0000000,0.0000000,0.0000000,0.0000000,8.00,38.4066124,-110.7925339,1400.1999512,0.0,17.5,1.0,0.0,0.0,811,126,0,0,860.22,20.92,18.50,# data time:15040,pm2.5:6.445,pm10:5.704,O2:0.000,NO2:0.000,SO2:0.000,NH3:5.536
12:14:14,0,0,0,0,0,0,0,0,0,0,0,515,0,0,0,0,0.0000000,0.0000000,0.0000000,0.0000000,8.00,38.4066124,-110.7925339,1400.1999512,0.0,17.5,1.0,0.0,0.0,811,127,0,0,860.26,20.91,18.50,# data time:15040,pm2.5:6.445,pm10:5.704,O2:0.000,NO2:0.000,SO2:0.000,NH3:5.536
12:14:15,0,0,0,0,0,0,0,0,0,0,0,515,0,0,0,0,0.0000000,0.0000000,0.0000000,0.0000000,8.00,38.4066124,-110.7925339,1400.1999512,0.0,17.5,1.0,0.0,0.0,811,126,0,0,860.24,20.94,18.55,# data time:15040,pm2.5:6.445,pm10:5.704,O2:0.000,NO2:0.000,SO2:0.000,NH3:5.536
12:14:16,0,0,0,0,0,0,0,0,0,0,0,514,0,0,0,0,0.0000000,0.0000000,0.0000000,0.0000000,8.00,38.4066124,-110.7925262,1400.1999512,0.0,17.5,1.0,0.0,0.0,811,124,0,0,860.26,20.92,18.55,# data time:15040,pm2.5:6.445,pm10:5.704,O2:0.000,NO2:0.000,SO2:0.000,NH3:5.536
12:14:17,0,0,0,0,0,0,0,0,0,0,0,514,0,0,0,0,0.0000000,0.0000000,0.0000000,0.0000000,8.00,38.4066124,-110.7925262,1400.1999512,0.0,17.5,1.0,0.0,0.0,811,129,0,0,860.27,20.91,18.55,# data time:15050,pm2.5:5.640,pm10:4.991,O2:0.000,NO2:0.000,SO2:0.000,NH3:5.536
12:14:18,0,0,0,0,0,0,0,0,0,0,0,514,0,0,0,0,0.0000000,0.0000000,0.0000000,0.0000000,8.00,38.4066124,-110.7925262,1400.1999512,0.0,17.5,1.0,0.0,0.0,811,126,0,0,860.26,20.92,18.55,# data time:15050,pm2.5:5.640,pm10:4.991,O2:0.000,NO2:0.000,SO2:0.000,NH3:5.536
12:14:19,0,0,0,0,0,0,0,0,0,0,0,514,0,0,0,0,0.0000000,0.0000000,0.0000000,0.0000000,8.00,38.4066162,-110.7925262,1400.1999512,0.0,17.5,1.0,0.0,0.0,811,126,0,0,860.26,20.91,18.55,# data time:15050,pm2.5:5.640,pm10:4.991,O2:0.000,NO2:0.000,SO2:0.000,NH3:5.536
12:14:20,0,0,0,0,0,0,0,0,0,0,0,514,0,0,0,0,0.0000000,0.0000000,0.0000000,0.0000000,8.00,38.4066162,-110.7925262,1400.1999512,0.0,17.5,1.0,0.0,0.0,812,125,0,0,860.27,20.92,18.56,# data time:15050,pm2.5:5.640,pm10:4.991,O2:0.000,NO2:0.000,SO2:0.000,NH3:5.536
12:14:22,0,0,0,0,0,0,0,0,0,0,0,514,0,0,0,0,0.0000000,0.0000000,0.0000000,0.0000000,8.00,38.4066162,-110.7925262,1400.1999512,0.0,17.5,1.0,0.0,0.0,811,127,0,0,860.23,20.89,18.55,# data time:15050,pm2.5:5.640,pm10:4.991,O2:0.000,NO2:0.000,SO2:0.000,NH3:5.536
12:14:23,0,0,0,0,0,0,0,0,0,0,0,514,0,0,0,0,0.0000000,0.0000000,0.0000000,0.0000000,8.00,38.4066162,-110.7925262,1400.1999512,0.0,17.5,1.0,0.0,0.0,812,126,0,0,860.23,20.92,18.56,# data time:15050,pm2.5:5.640,pm10:4.991,O2:0.000,NO2:0.000,SO2:0.000,NH3:5.536
12:14:24,0,0,0,0,0,0,0,0,0,0,0,514,0,0,0,0,0.0000000,0.0000000,0.0000000,0.0000000,8.00,38.4066162,-110.7925262,1400.1999512,0.0,17.5,1.0,0.0,0.0,811,125,0,0,860.24,20.92,18.55,# data time:15050,pm2.5:5.640,pm10:4.991,O2:0.000,NO2:0.000,SO2:0.000,NH3:5.536
12:14:25,0,0,0,0,0,0,0,0,0,0,0,514,0,0,0,0,0.0000000,0.0000000,0.0000000,0.0000000,8.00,38.4066162,-110.7925262,1400.1999512,0.0,17.5,1.0,0.0,0.0,811,128,0,0,860.26,20.91,18.55,# data time:15050,pm2.5:5.640,pm10:4.991,O2:0.000,NO2:0.000,SO2:0.000,NH3:5.536
12:14:26,0,0,0,0,0,0,0,0,0,0,0,514,0,0,0,0,0.0000000,0.0000000,0.0000000,0.0000000,8.00,38.4066162,-110.7925262,1400.1999512,0.0,17.5,1.0,0.0,0.0,811,128,0,0,860.24,20.89,18.55,# data time:15050,pm2.5:5.640,pm10:4.991,O2:0.000,NO2:0.000,SO2:0.000,NH3:5.536
12:14:27,0,0,0,0,0,0,0,0,0,0,0,514,0,0,0,0,0.0000000,0.0000000,0.0000000,0.0000000,8.00,38.4066162,-110.7925262,1400.1999512,0.0,17.5,1.0,0.0,0.0,811,122,0,0,860.25,20.87,18.55,# data time:15050,pm2.5:5.640,pm10:4.991,O2:0.000,NO2:0.000,SO2:0.000,NH3:5.536
12:14:28,0,0,0,0,0,0,0,0,0,0,0,515,0,0,0,0,0.0000000,0.0000000,0.0000000,0.0000000,8.00,38.4066162,-110.7925262,1400.1999512,0.0,17.5,1.0,0.0,0.0,811,129,0,0,860.22,20.89,18.55,# data time:15060,pm2.5:6.445,pm10:5.704,O2:0.000,NO2:0.000,SO2:0.000,NH3:5.536
12:14:29,0,0,0,0,0,0,0,0,0,0,0,514,0,0,0,0,0.0000000,0.0000000,0.0000000,0.0000000,8.00,38.4066162,-110.7925262,1400.1999512,0.0,17.5,1.0,0.0,0.0,811,128,0,0,860.25,20.92,18.56,# data time:15060,pm2.5:6.445,pm10:5.704,O2:0.000,NO2:0.000,SO2:0.000,NH3:5.536
12:14:30,0,0,0,0,0,0,0,0,0,0,0,514,0,0,0,0,0.0000000,0.0000000,0.0000000,0.0000000,8.00,38.4066162,-110.7925262,1400.1999512,0.0,17.5,1.0,0.0,0.0,811,128,0,0,860.30,20.91,18.55,# data time:15060,pm2.5:6.445,pm10:5.704,O2:0.000,NO2:0.000,SO2:0.000,NH3:5.536
12:14:31,0,0,0,0,0,0,0,0,0,0,0,515,0,0,0,0,0.0000000,0.0000000,0.0000000,0.0000000,8.00,38.4066162,-110.7925262,1400.1999512,0.0,17.5,1.0,0.0,0.0,812,131,0,0,860.28,20.91,18.56,# data time:15060,pm2.5:6.445,pm10:5.704,O2:0.000,NO2:0.000,SO2:0.000,NH3:5.536
12:14:32,0,0,0,0,0,0,0,0,0,0,0,514,0,0,0,0,0.0000000,0.0000000,0.0000000,0.0000000,8.00,38.4066162,-110.7925262,1400.1999512,0.0,17.5,1.0,0.0,0.0,811,126,0,0,860.26,20.91,18.56,# data time:15060,pm2.5:6.445,pm10:5.704,O2:0.000,NO2:0.000,SO2:0.000,NH3:5.536
12:14:33,0,0,0,0,0,0,0,0,0,0,0,514,0,0,0,0,0.0000000,0.0000000,0.0000000,0.0000000,8.00,38.4066162,-110.7925262,1400.1999512,0.0,17.5,1.0,0.0,0.0,810,126,0,0,860.29,20.89,18.57,# data time:15060,pm2.5:6.445,pm10:5.704,O2:0.000,NO2:0.000,SO2:0.000,NH3:5.536
12:14:34,0,0,0,0,0,0,0,0,0,0,0,515,0,0,0,0,0.0000000,0.0000000,0.0000000,0.0000000,8.00,38.4066162,-110.7925262,1400.1999512,0.0,17.5,1.0,0.0,0.0,811,126,0,0,860.27,20.91,18.56,# data time:15060,pm2.5:6.445,pm10:5.704,O2:0.000,NO2:0.000,SO2:0.000,NH3:5.536
12:14:35,0,0,0,0,0,0,0,0,0,0,0,514,0,0,0,0,0.0000000,0.0000000,0.0000000,0.0000000,8.00,38.4066162,-110.7925262,1400.1999512,0.0,17.5,1.0,0.0,0.0,810,124,0,0,860.27,20.89,18.56,# data time:15060,pm2.5:6.445,pm10:5.704,O2:0.000,NO2:0.000,SO2:0.000,NH3:5.536
12:14:36,0,0,0,0,0,0,0,0,0,0,0,514,0,0,0,0,0.0000000,0.0000000,0.0000000,0.0000000,8.00,38.4066162,-110.7925262,1400.1999512,0.0,17.5,1.0,0.0,0.0,811,127,0,0,860.30,20.91,18.56,# data time:15060,pm2.5:6.445,pm10:5.704,O2:0.000,NO2:0.000,SO2:0.000,NH3:5.536
12:14:37,0,0,0,0,0,0,0,0,0,0,0,514,0,0,0,0,0.0000000,0.0000000,0.0000000,0.0000000,8.00,38.4066162,-110.7925262,1400.1999512,0.0,17.5,1.0,0.0,0.0,811,127,0,0,860.27,20.89,18.56,# data time:15060,pm2.5:6.445,pm10:5.704,O2:0.000,NO2:0.000,SO2:0.000,NH3:5.536
12:14:38,0,0,0,0,0,0,0,0,0,0,0,513,0,0,0,0,0.0000000,0.0000000,0.0000000,0.0000000,8.00,38.4066162,-110.7925262,1400.1999512,0.0,17.5,1.0,0.0,0.0,811,127,0,0,860.26,20.91,18.47,# data time:15070,pm2.5:6.445,pm10:5.704,O2:0.000,NO2:0.000,SO2:0.000,NH3:5.536
12:14:39,0,0,0,0,0,0,0,0,0,0,0,516,0,0,0,0,0.0000000,0.0000000,0.0000000,0.0000000,8.00,38.4066162,-110.7925262,1400.1999512,0.0,17.5,1.0,0.0,0.0,811,124,0,0,860.27,20.89,18.56,# data time:15070,pm2.5:6.445,pm10:5.704,O2:0.000,NO2:0.000,SO2:0.000,NH3:5.536
12:14:40,0,0,0,0,0,0,0,0,0,0,0,514,0,0,0,0,0.0000000,0.0000000,0.0000000,0.0000000,8.00,38.4066162,-110.7925262,1400.1999512,0.0,17.5,1.0,0.0,0.0,811,127,0,0,860.30,20.91,18.56,# data time:15070,pm2.5:6.445,pm10:5.704,O2:0.000,NO2:0.000,SO2:0.000,NH3:5.536
12:14:41,0,0,0,0,0,0,0,0,0,0,0,514,0,0,0,0,0.0000000,0.0000000,0.0000000,0.0000000,8.00,38.4066162,-110.7925262,1400.1999512,0.0,17.5,1.0,0.0,0.0,811,127,0,0,860.25,20.87,18.56,# data time:15070,pm2.5:6.445,pm10:5.704,O2:0.000,NO2:0.000,SO2:0.000,NH3:5.536
