Time, Motor A Speed, Motor A Dir, Motor B Speed, Motor B Dir, Servo Rail Current Sensor, Servo Pos - Arm L, Servo Pos - Arm R, Servo Pos - End, Servo Pos - Hopper, Servo Pos - Lid, Servo Pos - Extra, Servo Current, LED - Front L, LED - Front R, LED - Back L, LED - Back R, IMU Pitch, IMU Roll, IMU Yaw, Compass Heading, GPS Sats, GPS Latitude, GPS Longitude, GPS Altitude, GPS Speed, GPS Angle, GPS HDOP, GPS VDOP, GPS PDOP, Battery, Wind, Comm Xbee Latency, Comm Arduino Latency, Pressure, Humidity, Temperature, uRADMonitor
9:48:39,0,0,0,0,0,0,0,0,0,0,0,514,0,0,0,0,0.0000000,0.0000000,0.0000000,0.0000000,10.00,38.4142532,-110.7718506,1370.8000488,4.0,66.8,0.9,0.0,0.0,855,133,0,0,860.95,25.19,19.46,# data time:6300,pm2.5:6.445,pm10:5.704,O2:0.000,NO2:0.000,SO2:0.000,NH3:5.083
9:48:40,0,0,0,0,0,0,0,0,0,0,0,514,0,0,0,0,0.0000000,0.0000000,0.0000000,0.0000000,9.00,38.4142609,-110.7718277,1371.0000000,4.0,63.4,1.0,0.0,0.0,854,136,0,0,860.91,25.15,19.45,# data time:6300,pm2.5:6.445,pm10:5.704,O2:0.000,NO2:0.000,SO2:0.000,NH3:5.083
9:48:41,0,0,0,0,0,0,0,0,0,0,0,513,0,0,0,0,0.0000000,0.0000000,0.0000000,0.0000000,9.00,38.4142723,-110.7718124,1371.3000488,4.3,60.5,1.0,0.0,0.0,854,133,0,0,860.90,25.15,19.41,# data time:6300,pm2.5:6.445,pm10:5.704,O2:0.000,NO2:0.000,SO2:0.000,NH3:5.083
9:48:42,0,0,0,0,0,0,0,0,0,0,0,514,0,0,0,0,0.0000000,0.0000000,0.0000000,0.0000000,9.00,38.4142799,-110.7717896,1371.5999756,4.3,59.8,1.0,0.0,0.0,855,132,0,0,860.93,25.16,19.33,# data time:6300,pm2.5:6.445,pm10:5.704,O2:0.000,NO2:0.000,SO2:0.000,NH3:5.083
9:48:43,0,0,0,0,0,0,0,0,0,0,0,514,0,0,0,0,0.0000000,0.0000000,0.0000000,0.0000000,9.00,38.4142914,-110.7717667,1371.5999756,4.4,59.0,1.0,0.0,0.0,854,137,0,0,860.94,25.21,19.25,# data time:6310,pm2.5:6.445,pm10:5.704,O2:0.000,NO2:0.000,SO2:0.000,NH3:5.083
9:48:44,0,0,0,0,0,0,0,0,0,0,0,514,0,0,0,0,0.0000000,0.0000000,0.0000000,0.0000000,9.00,38.4142990,-110.7717361,1372.0000000,5.0,58.1,1.0,0.0,0.0,854,145,0,0,860.96,25.21,19.28,# data time:6310,pm2.5:6.445,pm10:5.704,O2:0.000,NO2:0.000,SO2:0.000,NH3:5.083
9:48:45,0,0,0,0,0,0,0,0,0,0,0,513,0,0,0,0,0.0000000,0.0000000,0.0000000,0.0000000,9.00,38.4143143,-110.7717133,1372.0999756,4.8,53.5,1.0,0.0,0.0,854,144,0,0,860.96,25.24,19.27,# data time:6310,pm2.5:6.445,pm10:5.704,O2:0.000,NO2:0.000,SO2:0.000,NH3:5.083
9:48:46,0,0,0,0,0,0,0,0,0,0,0,515,0,0,0,0,0.0000000,0.0000000,0.0000000,0.0000000,10.00,38.4143295,-110.7716827,1372.0000000,5.1,47.9,0.9,0.0,0.0,854,138,0,0,860.93,25.33,19.29,# data time:6310,pm2.5:6.445,pm10:5.704,O2:0.000,NO2:0.000,SO2:0.000,NH3:5.083
9:48:47,0,0,0,0,0,0,0,0,0,0,0,514,0,0,0,0,0.0000000,0.0000000,0.0000000,0.0000000,9.00,38.4143410,-110.7716599,1371.8000488,5.1,45.5,1.0,0.0,0.0,855,142,0,0,860.92,25.25,19.27,# data time:6310,pm2.5:6.445,pm10:5.704,O2:0.000,NO2:0.000,SO2:0.000,NH3:5.083
9:48:48,0,0,0,0,0,0,0,0,0,0,0,514,0,0,0,0,0.0000000,0.0000000,0.0000000,0.0000000,10.00,38.4143562,-110.7716446,1371.1999512,5.1,36.1,0.9,0.0,0.0,854,137,0,0,860.92,25.19,19.27,# data time:6310,pm2.5:6.445,pm10:5.704,O2:0.000,NO2:0.000,SO2:0.000,NH3:5.083
9:48:49,0,0,0,0,0,0,0,0,0,0,0,514,0,0,0,0,0.0000000,0.0000000,0.0000000,0.0000000,9.00,38.4143791,-110.7716370,1371.3000488,4.8,26.4,1.0,0.0,0.0,854,134,0,0,860.84,25.25,19.26,# data time:6310,pm2.5:6.445,pm10:5.704,O2:0.000,NO2:0.000,SO2:0.000,NH3:5.083
9:48:50,0,0,0,0,0,0,0,0,0,0,0,513,0,0,0,0,0.0000000,0.0000000,0.0000000,0.0000000,9.00,38.4143982,-110.7716217,1371.1999512,4.7,15.5,1.0,0.0,0.0,854,138,0,0,860.81,25.16,19.26,# data time:6310,pm2.5:6.445,pm10:5.704,O2:0.000,NO2:0.000,SO2:0.000,NH3:5.083
9:48:51,0,0,0,0,0,0,0,0,0,0,0,514,0,0,0,0,0.0000000,0.0000000,0.0000000,0.0000000,9.00,38.4144211,-110.7716064,1370.9000244,4.3,356.4,1.0,0.0,0.0,854,137,0,0,860.82,25.16,19.27,# data time:6310,pm2.5:6.445,pm10:5.704,O2:0.000,NO2:0.000,SO2:0.000,NH3:5.083
9:48:52,0,0,0,0,0,0,0,0,0,0,0,514,0,0,0,0,0.0000000,0.0000000,0.0000000,0.0000000,9.00,38.4144402,-110.7716217,1370.9000244,3.8,345.9,1.0,0.0,0.0,854,135,0,0,860.78,25.19,19.22,# data time:6310,pm2.5:6.445,pm10:5.704,O2:0.000,NO2:0.000,SO2:0.000,NH3:5.083
9:48:53,0,0,0,0,0,0,0,0,0,0,0,514,0,0,0,0,0.0000000,0.0000000,0.0000000,0.0000000,9.00,38.4144592,-110.7716217,1371.0999756,3.6,339.4,1.0,0.0,0.0,854,136,0,0,860.74,25.35,19.24,# data time:6320,pm2.5:6.445,pm10:5.704,O2:0.000,NO2:0.000,SO2:0.000,NH3:5.083
9:48:54,0,0,0,0,0,0,0,0,0,0,0,514,0,0,0,0,0.0000000,0.0000000,0.0000000,0.0000000,9.00,38.4144783,-110.7716370,1371.3000488,3.6,340.5,1.0,0.0,0.0,854,136,0,0,860.74,25.28,19.29,# data time:6320,pm2.5:6.445,pm10:5.704,O2:0.000,NO2:0.000,SO2:0.000,NH3:5.083
9:48:55,0,0,0,0,0,0,0,0,0,0,0,514,0,0,0,0,0.0000000,0.0000000,0.0000000,0.0000000,10.00,38.4144974,-110.7716446,1371.0000000,4.0,341.9,0.8,0.0,0.0,855,134,0,0,860.75,25.28,19.32,# data time:6320,pm2.5:6.445,pm10:5.704,O2:0.000,NO2:0.000,SO2:0.000,NH3:5.083
9:48:56,0,0,0,0,0,0,0,0,0,0,0,514,0,0,0,0,0.0000000,0.0000000,0.0000000,0.0000000,10.00,38.4145164,-110.7716446,1370.8000488,4.5,342.0,0.9,0.0,0.0,854,134,0,0,860.75,25.27,19.35,# data time:6320,pm2.5:6.445,pm10:5.704,O2:0.000,NO2:0.000,SO2:0.000,NH3:5.083
9:48:57,0,0,0,0,0,0,0,0,0,0,0,514,0,0,0,0,0.0000000,0.0000000,0.0000000,0.0000000,9.00,38.4145355,-110.7716599,1370.5999756,4.5,340.1,1.0,0.0,0.0,855,134,0,0,860.74,25.25,19.38,# data time:6320,pm2.5:6.445,pm10:5.704,O2:0.000,NO2:0.000,SO2:0.000,NH3:5.083
9:48:58,0,0,0,0,0,0,0,0,0,0,0,514,0,0,0,0,0.0000000,0.0000000,0.0000000,0.0000000,8.00,38.4145584,-110.7716751,1370.6999512,4.5,339.5,1.0,0.0,0.0,855,134,0,0,860.70,25.27,19.40,# data time:6320,pm2.5:6.445,pm10:5.704,O2:0.000,NO2:0.000,SO2:0.000,NH3:5.083
9:48:59,0,0,0,0,0,0,0,0,0,0,0,514,0,0,0,0,0.0000000,0.0000000,0.0000000,0.0000000,9.00,38.4145775,-110.7716827,1370.6999512,4.7,339.3,1.0,0.0,0.0,854,132,0,0,860.73,25.28,19.40,# data time:6320,pm2.5:6.445,pm10:5.704,O2:0.000,NO2:0.000,SO2:0.000,NH3:5.083
9:49:00,0,0,0,0,0,0,0,0,0,0,0,515,0,0,0,0,0.0000000,0.0000000,0.0000000,0.0000000,9.00,38.4146004,-110.7716980,1370.8000488,5.3,342.2,0.9,0.0,0.0,854,134,0,0,860.75,25.27,19.41,# data time:6320,pm2.5:6.445,pm10:5.704,O2:0.000,NO2:0.000,SO2:0.000,NH3:5.083
9:49:01,0,0,0,0,0,0,0,0,0,0,0,514,0,0,0,0,0.0000000,0.0000000,0.0000000,0.0000000,9.00,38.4146233,-110.7716980,1370.6999512,5.2,340.2,1.0,0.0,0.0,854,131,0,0,860.73,25.13,19.42,# data time:6320,pm2.5:6.445,pm10:5.704,O2:0.000,NO2:0.000,SO2:0.000,NH3:5.083
9:49:02,0,0,0,0,0,0,0,0,0,0,0,520,0,0,0,0,0.0000000,0.0000000,0.0000000,0.0000000,10.00,38.4146461,-110.7717133,1370.5000000,5.2,343.8,0.9,0.0,0.0,861,137,0,0,860.68,25.21,19.43,# data time:6320,pm2.5:6.445,pm10:5.704,O2:0.000,NO2:0.000,SO2:0.000,NH3:5.083
9:49:03,0,0,0,0,0,0,0,0,0,0,0,502,0,0,0,0,0.0000000,0.0000000,0.0000000,0.0000000,10.00,38.4146690,-110.7717285,1370.4000244,4.8,345.2,0.9,0.0,0.0,848,127,0,0,860.71,25.19,19.44,# data time:6330,pm2.5:6.445,pm10:5.704,O2:0.000,NO2:0.000,SO2:0.000,NH3:5.083
9:49:04,0,0,0,0,0,0,0,0,0,0,0,513,0,0,0,0,0.0000000,0.0000000,0.0000000,0.0000000,9.00,38.4146919,-110.7717285,1370.3000488,4.0,348.1,1.0,0.0,0.0,854,140,0,0,860.71,25.24,19.46,# data time:6330,pm2.5:6.445,pm10:5.704,O2:0.000,NO2:0.000,SO2:0.000,NH3:5.083
9:49:05,0,0,0,0,0,0,0,0,0,0,0,515,0,0,0,0,0.0000000,0.0000000,0.0000000,0.0000000,10.00,38.4147110,-110.7717285,1370.4000244,4.0,352.2,0.9,0.0,0.0,854,139,0,0,860.71,25.15,19.47,# data time:6330,pm2.5:6.445,pm10:5.704,O2:0.000,NO2:0.000,SO2:0.000,NH3:5.083
9:49:06,0,0,0,0,0,0,0,0,0,0,0,514,0,0,0,0,0.0000000,0.0000000,0.0000000,0.0000000,9.00,38.4147339,-110.7717361,1370.6999512,4.3,352.3,1.0,0.0,0.0,855,137,0,0,860.73,25.16,19.47,# data time:6330,pm2.5:6.445,pm10:5.704,O2:0.000,NO2:0.000,SO2:0.000,NH3:5.083
9:49:07,0,0,0,0,0,0,0,0,0,0,0,514,0,0,0,0,0.0000000,0.0000000,0.0000000,0.0000000,9.00,38.4147530,-110.7717361,1370.9000244,4.0,356.1,1.0,0.0,0.0,854,131,0,0,860.72,25.01,19.47,# data time:6330,pm2.5:6.445,pm10:5.704,O2:0.000,NO2:0.000,SO2:0.000,NH3:5.083
9:49:08,0,0,0,0,0,0,0,0,0,0,0,508,0,0,0,0,0.0000000,0.0000000,0.0000000,0.0000000,10.00,38.4147720,-110.7717361,1370.9000244,3.9,352.2,0.9,0.0,0.0,851,150,0,0,860.65,24.98,19.46,# data time:6330,pm2.5:6.445,pm10:5.704,O2:0.000,NO2:0.000,SO2:0.000,NH3:5.083
9:49:09,0,0,0,0,0,0,0,0,0,0,0,507,0,0,0,0,0.0000000,0.0000000,0.0000000,0.0000000,9.00,38.4147911,-110.7717361,1370.9000244,4.8,357.6,1.0,0.0,0.0,851,149,0,0,860.69,25.19,19.44,# data time:6330,pm2.5:6.445,pm10:5.704,O2:0.000,NO2:0.000,SO2:0.000,NH3:5.083
9:49:10,0,0,0,0,0,0,0,0,0,0,0,514,0,0,0,0,0.0000000,0.0000000,0.0000000,0.0000000,10.00,38.4148178,-110.7717361,1371.0999756,4.8,355.6,0.9,0.0,0.0,854,142,0,0,860.68,25.10,19.44,# data time:6330,pm2.5:6.445,pm10:5.704,O2:0.000,NO2:0.000,SO2:0.000,NH3:5.083
9:49:11,0,0,0,0,0,0,0,0,0,0,0,515,0,0,0,0,0.0000000,0.0000000,0.0000000,0.0000000,10.00,38.4148407,-110.7717361,1371.0999756,5.0,354.2,0.9,0.0,0.0,854,134,0,0,860.67,25.10,19.43,# data time:6330,pm2.5:6.445,pm10:5.704,O2:0.000,NO2:0.000,SO2:0.000,NH3:5.083
9:49:12,0,0,0,0,0,0,0,0,0,0,0,514,0,0,0,0,0.0000000,0.0000000,0.0000000,0.0000000,9.00,38.4148636,-110.7717361,1371.3000488,4.3,357.0,1.0,0.0,0.0,854,132,0,0,860.68,25.09,19.45,# data time:6340,pm2.5:6.445,pm10:5.704,O2:0.000,NO2:0.000,SO2:0.000,NH3:5.083
9:49:14,0,0,0,0,0,0,0,0,0,0,0,514,0,0,0,0,0.0000000,0.0000000,0.0000000,0.0000000,9.00,38.4148827,-110.7717361,1371.3000488,3.2,2.3,1.0,0.0,0.0,854,132,0,0,860.64,25.12,19.46,# data time:6340,pm2.5:6.445,pm10:5.704,O2:0.000,NO2:0.000,SO2:0.000,NH3:5.083
9:49:15,0,0,0,0,0,0,0,0,0,0,0,514,0,0,0,0,0.0000000,0.0000000,0.0000000,0.0000000,9.00,38.4148941,-110.7717361,1371.1999512,2.1,9.9,1.0,0.0,0.0,855,133,0,0,860.65,25.10,19.45,# data time:6340,pm2.5:6.445,pm10:5.704,O2:0.000,NO2:0.000,SO2:0.000,NH3:5.083
9:49:16,0,0,0,0,0,0,0,0,0,0,0,514,0,0,0,0,0.0000000,0.0000000,0.0000000,0.0000000,9.00,38.4149017,-110.7717361,1371.3000488,2.2,11.3,1.0,0.0,0.0,855,135,0,0,860.65,24.93,19.32,# data time:6340,pm2.5:6.445,pm10:5.704,O2:0.000,NO2:0.000,SO2:0.000,NH3:5.083
9:49:17,0,0,0,0,0,0,0,0,0,0,0,514,0,0,0,0,0.0000000,0.0000000,0.0000000,0.0000000,9.00,38.4149170,-110.7717361,1371.3000488,3.1,7.1,1.0,0.0,0.0,855,129,0,0,860.62,24.95,19.31,# data time:6340,pm2.5:6.445,pm10:5.704,O2:0.000,NO2:0.000,SO2:0.000,NH3:5.083
9:49:18,0,0,0,0,0,0,0,0,0,0,0,514,0,0,0,0,0.0000000,0.0000000,0.0000000,0.0000000,9.00,38.4149284,-110.7717361,1371.3000488,3.4,3.2,1.0,0.0,0.0,854,136,0,0,860.63,24.95,19.30,# data time:6340,pm2.5:6.445,pm10:5.704,O2:0.000,NO2:0.000,SO2:0.000,NH3:5.083
9:49:19,0,0,0,0,0,0,0,0,0,0,0,514,0,0,0,0,0.0000000,0.0000000,0.0000000,0.0000000,10.00,38.4149551,-110.7717361,1371.5000000,2.7,2.0,0.9,0.0,0.0,854,136,0,0,860.64,24.98,19.34,# data time:6340,pm2.5:6.445,pm10:5.704,O2:0.000,NO2:0.000,SO2:0.000,NH3:5.083
9:49:20,0,0,0,0,0,0,0,0,0,0,0,514,0,0,0,0,0.0000000,0.0000000,0.0000000,0.0000000,10.00,38.4149513,-110.7717361,1371.5999756,2.7,2.0,0.8,0.0,0.0,854,134,0,0,860.61,24.98,19.27,# data time:6340,pm2.5:6.445,pm10:5.704,O2:0.000,NO2:0.000,SO2:0.000,NH3:5.083
9:49:21,0,0,0,0,0,0,0,0,0,0,0,514,0,0,0,0,0.0000000,0.0000000,0.0000000,0.0000000,10.00,38.4149475,-110.7717361,1371.4000244,0.2,2.2,0.9,0.0,0.0,855,134,0,0,860.61,25.02,19.35,# data time:6340,pm2.5:6.445,pm10:5.704,O2:0.000,NO2:0.000,SO2:0.000,NH3:5.083
9:49:22,0,0,0,0,0,0,0,0,0,0,0,515,0,0,0,0,0.0000000,0.0000000,0.0000000,0.0000000,10.00,38.4149475,-110.7717361,1371.0000000,0.3,2.2,0.8,0.0,0.0,854,133,0,0,860.64,25.07,19.34,# data time:6340,pm2.5:6.445,pm10:5.704,O2:0.000,NO2:0.000,SO2:0.000,NH3:5.083
9:49:23,0,0,0,0,0,0,0,0,0,0,0,514,0,0,0,0,0.0000000,0.0000000,0.0000000,0.0000000,10.00,38.4149475,-110.7717285,1370.9000244,0.2,2.2,0.8,0.0,0.0,854,132,0,0,860.64,25.09,19.33,# data time:6350,pm2.5:6.445,pm10:5.704,O2:0.000,NO2:0.000,SO2:0.000,NH3:5.083
9:49:24,0,0,0,0,0,0,0,0,0,0,0,514,0,0,0,0,0.0000000,0.0000000,0.0000000,0.0000000,10.00,38.4149437,-110.7717285,1371.0000000,0.2,2.2,0.8,0.0,0.0,854,135,0,0,860.62,25.13,19.30,# data time:6350,pm2.5:6.445,pm10:5.704,O2:0.000,NO2:0.000,SO2:0.000,NH3:5.083
9:49:25,0,0,0,0,0,0,0,0,0,0,0,515,0,0,0,0,0.0000000,0.0000000,0.0000000,0.0000000,10.00,38.4149437,-110.7717361,1371.0000000,0.2,2.2,0.8,0.0,0.0,854,130,0,0,860.61,25.16,19.28,# data time:6350,pm2.5:6.445,pm10:5.704,O2:0.000,NO2:0.000,SO2:0.000,NH3:5.083
9:49:26,0,0,0,0,0,0,0,0,0,0,0,513,0,0,0,0,0.0000000,0.0000000,0.0000000,0.0000000,10.00,38.4149437,-110.7717361,1371.0000000,0.2,192.2,0.8,0.0,0.0,854,135,0,0,860.63,25.21,19.27,# data time:6350,pm2.5:6.445,pm10:5.704,O2:0.000,NO2:0.000,SO2:0.000,NH3:5.083
9:49:27,0,0,0,0,0,0,0,0,0,0,0,514,0,0,0,0,0.0000000,0.0000000,0.0000000,0.0000000,10.00,38.4149437,-110.7717361,1371.0000000,0.2,188.6,0.8,0.0,0.0,854,128,0,0,860.62,25.22,19.27,# data time:6350,pm2.5:6.445,pm10:5.704,O2:0.000,NO2:0.000,SO2:0.000,NH3:5.083
9:49:28,0,0,0,0,0,0,0,0,0,0,0,514,0,0,0,0,0.0000000,0.0000000,0.0000000,0.0000000,10.00,38.4149399,-110.7717361,1371.0000000,0.1,190.3,0.8,0.0,0.0,854,133,0,0,860.61,25.27,19.25,# data time:6350,pm2.5:6.445,pm10:5.704,O2:0.000,NO2:0.000,SO2:0.000,NH3:5.083
9:49:29,0,0,0,0,0,0,0,0,0,0,0,514,0,0,0,0,0.0000000,0.0000000,0.0000000,0.0000000,10.00,38.4149399,-110.7717361,1371.0000000,0.1,190.3,0.8,0.0,0.0,854,135,0,0,860.66,25.27,19.21,# data time:6350,pm2.5:6.445,pm10:5.704,O2:0.000,NO2:0.000,SO2:0.000,NH3:5.083
9:49:30,0,0,0,0,0,0,0,0,0,0,0,514,0,0,0,0,0.0000000,0.0000000,0.0000000,0.0000000,10.00,38.4149399,-110.7717361,1371.0000000,0.1,190.3,0.8,0.0,0.0,854,136,0,0,860.63,25.33,19.20,# data time:6350,pm2.5:6.445,pm10:5.704,O2:0.000,NO2:0.000,SO2:0.000,NH3:5.083
9:49:31,0,0,0,0,0,0,0,0,0,0,0,514,0,0,0,0,0.0000000,0.0000000,0.0000000,0.0000000,10.00,38.4149399,-110.7717361,1371.0000000,0.0,190.3,0.8,0.0,0.0,854,134,0,0,860.64,25.35,19.20,# data time:6350,pm2.5:6.445,pm10:5.704,O2:0.000,NO2:0.000,SO2:0.000,NH3:5.083
9:49:32,0,0,0,0,0,0,0,0,0,0,0,514,0,0,0,0,0.0000000,0.0000000,0.0000000,0.0000000,10.00,38.4149399,-110.7717361,1371.0000000,0.1,190.3,0.8,0.0,0.0,854,138,0,0,860.68,25.38,19.19,# data time:6350,pm2.5:6.445,pm10:5.704,O2:0.000,NO2:0.000,SO2:0.000,NH3:5.083
9:49:33,0,0,0,0,0,0,0,0,0,0,0,514,0,0,0,0,0.0000000,0.0000000,0.0000000,0.0000000,10.00,38.4149399,-110.7717361,1371.0000000,0.1,190.3,0.8,0.0,0.0,854,138,0,0,860.66,25.35,19.18,# data time:6360,pm2.5:6.445,pm10:5.704,O2:0.000,NO2:0.000,SO2:0.000,NH3:5.083
9:49:34,0,0,0,0,0,0,0,0,0,0,0,514,0,0,0,0,0.0000000,0.0000000,0.0000000,0.0000000,10.00,38.4149399,-110.7717361,1371.0000000,0.1,190.3,0.8,0.0,0.0,854,137,0,0,860.61,25.39,19.19,# data time:6360,pm2.5:6.445,pm10:5.704,O2:0.000,NO2:0.000,SO2:0.000,NH3:5.083
9:49:35,0,0,0,0,0,0,0,0,0,0,0,514,0,0,0,0,0.0000000,0.0000000,0.0000000,0.0000000,10.00,38.4149399,-110.7717361,1371.0000000,0.1,190.3,0.8,0.0,0.0,854,136,0,0,860.60,25.38,19.23,# data time:6360,pm2.5:6.445,pm10:5.704,O2:0.000,NO2:0.000,SO2:0.000,NH3:5.083
9:49:36,0,0,0,0,0,0,0,0,0,0,0,507,0,0,0,0,0.0000000,0.0000000,0.0000000,0.0000000,10.00,38.4149399,-110.7717361,1371.0000000,0.0,190.3,0.8,0.0,0.0,845,130,0,0,860.63,25.39,19.23,# data time:6360,pm2.5:6.445,pm10:5.704,O2:0.000,NO2:0.000,SO2:0.000,NH3:5.083
9:49:37,0,0,0,0,0,0,0,0,0,0,0,510,0,0,0,0,0.0000000,0.0000000,0.0000000,0.0000000,10.00,38.4149399,-110.7717361,1371.0000000,0.0,190.3,0.8,0.0,0.0,854,132,0,0,860.62,25.41,19.25,# data time:6360,pm2.5:6.445,pm10:5.704,O2:0.000,NO2:0.000,SO2:0.000,NH3:5.083
9:49:38,0,0,0,0,0,0,0,0,0,0,0,511,0,0,0,0,0.0000000,0.0000000,0.0000000,0.0000000,10.00,38.4149399,-110.7717361,1371.0000000,0.1,190.3,0.8,0.0,0.0,852,134,0,0,860.61,25.39,19.28,# data time:6360,pm2.5:6.445,pm10:5.704,O2:0.000,NO2:0.000,SO2:0.000,NH3:5.083
9:49:39,0,0,0,0,0,0,0,0,0,0,0,520,0,0,0,0,0.0000000,0.0000000,0.0000000,0.0000000,10.00,38.4149399,-110.7717361,1371.0000000,0.0,190.3,0.8,0.0,0.0,858,143,0,0,860.60,25.38,19.29,# data time:6360,pm2.5:6.445,pm10:5.704,O2:0.000,NO2:0.000,SO2:0.000,NH3:5.083
9:49:40,0,0,0,0,0,0,0,0,0,0,0,519,0,0,0,0,0.0000000,0.0000000,0.0000000,0.0000000,10.00,38.4149399,-110.7717361,1371.0000000,0.0,190.3,0.9,0.0,0.0,851,135,0,0,860.54,25.39,19.31,# data time:6360,pm2.5:6.445,pm10:5.704,O2:0.000,NO2:0.000,SO2:0.000,NH3:5.083
9:49:41,0,0,0,0,0,0,0,0,0,0,0,514,0,0,0,0,0.0000000,0.0000000,0.0000000,0.0000000,10.00,38.4149399,-110.7717361,1371.0000000,0.0,190.3,0.9,0.0,0.0,854,134,0,0,860.61,25.41,19.32,# data time:6360,pm2.5:6.445,pm10:5.704,O2:0.000,NO2:0.000,SO2:0.000,NH3:5.083
9:49:42,0,0,0,0,0,0,0,0,0,0,0,513,0,0,0,0,0.0000000,0.0000000,0.0000000,0.0000000,10.00,38.4149399,-110.7717361,1371.0000000,0.0,190.3,0.9,0.0,0.0,855,140,0,0,860.64,25.41,19.32,# data time:6360,pm2.5:6.445,pm10:5.704,O2:0.000,NO2:0.000,SO2:0.000,NH3:5.083
9:49:43,0,0,0,0,0,0,0,0,0,0,0,514,0,0,0,0,0.0000000,0.0000000,0.0000000,0.0000000,10.00,38.4149399,-110.7717361,1371.0000000,0.0,190.3,0.9,0.0,0.0,855,133,0,0,860.58,25.41,19.32,# data time:6370,pm2.5:5.640,pm10:4.991,O2:0.000,NO2:0.000,SO2:0.000,NH3:5.083
9:49:44,0,0,0,0,0,0,0,0,0,0,0,514,0,0,0,0,0.0000000,0.0000000,0.0000000,0.0000000,10.00,38.4149399,-110.7717361,1371.0000000,0.0,190.3,0.9,0.0,0.0,854,131,0,0,860.58,25.41,19.30,# data time:6370,pm2.5:5.640,pm10:4.991,O2:0.000,NO2:0.000,SO2:0.000,NH3:5.083
9:49:45,0,0,0,0,0,0,0,0,0,0,0,514,0,0,0,0,0.0000000,0.0000000,0.0000000,0.0000000,10.00,38.4149399,-110.7717361,1371.0000000,0.0,190.3,0.9,0.0,0.0,854,131,0,0,860.61,25.45,19.26,# data time:6370,pm2.5:5.640,pm10:4.991,O2:0.000,NO2:0.000,SO2:0.000,NH3:5.083
9:49:46,0,0,0,0,0,0,0,0,0,0,0,514,0,0,0,0,0.0000000,0.0000000,0.0000000,0.0000000,10.00,38.4149399,-110.7717361,1371.0000000,0.0,190.3,0.9,0.0,0.0,854,134,0,0,860.62,25.45,19.27,# data time:6370,pm2.5:5.640,pm10:4.991,O2:0.000,NO2:0.000,SO2:0.000,NH3:5.083
9:49:47,0,0,0,0,0,0,0,0,0,0,0,513,0,0,0,0,0.0000000,0.0000000,0.0000000,0.0000000,10.00,38.4149399,-110.7717361,1371.0000000,0.0,190.3,0.9,0.0,0.0,855,132,0,0,860.62,25.48,19.25,# data time:6370,pm2.5:5.640,pm10:4.991,O2:0.000,NO2:0.000,SO2:0.000,NH3:5.083
9:49:48,0,0,0,0,0,0,0,0,0,0,0,514,0,0,0,0,0.0000000,0.0000000,0.0000000,0.0000000,10.00,38.4149399,-110.7717361,1371.0000000,0.0,190.3,0.8,0.0,0.0,854,132,0,0,860.63,25.45,19.28,# data time:6370,pm2.5:5.640,pm10:4.991,O2:0.000,NO2:0.000,SO2:0.000,NH3:5.083
9:49:49,0,0,0,0,0,0,0,0,0,0,0,515,0,0,0,0,0.0000000,0.0000000,0.0000000,0.0000000,10.00,38.4149399,-110.7717361,1371.0000000,0.0,190.3,0.9,0.0,0.0,854,137,0,0,860.61,25.47,19.31,# data time:6370,pm2.5:5.640,pm10:4.991,O2:0.000,NO2:0.000,SO2:0.000,NH3:5.083
9:49:50,0,0,0,0,0,0,0,0,0,0,0,514,0,0,0,0,0.0000000,0.0000000,0.0000000,0.0000000,10.00,38.4149399,-110.7717361,1371.0000000,0.0,190.3,0.9,0.0,0.0,854,130,0,0,860.61,25.44,19.31,# data time:6370,pm2.5:5.640,pm10:4.991,O2:0.000,NO2:0.000,SO2:0.000,NH3:5.083
9:49:51,0,0,0,0,0,0,0,0,0,0,0,515,0,0,0,0,0.0000000,0.0000000,0.0000000,0.0000000,10.00,38.4149399,-110.7717361,1371.0000000,0.0,190.3,0.9,0.0,0.0,854,131,0,0,860.62,25.45,19.29,# data time:6370,pm2.5:5.640,pm10:4.991,O2:0.000,NO2:0.000,SO2:0.000,NH3:5.083
9:49:52,0,0,0,0,0,0,0,0,0,0,0,514,0,0,0,0,0.0000000,0.0000000,0.0000000,0.0000000,10.00,38.4149399,-110.7717361,1371.0000000,0.0,190.3,0.8,0.0,0.0,854,136,0,0,860.62,25.39,19.29,# data time:6370,pm2.5:5.640,pm10:4.991,O2:0.000,NO2:0.000,SO2:0.000,NH3:5.083
9:49:53,0,0,0,0,0,0,0,0,0,0,0,514,0,0,0,0,0.0000000,0.0000000,0.0000000,0.0000000,10.00,38.4149399,-110.7717361,1371.0000000,0.0,190.3,0.9,0.0,0.0,854,133,0,0,860.57,25.39,19.28,# data time:6380,pm2.5:6.445,pm10:5.704,O2:0.000,NO2:0.000,SO2:0.000,NH3:5.083
9:49:54,0,0,0,0,0,0,0,0,0,0,0,515,0,0,0,0,0.0000000,0.0000000,0.0000000,0.0000000,10.00,38.4149399,-110.7717361,1371.0000000,0.0,190.3,0.9,0.0,0.0,854,131,0,0,860.56,25.36,19.31,# data time:6380,pm2.5:6.445,pm10:5.704,O2:0.000,NO2:0.000,SO2:0.000,NH3:5.083
9:49:55,0,0,0,0,0,0,0,0,0,0,0,515,0,0,0,0,0.0000000,0.0000000,0.0000000,0.0000000,10.00,38.4149399,-110.7717361,1371.0000000,0.0,190.3,0.9,0.0,0.0,854,131,0,0,860.58,25.35,19.32,# data time:6380,pm2.5:6.445,pm10:5.704,O2:0.000,NO2:0.000,SO2:0.000,NH3:5.083
9:49:56,0,0,0,0,0,0,0,0,0,0,0,514,0,0,0,0,0.0000000,0.0000000,0.0000000,0.0000000,10.00,38.4149399,-110.7717361,1371.0000000,0.0,190.3,0.9,0.0,0.0,854,130,0,0,860.62,25.33,19.32,# data time:6380,pm2.5:6.445,pm10:5.704,O2:0.000,NO2:0.000,SO2:0.000,NH3:5.083
9:49:57,0,0,0,0,0,0,0,0,0,0,0,514,0,0,0,0,0.0000000,0.0000000,0.0000000,0.0000000,10.00,38.4149399,-110.7717361,1371.0000000,0.0,190.3,0.8,0.0,0.0,854,133,0,0,860.63,25.31,19.29,# data time:6380,pm2.5:6.445,pm10:5.704,O2:0.000,NO2:0.000,SO2:0.000,NH3:5.083
9:49:58,0,0,0,0,0,0,0,0,0,0,0,514,0,0,0,0,0.0000000,0.0000000,0.0000000,0.0000000,10.00,38.4149399,-110.7717361,1371.0000000,0.0,190.3,0.9,0.0,0.0,854,130,0,0,860.63,25.31,19.30,# data time:6380,pm2.5:6.445,pm10:5.704,O2:0.000,NO2:0.000,SO2:0.000,NH3:5.083
9:49:59,0,0,0,0,0,0,0,0,0,0,0,514,0,0,0,0,0.0000000,0.0000000,0.0000000,0.0000000,10.00,38.4149399,-110.7717361,1371.0000000,0.0,190.3,0.8,0.0,0.0,854,135,0,0,860.59,25.30,19.31,# data time:6380,pm2.5:6.445,pm10:5.704,O2:0.000,NO2:0.000,SO2:0.000,NH3:5.083
9:50:00,0,0,0,0,0,0,0,0,0,0,0,519,0,0,0,0,0.0000000,0.0000000,0.0000000,0.0000000,10.00,38.4149399,-110.7717361,1371.0000000,0.0,190.3,0.8,0.0,0.0,858,134,0,0,860.58,25.30,19.30,# data time:6380,pm2.5:6.445,pm10:5.704,O2:0.000,NO2:0.000,SO2:0.000,NH3:5.083
9:50:01,0,0,0,0,0,0,0,0,0,0,0,525,0,0,0,0,0.0000000,0.0000000,0.0000000,0.0000000,10.00,38.4149399,-110.7717361,1371.0000000,0.0,190.3,0.8,0.0,0.0,852,134,0,0,860.61,25.27,19.29,# data time:6380,pm2.5:6.445,pm10:5.704,O2:0.000,NO2:0.000,SO2:0.000,NH3:5.083
9:50:02,0,0,0,0,0,0,0,0,0,0,0,514,0,0,0,0,0.0000000,0.0000000,0.0000000,0.0000000,10.00,38.4149399,-110.7717361,1371.0000000,0.0,190.3,0.9,0.0,0.0,853,138,0,0,860.63,25.30,19.24,# data time:6380,pm2.5:6.445,pm10:5.704,O2:0.000,NO2:0.000,SO2:0.000,NH3:5.083
9:50:03,0,0,0,0,0,0,0,0,0,0,0,514,0,0,0,0,0.0000000,0.0000000,0.0000000,0.0000000,10.00,38.4149399,-110.7717361,1371.0000000,0.0,190.3,0.9,0.0,0.0,854,142,0,0,860.59,25.33,19.19,# data time:6390,pm2.5:6.445,pm10:5.704,O2:0.000,NO2:0.000,SO2:0.000,NH3:5.083
9:50:04,0,0,0,0,0,0,0,0,0,0,0,514,0,0,0,0,0.0000000,0.0000000,0.0000000,0.0000000,10.00,38.4149399,-110.7717361,1371.0000000,0.0,190.3,0.8,0.0,0.0,854,139,0,0,860.57,25.35,19.15,# data time:6390,pm2.5:6.445,pm10:5.704,O2:0.000,NO2:0.000,SO2:0.000,NH3:5.083
9:50:05,0,0,0,0,0,0,0,0,0,0,0,514,0,0,0,0,0.0000000,0.0000000,0.0000000,0.0000000,10.00,38.4149399,-110.7717361,1371.0000000,0.0,190.3,0.8,0.0,0.0,854,141,0,0,860.59,25.36,19.15,# data time:6390,pm2.5:6.445,pm10:5.704,O2:0.000,NO2:0.000,SO2:0.000,NH3:5.083
9:50:06,0,0,0,0,0,0,0,0,0,0,0,514,0,0,0,0,0.0000000,0.0000000,0.0000000,0.0000000,10.00,38.4149399,-110.7717361,1371.0000000,0.0,190.3,0.9,0.0,0.0,854,141,0,0,860.59,25.38,19.18,# data time:6390,pm2.5:6.445,pm10:5.704,O2:0.000,NO2:0.000,SO2:0.000,NH3:5.083
9:50:07,0,0,0,0,0,0,0,0,0,0,0,514,0,0,0,0,0.0000000,0.0000000,0.0000000,0.0000000,10.00,38.4149399,-110.7717361,1371.0000000,0.0,190.3,0.8,0.0,0.0,854,138,0,0,860.65,25.38,19.20,# data time:6390,pm2.5:6.445,pm10:5.704,O2:0.000,NO2:0.000,SO2:0.000,NH3:5.083
9:50:08,0,0,0,0,0,0,0,0,0,0,0,514,0,0,0,0,0.0000000,0.0000000,0.0000000,0.0000000,10.00,38.4149399,-110.7717361,1371.0000000,0.0,190.3,0.9,0.0,0.0,854,142,0,0,860.55,25.36,19.19,# data time:6390,pm2.5:6.445,pm10:5.704,O2:0.000,NO2:0.000,SO2:0.000,NH3:5.083
9:50:09,0,0,0,0,0,0,0,0,0,0,0,515,0,0,0,0,0.0000000,0.0000000,0.0000000,0.0000000,10.00,38.4149399,-110.7717361,1371.0000000,0.0,190.3,0.8,0.0,0.0,854,145,0,0,860.53,25.36,19.19,# data time:6390,pm2.5:6.445,pm10:5.704,O2:0.000,NO2:0.000,SO2:0.000,NH3:5.083
9:50:10,0,0,0,0,0,0,0,0,0,0,0,515,0,0,0,0,0.0000000,0.0000000,0.0000000,0.0000000,10.00,38.4149399,-110.7717361,1371.0000000,0.0,190.3,0.8,0.0,0.0,854,140,0,0,860.57,25.33,19.21,# data time:6390,pm2.5:6.445,pm10:5.704,O2:0.000,NO2:0.000,SO2:0.000,NH3:5.083
9:50:11,0,0,0,0,0,0,0,0,0,0,0,514,0,0,0,0,0.0000000,0.0000000,0.0000000,0.0000000,10.00,38.4149399,-110.7717361,1371.0000000,0.0,190.3,0.8,0.0,0.0,854,138,0,0,860.57,25.33,19.20,# data time:6390,pm2.5:6.445,pm10:5.704,O2:0.000,NO2:0.000,SO2:0.000,NH3:5.083
9:50:12,0,0,0,0,0,0,0,0,0,0,0,515,0,0,0,0,0.0000000,0.0000000,0.0000000,0.0000000,10.00,38.4149399,-110.7717361,1371.0000000,0.0,190.3,0.8,0.0,0.0,855,142,0,0,860.59,25.36,19.20,# data time:6400,pm2.5:6.445,pm10:5.704,O2:0.000,NO2:0.000,SO2:0.000,NH3:5.083
9:50:14,0,0,0,0,0,0,0,0,0,0,0,514,0,0,0,0,0.0000000,0.0000000,0.0000000,0.0000000,10.00,38.4149399,-110.7717361,1371.0000000,0.0,190.3,0.8,0.0,0.0,854,138,0,0,860.59,25.35,19.20,# data time:6400,pm2.5:6.445,pm10:5.704,O2:0.000,NO2:0.000,SO2:0.000,NH3:5.083
9:50:15,0,0,0,0,0,0,0,0,0,0,0,514,0,0,0,0,0.0000000,0.0000000,0.0000000,0.0000000,10.00,38.4149399,-110.7717361,1371.0000000,0.0,190.3,0.8,0.0,0.0,853,136,0,0,860.56,25.31,19.20,# data time:6400,pm2.5:6.445,pm10:5.704,O2:0.000,NO2:0.000,SO2:0.000,NH3:5.083
9:50:16,0,0,0,0,0,0,0,0,0,0,0,514,0,0,0,0,0.0000000,0.0000000,0.0000000,0.0000000,10.00,38.4149399,-110.7717361,1371.0000000,0.0,190.3,0.8,0.0,0.0,854,137,0,0,860.54,25.33,19.20,# data time:6400,pm2.5:6.445,pm10:5.704,O2:0.000,NO2:0.000,SO2:0.000,NH3:5.083
9:50:17,0,0,0,0,0,0,0,0,0,0,0,514,0,0,0,0,0.0000000,0.0000000,0.0000000,0.0000000,10.00,38.4149399,-110.7717361,1371.0000000,0.0,190.3,0.9,0.0,0.0,854,133,0,0,860.57,25.35,19.17,# data time:6400,pm2.5:6.445,pm10:5.704,O2:0.000,NO2:0.000,SO2:0.000,NH3:5.083
9:50:18,0,0,0,0,0,0,0,0,0,0,0,514,0,0,0,0,0.0000000,0.0000000,0.0000000,0.0000000,10.00,38.4149399,-110.7717361,1371.0000000,0.0,190.3,0.9,0.0,0.0,854,133,0,0,860.57,25.36,19.16,# data time:6400,pm2.5:6.445,pm10:5.704,O2:0.000,NO2:0.000,SO2:0.000,NH3:5.083
9:50:19,0,0,0,0,0,0,0,0,0,0,0,514,0,0,0,0,0.0000000,0.0000000,0.0000000,0.0000000,10.00,38.4149399,-110.7717361,1370.9000244,0.0,190.3,0.9,0.0,0.0,854,132,0,0,860.58,25.38,19.13,# data time:6400,pm2.5:6.445,pm10:5.704,O2:0.000,NO2:0.000,SO2:0.000,NH3:5.083
9:50:20,0,0,0,0,0,0,0,0,0,0,0,513,0,0,0,0,0.0000000,0.0000000,0.0000000,0.0000000,10.00,38.4149399,-110.7717361,1370.9000244,0.0,190.3,0.8,0.0,0.0,854,134,0,0,860.57,25.42,19.05,# data time:6400,pm2.5:6.445,pm10:5.704,O2:0.000,NO2:0.000,SO2:0.000,NH3:5.083
9:50:21,0,0,0,0,0,0,0,0,0,0,0,514,0,0,0,0,0.0000000,0.0000000,0.0000000,0.0000000,10.00,38.4149399,-110.7717361,1370.9000244,0.0,190.3,0.8,0.0,0.0,854,131,0,0,860.56,25.42,19.04,# data time:6400,pm2.5:6.445,pm10:5.704,O2:0.000,NO2:0.000,SO2:0.000,NH3:5.083
9:50:22,0,0,0,0,0,0,0,0,0,0,0,514,0,0,0,0,0.0000000,0.0000000,0.0000000,0.0000000,10.00,38.4149399,-110.7717361,1370.9000244,0.0,190.3,0.8,0.0,0.0,854,127,0,0,860.55,25.44,19.04,# data time:6400,pm2.5:6.445,pm10:5.704,O2:0.000,NO2:0.000,SO2:0.000,NH3:5.083
9:50:23,0,0,0,0,0,0,0,0,0,0,0,514,0,0,0,0,0.0000000,0.0000000,0.0000000,0.0000000,10.00,38.4149399,-110.7717361,1370.9000244,0.0,190.3,0.8,0.0,0.0,855,133,0,0,860.59,25.45,19.03,# data time:6410,pm2.5:6.445,pm10:5.704,O2:0.000,NO2:0.000,SO2:0.000,NH3:5.083
9:50:24,0,0,0,0,0,0,0,0,0,0,0,514,0,0,0,0,0.0000000,0.0000000,0.0000000,0.0000000,10.00,38.4149399,-110.7717361,1370.9000244,0.0,190.3,0.8,0.0,0.0,854,127,0,0,860.57,25.44,19.07,# data time:6410,pm2.5:6.445,pm10:5.704,O2:0.000,NO2:0.000,SO2:0.000,NH3:5.083
9:50:25,0,0,0,0,0,0,0,0,0,0,0,514,0,0,0,0,0.0000000,0.0000000,0.0000000,0.0000000,10.00,38.4149399,-110.7717361,1370.9000244,0.0,190.3,0.8,0.0,0.0,854,129,0,0,860.58,25.44,19.10,# data time:6410,pm2.5:6.445,pm10:5.704,O2:0.000,NO2:0.000,SO2:0.000,NH3:5.083
9:50:26,0,0,0,0,0,0,0,0,0,0,0,514,0,0,0,0,0.0000000,0.0000000,0.0000000,0.0000000,10.00,38.4149399,-110.7717361,1370.9000244,0.0,190.3,0.8,0.0,0.0,854,134,0,0,860.60,25.44,19.13,# data time:6410,pm2.5:6.445,pm10:5.704,O2:0.000,NO2:0.000,SO2:0.000,NH3:5.083
9:50:27,0,0,0,0,0,0,0,0,0,0,0,514,0,0,0,0,0.0000000,0.0000000,0.0000000,0.0000000,10.00,38.4149399,-110.7717361,1370.9000244,0.0,190.3,0.8,0.0,0.0,854,141,0,0,860.59,25.42,19.14,# data time:6410,pm2.5:6.445,pm10:5.704,O2:0.000,NO2:0.000,SO2:0.000,NH3:5.083
9:50:28,0,0,0,0,0,0,0,0,0,0,0,514,0,0,0,0,0.0000000,0.0000000,0.0000000,0.0000000,10.00,38.4149399,-110.7717361,1370.9000244,0.0,190.3,0.8,0.0,0.0,854,135,0,0,860.60,25.38,19.16,# data time:6410,pm2.5:6.445,pm10:5.704,O2:0.000,NO2:0.000,SO2:0.000,NH3:5.083
9:50:29,0,0,0,0,0,0,0,0,0,0,0,514,0,0,0,0,0.0000000,0.0000000,0.0000000,0.0000000,10.00,38.4149399,-110.7717361,1370.9000244,0.0,190.3,0.8,0.0,0.0,854,131,0,0,860.61,25.38,19.18,# data time:6410,pm2.5:6.445,pm10:5.704,O2:0.000,NO2:0.000,SO2:0.000,NH3:5.083
9:50:30,0,0,0,0,0,0,0,0,0,0,0,503,0,0,0,0,0.0000000,0.0000000,0.0000000,0.0000000,10.00,38.4149399,-110.7717361,1370.9000244,0.0,190.3,0.8,0.0,0.0,861,133,0,0,860.59,25.38,19.20,# data time:6410,pm2.5:6.445,pm10:5.704,O2:0.000,NO2:0.000,SO2:0.000,NH3:5.083
9:50:31,0,0,0,0,0,0,0,0,0,0,0,499,0,0,0,0,0.0000000,0.0000000,0.0000000,0.0000000,10.00,38.4149399,-110.7717361,1370.9000244,0.0,190.3,0.8,0.0,0.0,854,126,0,0,860.63,25.36,19.21,# data time:6410,pm2.5:6.445,pm10:5.704,O2:0.000,NO2:0.000,SO2:0.000,NH3:5.083
9:50:32,0,0,0,0,0,0,0,0,0,0,0,510,0,0,0,0,0.0000000,0.0000000,0.0000000,0.0000000,10.00,38.4149399,-110.7717361,1370.9000244,0.0,190.3,0.8,0.0,0.0,856,144,0,0,860.61,25.36,19.23,# data time:6410,pm2.5:6.445,pm10:5.704,O2:0.000,NO2:0.000,SO2:0.000,NH3:5.083
9:50:33,0,0,0,0,0,0,0,0,0,0,0,516,0,0,0,0,0.0000000,0.0000000,0.0000000,0.0000000,10.00,38.4149399,-110.7717361,1370.9000244,0.0,190.3,0.8,0.0,0.0,858,146,0,0,860.59,25.31,19.25,# data time:6420,pm2.5:6.445,pm10:5.704,O2:0.000,NO2:0.000,SO2:0.000,NH3:5.083
9:50:34,0,0,0,0,0,0,0,0,0,0,0,514,0,0,0,0,0.0000000,0.0000000,0.0000000,0.0000000,10.00,38.4149399,-110.7717361,1370.9000244,0.0,190.3,0.8,0.0,0.0,854,133,0,0,860.56,25.33,19.22,# data time:6420,pm2.5:6.445,pm10:5.704,O2:0.000,NO2:0.000,SO2:0.000,NH3:5.083
9:50:35,0,0,0,0,0,0,0,0,0,0,0,514,0,0,0,0,0.0000000,0.0000000,0.0000000,0.0000000,10.00,38.4149399,-110.7717361,1370.9000244,0.0,190.3,0.8,0.0,0.0,854,133,0,0,860.56,25.31,19.18,# data time:6420,pm2.5:6.445,pm10:5.704,O2:0.000,NO2:0.000,SO2:0.000,NH3:5.083
9:50:36,0,0,0,0,0,0,0,0,0,0,0,514,0,0,0,0,0.0000000,0.0000000,0.0000000,0.0000000,10.00,38.4149399,-110.7717361,1370.9000244,0.0,190.3,0.8,0.0,0.0,853,137,0,0,860.57,25.35,19.20,# data time:6420,pm2.5:6.445,pm10:5.704,O2:0.000,NO2:0.000,SO2:0.000,NH3:5.083
9:50:37,0,0,0,0,0,0,0,0,0,0,0,514,0,0,0,0,0.0000000,0.0000000,0.0000000,0.0000000,10.00,38.4149399,-110.7717361,1370.9000244,0.0,190.3,0.8,0.0,0.0,854,133,0,0,860.57,25.36,19.21,# data time:6420,pm2.5:6.445,pm10:5.704,O2:0.000,NO2:0.000,SO2:0.000,NH3:5.083
9:50:38,0,0,0,0,0,0,0,0,0,0,0,514,0,0,0,0,0.0000000,0.0000000,0.0000000,0.0000000,10.00,38.4149399,-110.7717361,1370.9000244,0.0,190.3,0.8,0.0,0.0,854,136,0,0,860.54,25.35,19.21,# data time:6420,pm2.5:6.445,pm10:5.704,O2:0.000,NO2:0.000,SO2:0.000,NH3:5.083
9:50:39,0,0,0,0,0,0,0,0,0,0,0,514,0,0,0,0,0.0000000,0.0000000,0.0000000,0.0000000,10.00,38.4149399,-110.7717361,1370.9000244,0.0,190.3,0.8,0.0,0.0,854,137,0,0,860.56,25.38,19.20,# data time:6420,pm2.5:6.445,pm10:5.704,O2:0.000,NO2:0.000,SO2:0.000,NH3:5.083
9:50:40,0,0,0,0,0,0,0,0,0,0,0,514,0,0,0,0,0.0000000,0.0000000,0.0000000,0.0000000,10.00,38.4149399,-110.7717361,1370.9000244,0.0,190.3,0.8,0.0,0.0,854,137,0,0,860.57,25.35,19.19,# data time:6420,pm2.5:6.445,pm10:5.704,O2:0.000,NO2:0.000,SO2:0.000,NH3:5.083
9:50:41,0,0,0,0,0,0,0,0,0,0,0,514,0,0,0,0,0.0000000,0.0000000,0.0000000,0.0000000,10.00,38.4149399,-110.7717361,1370.9000244,0.0,190.3,0.8,0.0,0.0,854,140,0,0,860.58,25.36,19.20,# data time:6420,pm2.5:6.445,pm10:5.704,O2:0.000,NO2:0.000,SO2:0.000,NH3:5.083
9:50:42,0,0,0,0,0,0,0,0,0,0,0,513,0,0,0,0,0.0000000,0.0000000,0.0000000,0.0000000,10.00,38.4149399,-110.7717361,1370.9000244,0.0,190.3,0.8,0.0,0.0,854,141,0,0,860.56,25.39,19.17,# data time:6420,pm2.5:6.445,pm10:5.704,O2:0.000,NO2:0.000,SO2:0.000,NH3:5.083
9:50:43,0,0,0,0,0,0,0,0,0,0,0,514,0,0,0,0,0.0000000,0.0000000,0.0000000,0.0000000,10.00,38.4149399,-110.7717361,1370.9000244,0.0,190.3,0.8,0.0,0.0,854,138,0,0,860.55,25.38,19.17,# data time:6430,pm2.5:6.445,pm10:5.704,O2:0.000,NO2:0.000,SO2:0.000,NH3:5.083
9:50:44,0,0,0,0,0,0,0,0,0,0,0,513,0,0,0,0,0.0000000,0.0000000,0.0000000,0.0000000,10.00,38.4149399,-110.7717361,1370.9000244,0.0,190.3,0.8,0.0,0.0,854,145,0,0,860.61,25.36,19.14,# data time:6430,pm2.5:6.445,pm10:5.704,O2:0.000,NO2:0.000,SO2:0.000,NH3:5.083
9:50:45,0,0,0,0,0,0,0,0,0,0,0,514,0,0,0,0,0.0000000,0.0000000,0.0000000,0.0000000,10.00,38.4149399,-110.7717361,1370.9000244,0.0,190.3,0.8,0.0,0.0,854,136,0,0,860.54,25.38,19.15,# data time:6430,pm2.5:6.445,pm10:5.704,O2:0.000,NO2:0.000,SO2:0.000,NH3:5.083
9:50:46,0,0,0,0,0,0,0,0,0,0,0,513,0,0,0,0,0.0000000,0.0000000,0.0000000,0.0000000,10.00,38.4149399,-110.7717361,1370.9000244,0.0,190.3,0.8,0.0,0.0,853,140,0,0,860.60,25.39,19.17,# data time:6430,pm2.5:6.445,pm10:5.704,O2:0.000,NO2:0.000,SO2:0.000,NH3:5.083
9:50:47,0,0,0,0,0,0,0,0,0,0,0,513,0,0,0,0,0.0000000,0.0000000,0.0000000,0.0000000,10.00,38.4149399,-110.7717361,1370.9000244,0.0,190.3,0.8,0.0,0.0,853,134,0,0,860.52,25.35,19.19,# data time:6430,pm2.5:6.445,pm10:5.704,O2:0.000,NO2:0.000,SO2:0.000,NH3:5.083
9:50:48,0,0,0,0,0,0,0,0,0,0,0,514,0,0,0,0,0.0000000,0.0000000,0.0000000,0.0000000,10.00,38.4149399,-110.7717361,1370.9000244,0.0,190.3,0.8,0.0,0.0,853,139,0,0,860.52,25.35,19.22,# data time:6430,pm2.5:6.445,pm10:5.704,O2:0.000,NO2:0.000,SO2:0.000,NH3:5.083
9:50:49,0,0,0,0,0,0,0,0,0,0,0,513,0,0,0,0,0.0000000,0.0000000,0.0000000,0.0000000,10.00,38.4149399,-110.7717361,1370.9000244,0.0,190.3,0.8,0.0,0.0,854,137,0,0,860.56,25.30,19.24,# data time:6430,pm2.5:6.445,pm10:5.704,O2:0.000,NO2:0.000,SO2:0.000,NH3:5.083
9:50:50,0,0,0,0,0,0,0,0,0,0,0,514,0,0,0,0,0.0000000,0.0000000,0.0000000,0.0000000,10.00,38.4149399,-110.7717361,1370.9000244,0.0,190.3,0.8,0.0,0.0,854,140,0,0,860.55,25.28,19.22,# data time:6430,pm2.5:6.445,pm10:5.704,O2:0.000,NO2:0.000,SO2:0.000,NH3:5.083
9:50:51,0,0,0,0,0,0,0,0,0,0,0,514,0,0,0,0,0.0000000,0.0000000,0.0000000,0.0000000,10.00,38.4149399,-110.7717361,1370.9000244,0.0,190.3,0.8,0.0,0.0,854,137,0,0,860.48,25.28,19.19,# data time:6430,pm2.5:6.445,pm10:5.704,O2:0.000,NO2:0.000,SO2:0.000,NH3:5.083
9:50:52,0,0,0,0,0,0,0,0,0,0,0,514,0,0,0,0,0.0000000,0.0000000,0.0000000,0.0000000,10.00,38.4149399,-110.7717361,1370.9000244,0.0,190.3,0.8,0.0,0.0,854,142,0,0,860.48,25.31,19.15,# data time:6430,pm2.5:6.445,pm10:5.704,O2:0.000,NO2:0.000,SO2:0.000,NH3:5.083
9:50:53,0,0,0,0,0,0,0,0,0,0,0,515,0,0,0,0,0.0000000,0.0000000,0.0000000,0.0000000,10.00,38.4149399,-110.7717361,1370.9000244,0.1,190.3,0.8,0.0,0.0,854,144,0,0,860.49,25.31,19.14,# data time:6440,pm2.5:6.445,pm10:5.704,O2:0.000,NO2:0.000,SO2:0.000,NH3:5.083
9:50:54,0,0,0,0,0,0,0,0,0,0,0,514,0,0,0,0,0.0000000,0.0000000,0.0000000,0.0000000,10.00,38.4149399,-110.7717361,1370.9000244,0.1,190.3,0.8,0.0,0.0,854,145,0,0,860.56,25.33,19.13,# data time:6440,pm2.5:6.445,pm10:5.704,O2:0.000,NO2:0.000,SO2:0.000,NH3:5.083
9:50:55,0,0,0,0,0,0,0,0,0,0,0,513,0,0,0,0,0.0000000,0.0000000,0.0000000,0.0000000,10.00,38.4149399,-110.7717361,1370.9000244,0.0,190.3,0.8,0.0,0.0,854,148,0,0,860.51,25.38,19.16,# data time:6440,pm2.5:6.445,pm10:5.704,O2:0.000,NO2:0.000,SO2:0.000,NH3:5.083
9:50:56,0,0,0,0,0,0,0,0,0,0,0,513,0,0,0,0,0.0000000,0.0000000,0.0000000,0.0000000,10.00,38.4149399,-110.7717361,1370.9000244,0.0,190.3,0.8,0.0,0.0,854,142,0,0,860.52,25.35,19.16,# data time:6440,pm2.5:6.445,pm10:5.704,O2:0.000,NO2:0.000,SO2:0.000,NH3:5.083
9:50:57,0,0,0,0,0,0,0,0,0,0,0,513,0,0,0,0,0.0000000,0.0000000,0.0000000,0.0000000,10.00,38.4149399,-110.7717361,1370.9000244,0.0,190.3,0.8,0.0,0.0,853,155,0,0,860.56,25.33,19.17,# data time:6440,pm2.5:6.445,pm10:5.704,O2:0.000,NO2:0.000,SO2:0.000,NH3:5.083
9:50:58,0,0,0,0,0,0,0,0,0,0,0,514,0,0,0,0,0.0000000,0.0000000,0.0000000,0.0000000,10.00,38.4149399,-110.7717361,1370.9000244,0.0,190.3,0.8,0.0,0.0,854,154,0,0,860.57,25.36,19.11,# data time:6440,pm2.5:6.445,pm10:5.704,O2:0.000,NO2:0.000,SO2:0.000,NH3:5.083
9:50:59,0,0,0,0,0,0,0,0,0,0,0,514,0,0,0,0,0.0000000,0.0000000,0.0000000,0.0000000,10.00,38.4149399,-110.7717361,1370.9000244,0.0,190.3,0.8,0.0,0.0,854,152,0,0,860.51,25.36,19.07,# data time:6440,pm2.5:6.445,pm10:5.704,O2:0.000,NO2:0.000,SO2:0.000,NH3:5.083
9:51:00,0,0,0,0,0,0,0,0,0,0,0,514,0,0,0,0,0.0000000,0.0000000,0.0000000,0.0000000,10.00,38.4149399,-110.7717361,1370.9000244,0.0,190.3,0.8,0.0,0.0,854,149,0,0,860.52,25.39,19.07,# data time:6440,pm2.5:6.445,pm10:5.704,O2:0.000,NO2:0.000,SO2:0.000,NH3:5.083
9:51:01,0,0,0,0,0,0,0,0,0,0,0,515,0,0,0,0,0.0000000,0.0000000,0.0000000,0.0000000,10.00,38.4149399,-110.7717361,1370.9000244,0.0,190.3,0.8,0.0,0.0,854,147,0,0,860.54,25.39,19.03,# data time:6440,pm2.5:6.445,pm10:5.704,O2:0.000,NO2:0.000,SO2:0.000,NH3:5.083
9:51:02,0,0,0,0,0,0,0,0,0,0,0,515,0,0,0,0,0.0000000,0.0000000,0.0000000,0.0000000,10.00,38.4149399,-110.7717361,1370.9000244,0.0,190.3,0.8,0.0,0.0,854,145,0,0,860.50,25.42,19.04,# data time:6440,pm2.5:6.445,pm10:5.704,O2:0.000,NO2:0.000,SO2:0.000,NH3:5.083
9:51:03,0,0,0,0,0,0,0,0,0,0,0,514,0,0,0,0,0.0000000,0.0000000,0.0000000,0.0000000,10.00,38.4149399,-110.7717361,1370.9000244,0.0,190.3,0.8,0.0,0.0,854,143,0,0,860.52,25.45,19.08,# data time:6450,pm2.5:6.445,pm10:5.704,O2:0.000,NO2:0.000,SO2:0.000,NH3:5.083
9:51:04,0,0,0,0,0,0,0,0,0,0,0,514,0,0,0,0,0.0000000,0.0000000,0.0000000,0.0000000,10.00,38.4149399,-110.7717361,1370.9000244,0.0,190.3,0.8,0.0,0.0,853,146,0,0,860.58,25.42,19.11,# data time:6450,pm2.5:6.445,pm10:5.704,O2:0.000,NO2:0.000,SO2:0.000,NH3:5.083
9:51:05,0,0,0,0,0,0,0,0,0,0,0,513,0,0,0,0,0.0000000,0.0000000,0.0000000,0.0000000,10.00,38.4149399,-110.7717361,1370.9000244,0.0,190.3,0.8,0.0,0.0,854,147,0,0,860.57,25.42,19.10,# data time:6450,pm2.5:6.445,pm10:5.704,O2:0.000,NO2:0.000,SO2:0.000,NH3:5.083
9:51:06,0,0,0,0,0,0,0,0,0,0,0,514,0,0,0,0,0.0000000,0.0000000,0.0000000,0.0000000,10.00,38.4149399,-110.7717361,1370.9000244,0.0,190.3,0.8,0.0,0.0,854,141,0,0,860.53,25.41,19.12,# data time:6450,pm2.5:6.445,pm10:5.704,O2:0.000,NO2:0.000,SO2:0.000,NH3:5.083
9:51:07,0,0,0,0,0,0,0,0,0,0,0,513,0,0,0,0,0.0000000,0.0000000,0.0000000,0.0000000,10.00,38.4149399,-110.7717361,1370.9000244,0.0,190.3,0.8,0.0,0.0,854,143,0,0,860.57,25.42,19.12,# data time:6450,pm2.5:6.445,pm10:5.704,O2:0.000,NO2:0.000,SO2:0.000,NH3:5.083
9:51:08,0,0,0,0,0,0,0,0,0,0,0,513,0,0,0,0,0.0000000,0.0000000,0.0000000,0.0000000,10.00,38.4149399,-110.7717361,1370.9000244,0.0,190.3,0.8,0.0,0.0,854,144,0,0,860.47,25.44,19.09,# data time:6450,pm2.5:6.445,pm10:5.704,O2:0.000,NO2:0.000,SO2:0.000,NH3:5.083
9:51:09,0,0,0,0,0,0,0,0,0,0,0,514,0,0,0,0,0.0000000,0.0000000,0.0000000,0.0000000,10.00,38.4149399,-110.7717361,1370.9000244,0.0,190.3,0.8,0.0,0.0,854,144,0,0,860.52,25.45,19.05,# data time:6450,pm2.5:6.445,pm10:5.704,O2:0.000,NO2:0.000,SO2:0.000,NH3:5.083
9:51:10,0,0,0,0,0,0,0,0,0,0,0,513,0,0,0,0,0.0000000,0.0000000,0.0000000,0.0000000,10.00,38.4149399,-110.7717361,1370.9000244,0.0,190.3,0.8,0.0,0.0,854,141,0,0,860.56,25.47,19.06,# data time:6450,pm2.5:6.445,pm10:5.704,O2:0.000,NO2:0.000,SO2:0.000,NH3:5.083
9:51:11,0,0,0,0,0,0,0,0,0,0,0,515,0,0,0,0,0.0000000,0.0000000,0.0000000,0.0000000,10.00,38.4149399,-110.7717361,1370.9000244,0.0,190.3,0.8,0.0,0.0,854,138,0,0,860.56,25.45,19.08,# data time:6450,pm2.5:6.445,pm10:5.704,O2:0.000,NO2:0.000,SO2:0.000,NH3:5.083
9:51:12,0,0,0,0,0,0,0,0,0,0,0,514,0,0,0,0,0.0000000,0.0000000,0.0000000,0.0000000,10.00,38.4149399,-110.7717361,1370.9000244,0.0,190.3,0.8,0.0,0.0,855,142,0,0,860.51,25.44,19.08,# data time:6460,pm2.5:6.445,pm10:5.704,O2:0.000,NO2:0.000,SO2:0.000,NH3:5.083
9:51:13,0,0,0,0,0,0,0,0,0,0,0,514,0,0,0,0,0.0000000,0.0000000,0.0000000,0.0000000,10.00,38.4149399,-110.7717361,1370.9000244,0.0,190.3,0.8,0.0,0.0,854,132,0,0,860.56,25.45,19.10,# data time:6460,pm2.5:6.445,pm10:5.704,O2:0.000,NO2:0.000,SO2:0.000,NH3:5.083
9:51:14,0,0,0,0,0,0,0,0,0,0,0,514,0,0,0,0,0.0000000,0.0000000,0.0000000,0.0000000,10.00,38.4149399,-110.7717361,1370.9000244,0.0,190.3,0.8,0.0,0.0,854,136,0,0,860.56,25.42,19.13,# data time:6460,pm2.5:6.445,pm10:5.704,O2:0.000,NO2:0.000,SO2:0.000,NH3:5.083
9:51:16,0,0,0,0,0,0,0,0,0,0,0,514,0,0,0,0,0.0000000,0.0000000,0.0000000,0.0000000,10.00,38.4149399,-110.7717361,1370.9000244,0.0,190.3,0.8,0.0,0.0,853,138,0,0,860.55,25.39,19.14,# data time:6460,pm2.5:6.445,pm10:5.704,O2:0.000,NO2:0.000,SO2:0.000,NH3:5.083
9:51:17,0,0,0,0,0,0,0,0,0,0,0,514,0,0,0,0,0.0000000,0.0000000,0.0000000,0.0000000,10.00,38.4149399,-110.7717361,1370.9000244,0.0,190.3,0.8,0.0,0.0,854,133,0,0,860.56,25.39,19.14,# data time:6460,pm2.5:6.445,pm10:5.704,O2:0.000,NO2:0.000,SO2:0.000,NH3:5.083
9:51:18,0,0,0,0,0,0,0,0,0,0,0,514,0,0,0,0,0.0000000,0.0000000,0.0000000,0.0000000,10.00,38.4149399,-110.7717361,1370.9000244,0.0,190.3,0.8,0.0,0.0,854,131,0,0,860.61,25.39,19.13,# data time:6460,pm2.5:6.445,pm10:5.704,O2:0.000,NO2:0.000,SO2:0.000,NH3:5.083
9:51:19,0,0,0,0,0,0,0,0,0,0,0,514,0,0,0,0,0.0000000,0.0000000,0.0000000,0.0000000,10.00,38.4149399,-110.7717361,1370.9000244,0.0,190.3,0.8,0.0,0.0,854,127,0,0,860.59,25.39,19.03,# data time:6460,pm2.5:6.445,pm10:5.704,O2:0.000,NO2:0.000,SO2:0.000,NH3:5.083
9:51:20,0,0,0,0,0,0,0,0,0,0,0,514,0,0,0,0,0.0000000,0.0000000,0.0000000,0.0000000,10.00,38.4149399,-110.7717361,1370.9000244,0.0,190.3,0.8,0.0,0.0,853,130,0,0,860.51,25.39,18.97,# data time:6460,pm2.5:6.445,pm10:5.704,O2:0.000,NO2:0.000,SO2:0.000,NH3:5.083
9:51:21,0,0,0,0,0,0,0,0,0,0,0,514,0,0,0,0,0.0000000,0.0000000,0.0000000,0.0000000,10.00,38.4149399,-110.7717361,1370.9000244,0.0,190.3,0.8,0.0,0.0,854,132,0,0,860.53,25.42,19.00,# data time:6460,pm2.5:6.445,pm10:5.704,O2:0.000,NO2:0.000,SO2:0.000,NH3:5.083
9:51:22,0,0,0,0,0,0,0,0,0,0,0,514,0,0,0,0,0.0000000,0.0000000,0.0000000,0.0000000,10.00,38.4149399,-110.7717361,1370.9000244,0.0,190.3,0.8,0.0,0.0,853,131,0,0,860.52,25.42,18.96,# data time:6460,pm2.5:6.445,pm10:5.704,O2:0.000,NO2:0.000,SO2:0.000,NH3:5.083
9:51:23,0,0,0,0,0,0,0,0,0,0,0,514,0,0,0,0,0.0000000,0.0000000,0.0000000,0.0000000,10.00,38.4149399,-110.7717361,1370.9000244,0.0,190.3,0.8,0.0,0.0,854,131,0,0,860.55,25.45,18.92,# data time:6470,pm2.5:6.445,pm10:5.704,O2:0.000,NO2:0.000,SO2:0.000,NH3:5.083
9:51:24,0,0,0,0,0,0,0,0,0,0,0,514,0,0,0,0,0.0000000,0.0000000,0.0000000,0.0000000,10.00,38.4149399,-110.7717361,1370.9000244,0.0,190.3,0.8,0.0,0.0,854,137,0,0,860.58,25.51,18.85,# data time:6470,pm2.5:6.445,pm10:5.704,O2:0.000,NO2:0.000,SO2:0.000,NH3:5.083
9:51:25,0,0,0,0,0,0,0,0,0,0,0,514,0,0,0,0,0.0000000,0.0000000,0.0000000,0.0000000,10.00,38.4149399,-110.7717361,1370.9000244,0.0,190.3,0.8,0.0,0.0,854,133,0,0,860.56,25.56,18.87,# data time:6470,pm2.5:6.445,pm10:5.704,O2:0.000,NO2:0.000,SO2:0.000,NH3:5.083
9:51:26,0,0,0,0,0,0,0,0,0,0,0,514,0,0,0,0,0.0000000,0.0000000,0.0000000,0.0000000,10.00,38.4149399,-110.7717361,1370.9000244,0.0,190.3,0.8,0.0,0.0,854,138,0,0,860.53,25.57,18.85,# data time:6470,pm2.5:6.445,pm10:5.704,O2:0.000,NO2:0.000,SO2:0.000,NH3:5.083
9:51:27,0,0,0,0,0,0,0,0,0,0,0,514,0,0,0,0,0.0000000,0.0000000,0.0000000,0.0000000,10.00,38.4149399,-110.7717361,1370.9000244,0.0,190.3,0.8,0.0,0.0,854,134,0,0,860.57,25.60,18.82,# data time:6470,pm2.5:6.445,pm10:5.704,O2:0.000,NO2:0.000,SO2:0.000,NH3:5.083
9:51:28,0,0,0,0,0,0,0,0,0,0,0,514,0,0,0,0,0.0000000,0.0000000,0.0000000,0.0000000,10.00,38.4149399,-110.7717361,1370.9000244,0.0,190.3,0.8,0.0,0.0,854,134,0,0,860.61,25.64,18.81,# data time:6470,pm2.5:6.445,pm10:5.704,O2:0.000,NO2:0.000,SO2:0.000,NH3:5.083
9:51:29,0,0,0,0,0,0,0,0,0,0,0,514,0,0,0,0,0.0000000,0.0000000,0.0000000,0.0000000,10.00,38.4149399,-110.7717361,1370.9000244,0.0,190.3,0.8,0.0,0.0,854,136,0,0,860.59,25.68,18.78,# data time:6470,pm2.5:6.445,pm10:5.704,O2:0.000,NO2:0.000,SO2:0.000,NH3:5.083
9:51:30,0,0,0,0,0,0,0,0,0,0,0,514,0,0,0,0,0.0000000,0.0000000,0.0000000,0.0000000,10.00,38.4149399,-110.7717361,1370.9000244,0.0,190.3,0.8,0.0,0.0,854,133,0,0,860.55,25.67,18.79,# data time:6470,pm2.5:6.445,pm10:5.704,O2:0.000,NO2:0.000,SO2:0.000,NH3:5.083
9:51:31,0,0,0,0,0,0,0,0,0,0,0,514,0,0,0,0,0.0000000,0.0000000,0.0000000,0.0000000,10.00,38.4149399,-110.7717361,1370.9000244,0.0,190.3,0.8,0.0,0.0,854,130,0,0,860.56,25.70,18.81,# data time:6470,pm2.5:6.445,pm10:5.704,O2:0.000,NO2:0.000,SO2:0.000,NH3:5.083
9:51:32,0,0,0,0,0,0,0,0,0,0,0,514,0,0,0,0,0.0000000,0.0000000,0.0000000,0.0000000,10.00,38.4149399,-110.7717361,1370.9000244,0.0,190.3,0.8,0.0,0.0,854,131,0,0,860.52,25.71,18.82,# data time:6470,pm2.5:6.445,pm10:5.704,O2:0.000,NO2:0.000,SO2:0.000,NH3:5.083
9:51:33,0,0,0,0,0,0,0,0,0,0,0,514,0,0,0,0,0.0000000,0.0000000,0.0000000,0.0000000,10.00,38.4149399,-110.7717361,1370.9000244,0.0,190.3,0.8,0.0,0.0,854,130,0,0,860.54,25.71,18.81,# data time:6480,pm2.5:6.445,pm10:5.704,O2:0.000,NO2:0.000,SO2:0.000,NH3:5.083
9:51:34,0,0,0,0,0,0,0,0,0,0,0,514,0,0,0,0,0.0000000,0.0000000,0.0000000,0.0000000,10.00,38.4149399,-110.7717361,1370.9000244,0.0,190.3,0.8,0.0,0.0,854,135,0,0,860.52,25.71,18.83,# data time:6480,pm2.5:6.445,pm10:5.704,O2:0.000,NO2:0.000,SO2:0.000,NH3:5.083
9:51:35,0,0,0,0,0,0,0,0,0,0,0,514,0,0,0,0,0.0000000,0.0000000,0.0000000,0.0000000,10.00,38.4149399,-110.7717361,1370.9000244,0.0,190.3,0.8,0.0,0.0,854,127,0,0,860.57,25.70,18.85,# data time:6480,pm2.5:6.445,pm10:5.704,O2:0.000,NO2:0.000,SO2:0.000,NH3:5.083
9:51:36,0,0,0,0,0,0,0,0,0,0,0,514,0,0,0,0,0.0000000,0.0000000,0.0000000,0.0000000,10.00,38.4149399,-110.7717361,1370.9000244,0.0,190.3,0.8,0.0,0.0,854,130,0,0,860.51,25.68,18.88,# data time:6480,pm2.5:6.445,pm10:5.704,O2:0.000,NO2:0.000,SO2:0.000,NH3:5.083
9:51:37,0,0,0,0,0,0,0,0,0,0,0,513,0,0,0,0,0.0000000,0.0000000,0.0000000,0.0000000,10.00,38.4149399,-110.7717361,1370.9000244,0.0,190.3,0.8,0.0,0.0,853,130,0,0,860.57,25.67,18.88,# data time:6480,pm2.5:6.445,pm10:5.704,O2:0.000,NO2:0.000,SO2:0.000,NH3:5.083
9:51:38,0,0,0,0,0,0,0,0,0,0,0,514,0,0,0,0,0.0000000,0.0000000,0.0000000,0.0000000,10.00,38.4149399,-110.7717361,1370.9000244,0.0,190.3,0.8,0.0,0.0,854,130,0,0,860.54,25.65,18.89,# data time:6480,pm2.5:6.445,pm10:5.704,O2:0.000,NO2:0.000,SO2:0.000,NH3:5.083
9:51:39,0,0,0,0,0,0,0,0,0,0,0,514,0,0,0,0,0.0000000,0.0000000,0.0000000,0.0000000,10.00,38.4149399,-110.7717361,1370.9000244,0.0,190.3,0.8,0.0,0.0,854,132,0,0,860.53,25.68,18.89,# data time:6480,pm2.5:6.445,pm10:5.704,O2:0.000,NO2:0.000,SO2:0.000,NH3:5.083
9:51:40,0,0,0,0,0,0,0,0,0,0,0,513,0,0,0,0,0.0000000,0.0000000,0.0000000,0.0000000,10.00,38.4149399,-110.7717361,1370.9000244,0.0,190.3,0.8,0.0,0.0,854,129,0,0,860.56,25.70,18.87,# data time:6480,pm2.5:6.445,pm10:5.704,O2:0.000,NO2:0.000,SO2:0.000,NH3:5.083
9:51:41,0,0,0,0,0,0,0,0,0,0,0,514,0,0,0,0,0.0000000,0.0000000,0.0000000,0.0000000,10.00,38.4149399,-110.7717361,1370.8000488,0.0,190.3,0.8,0.0,0.0,853,127,0,0,860.51,25.70,18.86,# data time:6480,pm2.5:6.445,pm10:5.704,O2:0.000,NO2:0.000,SO2:0.000,NH3:5.083
9:51:42,0,0,0,0,0,0,0,0,0,0,0,514,0,0,0,0,0.0000000,0.0000000,0.0000000,0.0000000,10.00,38.4149399,-110.7717361,1370.8000488,0.0,190.3,0.8,0.0,0.0,854,126,0,0,860.48,25.70,18.85,# data time:6480,pm2.5:6.445,pm10:5.704,O2:0.000,NO2:0.000,SO2:0.000,NH3:5.083
9:51:43,0,0,0,0,0,0,0,0,0,0,0,514,0,0,0,0,0.0000000,0.0000000,0.0000000,0.0000000,10.00,38.4149399,-110.7717361,1370.8000488,0.0,190.3,0.8,0.0,0.0,854,126,0,0,860.54,25.70,18.84,# data time:6490,pm2.5:6.445,pm10:5.704,O2:0.000,NO2:0.000,SO2:0.000,NH3:5.083
9:51:44,0,0,0,0,0,0,0,0,0,0,0,514,0,0,0,0,0.0000000,0.0000000,0.0000000,0.0000000,10.00,38.4149399,-110.7717361,1370.8000488,0.0,190.3,0.8,0.0,0.0,854,127,0,0,860.51,25.71,18.84,# data time:6490,pm2.5:6.445,pm10:5.704,O2:0.000,NO2:0.000,SO2:0.000,NH3:5.083
9:51:45,0,0,0,0,0,0,0,0,0,0,0,514,0,0,0,0,0.0000000,0.0000000,0.0000000,0.0000000,10.00,38.4149399,-110.7717361,1370.8000488,0.0,190.3,0.8,0.0,0.0,854,129,0,0,860.51,25.73,18.86,# data time:6490,pm2.5:6.445,pm10:5.704,O2:0.000,NO2:0.000,SO2:0.000,NH3:5.083
9:51:46,0,0,0,0,0,0,0,0,0,0,0,514,0,0,0,0,0.0000000,0.0000000,0.0000000,0.0000000,10.00,38.4149399,-110.7717361,1370.8000488,0.0,190.3,0.8,0.0,0.0,854,128,0,0,860.56,25.73,18.87,# data time:6490,pm2.5:6.445,pm10:5.704,O2:0.000,NO2:0.000,SO2:0.000,NH3:5.083
9:51:47,0,0,0,0,0,0,0,0,0,0,0,514,0,0,0,0,0.0000000,0.0000000,0.0000000,0.0000000,10.00,38.4149399,-110.7717361,1370.8000488,0.0,190.3,0.8,0.0,0.0,854,128,0,0,860.55,25.74,18.86,# data time:6490,pm2.5:6.445,pm10:5.704,O2:0.000,NO2:0.000,SO2:0.000,NH3:5.083
9:51:48,0,0,0,0,0,0,0,0,0,0,0,514,0,0,0,0,0.0000000,0.0000000,0.0000000,0.0000000,10.00,38.4149399,-110.7717361,1370.8000488,0.0,190.3,0.8,0.0,0.0,854,128,0,0,860.52,25.70,18.86,# data time:6490,pm2.5:6.445,pm10:5.704,O2:0.000,NO2:0.000,SO2:0.000,NH3:5.083
9:51:49,0,0,0,0,0,0,0,0,0,0,0,514,0,0,0,0,0.0000000,0.0000000,0.0000000,0.0000000,10.00,38.4149399,-110.7717361,1370.8000488,0.0,190.3,0.8,0.0,0.0,854,125,0,0,860.58,25.70,18.86,# data time:6490,pm2.5:6.445,pm10:5.704,O2:0.000,NO2:0.000,SO2:0.000,NH3:5.083
9:51:50,0,0,0,0,0,0,0,0,0,0,0,514,0,0,0,0,0.0000000,0.0000000,0.0000000,0.0000000,10.00,38.4149399,-110.7717361,1370.8000488,0.0,190.3,0.8,0.0,0.0,854,127,0,0,860.53,25.74,18.85,# data time:6490,pm2.5:6.445,pm10:5.704,O2:0.000,NO2:0.000,SO2:0.000,NH3:5.083
9:51:51,0,0,0,0,0,0,0,0,0,0,0,514,0,0,0,0,0.0000000,0.0000000,0.0000000,0.0000000,10.00,38.4149399,-110.7717361,1370.8000488,0.0,190.3,0.8,0.0,0.0,854,128,0,0,860.58,25.73,18.85,# data time:6490,pm2.5:6.445,pm10:5.704,O2:0.000,NO2:0.000,SO2:0.000,NH3:5.083
9:51:52,0,0,0,0,0,0,0,0,0,0,0,514,0,0,0,0,0.0000000,0.0000000,0.0000000,0.0000000,10.00,38.4149399,-110.7717361,1370.8000488,0.0,190.3,0.8,0.0,0.0,854,128,0,0,860.53,25.74,18.84,# data time:6490,pm2.5:6.445,pm10:5.704,O2:0.000,NO2:0.000,SO2:0.000,NH3:5.083
9:51:53,0,0,0,0,0,0,0,0,0,0,0,514,0,0,0,0,0.0000000,0.0000000,0.0000000,0.0000000,10.00,38.4149399,-110.7717361,1370.8000488,0.0,190.3,0.8,0.0,0.0,854,129,0,0,860.56,25.73,18.81,# data time:6500,pm2.5:6.445,pm10:5.704,O2:0.000,NO2:0.000,SO2:0.000,NH3:5.083
9:51:54,0,0,0,0,0,0,0,0,0,0,0,513,0,0,0,0,0.0000000,0.0000000,0.0000000,0.0000000,10.00,38.4149399,-110.7717361,1370.8000488,0.0,190.3,0.8,0.0,0.0,854,130,0,0,860.48,25.76,18.78,# data time:6500,pm2.5:6.445,pm10:5.704,O2:0.000,NO2:0.000,SO2:0.000,NH3:5.083
9:51:55,0,0,0,0,0,0,0,0,0,0,0,514,0,0,0,0,0.0000000,0.0000000,0.0000000,0.0000000,10.00,38.4149399,-110.7717361,1370.8000488,0.0,190.3,0.8,0.0,0.0,854,126,0,0,860.50,25.80,18.76,# data time:6500,pm2.5:6.445,pm10:5.704,O2:0.000,NO2:0.000,SO2:0.000,NH3:5.083
9:51:56,0,0,0,0,0,0,0,0,0,0,0,514,0,0,0,0,0.0000000,0.0000000,0.0000000,0.0000000,10.00,38.4149399,-110.7717361,1370.8000488,0.0,190.3,0.8,0.0,0.0,854,129,0,0,860.54,25.85,18.74,# data time:6500,pm2.5:6.445,pm10:5.704,O2:0.000,NO2:0.000,SO2:0.000,NH3:5.083
9:51:57,0,0,0,0,0,0,0,0,0,0,0,514,0,0,0,0,0.0000000,0.0000000,0.0000000,0.0000000,10.00,38.4149399,-110.7717361,1370.8000488,0.0,190.3,0.8,0.0,0.0,854,127,0,0,860.53,25.86,18.72,# data time:6500,pm2.5:6.445,pm10:5.704,O2:0.000,NO2:0.000,SO2:0.000,NH3:5.083
9:51:58,0,0,0,0,0,0,0,0,0,0,0,513,0,0,0,0,0.0000000,0.0000000,0.0000000,0.0000000,10.00,38.4149399,-110.7717361,1370.8000488,0.0,190.3,0.8,0.0,0.0,854,128,0,0,860.59,25.89,18.72,# data time:6500,pm2.5:6.445,pm10:5.704,O2:0.000,NO2:0.000,SO2:0.000,NH3:5.083
9:51:59,0,0,0,0,0,0,0,0,0,0,0,514,0,0,0,0,0.0000000,0.0000000,0.0000000,0.0000000,10.00,38.4149399,-110.7717361,1370.8000488,0.0,190.3,0.8,0.0,0.0,854,129,0,0,860.56,25.88,18.69,# data time:6500,pm2.5:6.445,pm10:5.704,O2:0.000,NO2:0.000,SO2:0.000,NH3:5.083
9:52:00,0,0,0,0,0,0,0,0,0,0,0,514,0,0,0,0,0.0000000,0.0000000,0.0000000,0.0000000,10.00,38.4149399,-110.7717361,1370.8000488,0.0,190.3,0.8,0.0,0.0,854,127,0,0,860.57,25.89,18.69,# data time:6500,pm2.5:6.445,pm10:5.704,O2:0.000,NO2:0.000,SO2:0.000,NH3:5.083
9:52:01,0,0,0,0,0,0,0,0,0,0,0,514,0,0,0,0,0.0000000,0.0000000,0.0000000,0.0000000,10.00,38.4149399,-110.7717361,1370.8000488,0.0,190.3,0.8,0.0,0.0,854,120,0,0,860.51,25.94,18.68,# data time:6500,pm2.5:6.445,pm10:5.704,O2:0.000,NO2:0.000,SO2:0.000,NH3:5.083
9:52:02,0,0,0,0,0,0,0,0,0,0,0,514,0,0,0,0,0.0000000,0.0000000,0.0000000,0.0000000,10.00,38.4149399,-110.7717361,1370.8000488,0.0,190.3,0.8,0.0,0.0,854,128,0,0,860.58,25.93,18.69,# data time:6510,pm2.5:5.640,pm10:4.991,O2:0.000,NO2:0.000,SO2:0.000,NH3:5.083
9:52:03,0,0,0,0,0,0,0,0,0,0,0,514,0,0,0,0,0.0000000,0.0000000,0.0000000,0.0000000,10.00,38.4149399,-110.7717361,1370.8000488,0.0,190.3,0.8,0.0,0.0,854,127,0,0,860.55,25.93,18.71,# data time:6510,pm2.5:5.640,pm10:4.991,O2:0.000,NO2:0.000,SO2:0.000,NH3:5.083
9:52:04,0,0,0,0,0,0,0,0,0,0,0,514,0,0,0,0,0.0000000,0.0000000,0.0000000,0.0000000,10.00,38.4149399,-110.7717361,1370.8000488,0.0,190.3,0.8,0.0,0.0,854,129,0,0,860.56,25.89,18.72,# data time:6510,pm2.5:5.640,pm10:4.991,O2:0.000,NO2:0.000,SO2:0.000,NH3:5.083
9:52:05,0,0,0,0,0,0,0,0,0,0,0,513,0,0,0,0,0.0000000,0.0000000,0.0000000,0.0000000,10.00,38.4149399,-110.7717361,1370.8000488,0.0,190.3,0.8,0.0,0.0,854,131,0,0,860.55,25.86,18.72,# data time:6510,pm2.5:5.640,pm10:4.991,O2:0.000,NO2:0.000,SO2:0.000,NH3:5.083
9:52:06,0,0,0,0,0,0,0,0,0,0,0,514,0,0,0,0,0.0000000,0.0000000,0.0000000,0.0000000,10.00,38.4149399,-110.7717361,1370.8000488,0.0,190.3,0.8,0.0,0.0,854,127,0,0,860.56,25.86,18.74,# data time:6510,pm2.5:5.640,pm10:4.991,O2:0.000,NO2:0.000,SO2:0.000,NH3:5.083
9:52:08,0,0,0,0,0,0,0,0,0,0,0,514,0,0,0,0,0.0000000,0.0000000,0.0000000,0.0000000,10.00,38.4149399,-110.7717361,1370.8000488,0.0,190.3,0.8,0.0,0.0,854,127,0,0,860.51,25.82,18.76,# data time:6510,pm2.5:5.640,pm10:4.991,O2:0.000,NO2:0.000,SO2:0.000,NH3:5.083
9:52:09,0,0,0,0,0,0,0,0,0,0,0,515,0,0,0,0,0.0000000,0.0000000,0.0000000,0.0000000,10.00,38.4149399,-110.7717361,1370.8000488,0.0,190.3,0.8,0.0,0.0,853,125,0,0,860.54,25.80,18.78,# data time:6510,pm2.5:5.640,pm10:4.991,O2:0.000,NO2:0.000,SO2:0.000,NH3:5.083
9:52:10,0,0,0,0,0,0,0,0,0,0,0,514,0,0,0,0,0.0000000,0.0000000,0.0000000,0.0000000,10.00,38.4149399,-110.7717361,1370.8000488,0.0,190.3,0.8,0.0,0.0,854,127,0,0,860.57,25.80,18.79,# data time:6510,pm2.5:5.640,pm10:4.991,O2:0.000,NO2:0.000,SO2:0.000,NH3:5.083
9:52:11,0,0,0,0,0,0,0,0,0,0,0,514,0,0,0,0,0.0000000,0.0000000,0.0000000,0.0000000,10.00,38.4149399,-110.7717361,1370.8000488,0.0,190.3,0.8,0.0,0.0,854,127,0,0,860.56,25.79,18.79,# data time:6510,pm2.5:5.640,pm10:4.991,O2:0.000,NO2:0.000,SO2:0.000,NH3:5.083
9:52:12,0,0,0,0,0,0,0,0,0,0,0,515,0,0,0,0,0.0000000,0.0000000,0.0000000,0.0000000,10.00,38.4149399,-110.7717361,1370.8000488,0.0,190.3,0.8,0.0,0.0,853,126,0,0,860.52,25.77,18.77,# data time:6510,pm2.5:5.640,pm10:4.991,O2:0.000,NO2:0.000,SO2:0.000,NH3:5.083
9:52:13,0,0,0,0,0,0,0,0,0,0,0,514,0,0,0,0,0.0000000,0.0000000,0.0000000,0.0000000,10.00,38.4149399,-110.7717361,1370.8000488,0.0,190.3,0.8,0.0,0.0,854,128,0,0,860.48,25.77,18.66,# data time:6520,pm2.5:6.445,pm10:5.704,O2:0.000,NO2:0.000,SO2:0.000,NH3:5.083
9:52:14,0,0,0,0,0,0,0,0,0,0,0,514,0,0,0,0,0.0000000,0.0000000,0.0000000,0.0000000,10.00,38.4149399,-110.7717361,1370.8000488,0.0,190.3,0.8,0.0,0.0,854,129,0,0,860.47,25.79,18.62,# data time:6520,pm2.5:6.445,pm10:5.704,O2:0.000,NO2:0.000,SO2:0.000,NH3:5.083
9:52:15,0,0,0,0,0,0,0,0,0,0,0,514,0,0,0,0,0.0000000,0.0000000,0.0000000,0.0000000,10.00,38.4149399,-110.7717361,1370.8000488,0.0,190.3,0.8,0.0,0.0,854,126,0,0,860.51,25.80,18.67,# data time:6520,pm2.5:6.445,pm10:5.704,O2:0.000,NO2:0.000,SO2:0.000,NH3:5.083
9:52:16,0,0,0,0,0,0,0,0,0,0,0,514,0,0,0,0,0.0000000,0.0000000,0.0000000,0.0000000,10.00,38.4149399,-110.7717361,1370.8000488,0.0,190.3,0.8,0.0,0.0,854,127,0,0,860.51,25.82,18.70,# data time:6520,pm2.5:6.445,pm10:5.704,O2:0.000,NO2:0.000,SO2:0.000,NH3:5.083
9:52:17,0,0,0,0,0,0,0,0,0,0,0,514,0,0,0,0,0.0000000,0.0000000,0.0000000,0.0000000,10.00,38.4149399,-110.7717361,1370.8000488,0.0,190.3,0.8,0.0,0.0,854,127,0,0,860.55,25.86,18.67,# data time:6520,pm2.5:6.445,pm10:5.704,O2:0.000,NO2:0.000,SO2:0.000,NH3:5.083
9:52:18,0,0,0,0,0,0,0,0,0,0,0,515,0,0,0,0,0.0000000,0.0000000,0.0000000,0.0000000,10.00,38.4149399,-110.7717361,1370.8000488,0.0,190.3,0.8,0.0,0.0,853,128,0,0,860.49,25.94,18.64,# data time:6520,pm2.5:6.445,pm10:5.704,O2:0.000,NO2:0.000,SO2:0.000,NH3:5.083
9:52:19,0,0,0,0,0,0,0,0,0,0,0,514,0,0,0,0,0.0000000,0.0000000,0.0000000,0.0000000,10.00,38.4149399,-110.7717361,1370.8000488,0.0,190.3,0.8,0.0,0.0,854,129,0,0,860.45,25.96,18.61,# data time:6520,pm2.5:6.445,pm10:5.704,O2:0.000,NO2:0.000,SO2:0.000,NH3:5.083
9:52:20,0,0,0,0,0,0,0,0,0,0,0,514,0,0,0,0,0.0000000,0.0000000,0.0000000,0.0000000,10.00,38.4149399,-110.7717361,1370.8000488,0.0,190.3,0.8,0.0,0.0,854,131,0,0,860.50,26.00,18.59,# data time:6520,pm2.5:6.445,pm10:5.704,O2:0.000,NO2:0.000,SO2:0.000,NH3:5.083
9:52:21,0,0,0,0,0,0,0,0,0,0,0,514,0,0,0,0,0.0000000,0.0000000,0.0000000,0.0000000,10.00,38.4149399,-110.7717361,1370.8000488,0.0,190.3,0.8,0.0,0.0,854,126,0,0,860.54,26.05,18.56,# data time:6520,pm2.5:6.445,pm10:5.704,O2:0.000,NO2:0.000,SO2:0.000,NH3:5.083
9:52:22,0,0,0,0,0,0,0,0,0,0,0,514,0,0,0,0,0.0000000,0.0000000,0.0000000,0.0000000,10.00,38.4149399,-110.7717361,1370.8000488,0.0,190.3,0.8,0.0,0.0,854,130,0,0,860.46,26.06,18.53,# data time:6520,pm2.5:6.445,pm10:5.704,O2:0.000,NO2:0.000,SO2:0.000,NH3:5.083
9:52:23,0,0,0,0,0,0,0,0,0,0,0,514,0,0,0,0,0.0000000,0.0000000,0.0000000,0.0000000,10.00,38.4149399,-110.7717361,1370.8000488,0.0,190.3,0.8,0.0,0.0,854,127,0,0,860.50,26.12,18.48,# data time:6530,pm2.5:6.445,pm10:5.704,O2:0.000,NO2:0.000,SO2:0.000,NH3:5.083
9:52:24,0,0,0,0,0,0,0,0,0,0,0,514,0,0,0,0,0.0000000,0.0000000,0.0000000,0.0000000,10.00,38.4149399,-110.7717361,1370.8000488,0.0,190.3,0.8,0.0,0.0,854,136,0,0,860.49,26.15,18.43,# data time:6530,pm2.5:6.445,pm10:5.704,O2:0.000,NO2:0.000,SO2:0.000,NH3:5.083
9:52:25,0,0,0,0,0,0,0,0,0,0,0,513,0,0,0,0,0.0000000,0.0000000,0.0000000,0.0000000,10.00,38.4149399,-110.7717361,1370.8000488,0.0,190.3,0.8,0.0,0.0,853,127,0,0,860.52,26.22,18.43,# data time:6530,pm2.5:6.445,pm10:5.704,O2:0.000,NO2:0.000,SO2:0.000,NH3:5.083
9:52:26,0,0,0,0,0,0,0,0,0,0,0,514,0,0,0,0,0.0000000,0.0000000,0.0000000,0.0000000,10.00,38.4149399,-110.7717361,1370.8000488,0.0,190.3,0.8,0.0,0.0,854,128,0,0,860.51,26.22,18.41,# data time:6530,pm2.5:6.445,pm10:5.704,O2:0.000,NO2:0.000,SO2:0.000,NH3:5.083
9:52:27,0,0,0,0,0,0,0,0,0,0,0,514,0,0,0,0,0.0000000,0.0000000,0.0000000,0.0000000,10.00,38.4149399,-110.7717361,1370.8000488,0.0,190.3,0.8,0.0,0.0,854,130,0,0,860.52,26.26,18.40,# data time:6530,pm2.5:6.445,pm10:5.704,O2:0.000,NO2:0.000,SO2:0.000,NH3:5.083
9:52:28,0,0,0,0,0,0,0,0,0,0,0,514,0,0,0,0,0.0000000,0.0000000,0.0000000,0.0000000,10.00,38.4149399,-110.7717361,1370.8000488,0.0,190.3,0.8,0.0,0.0,853,128,0,0,860.47,26.28,18.38,# data time:6530,pm2.5:6.445,pm10:5.704,O2:0.000,NO2:0.000,SO2:0.000,NH3:5.083
9:52:29,0,0,0,0,0,0,0,0,0,0,0,514,0,0,0,0,0.0000000,0.0000000,0.0000000,0.0000000,10.00,38.4149399,-110.7717361,1370.8000488,0.0,190.3,0.8,0.0,0.0,854,129,0,0,860.56,26.34,18.36,# data time:6530,pm2.5:6.445,pm10:5.704,O2:0.000,NO2:0.000,SO2:0.000,NH3:5.083
9:52:30,0,0,0,0,0,0,0,0,0,0,0,514,0,0,0,0,0.0000000,0.0000000,0.0000000,0.0000000,10.00,38.4149399,-110.7717361,1370.8000488,0.0,190.3,0.8,0.0,0.0,854,126,0,0,860.51,26.34,18.37,# data time:6530,pm2.5:6.445,pm10:5.704,O2:0.000,NO2:0.000,SO2:0.000,NH3:5.083
9:52:31,0,0,0,0,0,0,0,0,0,0,0,515,0,0,0,0,0.0000000,0.0000000,0.0000000,0.0000000,10.00,38.4149399,-110.7717361,1370.8000488,0.0,190.3,0.8,0.0,0.0,853,130,0,0,860.51,26.32,18.37,# data time:6530,pm2.5:6.445,pm10:5.704,O2:0.000,NO2:0.000,SO2:0.000,NH3:5.083
9:52:32,0,0,0,0,0,0,0,0,0,0,0,514,0,0,0,0,0.0000000,0.0000000,0.0000000,0.0000000,10.00,38.4149399,-110.7717361,1370.8000488,0.0,190.3,0.8,0.0,0.0,854,127,0,0,860.53,26.35,18.38,# data time:6530,pm2.5:6.445,pm10:5.704,O2:0.000,NO2:0.000,SO2:0.000,NH3:5.083
