Time, Motor A Speed, Motor A Dir, Motor B Speed, Motor B Dir, Servo Rail Current Sensor, Servo Pos - Arm L, Servo Pos - Arm R, Servo Pos - End, Servo Pos - Hopper, Servo Pos - Lid, Servo Pos - Extra, Servo Current, LED - Front L, LED - Front R, LED - Back L, LED - Back R, IMU Pitch, IMU Roll, IMU Yaw, Compass Heading, GPS Sats, GPS Latitude, GPS Longitude, GPS Altitude, GPS Speed, GPS Angle, GPS HDOP, GPS VDOP, GPS PDOP, Battery, Wind, Comm Xbee Latency, Comm Arduino Latency, Pressure, Humidity, Temperature, uRADMonitor
11:40:43,0,0,0,0,0,0,0,0,0,0,0,514,0,0,0,0,0.0000000,0.0000000,0.0000000,0.0000000,8.00,38.4065399,-110.7925339,1393.0000000,0.1,17.5,0.9,0.0,0.0,824,129,0,0,860.43,21.74,18.03,# data time:13030,pm2.5:6.445,pm10:5.704,O2:0.000,NO2:0.000,SO2:0.000,NH3:5.536
11:40:44,0,0,0,0,0,0,0,0,0,0,0,513,0,0,0,0,0.0000000,0.0000000,0.0000000,0.0000000,8.00,38.4065437,-110.7925339,1393.0999756,0.1,17.5,0.9,0.0,0.0,823,127,0,0,860.41,21.73,18.02,# data time:13030,pm2.5:6.445,pm10:5.704,O2:0.000,NO2:0.000,SO2:0.000,NH3:5.536
11:40:45,0,0,0,0,0,0,0,0,0,0,0,514,0,0,0,0,0.0000000,0.0000000,0.0000000,0.0000000,8.00,38.4065437,-110.7925339,1393.0999756,0.1,17.5,0.9,0.0,0.0,824,126,0,0,860.47,21.74,18.03,# data time:13030,pm2.5:6.445,pm10:5.704,O2:0.000,NO2:0.000,SO2:0.000,NH3:5.536
11:40:46,0,0,0,0,0,0,0,0,0,0,0,514,0,0,0,0,0.0000000,0.0000000,0.0000000,0.0000000,8.00,38.4065437,-110.7925339,1393.1999512,0.1,17.5,0.9,0.0,0.0,824,126,0,0,860.43,21.74,18.03,# data time:13030,pm2.5:6.445,pm10:5.704,O2:0.000,NO2:0.000,SO2:0.000,NH3:5.536
11:40:47,0,0,0,0,0,0,0,0,0,0,0,514,0,0,0,0,0.0000000,0.0000000,0.0000000,0.0000000,8.00,38.4065437,-110.7925339,1393.1999512,0.1,17.5,0.9,0.0,0.0,824,127,0,0,860.41,21.71,18.03,# data time:13030,pm2.5:6.445,pm10:5.704,O2:0.000,NO2:0.000,SO2:0.000,NH3:5.536
11:40:48,0,0,0,0,0,0,0,0,0,0,0,514,0,0,0,0,0.0000000,0.0000000,0.0000000,0.0000000,8.00,38.4065475,-110.7925339,1393.1999512,0.1,17.5,0.9,0.0,0.0,824,130,0,0,860.44,21.74,18.03,# data time:13030,pm2.5:6.445,pm10:5.704,O2:0.000,NO2:0.000,SO2:0.000,NH3:5.536
11:40:49,0,0,0,0,0,0,0,0,0,0,0,514,0,0,0,0,0.0000000,0.0000000,0.0000000,0.0000000,8.00,38.4065475,-110.7925339,1393.1999512,0.1,17.5,0.9,0.0,0.0,823,127,0,0,860.41,21.73,17.93,# data time:13040,pm2.5:6.445,pm10:5.704,O2:0.000,NO2:0.000,S
11:40:50,0,0,0,0,0,0,0,0,0,0,0,514,0,0,0,0,0.0000000,0.0000000,0.0000000,0.0000000,8.00,38.4065475,-110.7925339,1393.3000488,0.2,17.5,0.9,0.0,0.0,823,124,0,0,860.47,21.71,18.02,# data time:13040,pm2.5:6.445,pm10:5.704,O2:0.000,NO2:0.000,S
11:40:51,0,0,0,0,0,0,0,0,0,0,0,514,0,0,0,0,0.0000000,0.0000000,0.0000000,0.0000000,8.00,38.4065514,-110.7925339,1393.3000488,0.2,17.5,0.9,0.0,0.0,824,129,0,0,860.43,21.70,18.02,# data time:13040,pm2.5:6.445,pm10:5.704,O2:0.000,NO2:0.000,S
11:40:52,0,0,0,0,0,0,0,0,0,0,0,514,0,0,0,0,0.0000000,0.0000000,0.0000000,0.0000000,8.00,38.4065514,-110.7925339,1393.4000244,0.2,17.5,0.9,0.0,0.0,824,128,0,0,860.43,21.70,18.02,# data time:13040,pm2.5:6.445,pm10:5.704,O2:0.000,NO2:0.000,S
11:40:53,0,0,0,0,0,0,0,0,0,0,0,514,0,0,0,0,0.0000000,0.0000000,0.0000000,0.0000000,8.00,38.4065514,-110.7925339,1393.4000244,0.2,17.5,0.9,0.0,0.0,823,127,0,0,860.46,21.70,18.02,# data time:13040,pm2.5:6.445,pm10:5.704,O2:0.000,NO2:0.000,S
11:40:54,0,0,0,0,0,0,0,0,0,0,0,514,0,0,0,0,0.0000000,0.0000000,0.0000000,0.0000000,8.00,38.4065552,-110.7925339,1393.5000000,0.2,17.5,0.9,0.0,0.0,823,123,0,0,860.43,21.71,18.03,# data time:13040,pm2.5:6.445,pm10:5.704,O2:0.000,NO2:0.000,S
11:40:55,0,0,0,0,0,0,0,0,0,0,0,514,0,0,0,0,0.0000000,0.0000000,0.0000000,0.0000000,8.00,38.4065552,-110.7925339,1393.5000000,0.2,17.5,0.9,0.0,0.0,824,125,0,0,860.37,21.71,17.93,# data time:13040,pm2.5:6.445,pm10:5.704,O2:0.000,NO2:0.000,S
11:40:56,0,0,0,0,0,0,0,0,0,0,0,514,0,0,0,0,0.0000000,0.0000000,0.0000000,0.0000000,8.00,38.4065552,-110.7925339,1393.5000000,0.2,17.5,0.9,0.0,0.0,823,127,0,0,860.41,21.73,17.93,# data time:13040,pm2.5:6.445,pm10:5.704,O2:0.000,NO2:0.000,S
11:40:57,0,0,0,0,0,0,0,0,0,0,0,513,0,0,0,0,0.0000000,0.0000000,0.0000000,0.0000000,8.00,38.4065552,-110.7925339,1393.5999756,0.2,17.5,0.9,0.0,0.0,823,128,0,0,860.42,21.73,17.93,# data time:13040,pm2.5:6.445,pm10:5.704,O2:0.000,NO2:0.000,S
11:40:58,0,0,0,0,0,0,0,0,0,0,0,514,0,0,0,0,0.0000000,0.0000000,0.0000000,0.0000000,8.00,38.4065552,-110.7925491,1393.5999756,0.2,17.5,0.9,0.0,0.0,823,123,0,0,860.36,21.70,17.93,# data time:13050,pm2.5:6.445,pm10:5.704,O2:0.000,NO2:0.000,S
11:40:59,0,0,0,0,0,0,0,0,0,0,0,514,0,0,0,0,0.0000000,0.0000000,0.0000000,0.0000000,8.00,38.4065590,-110.7925491,1393.6999512,0.2,17.5,0.9,0.0,0.0,824,127,0,0,860.46,21.68,17.98,# data time:13050,pm2.5:6.445,pm10:5.704,O2:0.000,NO2:0.000,S
11:41:00,0,0,0,0,0,0,0,0,0,0,0,514,0,0,0,0,0.0000000,0.0000000,0.0000000,0.0000000,8.00,38.4065628,-110.7925491,1393.6999512,0.2,17.5,0.9,0.0,0.0,823,123,0,0,860.42,21.68,18.02,# data time:13050,pm2.5:6.445,pm10:5.704,O2:0.000,NO2:0.000,S
11:41:01,0,0,0,0,0,0,0,0,0,0,0,514,0,0,0,0,0.0000000,0.0000000,0.0000000,0.0000000,8.00,38.4065628,-110.7925491,1393.8000488,0.2,17.5,0.9,0.0,0.0,823,126,0,0,860.43,21.70,18.02,# data time:13050,pm2.5:6.445,pm10:5.704,O2:0.000,NO2:0.000,S
11:41:02,0,0,0,0,0,0,0,0,0,0,0,515,0,0,0,0,0.0000000,0.0000000,0.0000000,0.0000000,8.00,38.4065628,-110.7925491,1393.8000488,0.2,17.5,0.9,0.0,0.0,823,127,0,0,860.43,21.70,18.02,# data time:13050,pm2.5:6.445,pm10:5.704,O2:0.000,NO2:0.000,S
11:41:03,0,0,0,0,0,0,0,0,0,0,0,514,0,0,0,0,0.0000000,0.0000000,0.0000000,0.0000000,8.00,38.4065666,-110.7925491,1393.8000488,0.2,17.5,0.9,0.0,0.0,824,127,0,0,860.46,21.67,18.02,# data time:13050,pm2.5:6.445,pm10:5.704,O2:0.000,NO2:0.000,S
11:41:04,0,0,0,0,0,0,0,0,0,0,0,514,0,0,0,0,0.0000000,0.0000000,0.0000000,0.0000000,8.00,38.4065666,-110.7925491,1393.9000244,0.2,17.5,0.9,0.0,0.0,823,128,0,0,860.42,21.67,18.03,# data time:13050,pm2.5:6.445,pm10:5.704,O2:0.000,NO2:0.000,S
11:41:05,0,0,0,0,0,0,0,0,0,0,0,515,0,0,0,0,0.0000000,0.0000000,0.0000000,0.0000000,8.00,38.4065666,-110.7925491,1393.9000244,0.2,17.5,0.9,0.0,0.0,823,127,0,0,860.43,21.67,18.02,# data time:13050,pm2.5:6.445,pm10:5.704,O2:0.000,NO2:0.000,S
11:41:07,0,0,0,0,0,0,0,0,0,0,0,514,0,0,0,0,0.0000000,0.0000000,0.0000000,0.0000000,8.00,38.4065704,-110.7925491,1393.9000244,0.2,17.5,0.9,0.0,0.0,824,129,0,0,860.46,21.65,18.02,# data time:13050,pm2.5:6.445,pm10:5.704,O2:0.000,NO2:0.000,S
11:41:08,0,0,0,0,0,0,0,0,0,0,0,514,0,0,0,0,0.0000000,0.0000000,0.0000000,0.0000000,8.00,38.4065704,-110.7925491,1394.0000000,0.2,17.5,0.9,0.0,0.0,824,127,0,0,860.48,21.65,18.01,# data time:13050,pm2.5:6.445,pm10:5.704,O2:0.000,NO2:0.000,S
11:41:09,0,0,0,0,0,0,0,0,0,0,0,514,0,0,0,0,0.0000000,0.0000000,0.0000000,0.0000000,8.00,38.4065704,-110.7925491,1394.0000000,0.2,17.5,0.9,0.0,0.0,824,130,0,0,860.39,21.64,17.92,# data time:13060,pm2.5:6.445,pm10:5.704,O2:0.000,NO2:0.000,SO26
11:41:10,0,0,0,0,0,0,0,0,0,0,0,514,0,0,0,0,0.0000000,0.0000000,0.0000000,0.0000000,8.00,38.4065704,-110.7925491,1394.0999756,0.2,17.5,0.9,0.0,0.0,823,125,0,0,860.47,21.67,18.00,# data time:13060,pm2.5:6.445,pm10:5.704,O2:0.000,NO2:0.000,SO26
11:41:11,0,0,0,0,0,0,0,0,0,0,0,515,0,0,0,0,0.0000000,0.0000000,0.0000000,0.0000000,8.00,38.4065742,-110.7925491,1394.0999756,0.2,17.5,0.9,0.0,0.0,823,127,0,0,860.48,21.64,18.01,# data time:13060,pm2.5:6.445,pm10:5.704,O2:0.000,NO2:0.000,SO26
11:41:12,0,0,0,0,0,0,0,0,0,0,0,514,0,0,0,0,0.0000000,0.0000000,0.0000000,0.0000000,8.00,38.4065742,-110.7925491,1394.0999756,0.2,17.5,0.9,0.0,0.0,823,118,0,0,860.47,21.62,18.01,# data time:13060,pm2.5:6.445,pm10:5.704,O2:0.000,NO2:0.000,SO26
11:41:13,0,0,0,0,0,0,0,0,0,0,0,514,0,0,0,0,0.0000000,0.0000000,0.0000000,0.0000000,8.00,38.4065742,-110.7925491,1394.1999512,0.2,17.5,0.9,0.0,0.0,824,128,0,0,860.46,21.61,18.01,# data time:13060,pm2.5:6.445,pm10:5.704,O2:0.000,NO2:0.000,SO26
11:41:14,0,0,0,0,0,0,0,0,0,0,0,514,0,0,0,0,0.0000000,0.0000000,0.0000000,0.0000000,8.00,38.4065742,-110.7925491,1394.1999512,0.2,17.5,0.9,0.0,0.0,823,126,0,0,860.44,21.64,18.01,# data time:13060,pm2.5:6.445,pm10:5.704,O2:0.000,NO2:0.000,SO26
11:41:15,0,0,0,0,0,0,0,0,0,0,0,514,0,0,0,0,0.0000000,0.0000000,0.0000000,0.0000000,8.00,38.4065742,-110.7925491,1394.3000488,0.2,17.5,0.9,0.0,0.0,823,129,0,0,860.42,21.64,18.02,# data time:13060,pm2.5:6.445,pm10:5.704,O2:0.000,NO2:0.000,SO26
11:41:16,0,0,0,0,0,0,0,0,0,0,0,514,0,0,0,0,0.0000000,0.0000000,0.0000000,0.0000000,8.00,38.4065781,-110.7925491,1394.3000488,0.2,17.5,0.9,0.0,0.0,823,127,0,0,860.43,21.64,18.01,# data time:13060,pm2.5:6.445,pm10:5.704,O2:0.000,NO2:0.000,SO26
11:41:17,0,0,0,0,0,0,0,0,0,0,0,514,0,0,0,0,0.0000000,0.0000000,0.0000000,0.0000000,8.00,38.4065781,-110.7925491,1394.3000488,0.2,17.5,0.9,0.0,0.0,824,128,0,0,860.46,21.61,18.02,# data time:13060,pm2.5:6.445,pm10:5.704,O2:0.000,NO2:0.000,SO26
11:41:18,0,0,0,0,0,0,0,0,0,0,0,514,0,0,0,0,0.0000000,0.0000000,0.0000000,0.0000000,8.00,38.4065781,-110.7925491,1394.4000244,0.2,17.5,0.9,0.0,0.0,823,129,0,0,860.41,21.62,18.02,# data time:13060,pm2.5:6.445,pm10:5.704,O2:0.000,NO2:0.000,SO26
11:41:19,0,0,0,0,0,0,0,0,0,0,0,514,0,0,0,0,0.0000000,0.0000000,0.0000000,0.0000000,8.00,38.4065781,-110.7925491,1394.4000244,0.2,17.5,0.9,0.0,0.0,823,128,0,0,860.39,21.59,17.92,# data time:13070,pm2.5:6.445,pm10:5.704,O2:0.000,NO2:0.000,SO2:0.000,NH3:5.536
11:41:20,0,0,0,0,0,0,0,0,0,0,0,514,0,0,0,0,0.0000000,0.0000000,0.0000000,0.0000000,8.00,38.4065819,-110.7925491,1394.5000000,0.2,17.5,0.9,0.0,0.0,824,127,0,0,860.44,21.62,17.97,# data time:13070,pm2.5:6.445,pm10:5.704,O2:0.000,NO2:0.000,SO2:0.000,NH3:5.536
11:41:21,0,0,0,0,0,0,0,0,0,0,0,514,0,0,0,0,0.0000000,0.0000000,0.0000000,0.0000000,8.00,38.4065819,-110.7925491,1394.5000000,0.2,17.5,0.9,0.0,0.0,824,129,0,0,860.40,21.61,18.02,# data time:13070,pm2.5:6.445,pm10:5.704,O2:0.000,NO2:0.000,SO2:0.000,NH3:5.536
11:41:22,0,0,0,0,0,0,0,0,0,0,0,514,0,0,0,0,0.0000000,0.0000000,0.0000000,0.0000000,8.00,38.4065857,-110.7925491,1394.5000000,0.2,17.5,0.9,0.0,0.0,824,127,0,0,860.44,21.62,18.02,# data time:13070,pm2.5:6.445,pm10:5.704,O2:0.000,NO2:0.000,SO2:0.000,NH3:5.536
11:41:23,0,0,0,0,0,0,0,0,0,0,0,514,0,0,0,0,0.0000000,0.0000000,0.0000000,0.0000000,8.00,38.4065857,-110.7925491,1394.5999756,0.2,17.5,0.9,0.0,0.0,823,129,0,0,860.40,21.61,18.02,# data time:13070,pm2.5:6.445,pm10:5.704,O2:0.000,NO2:0.000,SO2:0.000,NH3:5.536
11:41:24,0,0,0,0,0,0,0,0,0,0,0,514,0,0,0,0,0.0000000,0.0000000,0.0000000,0.0000000,8.00,38.4065857,-110.7925491,1394.5999756,0.2,17.5,0.9,0.0,0.0,823,128,0,0,860.44,21.62,18.02,# data time:13070,pm2.5:6.445,pm10:5.704,O2:0.000,NO2:0.000,SO2:0.000,NH3:5.536
11:41:25,0,0,0,0,0,0,0,0,0,0,0,514,0,0,0,0,0.0000000,0.0000000,0.0000000,0.0000000,8.00,38.4065895,-110.7925491,1394.5999756,0.2,17.5,0.9,0.0,0.0,823,128,0,0,860.45,21.58,18.02,# data time:13070,pm2.5:6.445,pm10:5.704,O2:0.000,NO2:0.000,SO2:0.000,NH3:5.536
11:41:26,0,0,0,0,0,0,0,0,0,0,0,515,0,0,0,0,0.0000000,0.0000000,0.0000000,0.0000000,8.00,38.4065895,-110.7925491,1394.6999512,0.2,17.5,0.9,0.0,0.0,824,127,0,0,860.42,21.58,18.02,# data time:13070,pm2.5:6.445,pm10:5.704,O2:0.000,NO2:0.000,SO2:0.000,NH3:5.536
11:41:27,0,0,0,0,0,0,0,0,0,0,0,515,0,0,0,0,0.0000000,0.0000000,0.0000000,0.0000000,8.00,38.4065895,-110.7925491,1394.6999512,0.2,17.5,0.9,0.0,0.0,823,127,0,0,860.43,21.58,18.02,# data time:13070,pm2.5:6.445,pm10:5.704,O2:0.000,NO2:0.000,SO2:0.000,NH3:5.536
11:41:28,0,0,0,0,0,0,0,0,0,0,0,515,0,0,0,0,0.0000000,0.0000000,0.0000000,0.0000000,8.00,38.4065895,-110.7925491,1394.8000488,0.2,17.5,0.9,0.0,0.0,823,127,0,0,860.45,21.58,18.02,# data time:13070,pm2.5:6.445,pm10:5.704,O2:0.000,NO2:0.000,SO2:0.000,NH3:5.536
11:41:29,0,0,0,0,0,0,0,0,0,0,0,514,0,0,0,0,0.0000000,0.0000000,0.0000000,0.0000000,8.00,38.4065895,-110.7925491,1394.8000488,0.2,17.5,0.9,0.0,0.0,824,129,0,0,860.42,21.56,17.92,# data time:13080,pm2.5:6.445,pm10:5.704,O2:0.000,NO2:0.000,SO2:0.000,NH3:5.536
11:41:30,0,0,0,0,0,0,0,0,0,0,0,514,0,0,0,0,0.0000000,0.0000000,0.0000000,0.0000000,8.00,38.4065933,-110.7925491,1394.8000488,0.2,17.5,0.9,0.0,0.0,823,127,0,0,860.45,21.55,18.01,# data time:13080,pm2.5:6.445,pm10:5.704,O2:0.000,NO2:0.000,SO2:0.000,NH3:5.536
11:41:31,0,0,0,0,0,0,0,0,0,0,0,514,0,0,0,0,0.0000000,0.0000000,0.0000000,0.0000000,8.00,38.4065933,-110.7925644,1394.9000244,0.2,17.5,0.9,0.0,0.0,823,126,0,0,860.40,21.55,18.02,# data time:13080,pm2.5:6.445,pm10:5.704,O2:0.000,NO2:0.000,SO2:0.000,NH3:5.536
11:41:32,0,0,0,0,0,0,0,0,0,0,0,514,0,0,0,0,0.0000000,0.0000000,0.0000000,0.0000000,8.00,38.4065933,-110.7925644,1394.9000244,0.2,17.5,0.9,0.0,0.0,823,124,0,0,860.39,21.53,18.02,# data time:13080,pm2.5:6.445,pm10:5.704,O2:0.000,NO2:0.000,SO2:0.000,NH3:5.536
11:41:33,0,0,0,0,0,0,0,0,0,0,0,514,0,0,0,0,0.0000000,0.0000000,0.0000000,0.0000000,8.00,38.4065933,-110.7925644,1395.0000000,0.2,17.5,0.9,0.0,0.0,823,128,0,0,860.41,21.52,18.02,# data time:13080,pm2.5:6.445,pm10:5.704,O2:0.000,NO2:0.000,SO2:0.000,NH3:5.536
11:41:34,0,0,0,0,0,0,0,0,0,0,0,514,0,0,0,0,0.0000000,0.0000000,0.0000000,0.0000000,7.00,38.4065933,-110.7925644,1395.0000000,0.1,17.5,1.0,0.0,0.0,823,125,0,0,860.40,21.53,18.01,# data time:13080,pm2.5:6.445,pm10:5.704,O2:0.000,NO2:0.000,SO2:0.000,NH3:5.536
11:41:35,0,0,0,0,0,0,0,0,0,0,0,515,0,0,0,0,0.0000000,0.0000000,0.0000000,0.0000000,8.00,38.4065933,-110.7925644,1395.0000000,0.1,17.5,0.9,0.0,0.0,823,132,0,0,860.46,21.55,18.01,# data time:13080,pm2.5:6.445,pm10:5.704,O2:0.000,NO2:0.000,SO2:0.000,NH3:5.536
11:41:36,0,0,0,0,0,0,0,0,0,0,0,514,0,0,0,0,0.0000000,0.0000000,0.0000000,0.0000000,8.00,38.4065971,-110.7925644,1395.0999756,0.1,17.5,0.9,0.0,0.0,823,128,0,0,860.41,21.55,18.01,# data time:13080,pm2.5:6.445,pm10:5.704,O2:0.000,NO2:0.000,SO2:0.000,NH3:5.536
11:41:37,0,0,0,0,0,0,0,0,0,0,0,514,0,0,0,0,0.0000000,0.0000000,0.0000000,0.0000000,7.00,38.4065971,-110.7925644,1395.0999756,0.1,17.5,1.0,0.0,0.0,823,127,0,0,860.43,21.56,18.01,# data time:13080,pm2.5:6.445,pm10:5.704,O2:0.000,NO2:0.000,SO2:0.000,NH3:5.536
11:41:38,0,0,0,0,0,0,0,0,0,0,0,514,0,0,0,0,0.0000000,0.0000000,0.0000000,0.0000000,8.00,38.4065971,-110.7925644,1395.1999512,0.1,17.5,0.9,0.0,0.0,823,128,0,0,860.45,21.56,18.01,# data time:13080,pm2.5:6.445,pm10:5.704,O2:0.000,NO2:0.000,SO2:0.000,NH3:5.536
11:41:39,0,0,0,0,0,0,0,0,0,0,0,515,0,0,0,0,0.0000000,0.0000000,0.0000000,0.0000000,8.00,38.4065971,-110.7925644,1395.1999512,0.1,17.5,0.9,0.0,0.0,823,127,0,0,860.36,21.55,17.91,# data time:13090,pm2.5:6.445,pm10:5.704,O2:0.000,NO2:0.000,SO2:0.000,NH3:5.536
11:41:40,0,0,0,0,0,0,0,0,0,0,0,514,0,0,0,0,0.0000000,0.0000000,0.0000000,0.0000000,8.00,38.4066010,-110.7925644,1395.1999512,0.1,17.5,0.9,0.0,0.0,823,128,0,0,860.41,21.58,17.96,# data time:13090,pm2.5:6.445,pm10:5.704,O2:0.000,NO2:0.000,SO2:0.000,NH3:5.536
11:41:41,0,0,0,0,0,0,0,0,0,0,0,515,0,0,0,0,0.0000000,0.0000000,0.0000000,0.0000000,8.00,38.4066010,-110.7925644,1395.3000488,0.0,17.5,0.9,0.0,0.0,823,127,0,0,860.41,21.58,18.00,# data time:13090,pm2.5:6.445,pm10:5.704,O2:0.000,NO2:0.000,SO2:0.000,NH3:5.536
11:41:42,0,0,0,0,0,0,0,0,0,0,0,514,0,0,0,0,0.0000000,0.0000000,0.0000000,0.0000000,8.00,38.4066010,-110.7925644,1395.3000488,0.0,17.5,0.9,0.0,0.0,823,127,0,0,860.46,21.55,18.01,# data time:13090,pm2.5:6.445,pm10:5.704,O2:0.000,NO2:0.000,SO2:0.000,NH3:5.536
11:41:43,0,0,0,0,0,0,0,0,0,0,0,514,0,0,0,0,0.0000000,0.0000000,0.0000000,0.0000000,8.00,38.4066010,-110.7925644,1395.4000244,0.0,17.5,0.9,0.0,0.0,823,127,0,0,860.41,21.53,18.01,# data time:13090,pm2.5:6.445,pm10:5.704,O2:0.000,NO2:0.000,SO2:0.000,NH3:5.536
11:41:44,0,0,0,0,0,0,0,0,0,0,0,514,0,0,0,0,0.0000000,0.0000000,0.0000000,0.0000000,8.00,38.4066048,-110.7925644,1395.4000244,0.0,17.5,0.9,0.0,0.0,824,125,0,0,860.41,21.53,18.01,# data time:13090,pm2.5:6.445,pm10:5.704,O2:0.000,NO2:0.000,SO2:0.000,NH3:5.536
11:41:45,0,0,0,0,0,0,0,0,0,0,0,514,0,0,0,0,0.0000000,0.0000000,0.0000000,0.0000000,8.00,38.4066048,-110.7925644,1395.4000244,0.1,17.5,0.9,0.0,0.0,823,128,0,0,860.45,21.48,18.01,# data time:13090,pm2.5:6.445,pm10:5.704,O2:0.000,NO2:0.000,SO2:0.000,NH3:5.536
11:41:46,0,0,0,0,0,0,0,0,0,0,0,515,0,0,0,0,0.0000000,0.0000000,0.0000000,0.0000000,8.00,38.4066048,-110.7925644,1395.5000000,0.1,17.5,0.9,0.0,0.0,823,129,0,0,860.48,21.47,18.01,# data time:13090,pm2.5:6.445,pm10:5.704,O2:0.000,NO2:0.000,SO2:0.000,NH3:5.536
11:41:47,0,0,0,0,0,0,0,0,0,0,0,514,0,0,0,0,0.0000000,0.0000000,0.0000000,0.0000000,8.00,38.4066048,-110.7925644,1395.5000000,0.1,17.5,0.9,0.0,0.0,823,123,0,0,860.43,21.48,18.01,# data time:13090,pm2.5:6.445,pm10:5.704,O2:0.000,NO2:0.000,SO2:0.000,NH3:5.536
11:41:48,0,0,0,0,0,0,0,0,0,0,0,514,0,0,0,0,0.0000000,0.0000000,0.0000000,0.0000000,8.00,38.4066048,-110.7925644,1395.5999756,0.1,17.5,0.9,0.0,0.0,822,126,0,0,860.45,21.48,18.02,# data time:13090,pm2.5:6.445,pm10:5.704,O2:0.000,NO2:0.000,SO2:0.000,NH3:5.536
11:41:49,0,0,0,0,0,0,0,0,0,0,0,514,0,0,0,0,0.0000000,0.0000000,0.0000000,0.0000000,8.00,38.4066048,-110.7925644,1395.5999756,0.1,17.5,0.9,0.0,0.0,823,127,0,0,860.42,21.50,17.91,# data time:13100,pm2.5:6.445,pm10:5.704,O2:0.000,NO2:0.000,SO2:0.000,NH3:5.309
11:41:50,0,0,0,0,0,0,0,0,0,0,0,514,0,0,0,0,0.0000000,0.0000000,0.0000000,0.0000000,8.00,38.4066048,-110.7925644,1395.5999756,0.1,17.5,0.9,0.0,0.0,823,126,0,0,860.38,21.47,17.96,# data time:13100,pm2.5:6.445,pm10:5.704,O2:0.000,NO2:0.000,SO2:0.000,NH3:5.309
11:41:51,0,0,0,0,0,0,0,0,0,0,0,514,0,0,0,0,0.0000000,0.0000000,0.0000000,0.0000000,8.00,38.4066048,-110.7925644,1395.6999512,0.1,17.5,0.9,0.0,0.0,822,129,0,0,860.40,21.48,17.92,# data time:13100,pm2.5:6.445,pm10:5.704,O2:0.000,NO2:0.000,SO2:0.000,NH3:5.309
11:41:52,0,0,0,0,0,0,0,0,0,0,0,513,0,0,0,0,0.0000000,0.0000000,0.0000000,0.0000000,8.00,38.4066086,-110.7925644,1395.6999512,0.0,17.5,0.9,0.0,0.0,823,127,0,0,860.39,21.48,17.91,# data time:13100,pm2.5:6.445,pm10:5.704,O2:0.000,NO2:0.000,SO2:0.000,NH3:5.309
11:41:53,0,0,0,0,0,0,0,0,0,0,0,514,0,0,0,0,0.0000000,0.0000000,0.0000000,0.0000000,7.00,38.4066086,-110.7925644,1395.8000488,0.0,17.5,1.0,0.0,0.0,823,133,0,0,860.45,21.50,17.97,# data time:13100,pm2.5:6.445,pm10:5.704,O2:0.000,NO2:0.000,SO2:0.000,NH3:5.309
11:41:54,0,0,0,0,0,0,0,0,0,0,0,514,0,0,0,0,0.0000000,0.0000000,0.0000000,0.0000000,7.00,38.4066086,-110.7925644,1395.8000488,0.0,17.5,1.0,0.0,0.0,823,126,0,0,860.42,21.52,17.91,# data time:13100,pm2.5:6.445,pm10:5.704,O2:0.000,NO2:0.000,SO2:0.000,NH3:5.309
11:41:55,0,0,0,0,0,0,0,0,0,0,0,514,0,0,0,0,0.0000000,0.0000000,0.0000000,0.0000000,8.00,38.4066086,-110.7925644,1395.9000244,0.0,17.5,0.9,0.0,0.0,823,126,0,0,860.43,21.50,17.96,# data time:13100,pm2.5:6.445,pm10:5.704,O2:0.000,NO2:0.000,SO2:0.000,NH3:5.309
11:41:56,0,0,0,0,0,0,0,0,0,0,0,514,0,0,0,0,0.0000000,0.0000000,0.0000000,0.0000000,8.00,38.4066086,-110.7925644,1395.9000244,0.1,17.5,0.9,0.0,0.0,823,129,0,0,860.43,21.47,18.02,# data time:13100,pm2.5:6.445,pm10:5.704,O2:0.000,NO2:0.000,SO2:0.000,NH3:5.309
11:41:57,0,0,0,0,0,0,0,0,0,0,0,514,0,0,0,0,0.0000000,0.0000000,0.0000000,0.0000000,7.00,38.4066086,-110.7925644,1396.0000000,0.1,17.5,1.0,0.0,0.0,823,127,0,0,860.44,21.48,18.02,# data time:13100,pm2.5:6.445,pm10:5.704,O2:0.000,NO2:0.000,SO2:0.000,NH3:5.309
11:41:58,0,0,0,0,0,0,0,0,0,0,0,514,0,0,0,0,0.0000000,0.0000000,0.0000000,0.0000000,7.00,38.4066086,-110.7925644,1396.0000000,0.1,17.5,1.0,0.0,0.0,823,130,0,0,860.44,21.50,17.93,# data time:13110,pm2.5:5.640,pm10:4.991,O2:0.000,NO2:0.000,SO2:0.000,NH3:5.536
11:41:59,0,0,0,0,0,0,0,0,0,0,0,514,0,0,0,0,0.0000000,0.0000000,0.0000000,0.0000000,8.00,38.4066086,-110.7925644,1396.0000000,0.1,17.5,0.9,0.0,0.0,822,128,0,0,860.43,21.52,17.97,# data time:13110,pm2.5:5.640,pm10:4.991,O2:0.000,NO2:0.000,SO2:0.000,NH3:5.536
11:42:00,0,0,0,0,0,0,0,0,0,0,0,514,0,0,0,0,0.0000000,0.0000000,0.0000000,0.0000000,8.00,38.4066086,-110.7925644,1396.0999756,0.1,17.5,0.9,0.0,0.0,823,128,0,0,860.44,21.50,18.00,# data time:13110,pm2.5:5.640,pm10:4.991,O2:0.000,NO2:0.000,SO2:0.000,NH3:5.536
11:42:01,0,0,0,0,0,0,0,0,0,0,0,514,0,0,0,0,0.0000000,0.0000000,0.0000000,0.0000000,7.00,38.4066086,-110.7925644,1396.0999756,0.1,17.5,1.0,0.0,0.0,823,127,0,0,860.43,21.47,18.01,# data time:13110,pm2.5:5.640,pm10:4.991,O2:0.000,NO2:0.000,SO2:0.000,NH3:5.536
11:42:02,0,0,0,0,0,0,0,0,0,0,0,514,0,0,0,0,0.0000000,0.0000000,0.0000000,0.0000000,7.00,38.4066124,-110.7925644,1396.0999756,0.1,17.5,1.0,0.0,0.0,823,129,0,0,860.45,21.45,18.01,# data time:13110,pm2.5:5.640,pm10:4.991,O2:0.000,NO2:0.000,SO2:0.000,NH3:5.536
11:42:04,0,0,0,0,0,0,0,0,0,0,0,514,0,0,0,0,0.0000000,0.0000000,0.0000000,0.0000000,7.00,38.4066124,-110.7925644,1396.1999512,0.0,17.5,1.0,0.0,0.0,823,127,0,0,860.46,21.45,18.01,# data time:13110,pm2.5:5.640,pm10:4.991,O2:0.000,NO2:0.000,SO2:0.000,NH3:5.536
11:42:05,0,0,0,0,0,0,0,0,0,0,0,514,0,0,0,0,0.0000000,0.0000000,0.0000000,0.0000000,7.00,38.4066124,-110.7925491,1396.1999512,0.0,17.5,1.0,0.0,0.0,823,126,0,0,860.45,21.48,18.01,# data time:13110,pm2.5:5.640,pm10:4.991,O2:0.000,NO2:0.000,SO2:0.000,NH3:5.536
11:42:06,0,0,0,0,0,0,0,0,0,0,0,515,0,0,0,0,0.0000000,0.0000000,0.0000000,0.0000000,7.00,38.4066124,-110.7925491,1396.3000488,0.0,17.5,1.0,0.0,0.0,823,126,0,0,860.45,21.48,18.01,# data time:13110,pm2.5:5.640,pm10:4.991,O2:0.000,NO2:0.000,SO2:0.000,NH3:5.536
11:42:07,0,0,0,0,0,0,0,0,0,0,0,514,0,0,0,0,0.0000000,0.0000000,0.0000000,0.0000000,7.00,38.4066124,-110.7925491,1396.3000488,0.0,17.5,1.0,0.0,0.0,823,129,0,0,860.48,21.48,18.01,# data time:13110,pm2.5:5.640,pm10:4.991,O2:0.000,NO2:0.000,SO2:0.000,NH3:5.536
11:42:08,0,0,0,0,0,0,0,0,0,0,0,514,0,0,0,0,0.0000000,0.0000000,0.0000000,0.0000000,8.00,38.4066124,-110.7925491,1396.3000488,0.0,17.5,0.9,0.0,0.0,823,129,0,0,860.44,21.50,18.01,# data time:13110,pm2.5:5.640,pm10:4.991,O2:0.000,NO2:0.000,SO2:0.000,NH3:5.536
11:42:09,0,0,0,0,0,0,0,0,0,0,0,514,0,0,0,0,0.0000000,0.0000000,0.0000000,0.0000000,8.00,38.4066124,-110.7925491,1396.3000488,0.0,17.5,0.9,0.0,0.0,823,132,0,0,860.42,21.52,17.92,# data time:13120,pm2.5:6.445,pm10:5.704,O2:0.000,NO2:0.000,SO23:5.536
11:42:10,0,0,0,0,0,0,0,0,0,0,0,514,0,0,0,0,0.0000000,0.0000000,0.0000000,0.0000000,8.00,38.4066124,-110.7925491,1396.4000244,0.1,17.5,0.9,0.0,0.0,823,125,0,0,860.50,21.50,18.00,# data time:13120,pm2.5:6.445,pm10:5.704,O2:0.000,NO2:0.000,SO23:5.536
11:42:11,0,0,0,0,0,0,0,0,0,0,0,514,0,0,0,0,0.0000000,0.0000000,0.0000000,0.0000000,8.00,38.4066124,-110.7925491,1396.4000244,0.1,17.5,0.9,0.0,0.0,823,125,0,0,860.47,21.52,18.00,# data time:13120,pm2.5:6.445,pm10:5.704,O2:0.000,NO2:0.000,SO23:5.536
11:42:12,0,0,0,0,0,0,0,0,0,0,0,514,0,0,0,0,0.0000000,0.0000000,0.0000000,0.0000000,8.00,38.4066124,-110.7925491,1396.5000000,0.1,17.5,0.9,0.0,0.0,823,127,0,0,860.43,21.52,18.00,# data time:13120,pm2.5:6.445,pm10:5.704,O2:0.000,NO2:0.000,SO23:5.536
11:42:13,0,0,0,0,0,0,0,0,0,0,0,514,0,0,0,0,0.0000000,0.0000000,0.0000000,0.0000000,8.00,38.4066124,-110.7925491,1396.5000000,0.1,17.5,0.9,0.0,0.0,822,127,0,0,860.43,21.52,18.00,# data time:13120,pm2.5:6.445,pm10:5.704,O2:0.000,NO2:0.000,SO23:5.536
11:42:14,0,0,0,0,0,0,0,0,0,0,0,514,0,0,0,0,0.0000000,0.0000000,0.0000000,0.0000000,7.00,38.4066124,-110.7925491,1396.5999756,0.1,17.5,1.0,0.0,0.0,823,128,0,0,860.45,21.48,18.01,# data time:13120,pm2.5:6.445,pm10:5.704,O2:0.000,NO2:0.000,SO23:5.536
11:42:15,0,0,0,0,0,0,0,0,0,0,0,513,0,0,0,0,0.0000000,0.0000000,0.0000000,0.0000000,7.00,38.4066162,-110.7925491,1396.5999756,0.1,17.5,1.0,0.0,0.0,823,128,0,0,860.42,21.50,18.01,# data time:13120,pm2.5:6.445,pm10:5.704,O2:0.000,NO2:0.000,SO23:5.536
11:42:16,0,0,0,0,0,0,0,0,0,0,0,514,0,0,0,0,0.0000000,0.0000000,0.0000000,0.0000000,7.00,38.4066162,-110.7925491,1396.5999756,0.0,17.5,1.0,0.0,0.0,823,129,0,0,860.47,21.52,18.01,# data time:13120,pm2.5:6.445,pm10:5.704,O2:0.000,NO2:0.000,SO23:5.536
11:42:17,0,0,0,0,0,0,0,0,0,0,0,514,0,0,0,0,0.0000000,0.0000000,0.0000000,0.0000000,8.00,38.4066162,-110.7925491,1396.6999512,0.0,17.5,0.9,0.0,0.0,823,129,0,0,860.42,21.52,18.01,# data time:13120,pm2.5:6.445,pm10:5.704,O2:0.000,NO2:0.000,SO23:5.536
11:42:18,0,0,0,0,0,0,0,0,0,0,0,514,0,0,0,0,0.0000000,0.0000000,0.0000000,0.0000000,7.00,38.4066162,-110.7925491,1396.6999512,0.0,17.5,1.0,0.0,0.0,823,129,0,0,860.50,21.48,18.01,# data time:13120,pm2.5:6.445,pm10:5.704,O2:0.000,NO2:0.000,SO23:5.536
11:42:19,0,0,0,0,0,0,0,0,0,0,0,514,0,0,0,0,0.0000000,0.0000000,0.0000000,0.0000000,7.00,38.4066162,-110.7925491,1396.6999512,0.0,17.5,1.0,0.0,0.0,823,132,0,0,860.36,21.48,17.92,# data time:13130,pm2.5:5.640,pm10:4.991,O2:0.000,NO2:0.000,SO2:0.000,NH3:5.309
11:42:20,0,0,0,0,0,0,0,0,0,0,0,514,0,0,0,0,0.0000000,0.0000000,0.0000000,0.0000000,7.00,38.4066162,-110.7925491,1396.8000488,0.0,17.5,1.0,0.0,0.0,822,126,0,0,860.42,21.48,17.96,# data time:13130,pm2.5:5.640,pm10:4.991,O2:0.000,NO2:0.000,SO2:0.000,NH3:5.309
11:42:21,0,0,0,0,0,0,0,0,0,0,0,514,0,0,0,0,0.0000000,0.0000000,0.0000000,0.0000000,8.00,38.4066162,-110.7925491,1396.8000488,0.1,17.5,0.9,0.0,0.0,823,128,0,0,860.43,21.45,18.01,# data time:13130,pm2.5:5.640,pm10:4.991,O2:0.000,NO2:0.000,SO2:0.000,NH3:5.309
11:42:22,0,0,0,0,0,0,0,0,0,0,0,515,0,0,0,0,0.0000000,0.0000000,0.0000000,0.0000000,8.00,38.4066162,-110.7925491,1396.8000488,0.0,17.5,0.9,0.0,0.0,822,128,0,0,860.41,21.47,18.01,# data time:13130,pm2.5:5.640,pm10:4.991,O2:0.000,NO2:0.000,SO2:0.000,NH3:5.309
11:42:23,0,0,0,0,0,0,0,0,0,0,0,515,0,0,0,0,0.0000000,0.0000000,0.0000000,0.0000000,8.00,38.4066162,-110.7925491,1396.9000244,0.1,17.5,0.9,0.0,0.0,822,127,0,0,860.41,21.47,18.01,# data time:13130,pm2.5:5.640,pm10:4.991,O2:0.000,NO2:0.000,SO2:0.000,NH3:5.309
11:42:24,0,0,0,0,0,0,0,0,0,0,0,514,0,0,0,0,0.0000000,0.0000000,0.0000000,0.0000000,8.00,38.4066162,-110.7925491,1396.9000244,0.1,17.5,0.9,0.0,0.0,823,128,0,0,860.43,21.45,18.01,# data time:13130,pm2.5:5.640,pm10:4.991,O2:0.000,NO2:0.000,SO2:0.000,NH3:5.309
11:42:25,0,0,0,0,0,0,0,0,0,0,0,514,0,0,0,0,0.0000000,0.0000000,0.0000000,0.0000000,8.00,38.4066162,-110.7925491,1396.9000244,0.1,17.5,0.9,0.0,0.0,823,124,0,0,860.45,21.45,18.01,# data time:13130,pm2.5:5.640,pm10:4.991,O2:0.000,NO2:0.000,SO2:0.000,NH3:5.309
11:42:26,0,0,0,0,0,0,0,0,0,0,0,515,0,0,0,0,0.0000000,0.0000000,0.0000000,0.0000000,8.00,38.4066162,-110.7925491,1397.0000000,0.1,17.5,0.9,0.0,0.0,823,126,0,0,860.44,21.47,18.02,# data time:13130,pm2.5:5.640,pm10:4.991,O2:0.000,NO2:0.000,SO2:0.000,NH3:5.309
11:42:27,0,0,0,0,0,0,0,0,0,0,0,514,0,0,0,0,0.0000000,0.0000000,0.0000000,0.0000000,8.00,38.4066162,-110.7925491,1397.0000000,0.1,17.5,0.9,0.0,0.0,823,127,0,0,860.42,21.48,18.02,# data time:13130,pm2.5:5.640,pm10:4.991,O2:0.000,NO2:0.000,SO2:0.000,NH3:5.309
11:42:28,0,0,0,0,0,0,0,0,0,0,0,514,0,0,0,0,0.0000000,0.0000000,0.0000000,0.0000000,8.00,38.4066162,-110.7925491,1397.0000000,0.0,17.5,0.9,0.0,0.0,822,127,0,0,860.42,21.48,18.02,# data time:13130,pm2.5:5.640,pm10:4.991,O2:0.000,NO2:0.000,SO2:0.000,NH3:5.309
11:42:29,0,0,0,0,0,0,0,0,0,0,0,514,0,0,0,0,0.0000000,0.0000000,0.0000000,0.0000000,8.00,38.4066162,-110.7925491,1397.0000000,0.0,17.5,0.9,0.0,0.0,823,126,0,0,860.36,21.47,17.92,# data time:13140,pm2.5:6.445,pm10:5.704,O2:0.000,NO2:0.000,SO2:0.000,NH3:5.309
11:42:30,0,0,0,0,0,0,0,0,0,0,0,514,0,0,0,0,0.0000000,0.0000000,0.0000000,0.0000000,8.00,38.4066162,-110.7925491,1397.0999756,0.0,17.5,0.9,0.0,0.0,823,126,0,0,860.47,21.48,18.02,# data time:13140,pm2.5:6.445,pm10:5.704,O2:0.000,NO2:0.000,SO2:0.000,NH3:5.309
11:42:31,0,0,0,0,0,0,0,0,0,0,0,515,0,0,0,0,0.0000000,0.0000000,0.0000000,0.0000000,8.00,38.4066162,-110.7925491,1397.0999756,0.0,17.5,0.9,0.0,0.0,823,127,0,0,860.45,21.44,18.02,# data time:13140,pm2.5:6.445,pm10:5.704,O2:0.000,NO2:0.000,SO2:0.000,NH3:5.309
11:42:32,0,0,0,0,0,0,0,0,0,0,0,514,0,0,0,0,0.0000000,0.0000000,0.0000000,0.0000000,8.00,38.4066162,-110.7925491,1397.1999512,0.0,17.5,0.9,0.0,0.0,823,127,0,0,860.42,21.48,18.02,# data time:13140,pm2.5:6.445,pm10:5.704,O2:0.000,NO2:0.000,SO2:0.000,NH3:5.309
11:42:33,0,0,0,0,0,0,0,0,0,0,0,514,0,0,0,0,0.0000000,0.0000000,0.0000000,0.0000000,8.00,38.4066162,-110.7925491,1397.1999512,0.0,17.5,0.9,0.0,0.0,823,128,0,0,860.47,21.45,18.02,# data time:13140,pm2.5:6.445,pm10:5.704,O2:0.000,NO2:0.000,SO2:0.000,NH3:5.309
11:42:34,0,0,0,0,0,0,0,0,0,0,0,514,0,0,0,0,0.0000000,0.0000000,0.0000000,0.0000000,8.00,38.4066162,-110.7925491,1397.1999512,0.1,17.5,0.9,0.0,0.0,822,127,0,0,860.41,21.44,18.02,# data time:13140,pm2.5:6.445,pm10:5.704,O2:0.000,NO2:0.000,SO2:0.000,NH3:5.309
11:42:35,0,0,0,0,0,0,0,0,0,0,0,514,0,0,0,0,0.0000000,0.0000000,0.0000000,0.0000000,8.00,38.4066162,-110.7925491,1397.3000488,0.1,17.5,0.9,0.0,0.0,822,129,0,0,860.42,21.44,18.02,# data time:13140,pm2.5:6.445,pm10:5.704,O2:0.000,NO2:0.000,SO2:0.000,NH3:5.309
11:42:36,0,0,0,0,0,0,0,0,0,0,0,514,0,0,0,0,0.0000000,0.0000000,0.0000000,0.0000000,8.00,38.4066162,-110.7925491,1397.3000488,0.1,17.5,0.9,0.0,0.0,822,127,0,0,860.40,21.45,18.02,# data time:13140,pm2.5:6.445,pm10:5.704,O2:0.000,NO2:0.000,SO2:0.000,NH3:5.309
11:42:37,0,0,0,0,0,0,0,0,0,0,0,514,0,0,0,0,0.0000000,0.0000000,0.0000000,0.0000000,8.00,38.4066162,-110.7925491,1397.3000488,0.1,17.5,0.9,0.0,0.0,823,128,0,0,860.42,21.45,18.02,# data time:13140,pm2.5:6.445,pm10:5.704,O2:0.000,NO2:0.000,SO2:0.000,NH3:5.309
11:42:38,0,0,0,0,0,0,0,0,0,0,0,514,0,0,0,0,0.0000000,0.0000000,0.0000000,0.0000000,8.00,38.4066162,-110.7925491,1397.3000488,0.1,17.5,0.9,0.0,0.0,823,126,0,0,860.44,21.44,18.02,# data time:13140,pm2.5:6.445,pm10:5.704,O2:0.000,NO2:0.000,SO2:0.000,NH3:5.309
11:42:39,0,0,0,0,0,0,0,0,0,0,0,514,0,0,0,0,0.0000000,0.0000000,0.0000000,0.0000000,8.00,38.4066162,-110.7925491,1397.3000488,0.1,17.5,0.9,0.0,0.0,822,121,0,0,860.36,21.42,17.92,# data time:13150,pm2.5:6.445,pm10:5.704,O2:0.000,NO2:0.000,S
11:42:40,0,0,0,0,0,0,0,0,0,0,0,514,0,0,0,0,0.0000000,0.0000000,0.0000000,0.0000000,8.00,38.4066200,-110.7925491,1397.4000244,0.0,17.5,0.9,0.0,0.0,823,128,0,0,860.40,21.44,18.01,# data time:13150,pm2.5:6.445,pm10:5.704,O2:0.000,NO2:0.000,S
11:42:41,0,0,0,0,0,0,0,0,0,0,0,514,0,0,0,0,0.0000000,0.0000000,0.0000000,0.0000000,8.00,38.4066200,-110.7925491,1397.4000244,0.0,17.5,0.9,0.0,0.0,822,127,0,0,860.44,21.44,18.02,# data time:13150,pm2.5:6.445,pm10:5.704,O2:0.000,NO2:0.000,S
11:42:42,0,0,0,0,0,0,0,0,0,0,0,514,0,0,0,0,0.0000000,0.0000000,0.0000000,0.0000000,8.00,38.4066200,-110.7925491,1397.5000000,0.0,17.5,0.9,0.0,0.0,823,127,0,0,860.43,21.45,18.01,# data time:13150,pm2.5:6.445,pm10:5.704,O2:0.000,NO2:0.000,S
11:42:43,0,0,0,0,0,0,0,0,0,0,0,514,0,0,0,0,0.0000000,0.0000000,0.0000000,0.0000000,8.00,38.4066200,-110.7925491,1397.5000000,0.0,17.5,0.9,0.0,0.0,823,130,0,0,860.40,21.45,18.02,# data time:13150,pm2.5:6.445,pm10:5.704,O2:0.000,NO2:0.000,S
11:42:44,0,0,0,0,0,0,0,0,0,0,0,514,0,0,0,0,0.0000000,0.0000000,0.0000000,0.0000000,8.00,38.4066200,-110.7925491,1397.5000000,0.0,17.5,0.9,0.0,0.0,823,127,0,0,860.47,21.47,18.02,# data time:13150,pm2.5:6.445,pm10:5.704,O2:0.000,NO2:0.000,S
11:42:45,0,0,0,0,0,0,0,0,0,0,0,514,0,0,0,0,0.0000000,0.0000000,0.0000000,0.0000000,8.00,38.4066200,-110.7925491,1397.5999756,0.0,17.5,0.9,0.0,0.0,823,130,0,0,860.47,21.47,18.02,# data time:13150,pm2.5:6.445,pm10:5.704,O2:0.000,NO2:0.000,S
11:42:46,0,0,0,0,0,0,0,0,0,0,0,514,0,0,0,0,0.0000000,0.0000000,0.0000000,0.0000000,8.00,38.4066200,-110.7925491,1397.5999756,0.1,17.5,0.9,0.0,0.0,823,128,0,0,860.44,21.44,18.02,# data time:13150,pm2.5:6.445,pm10:5.704,O2:0.000,NO2:0.000,S
11:42:47,0,0,0,0,0,0,0,0,0,0,0,514,0,0,0,0,0.0000000,0.0000000,0.0000000,0.0000000,8.00,38.4066200,-110.7925491,1397.5999756,0.1,17.5,0.9,0.0,0.0,823,126,0,0,860.43,21.50,18.03,# data time:13150,pm2.5:6.445,pm10:5.704,O2:0.000,NO2:0.000,S
11:42:48,0,0,0,0,0,0,0,0,0,0,0,514,0,0,0,0,0.0000000,0.0000000,0.0000000,0.0000000,8.00,38.4066200,-110.7925491,1397.6999512,0.1,17.5,0.9,0.0,0.0,822,126,0,0,860.45,21.47,18.02,# data time:13150,pm2.5:6.445,pm10:5.704,O2:0.000,NO2:0.000,S
11:42:49,0,0,0,0,0,0,0,0,0,0,0,513,0,0,0,0,0.0000000,0.0000000,0.0000000,0.0000000,8.00,38.4066200,-110.7925491,1397.6999512,0.1,17.5,0.9,0.0,0.0,823,127,0,0,860.42,21.45,17.93,# data time:13160,pm2.5:6.445,pm10:5.704,O2:0.000,NO2:0.000,SO2:0.000,NH3:5.536
11:42:50,0,0,0,0,0,0,0,0,0,0,0,514,0,0,0,0,0.0000000,0.0000000,0.0000000,0.0000000,8.00,38.4066238,-110.7925491,1397.6999512,0.1,17.5,0.9,0.0,0.0,823,128,0,0,860.42,21.48,17.93,# data time:13160,pm2.5:6.445,pm10:5.704,O2:0.000,NO2:0.000,SO2:0.000,NH3:5.536
11:42:51,0,0,0,0,0,0,0,0,0,0,0,513,0,0,0,0,0.0000000,0.0000000,0.0000000,0.0000000,8.00,38.4066238,-110.7925491,1397.6999512,0.1,17.5,0.9,0.0,0.0,823,129,0,0,860.40,21.47,17.92,# data time:13160,pm2.5:6.445,pm10:5.704,O2:0.000,NO2:0.000,SO2:0.000,NH3:5.536
11:42:52,0,0,0,0,0,0,0,0,0,0,0,514,0,0,0,0,0.0000000,0.0000000,0.0000000,0.0000000,8.00,38.4066238,-110.7925491,1397.8000488,0.1,17.5,0.9,0.0,0.0,823,127,0,0,860.43,21.48,17.93,# data time:13160,pm2.5:6.445,pm10:5.704,O2:0.000,NO2:0.000,SO2:0.000,NH3:5.536
11:42:53,0,0,0,0,0,0,0,0,0,0,0,514,0,0,0,0,0.0000000,0.0000000,0.0000000,0.0000000,8.00,38.4066238,-110.7925491,1397.9000244,0.0,17.5,0.9,0.0,0.0,823,116,0,0,860.46,21.47,17.98,# data time:13160,pm2.5:6.445,pm10:5.704,O2:0.000,NO2:0.000,SO2:0.000,NH3:5.536
11:42:54,0,0,0,0,0,0,0,0,0,0,0,514,0,0,0,0,0.0000000,0.0000000,0.0000000,0.0000000,8.00,38.4066238,-110.7925491,1397.9000244,0.0,17.5,0.9,0.0,0.0,822,132,0,0,860.43,21.45,18.02,# data time:13160,pm2.5:6.445,pm10:5.704,O2:0.000,NO2:0.000,SO2:0.000,NH3:5.536
11:42:55,0,0,0,0,0,0,0,0,0,0,0,514,0,0,0,0,0.0000000,0.0000000,0.0000000,0.0000000,8.00,38.4066238,-110.7925491,1397.9000244,0.0,17.5,0.9,0.0,0.0,823,128,0,0,860.44,21.48,18.02,# data time:13160,pm2.5:6.445,pm10:5.704,O2:0.000,NO2:0.000,SO2:0.000,NH3:5.536
11:42:56,0,0,0,0,0,0,0,0,0,0,0,514,0,0,0,0,0.0000000,0.0000000,0.0000000,0.0000000,8.00,38.4066238,-110.7925491,1398.0000000,0.1,17.5,0.9,0.0,0.0,823,128,0,0,860.45,21.50,18.02,# data time:13160,pm2.5:6.445,pm10:5.704,O2:0.000,NO2:0.000,SO2:0.000,NH3:5.536
11:42:57,0,0,0,0,0,0,0,0,0,0,0,514,0,0,0,0,0.0000000,0.0000000,0.0000000,0.0000000,8.00,38.4066238,-110.7925491,1398.0000000,0.0,17.5,0.9,0.0,0.0,822,125,0,0,860.44,21.47,18.03,# data time:13160,pm2.5:6.445,pm10:5.704,O2:0.000,NO2:0.000,SO2:0.000,NH3:5.536
11:42:58,0,0,0,0,0,0,0,0,0,0,0,514,0,0,0,0,0.0000000,0.0000000,0.0000000,0.0000000,8.00,38.4066238,-110.7925491,1398.0000000,0.0,17.5,0.9,0.0,0.0,823,125,0,0,860.40,21.52,17.93,# data time:13170,pm2.5:6.445,pm10:5.704,O2:0.000,NO2:0.000,SO2:0.000,NH3:5.309
11:42:59,0,0,0,0,0,0,0,0,0,0,0,514,0,0,0,0,0.0000000,0.0000000,0.0000000,0.0000000,8.00,38.4066238,-110.7925491,1398.0999756,0.1,17.5,0.9,0.0,0.0,822,127,0,0,860.40,21.47,18.02,# data time:13170,pm2.5:6.445,pm10:5.704,O2:0.000,NO2:0.000,SO2:0.000,NH3:5.309
11:43:00,0,0,0,0,0,0,0,0,0,0,0,516,0,0,0,0,0.0000000,0.0000000,0.0000000,0.0000000,8.00,38.4066238,-110.7925491,1398.0999756,0.1,17.5,0.9,0.0,0.0,822,127,0,0,860.45,21.45,18.02,# data time:13170,pm2.5:6.445,pm10:5.704,O2:0.000,NO2:0.000,SO2:0.000,NH3:5.309
11:43:02,0,0,0,0,0,0,0,0,0,0,0,514,0,0,0,0,0.0000000,0.0000000,0.0000000,0.0000000,8.00,38.4066238,-110.7925491,1398.0999756,0.1,17.5,0.9,0.0,0.0,822,127,0,0,860.43,21.44,18.03,# data time:13170,pm2.5:6.445,pm10:5.704,O2:0.000,NO2:0.000,SO2:0.000,NH3:5.309
11:43:03,0,0,0,0,0,0,0,0,0,0,0,514,0,0,0,0,0.0000000,0.0000000,0.0000000,0.0000000,8.00,38.4066238,-110.7925491,1398.1999512,0.1,17.5,0.9,0.0,0.0,822,129,0,0,860.44,21.48,18.02,# data time:13170,pm2.5:6.445,pm10:5.704,O2:0.000,NO2:0.000,SO2:0.000,NH3:5.309
11:43:04,0,0,0,0,0,0,0,0,0,0,0,514,0,0,0,0,0.0000000,0.0000000,0.0000000,0.0000000,8.00,38.4066238,-110.7925491,1398.1999512,0.0,17.5,0.9,0.0,0.0,822,128,0,0,860.44,21.47,18.03,# data time:13170,pm2.5:6.445,pm10:5.704,O2:0.000,NO2:0.000,SO2:0.000,NH3:5.309
11:43:05,0,0,0,0,0,0,0,0,0,0,0,514,0,0,0,0,0.0000000,0.0000000,0.0000000,0.0000000,8.00,38.4066238,-110.7925491,1398.1999512,0.0,17.5,0.9,0.0,0.0,823,130,0,0,860.43,21.45,18.03,# data time:13170,pm2.5:6.445,pm10:5.704,O2:0.000,NO2:0.000,SO2:0.000,NH3:5.309
11:43:06,0,0,0,0,0,0,0,0,0,0,0,514,0,0,0,0,0.0000000,0.0000000,0.0000000,0.0000000,8.00,38.4066238,-110.7925491,1398.3000488,0.0,17.5,0.9,0.0,0.0,823,124,0,0,860.46,21.47,18.03,# data time:13170,pm2.5:6.445,pm10:5.704,O2:0.000,NO2:0.000,SO2:0.000,NH3:5.309
11:43:07,0,0,0,0,0,0,0,0,0,0,0,515,0,0,0,0,0.0000000,0.0000000,0.0000000,0.0000000,8.00,38.4066238,-110.7925491,1398.3000488,0.0,17.5,0.9,0.0,0.0,823,129,0,0,860.46,21.47,18.03,# data time:13170,pm2.5:6.445,pm10:5.704,O2:0.000,NO2:0.000,SO2:0.000,NH3:5.309
11:43:08,0,0,0,0,0,0,0,0,0,0,0,514,0,0,0,0,0.0000000,0.0000000,0.0000000,0.0000000,8.00,38.4066277,-110.7925491,1398.3000488,0.0,17.5,0.9,0.0,0.0,822,125,0,0,860.38,21.48,18.03,# data time:13170,pm2.5:6.445,pm10:5.704,O2:0.000,NO2:0.000,SO2:0.000,NH3:5.309
11:43:09,0,0,0,0,0,0,0,0,0,0,0,514,0,0,0,0,0.0000000,0.0000000,0.0000000,0.0000000,8.00,38.4066277,-110.7925491,1398.3000488,0.0,17.5,0.9,0.0,0.0,821,127,0,0,860.40,21.47,17.93,# data time:13180,pm2.5:6.445,pm10:5.704,O2:0.000,NO2:0.000,SO2:0.000,NH3:5.536
11:43:10,0,0,0,0,0,0,0,0,0,0,0,514,0,0,0,0,0.0000000,0.0000000,0.0000000,0.0000000,8.00,38.4066277,-110.7925491,1398.4000244,0.1,17.5,0.9,0.0,0.0,822,125,0,0,860.46,21.41,18.02,# data time:13180,pm2.5:6.445,pm10:5.704,O2:0.000,NO2:0.000,SO2:0.000,NH3:5.536
11:43:11,0,0,0,0,0,0,0,0,0,0,0,515,0,0,0,0,0.0000000,0.0000000,0.0000000,0.0000000,8.00,38.4066277,-110.7925491,1398.4000244,0.1,17.5,0.9,0.0,0.0,823,125,0,0,860.45,21.42,18.02,# data time:13180,pm2.5:6.445,pm10:5.704,O2:0.000,NO2:0.000,SO2:0.000,NH3:5.536
11:43:12,0,0,0,0,0,0,0,0,0,0,0,514,0,0,0,0,0.0000000,0.0000000,0.0000000,0.0000000,8.00,38.4066277,-110.7925491,1398.4000244,0.1,17.5,0.9,0.0,0.0,822,126,0,0,860.40,21.41,18.02,# data time:13180,pm2.5:6.445,pm10:5.704,O2:0.000,NO2:0.000,SO2:0.000,NH3:5.536
11:43:13,0,0,0,0,0,0,0,0,0,0,0,513,0,0,0,0,0.0000000,0.0000000,0.0000000,0.0000000,8.00,38.4066277,-110.7925491,1398.5000000,0.1,17.5,0.9,0.0,0.0,822,128,0,0,860.47,21.41,18.03,# data time:13180,pm2.5:6.445,pm10:5.704,O2:0.000,NO2:0.000,SO2:0.000,NH3:5.536
11:43:14,0,0,0,0,0,0,0,0,0,0,0,514,0,0,0,0,0.0000000,0.0000000,0.0000000,0.0000000,8.00,38.4066277,-110.7925491,1398.5000000,0.1,17.5,0.9,0.0,0.0,822,122,0,0,860.42,21.42,18.03,# data time:13180,pm2.5:6.445,pm10:5.704,O2:0.000,NO2:0.000,SO2:0.000,NH3:5.536
11:43:15,0,0,0,0,0,0,0,0,0,0,0,514,0,0,0,0,0.0000000,0.0000000,0.0000000,0.0000000,8.00,38.4066277,-110.7925491,1398.5000000,0.1,17.5,0.9,0.0,0.0,823,126,0,0,860.41,21.41,18.03,# data time:13180,pm2.5:6.445,pm10:5.704,O2:0.000,NO2:0.000,SO2:0.000,NH3:5.536
11:43:16,0,0,0,0,0,0,0,0,0,0,0,514,0,0,0,0,0.0000000,0.0000000,0.0000000,0.0000000,8.00,38.4066277,-110.7925491,1398.5999756,0.1,17.5,0.9,0.0,0.0,822,127,0,0,860.42,21.42,18.02,# data time:13180,pm2.5:6.445,pm10:5.704,O2:0.000,NO2:0.000,SO2:0.000,NH3:5.536
11:43:17,0,0,0,0,0,0,0,0,0,0,0,514,0,0,0,0,0.0000000,0.0000000,0.0000000,0.0000000,8.00,38.4066277,-110.7925491,1398.5999756,0.0,17.5,0.9,0.0,0.0,822,126,0,0,860.39,21.42,18.03,# data time:13180,pm2.5:6.445,pm10:5.704,O2:0.000,NO2:0.000,SO2:0.000,NH3:5.536
11:43:18,0,0,0,0,0,0,0,0,0,0,0,514,0,0,0,0,0.0000000,0.0000000,0.0000000,0.0000000,8.00,38.4066277,-110.7925491,1398.5999756,0.0,17.5,0.9,0.0,0.0,822,128,0,0,860.44,21.44,18.03,# data time:13180,pm2.5:6.445,pm10:5.704,O2:0.000,NO2:0.000,SO2:0.000,NH3:5.536
11:43:19,0,0,0,0,0,0,0,0,0,0,0,514,0,0,0,0,0.0000000,0.0000000,0.0000000,0.0000000,8.00,38.4066277,-110.7925491,1398.5999756,0.0,17.5,0.9,0.0,0.0,822,129,0,0,860.41,21.41,17.93,# data time:13190,pm2.5:6.445,pm10:5.704,O2:0.000,NO2:0.000,SO2:0.000,NH3:5.309
11:43:20,0,0,0,0,0,0,0,0,0,0,0,514,0,0,0,0,0.0000000,0.0000000,0.0000000,0.0000000,8.00,38.4066277,-110.7925491,1398.6999512,0.0,17.5,0.9,0.0,0.0,823,127,0,0,860.49,21.42,18.02,# data time:13190,pm2.5:6.445,pm10:5.704,O2:0.000,NO2:0.000,SO2:0.000,NH3:5.309
11:43:21,0,0,0,0,0,0,0,0,0,0,0,514,0,0,0,0,0.0000000,0.0000000,0.0000000,0.0000000,8.00,38.4066315,-110.7925491,1398.6999512,0.0,17.5,0.9,0.0,0.0,822,129,0,0,860.43,21.42,18.03,# data time:13190,pm2.5:6.445,pm10:5.704,O2:0.000,NO2:0.000,SO2:0.000,NH3:5.309
11:43:22,0,0,0,0,0,0,0,0,0,0,0,514,0,0,0,0,0.0000000,0.0000000,0.0000000,0.0000000,8.00,38.4066315,-110.7925491,1398.8000488,0.0,17.5,0.9,0.0,0.0,822,125,0,0,860.46,21.41,18.03,# data time:13190,pm2.5:6.445,pm10:5.704,O2:0.000,NO2:0.000,SO2:0.000,NH3:5.309
11:43:23,0,0,0,0,0,0,0,0,0,0,0,514,0,0,0,0,0.0000000,0.0000000,0.0000000,0.0000000,8.00,38.4066315,-110.7925491,1398.8000488,0.1,17.5,0.9,0.0,0.0,822,127,0,0,860.42,21.42,18.03,# data time:13190,pm2.5:6.445,pm10:5.704,O2:0.000,NO2:0.000,SO2:0.000,NH3:5.309
11:43:24,0,0,0,0,0,0,0,0,0,0,0,514,0,0,0,0,0.0000000,0.0000000,0.0000000,0.0000000,8.00,38.4066315,-110.7925491,1398.8000488,0.1,17.5,0.9,0.0,0.0,822,127,0,0,860.42,21.42,18.03,# data time:13190,pm2.5:6.445,pm10:5.704,O2:0.000,NO2:0.000,SO2:0.000,NH3:5.309
11:43:25,0,0,0,0,0,0,0,0,0,0,0,515,0,0,0,0,0.0000000,0.0000000,0.0000000,0.0000000,8.00,38.4066315,-110.7925491,1398.9000244,0.1,17.5,0.9,0.0,0.0,823,125,0,0,860.45,21.44,18.03,# data time:13190,pm2.5:6.445,pm10:5.704,O2:0.000,NO2:0.000,SO2:0.000,NH3:5.309
11:43:26,0,0,0,0,0,0,0,0,0,0,0,513,0,0,0,0,0.0000000,0.0000000,0.0000000,0.0000000,8.00,38.4066315,-110.7925491,1398.9000244,0.1,17.5,0.9,0.0,0.0,822,126,0,0,860.45,21.44,18.03,# data time:13190,pm2.5:6.445,pm10:5.704,O2:0.000,NO2:0.000,SO2:0.000,NH3:5.309
11:43:27,0,0,0,0,0,0,0,0,0,0,0,514,0,0,0,0,0.0000000,0.0000000,0.0000000,0.0000000,8.00,38.4066315,-110.7925491,1398.9000244,0.0,17.5,0.9,0.0,0.0,823,129,0,0,860.47,21.42,18.03,# data time:13190,pm2.5:6.445,pm10:5.704,O2:0.000,NO2:0.000,SO2:0.000,NH3:5.309
11:43:28,0,0,0,0,0,0,0,0,0,0,0,514,0,0,0,0,0.0000000,0.0000000,0.0000000,0.0000000,8.00,38.4066315,-110.7925491,1398.9000244,0.0,17.5,0.9,0.0,0.0,822,124,0,0,860.46,21.42,18.04,# data time:13190,pm2.5:6.445,pm10:5.704,O2:0.000,NO2:0.000,SO2:0.000,NH3:5.309
11:43:29,0,0,0,0,0,0,0,0,0,0,0,514,0,0,0,0,0.0000000,0.0000000,0.0000000,0.0000000,8.00,38.4066315,-110.7925491,1398.9000244,0.0,17.5,0.9,0.0,0.0,822,127,0,0,860.39,21.39,17.94,# data time:13200,pm2.5:6.445,pm10:5.704,O2:0.000,NO2:0.000,SO2:0.000,NH3:5.309
11:43:30,0,0,0,0,0,0,0,0,0,0,0,514,0,0,0,0,0.0000000,0.0000000,0.0000000,0.0000000,8.00,38.4066315,-110.7925491,1399.0000000,0.0,17.5,0.9,0.0,0.0,822,129,0,0,860.46,21.42,18.03,# data time:13200,pm2.5:6.445,pm10:5.704,O2:0.000,NO2:0.000,SO2:0.000,NH3:5.309
11:43:31,0,0,0,0,0,0,0,0,0,0,0,514,0,0,0,0,0.0000000,0.0000000,0.0000000,0.0000000,8.00,38.4066315,-110.7925491,1399.0000000,0.0,17.5,0.9,0.0,0.0,822,125,0,0,860.47,21.45,18.04,# data time:13200,pm2.5:6.445,pm10:5.704,O2:0.000,NO2:0.000,SO2:0.000,NH3:5.309
11:43:32,0,0,0,0,0,0,0,0,0,0,0,514,0,0,0,0,0.0000000,0.0000000,0.0000000,0.0000000,8.00,38.4066315,-110.7925491,1399.0999756,0.0,17.5,0.9,0.0,0.0,822,130,0,0,860.47,21.45,18.04,# data time:13200,pm2.5:6.445,pm10:5.704,O2:0.000,NO2:0.000,SO2:0.000,NH3:5.309
11:43:33,0,0,0,0,0,0,0,0,0,0,0,515,0,0,0,0,0.0000000,0.0000000,0.0000000,0.0000000,8.00,38.4066315,-110.7925491,1399.0999756,0.1,17.5,0.9,0.0,0.0,822,127,0,0,860.44,21.45,18.04,# data time:13200,pm2.5:6.445,pm10:5.704,O2:0.000,NO2:0.000,SO2:0.000,NH3:5.309
11:43:34,0,0,0,0,0,0,0,0,0,0,0,514,0,0,0,0,0.0000000,0.0000000,0.0000000,0.0000000,8.00,38.4066315,-110.7925491,1399.0999756,0.1,17.5,0.9,0.0,0.0,822,128,0,0,860.45,21.47,18.04,# data time:13200,pm2.5:6.445,pm10:5.704,O2:0.000,NO2:0.000,SO2:0.000,NH3:5.309
11:43:35,0,0,0,0,0,0,0,0,0,0,0,514,0,0,0,0,0.0000000,0.0000000,0.0000000,0.0000000,8.00,38.4066315,-110.7925491,1399.0999756,0.1,17.5,0.9,0.0,0.0,822,128,0,0,860.48,21.47,18.04,# data time:13200,pm2.5:6.445,pm10:5.704,O2:0.000,NO2:0.000,SO2:0.000,NH3:5.309
11:43:36,0,0,0,0,0,0,0,0,0,0,0,513,0,0,0,0,0.0000000,0.0000000,0.0000000,0.0000000,8.00,38.4066315,-110.7925491,1399.1999512,0.1,17.5,0.9,0.0,0.0,822,127,0,0,860.44,21.48,18.04,# data time:13200,pm2.5:6.445,pm10:5.704,O2:0.000,NO2:0.000,SO2:0.000,NH3:5.309
11:43:37,0,0,0,0,0,0,0,0,0,0,0,515,0,0,0,0,0.0000000,0.0000000,0.0000000,0.0000000,8.00,38.4066315,-110.7925491,1399.1999512,0.1,17.5,0.9,0.0,0.0,822,127,0,0,860.46,21.44,18.04,# data time:13200,pm2.5:6.445,pm10:5.704,O2:0.000,NO2:0.000,SO2:0.000,NH3:5.309
11:43:38,0,0,0,0,0,0,0,0,0,0,0,514,0,0,0,0,0.0000000,0.0000000,0.0000000,0.0000000,8.00,38.4066315,-110.7925491,1399.1999512,0.1,17.5,0.9,0.0,0.0,822,125,0,0,860.43,21.52,18.04,# data time:13200,pm2.5:6.445,pm10:5.704,O2:0.000,NO2:0.000,SO2:0.000,NH3:5.309
11:43:39,0,0,0,0,0,0,0,0,0,0,0,514,0,0,0,0,0.0000000,0.0000000,0.0000000,0.0000000,8.00,38.4066315,-110.7925491,1399.1999512,0.1,17.5,0.9,0.0,0.0,822,128,0,0,860.44,21.50,17.95,# data time:13210,pm2.5:6.445,pm10:5.704,O2:0.000,NO2:0.000,SO2:0.000,NH3:5.309
11:43:40,0,0,0,0,0,0,0,0,0,0,0,514,0,0,0,0,0.0000000,0.0000000,0.0000000,0.0000000,8.00,38.4066353,-110.7925491,1399.3000488,0.1,17.5,0.9,0.0,0.0,822,130,0,0,860.46,21.45,18.04,# data time:13210,pm2.5:6.445,pm10:5.704,O2:0.000,NO2:0.000,SO2:0.000,NH3:5.309
11:43:41,0,0,0,0,0,0,0,0,0,0,0,514,0,0,0,0,0.0000000,0.0000000,0.0000000,0.0000000,8.00,38.4066353,-110.7925491,1399.3000488,0.0,17.5,0.9,0.0,0.0,822,128,0,0,860.41,21.44,18.03,# data time:13210,pm2.5:6.445,pm10:5.704,O2:0.000,NO2:0.000,SO2:0.000,NH3:5.309
11:43:42,0,0,0,0,0,0,0,0,0,0,0,514,0,0,0,0,0.0000000,0.0000000,0.0000000,0.0000000,8.00,38.4066353,-110.7925491,1399.3000488,0.1,17.5,0.9,0.0,0.0,822,127,0,0,860.45,21.41,18.03,# data time:13210,pm2.5:6.445,pm10:5.704,O2:0.000,NO2:0.000,SO2:0.000,NH3:5.309
11:43:43,0,0,0,0,0,0,0,0,0,0,0,514,0,0,0,0,0.0000000,0.0000000,0.0000000,0.0000000,8.00,38.4066315,-110.7925491,1399.4000244,0.1,17.5,0.9,0.0,0.0,821,126,0,0,860.48,21.36,18.03,# data time:13210,pm2.5:6.445,pm10:5.704,O2:0.000,NO2:0.000,SO2:0.000,NH3:5.309
11:43:44,0,0,0,0,0,0,0,0,0,0,0,514,0,0,0,0,0.0000000,0.0000000,0.0000000,0.0000000,8.00,38.4066315,-110.7925491,1399.4000244,0.1,17.5,0.9,0.0,0.0,822,128,0,0,860.40,21.39,18.03,# data time:13210,pm2.5:6.445,pm10:5.704,O2:0.000,NO2:0.000,SO2:0.000,NH3:5.309
11:43:45,0,0,0,0,0,0,0,0,0,0,0,514,0,0,0,0,0.0000000,0.0000000,0.0000000,0.0000000,8.00,38.4066315,-110.7925491,1399.4000244,0.1,17.5,0.9,0.0,0.0,822,126,0,0,860.40,21.38,18.03,# data time:13210,pm2.5:6.445,pm10:5.704,O2:0.000,NO2:0.000,SO2:0.000,NH3:5.309
11:43:46,0,0,0,0,0,0,0,0,0,0,0,514,0,0,0,0,0.0000000,0.0000000,0.0000000,0.0000000,8.00,38.4066315,-110.7925491,1399.5000000,0.1,17.5,0.9,0.0,0.0,822,128,0,0,860.46,21.38,18.04,# data time:13210,pm2.5:6.445,pm10:5.704,O2:0.000,NO2:0.000,SO2:0.000,NH3:5.309
11:43:47,0,0,0,0,0,0,0,0,0,0,0,512,0,0,0,0,0.0000000,0.0000000,0.0000000,0.0000000,8.00,38.4066315,-110.7925491,1399.5000000,0.1,17.5,0.9,0.0,0.0,822,127,0,0,860.45,21.38,18.03,# data time:13210,pm2.5:6.445,pm10:5.704,O2:0.000,NO2:0.000,SO2:0.000,NH3:5.309
11:43:48,0,0,0,0,0,0,0,0,0,0,0,515,0,0,0,0,0.0000000,0.0000000,0.0000000,0.0000000,8.00,38.4066315,-110.7925491,1399.5000000,0.1,17.5,0.9,0.0,0.0,822,128,0,0,860.44,21.39,18.04,# data time:13220,pm2.5:6.445,pm10:5.704,O2:0.000,NO2:0.000,SO2:0.000,NH3:5.309
11:43:49,0,0,0,0,0,0,0,0,0,0,0,513,0,0,0,0,0.0000000,0.0000000,0.0000000,0.0000000,8.00,38.4066315,-110.7925491,1399.5000000,0.1,17.5,0.9,0.0,0.0,822,125,0,0,860.36,21.38,17.94,# data time:13220,pm2.5:6.445,pm10:5.704,O2:0.000,NO2:0.000,SO2:0.000,NH3:5.309
11:43:50,0,0,0,0,0,0,0,0,0,0,0,514,0,0,0,0,0.0000000,0.0000000,0.0000000,0.0000000,8.00,38.4066315,-110.7925491,1399.5000000,0.0,17.5,0.9,0.0,0.0,822,126,0,0,860.34,21.41,17.94,# data time:13220,pm2.5:6.445,pm10:5.704,O2:0.000,NO2:0.000,SO2:0.000,NH3:5.309
11:43:51,0,0,0,0,0,0,0,0,0,0,0,514,0,0,0,0,0.0000000,0.0000000,0.0000000,0.0000000,8.00,38.4066315,-110.7925491,1399.5999756,0.0,17.5,0.9,0.0,0.0,822,129,0,0,860.43,21.38,17.99,# data time:13220,pm2.5:6.445,pm10:5.704,O2:0.000,NO2:0.000,SO2:0.000,NH3:5.309
11:43:52,0,0,0,0,0,0,0,0,0,0,0,514,0,0,0,0,0.0000000,0.0000000,0.0000000,0.0000000,8.00,38.4066353,-110.7925491,1399.5999756,0.0,17.5,0.9,0.0,0.0,822,129,0,0,860.43,21.39,18.00,# data time:13220,pm2.5:6.445,pm10:5.704,O2:0.000,NO2:0.000,SO2:0.000,NH3:5.309
11:43:53,0,0,0,0,0,0,0,0,0,0,0,514,0,0,0,0,0.0000000,0.0000000,0.0000000,0.0000000,8.00,38.4066353,-110.7925491,1399.6999512,0.0,17.5,0.9,0.0,0.0,822,125,0,0,860.44,21.39,18.03,# data time:13220,pm2.5:6.445,pm10:5.704,O2:0.000,NO2:0.000,SO2:0.000,NH3:5.309
11:43:54,0,0,0,0,0,0,0,0,0,0,0,514,0,0,0,0,0.0000000,0.0000000,0.0000000,0.0000000,8.00,38.4066353,-110.7925491,1399.6999512,0.0,17.5,0.9,0.0,0.0,822,128,0,0,860.47,21.36,18.04,# data time:13220,pm2.5:6.445,pm10:5.704,O2:0.000,NO2:0.000,SO2:0.000,NH3:5.309
11:43:55,0,0,0,0,0,0,0,0,0,0,0,514,0,0,0,0,0.0000000,0.0000000,0.0000000,0.0000000,8.00,38.4066353,-110.7925491,1399.6999512,0.0,17.5,0.9,0.0,0.0,822,129,0,0,860.42,21.38,18.04,# data time:13220,pm2.5:6.445,pm10:5.704,O2:0.000,NO2:0.000,SO2:0.000,NH3:5.309
11:43:56,0,0,0,0,0,0,0,0,0,0,0,515,0,0,0,0,0.0000000,0.0000000,0.0000000,0.0000000,8.00,38.4066353,-110.7925491,1399.8000488,0.0,17.5,0.9,0.0,0.0,823,128,0,0,860.41,21.38,18.04,# data time:13220,pm2.5:6.445,pm10:5.704,O2:0.000,NO2:0.000,SO2:0.000,NH3:5.309
11:43:57,0,0,0,0,0,0,0,0,0,0,0,514,0,0,0,0,0.0000000,0.0000000,0.0000000,0.0000000,8.00,38.4066353,-110.7925339,1399.8000488,0.0,17.5,0.9,0.0,0.0,822,129,0,0,860.47,21.38,18.05,# data time:13220,pm2.5:6.445,pm10:5.704,O2:0.000,NO2:0.000,SO2:0.000,NH3:5.309
11:43:58,0,0,0,0,0,0,0,0,0,0,0,514,0,0,0,0,0.0000000,0.0000000,0.0000000,0.0000000,8.00,38.4066353,-110.7925339,1399.8000488,0.0,17.5,0.9,0.0,0.0,822,128,0,0,860.39,21.39,17.95,# data time:13230,pm2.5:6.445,pm10:5.704,O2:0.000,NO2:0.000,SO2:0.000,NH3:5.083
11:44:00,0,0,0,0,0,0,0,0,0,0,0,514,0,0,0,0,0.0000000,0.0000000,0.0000000,0.0000000,8.00,38.4066353,-110.7925339,1399.8000488,0.0,17.5,0.9,0.0,0.0,822,128,0,0,860.42,21.42,18.05,# data time:13230,pm2.5:6.445,pm10:5.704,O2:0.000,NO2:0.000,SO2:0.000,NH3:5.083
11:44:01,0,0,0,0,0,0,0,0,0,0,0,513,0,0,0,0,0.0000000,0.0000000,0.0000000,0.0000000,8.00,38.4066353,-110.7925339,1399.9000244,0.1,17.5,0.9,0.0,0.0,822,128,0,0,860.41,21.39,18.05,# data time:13230,pm2.5:6.445,pm10:5.704,O2:0.000,NO2:0.000,SO2:0.000,NH3:5.083
11:44:02,0,0,0,0,0,0,0,0,0,0,0,515,0,0,0,0,0.0000000,0.0000000,0.0000000,0.0000000,8.00,38.4066353,-110.7925339,1399.9000244,0.1,17.5,0.9,0.0,0.0,823,127,0,0,860.45,21.45,18.05,# data time:13230,pm2.5:6.445,pm10:5.704,O2:0.000,NO2:0.000,SO2:0.000,NH3:5.083
11:44:03,0,0,0,0,0,0,0,0,0,0,0,514,0,0,0,0,0.0000000,0.0000000,0.0000000,0.0000000,8.00,38.4066353,-110.7925339,1399.9000244,0.1,17.5,0.9,0.0,0.0,822,124,0,0,860.40,21.48,18.05,# data time:13230,pm2.5:6.445,pm10:5.704,O2:0.000,NO2:0.000,SO2:0.000,NH3:5.083
11:44:04,0,0,0,0,0,0,0,0,0,0,0,514,0,0,0,0,0.0000000,0.0000000,0.0000000,0.0000000,8.00,38.4066353,-110.7925339,1399.9000244,0.1,17.5,0.9,0.0,0.0,822,124,0,0,860.43,21.48,18.06,# data time:13230,pm2.5:6.445,pm10:5.704,O2:0.000,NO2:0.000,SO2:0.000,NH3:5.083
11:44:05,0,0,0,0,0,0,0,0,0,0,0,514,0,0,0,0,0.0000000,0.0000000,0.0000000,0.0000000,8.00,38.4066353,-110.7925339,1400.0000000,0.1,17.5,0.9,0.0,0.0,822,124,0,0,860.42,21.50,18.05,# data time:13230,pm2.5:6.445,pm10:5.704,O2:0.000,NO2:0.000,SO2:0.000,NH3:5.083
11:44:06,0,0,0,0,0,0,0,0,0,0,0,514,0,0,0,0,0.0000000,0.0000000,0.0000000,0.0000000,8.00,38.4066353,-110.7925339,1400.0000000,0.1,17.5,0.9,0.0,0.0,822,129,0,0,860.41,21.50,18.05,# data time:13230,pm2.5:6.445,pm10:5.704,O2:0.000,NO2:0.000,SO2:0.000,NH3:5.083
11:44:07,0,0,0,0,0,0,0,0,0,0,0,515,0,0,0,0,0.0000000,0.0000000,0.0000000,0.0000000,8.00,38.4066353,-110.7925339,1400.0000000,0.1,17.5,0.9,0.0,0.0,822,129,0,0,860.41,21.47,18.05,# data time:13230,pm2.5:6.445,pm10:5.704,O2:0.000,NO2:0.000,SO2:0.000,NH3:5.083
11:44:08,0,0,0,0,0,0,0,0,0,0,0,514,0,0,0,0,0.0000000,0.0000000,0.0000000,0.0000000,8.00,38.4066353,-110.7925339,1400.0000000,0.1,17.5,0.9,0.0,0.0,822,127,0,0,860.40,21.47,18.06,# data time:13230,pm2.5:6.445,pm10:5.704,O2:0.000,NO2:0.000,SO2:0.000,NH3:5.083
11:44:09,0,0,0,0,0,0,0,0,0,0,0,514,0,0,0,0,0.0000000,0.0000000,0.0000000,0.0000000,8.00,38.4066353,-110.7925339,1400.0000000,0.1,17.5,0.9,0.0,0.0,822,130,0,0,860.38,21.48,17.96,# data time:13240,pm2.5:6.445,pm10:5.704,O2:0.000,NO2:0.000,SO2:0.000,NH3:5.309
11:44:10,0,0,0,0,0,0,0,0,0,0,0,514,0,0,0,0,0.0000000,0.0000000,0.0000000,0.0000000,8.00,38.4066353,-110.7925339,1400.0999756,0.1,17.5,0.9,0.0,0.0,822,127,0,0,860.42,21.50,18.05,# data time:13240,pm2.5:6.445,pm10:5.704,O2:0.000,NO2:0.000,SO2:0.000,NH3:5.309
11:44:11,0,0,0,0,0,0,0,0,0,0,0,514,0,0,0,0,0.0000000,0.0000000,0.0000000,0.0000000,8.00,38.4066353,-110.7925339,1400.0999756,0.1,17.5,0.9,0.0,0.0,823,126,0,0,860.37,21.52,18.06,# data time:13240,pm2.5:6.445,pm10:5.704,O2:0.000,NO2:0.000,SO2:0.000,NH3:5.309
11:44:12,0,0,0,0,0,0,0,0,0,0,0,514,0,0,0,0,0.0000000,0.0000000,0.0000000,0.0000000,8.00,38.4066353,-110.7925339,1400.0999756,0.1,17.5,0.9,0.0,0.0,822,130,0,0,860.44,21.53,18.06,# data time:13240,pm2.5:6.445,pm10:5.704,O2:0.000,NO2:0.000,SO2:0.000,NH3:5.309
11:44:13,0,0,0,0,0,0,0,0,0,0,0,515,0,0,0,0,0.0000000,0.0000000,0.0000000,0.0000000,8.00,38.4066353,-110.7925339,1400.1999512,0.1,17.5,0.9,0.0,0.0,821,127,0,0,860.38,21.50,18.06,# data time:13240,pm2.5:6.445,pm10:5.704,O2:0.000,NO2:0.000,SO2:0.000,NH3:5.309
11:44:14,0,0,0,0,0,0,0,0,0,0,0,514,0,0,0,0,0.0000000,0.0000000,0.0000000,0.0000000,8.00,38.4066353,-110.7925339,1400.1999512,0.1,17.5,0.9,0.0,0.0,822,129,0,0,860.41,21.50,18.06,# data time:13240,pm2.5:6.445,pm10:5.704,O2:0.000,NO2:0.000,SO2:0.000,NH3:5.309
11:44:15,0,0,0,0,0,0,0,0,0,0,0,514,0,0,0,0,0.0000000,0.0000000,0.0000000,0.0000000,8.00,38.4066353,-110.7925339,1400.1999512,0.1,17.5,0.9,0.0,0.0,821,125,0,0,860.45,21.50,18.06,# data time:13240,pm2.5:6.445,pm10:5.704,O2:0.000,NO2:0.000,SO2:0.000,NH3:5.309
11:44:16,0,0,0,0,0,0,0,0,0,0,0,514,0,0,0,0,0.0000000,0.0000000,0.0000000,0.0000000,8.00,38.4066353,-110.7925339,1400.1999512,0.1,17.5,0.9,0.0,0.0,822,130,0,0,860.39,21.50,18.06,# data time:13240,pm2.5:6.445,pm10:5.704,O2:0.000,NO2:0.000,SO2:0.000,NH3:5.309
11:44:17,0,0,0,0,0,0,0,0,0,0,0,514,0,0,0,0,0.0000000,0.0000000,0.0000000,0.0000000,8.00,38.4066353,-110.7925339,1400.3000488,0.1,17.5,0.9,0.0,0.0,822,125,0,0,860.41,21.47,18.06,# data time:13240,pm2.5:6.445,pm10:5.704,O2:0.000,NO2:0.000,SO2:0.000,NH3:5.309
11:44:18,0,0,0,0,0,0,0,0,0,0,0,514,0,0,0,0,0.0000000,0.0000000,0.0000000,0.0000000,8.00,38.4066353,-110.7925339,1400.3000488,0.1,17.5,0.9,0.0,0.0,822,125,0,0,860.43,21.47,18.05,# data time:13240,pm2.5:6.445,pm10:5.704,O2:0.000,NO2:0.000,SO2:0.000,NH3:5.309
11:44:19,0,0,0,0,0,0,0,0,0,0,0,513,0,0,0,0,0.0000000,0.0000000,0.0000000,0.0000000,8.00,38.4066353,-110.7925339,1400.3000488,0.1,17.5,0.9,0.0,0.0,822,125,0,0,860.37,21.50,17.96,# data time:13250,pm2.5:6.445,pm10:5.704,O2:0.000,NO2:0.000,SO2:0.000,NH3:5.083
11:44:20,0,0,0,0,0,0,0,0,0,0,0,514,0,0,0,0,0.0000000,0.0000000,0.0000000,0.0000000,8.00,38.4066353,-110.7925339,1400.3000488,0.0,17.5,0.9,0.0,0.0,822,126,0,0,860.45,21.47,18.05,# data time:13250,pm2.5:6.445,pm10:5.704,O2:0.000,NO2:0.000,SO2:0.000,NH3:5.083
11:44:21,0,0,0,0,0,0,0,0,0,0,0,515,0,0,0,0,0.0000000,0.0000000,0.0000000,0.0000000,8.00,38.4066353,-110.7925339,1400.3000488,0.0,17.5,0.9,0.0,0.0,822,129,0,0,860.44,21.48,18.06,# data time:13250,pm2.5:6.445,pm10:5.704,O2:0.000,NO2:0.000,SO2:0.000,NH3:5.083
11:44:22,0,0,0,0,0,0,0,0,0,0,0,515,0,0,0,0,0.0000000,0.0000000,0.0000000,0.0000000,8.00,38.4066353,-110.7925339,1400.3000488,0.0,17.5,0.9,0.0,0.0,822,135,0,0,860.38,21.48,18.06,# data time:13250,pm2.5:6.445,pm10:5.704,O2:0.000,NO2:0.000,SO2:0.000,NH3:5.083
11:44:23,0,0,0,0,0,0,0,0,0,0,0,514,0,0,0,0,0.0000000,0.0000000,0.0000000,0.0000000,8.00,38.4066353,-110.7925339,1400.3000488,0.0,17.5,0.9,0.0,0.0,822,131,0,0,860.46,21.45,18.05,# data time:13250,pm2.5:6.445,pm10:5.704,O2:0.000,NO2:0.000,SO2:0.000,NH3:5.083
11:44:24,0,0,0,0,0,0,0,0,0,0,0,514,0,0,0,0,0.0000000,0.0000000,0.0000000,0.0000000,8.00,38.4066391,-110.7925339,1400.3000488,0.0,17.5,0.9,0.0,0.0,822,128,0,0,860.39,21.47,18.05,# data time:13250,pm2.5:6.445,pm10:5.704,O2:0.000,NO2:0.000,SO2:0.000,NH3:5.083
11:44:25,0,0,0,0,0,0,0,0,0,0,0,514,0,0,0,0,0.0000000,0.0000000,0.0000000,0.0000000,8.00,38.4066391,-110.7925339,1400.3000488,0.0,17.5,0.9,0.0,0.0,822,128,0,0,860.41,21.44,18.06,# data time:13250,pm2.5:6.445,pm10:5.704,O2:0.000,NO2:0.000,SO2:0.000,NH3:5.083
11:44:26,0,0,0,0,0,0,0,0,0,0,0,515,0,0,0,0,0.0000000,0.0000000,0.0000000,0.0000000,8.00,38.4066391,-110.7925339,1400.3000488,0.0,17.5,0.9,0.0,0.0,822,128,0,0,860.44,21.44,18.06,# data time:13250,pm2.5:6.445,pm10:5.704,O2:0.000,NO2:0.000,SO2:0.000,NH3:5.083
11:44:27,0,0,0,0,0,0,0,0,0,0,0,514,0,0,0,0,0.0000000,0.0000000,0.0000000,0.0000000,8.00,38.4066391,-110.7925339,1400.3000488,0.0,17.5,0.9,0.0,0.0,822,125,0,0,860.40,21.44,18.06,# data time:13250,pm2.5:6.445,pm10:5.704,O2:0.000,NO2:0.000,SO2:0.000,NH3:5.083
11:44:28,0,0,0,0,0,0,0,0,0,0,0,514,0,0,0,0,0.0000000,0.0000000,0.0000000,0.0000000,8.00,38.4066391,-110.7925339,1400.3000488,0.0,17.5,0.9,0.0,0.0,822,126,0,0,860.44,21.44,18.06,# data time:13250,pm2.5:6.445,pm10:5.704,O2:0.000,NO2:0.000,SO2:0.000,NH3:5.083
11:44:29,0,0,0,0,0,0,0,0,0,0,0,514,0,0,0,0,0.0000000,0.0000000,0.0000000,0.0000000,8.00,38.4066391,-110.7925339,1400.3000488,0.0,17.5,0.9,0.0,0.0,822,129,0,0,860.37,21.44,18.00,# data time:13260,pm2.5:6.445,pm10:5.704,O2:0.000,NO2:0.000,SO2:0.000,NH3:5.309
11:44:30,0,0,0,0,0,0,0,0,0,0,0,514,0,0,0,0,0.0000000,0.0000000,0.0000000,0.0000000,8.00,38.4066391,-110.7925339,1400.3000488,0.0,17.5,0.9,0.0,0.0,822,128,0,0,860.42,21.45,18.05,# data time:13260,pm2.5:6.445,pm10:5.704,O2:0.000,NO2:0.000,SO2:0.000,NH3:5.309
11:44:31,0,0,0,0,0,0,0,0,0,0,0,515,0,0,0,0,0.0000000,0.0000000,0.0000000,0.0000000,7.00,38.4066391,-110.7925339,1400.3000488,0.0,17.5,1.1,0.0,0.0,823,130,0,0,860.42,21.47,18.05,# data time:13260,pm2.5:6.445,pm10:5.704,O2:0.000,NO2:0.000,SO2:0.000,NH3:5.309
11:44:32,0,0,0,0,0,0,0,0,0,0,0,514,0,0,0,0,0.0000000,0.0000000,0.0000000,0.0000000,8.00,38.4066391,-110.7925339,1400.3000488,0.0,17.5,0.9,0.0,0.0,822,126,0,0,860.43,21.45,18.05,# data time:13260,pm2.5:6.445,pm10:5.704,O2:0.000,NO2:0.000,SO2:0.000,NH3:5.309
11:44:33,0,0,0,0,0,0,0,0,0,0,0,514,0,0,0,0,0.0000000,0.0000000,0.0000000,0.0000000,7.00,38.4066391,-110.7925339,1400.3000488,0.0,17.5,1.1,0.0,0.0,821,124,0,0,860.38,21.50,18.05,# data time:13260,pm2.5:6.445,pm10:5.704,O2:0.000,NO2:0.000,SO2:0.000,NH3:5.309
11:44:34,0,0,0,0,0,0,0,0,0,0,0,514,0,0,0,0,0.0000000,0.0000000,0.0000000,0.0000000,7.00,38.4066391,-110.7925339,1400.3000488,0.0,17.5,1.1,0.0,0.0,822,129,0,0,860.39,21.48,18.06,# data time:13260,pm2.5:6.445,pm10:5.704,O2:0.000,NO2:0.000,SO2:0.000,NH3:5.309
11:44:35,0,0,0,0,0,0,0,0,0,0,0,514,0,0,0,0,0.0000000,0.0000000,0.0000000,0.0000000,7.00,38.4066391,-110.7925339,1400.3000488,0.0,17.5,1.1,0.0,0.0,822,129,0,0,860.43,21.52,18.06,# data time:13260,pm2.5:6.445,pm10:5.704,O2:0.000,NO2:0.000,SO2:0.000,NH3:5.309
11:44:36,0,0,0,0,0,0,0,0,0,0,0,514,0,0,0,0,0.0000000,0.0000000,0.0000000,0.0000000,7.00,38.4066391,-110.7925339,1400.3000488,0.0,17.5,1.1,0.0,0.0,822,127,0,0,860.41,21.52,18.06,# data time:13260,pm2.5:6.445,pm10:5.704,O2:0.000,NO2:0.000,SO2:0.000,NH3:5.309
11:44:37,0,0,0,0,0,0,0,0,0,0,0,513,0,0,0,0,0.0000000,0.0000000,0.0000000,0.0000000,8.00,38.4066429,-110.7925339,1400.3000488,0.0,17.5,0.9,0.0,0.0,821,129,0,0,860.41,21.50,18.05,# data time:13260,pm2.5:6.445,pm10:5.704,O2:0.000,NO2:0.000,SO2:0.000,NH3:5.309
11:44:38,0,0,0,0,0,0,0,0,0,0,0,514,0,0,0,0,0.0000000,0.0000000,0.0000000,0.0000000,7.00,38.4066429,-110.7925339,1400.3000488,0.0,17.5,1.1,0.0,0.0,822,128,0,0,860.38,21.50,18.05,# data time:13260,pm2.5:6.445,pm10:5.704,O2:0.000,NO2:0.000,SO2:0.000,NH3:5.309
11:44:39,0,0,0,0,0,0,0,0,0,0,0,514,0,0,0,0,0.0000000,0.0000000,0.0000000,0.0000000,7.00,38.4066429,-110.7925339,1400.3000488,0.0,17.5,1.1,0.0,0.0,822,130,0,0,860.38,21.50,17.96,# data time:13270,pm2.5:6.445,pm10:5.704,O2:0.000,NO2:0.000,SO2:0.000,NH3:5.536
