Time, Motor A Speed, Motor A Dir, Motor B Speed, Motor B Dir, Servo Rail Current Sensor, Servo Pos - Arm L, Servo Pos - Arm R, Servo Pos - End, Servo Pos - Hopper, Servo Pos - Lid, Servo Pos - Extra, Servo Current, LED - Front L, LED - Front R, LED - Back L, LED - Back R, IMU Pitch, IMU Roll, IMU Yaw, Compass Heading, GPS Sats, GPS Latitude, GPS Longitude, GPS Altitude, GPS Speed, GPS Angle, GPS HDOP, GPS VDOP, GPS PDOP, Battery, Wind, Comm Xbee Latency, Comm Arduino Latency, Pressure, Humidity, Temperature, uRADMonitor
8:03:38,0,0,0,0,0,0,0,0,0,0,0,0,0,0,0,0,0.0000000,0.0000000,0.0000000,0.0000000,0.00,0.0000000,0.0000000,0.0000000,0.0,0.0,0.0,0.0,0.0,0,0,0,0,0.00,0.00,0.00,0
8:03:39,0,0,0,0,0,0,0,0,0,0,0,514,0,0,0,0,0.0000000,0.0000000,0.0000000,0.0000000,0.00,0.0000000,0.0000000,0.0000000,0.0,0.0,0.0,0.0,0.0,872,125,0,0,860.02,27.45,15.86,0
8:03:40,0,0,0,0,0,0,0,0,0,0,0,514,0,0,0,0,0.0000000,0.0000000,0.0000000,0.0000000,0.00,0.0000000,0.0000000,0.0000000,0.0,0.0,0.0,0.0,0.0,872,125,0,0,860.04,27.57,15.92,0
8:03:41,0,0,0,0,0,0,0,0,0,0,0,513,0,0,0,0,0.0000000,0.0000000,0.0000000,0.0000000,0.00,0.0000000,0.0000000,0.0000000,0.0,0.0,0.0,0.0,0.0,872,127,0,0,860.06,27.66,15.93,0
8:03:42,0,0,0,0,0,0,0,0,0,0,0,516,0,0,0,0,0.0000000,0.0000000,0.0000000,0.0000000,0.00,0.0000000,0.0000000,0.0000000,0.0,0.0,0.0,0.0,0.0,872,127,0,0,860.05,27.73,15.93,0
8:03:43,0,0,0,0,0,0,0,0,0,0,0,513,0,0,0,0,0.0000000,0.0000000,0.0000000,0.0000000,0.00,0.0000000,0.0000000,0.0000000,0.0,0.0,0.0,0.0,0.0,872,130,0,0,860.10,27.65,15.93,0
8:03:44,0,0,0,0,0,0,0,0,0,0,0,513,0,0,0,0,0.0000000,0.0000000,0.0000000,0.0000000,0.00,0.0000000,0.0000000,0.0000000,0.0,0.0,0.0,0.0,0.0,872,126,0,0,860.14,27.42,15.92,0
8:03:45,0,0,0,0,0,0,0,0,0,0,0,513,0,0,0,0,0.0000000,0.0000000,0.0000000,0.0000000,0.00,0.0000000,0.0000000,0.0000000,0.0,0.0,0.0,0.0,0.0,871,125,0,0,860.11,27.41,15.93,0
8:03:46,0,0,0,0,0,0,0,0,0,0,0,513,0,0,0,0,0.0000000,0.0000000,0.0000000,0.0000000,0.00,0.0000000,0.0000000,0.0000000,0.0,0.0,0.0,0.0,0.0,872,125,0,0,860.17,27.28,15.93,0
8:03:47,0,0,0,0,0,0,0,0,0,0,0,513,0,0,0,0,0.0000000,0.0000000,0.0000000,0.0000000,0.00,0.0000000,0.0000000,0.0000000,0.0,0.0,0.0,0.0,0.0,872,128,0,0,860.13,29.22,15.94,# start id:14000016 hw:101 sw:103
# data time:10,pm2.5:592.432,pm10:524.276,O2:0.000,NO2:0.387,SO2:0.000,NH3:3.122
8:03:48,0,0,0,0,0,0,0,0,0,0,0,513,0,0,0,0,0.0000000,0.0000000,0.0000000,0.0000000,0.00,0.0000000,0.0000000,0.0000000,0.0,0.0,0.0,0.0,0.0,872,128,0,0,860.11,30.32,15.94,# start id:14000016 hw:101 sw:103
# data time:10,pm2.5:592.432,pm10:524.276,O2:0.000,NO2:0.387,SO2:0.000,NH3:3.122
8:03:49,0,0,0,0,0,0,0,0,0,0,0,513,0,0,0,0,0.0000000,0.0000000,0.0000000,0.0000000,0.00,0.0000000,0.0000000,0.0000000,0.0,0.0,0.0,0.0,0.0,872,123,0,0,860.15,30.79,15.94,# start id:14000016 hw:101 sw:103
# data time:10,pm2.5:592.432,pm10:524.276,O2:0.000,NO2:0.387,SO2:0.000,NH3:3.122
8:03:50,0,0,0,0,0,0,0,0,0,0,0,514,0,0,0,0,0.0000000,0.0000000,0.0000000,0.0000000,0.00,0.0000000,0.0000000,0.0000000,0.0,0.0,0.0,0.0,0.0,871,125,0,0,860.12,30.96,15.95,# start id:14000016 hw:101 sw:103
# data time:10,pm2.5:592.432,pm10:524.276,O2:0.000,NO2:0.387,SO2:0.000,NH3:3.122
8:03:51,0,0,0,0,0,0,0,0,0,0,0,513,0,0,0,0,0.0000000,0.0000000,0.0000000,0.0000000,0.00,0.0000000,0.0000000,0.0000000,0.0,0.0,0.0,0.0,0.0,871,129,0,0,860.14,30.87,15.95,# start id:14000016 hw:101 sw:103
# data time:10,pm2.5:592.432,pm10:524.276,O2:0.000,NO2:0.387,SO2:0.000,NH3:3.122
8:03:52,0,0,0,0,0,0,0,0,0,0,0,513,0,0,0,0,0.0000000,0.0000000,0.0000000,0.0000000,0.00,0.0000000,0.0000000,0.0000000,0.0,0.0,0.0,0.0,0.0,871,129,0,0,860.11,30.62,15.95,# start id:14000016 hw:101 sw:103
# data time:10,pm2.5:592.432,pm10:524.276,O2:0.000,NO2:0.387,SO2:0.000,NH3:3.122
8:03:53,0,0,0,0,0,0,0,0,0,0,0,513,0,0,0,0,0.0000000,0.0000000,0.0000000,0.0000000,0.00,0.0000000,0.0000000,0.0000000,0.0,0.0,0.0,0.0,0.0,871,126,0,0,860.17,30.03,16.04,# start id:14000016 hw:101 sw:103
# data time:10,pm2.5:592.432,pm10:524.276,O2:0.000,NO2:0.387,SO2:0.000,NH3:3.122
8:03:54,0,0,0,0,0,0,0,0,0,0,0,514,0,0,0,0,0.0000000,0.0000000,0.0000000,0.0000000,0.00,0.0000000,0.0000000,0.0000000,0.0,0.0,0.0,0.0,0.0,872,131,0,0,860.15,29.34,15.95,# start id:14000016 hw:101 sw:103
# data time:10,pm2.5:592.432,pm10:524.276,O2:0.000,NO2:0.387,SO2:0.000,NH3:3.122
8:03:55,0,0,0,0,0,0,0,0,0,0,0,513,0,0,0,0,0.0000000,0.0000000,0.0000000,0.0000000,0.00,0.0000000,0.0000000,0.0000000,0.0,0.0,0.0,0.0,0.0,871,122,0,0,860.13,28.81,15.95,# start id:14000016 hw:101 sw:103
# data time:10,pm2.5:592.432,pm10:524.276,O2:0.000,NO2:0.387,SO2:0.000,NH3:3.122
8:03:56,0,0,0,0,0,0,0,0,0,0,0,513,0,0,0,0,0.0000000,0.0000000,0.0000000,0.0000000,0.00,0.0000000,0.0000000,0.0000000,0.0,0.0,0.0,0.0,0.0,871,126,0,0,860.15,28.44,15.96,# data time:20,pm2.5:6.445,pm10:5.704,O2:0.000,NO2:0.000,SO2:0.000,NH3:3.725
8:03:57,0,0,0,0,0,0,0,0,0,0,0,512,0,0,0,0,0.0000000,0.0000000,0.0000000,0.0000000,0.00,0.0000000,0.0000000,0.0000000,0.0,0.0,0.0,0.0,0.0,872,127,0,0,860.15,28.14,15.96,# data time:20,pm2.5:6.445,pm10:5.704,O2:0.000,NO2:0.000,SO2:0.000,NH3:3.725
8:03:58,0,0,0,0,0,0,0,0,0,0,0,513,0,0,0,0,0.0000000,0.0000000,0.0000000,0.0000000,0.00,0.0000000,0.0000000,0.0000000,0.0,0.0,0.0,0.0,0.0,872,127,0,0,860.16,27.91,15.96,# data time:20,pm2.5:6.445,pm10:5.704,O2:0.000,NO2:0.000,SO2:0.000,NH3:3.725
8:03:59,0,0,0,0,0,0,0,0,0,0,0,513,0,0,0,0,0.0000000,0.0000000,0.0000000,0.0000000,0.00,0.0000000,0.0000000,0.0000000,0.0,0.0,0.0,0.0,0.0,871,127,0,0,860.08,27.82,15.97,# data time:20,pm2.5:6.445,pm10:5.704,O2:0.000,NO2:0.000,SO2:0.000,NH3:3.725
8:04:00,0,0,0,0,0,0,0,0,0,0,0,514,0,0,0,0,0.0000000,0.0000000,0.0000000,0.0000000,0.00,0.0000000,0.0000000,0.0000000,0.0,0.0,0.0,0.0,0.0,872,127,0,0,860.17,27.74,15.96,# data time:20,pm2.5:6.445,pm10:5.704,O2:0.000,NO2:0.000,SO2:0.000,NH3:3.725
8:04:01,0,0,0,0,0,0,0,0,0,0,0,513,0,0,0,0,0.0000000,0.0000000,0.0000000,0.0000000,0.00,0.0000000,0.0000000,0.0000000,0.0,0.0,0.0,0.0,0.0,871,127,0,0,860.19,27.71,15.96,# data time:20,pm2.5:6.445,pm10:5.704,O2:0.000,NO2:0.000,SO2:0.000,NH3:3.725
8:04:02,0,0,0,0,0,0,0,0,0,0,0,514,0,0,0,0,0.0000000,0.0000000,0.0000000,0.0000000,0.00,0.0000000,0.0000000,0.0000000,0.0,0.0,0.0,0.0,0.0,871,128,0,0,860.11,27.54,15.96,# data time:20,pm2.5:6.445,pm10:5.704,O2:0.000,NO2:0.000,SO2:0.000,NH3:3.725
8:04:03,0,0,0,0,0,0,0,0,0,0,0,513,0,0,0,0,0.0000000,0.0000000,0.0000000,0.0000000,0.00,0.0000000,0.0000000,0.0000000,0.0,0.0,0.0,0.0,0.0,872,122,0,0,860.10,27.34,15.96,# data time:20,pm2.5:6.445,pm10:5.704,O2:0.000,NO2:0.000,SO2:0.000,NH3:3.725
8:04:04,0,0,0,0,0,0,0,0,0,0,0,513,0,0,0,0,0.0000000,0.0000000,0.0000000,0.0000000,0.00,0.0000000,0.0000000,0.0000000,0.0,0.0,0.0,0.0,0.0,871,124,0,0,860.14,27.18,15.97,# data time:20,pm2.5:6.445,pm10:5.704,O2:0.000,NO2:0.000,SO2:0.000,NH3:3.725
8:04:05,0,0,0,0,0,0,0,0,0,0,0,513,0,0,0,0,0.0000000,0.0000000,0.0000000,0.0000000,0.00,0.0000000,0.0000000,0.0000000,0.0,0.0,0.0,0.0,0.0,871,127,0,0,860.16,27.05,15.97,# data time:20,pm2.5:6.445,pm10:5.704,O2:0.000,NO2:0.000,SO2:0.000,NH3:3.725
8:04:06,0,0,0,0,0,0,0,0,0,0,0,514,0,0,0,0,0.0000000,0.0000000,0.0000000,0.0000000,0.00,0.0000000,0.0000000,0.0000000,0.0,0.0,0.0,0.0,0.0,870,126,0,0,860.16,26.96,15.97,# data time:30,pm2.5:6.445,pm10:5.704,O2:0.000,NO2:0.000,SO2:0.000,NH3:4.178
8:04:07,0,0,0,0,0,0,0,0,0,0,0,513,0,0,0,0,0.0000000,0.0000000,0.0000000,0.0000000,0.00,0.0000000,0.0000000,0.0000000,0.0,0.0,0.0,0.0,0.0,871,126,0,0,860.15,26.95,15.97,# data time:30,pm2.5:6.445,pm10:5.704,O2:0.000,NO2:0.000,SO2:0.000,NH3:4.178
8:04:08,0,0,0,0,0,0,0,0,0,0,0,513,0,0,0,0,0.0000000,0.0000000,0.0000000,0.0000000,0.00,0.0000000,0.0000000,0.0000000,0.0,0.0,0.0,0.0,0.0,871,128,0,0,860.19,26.92,15.98,# data time:30,pm2.5:6.445,pm10:5.704,O2:0.000,NO2:0.000,SO2:0.000,NH3:4.178
8:04:09,0,0,0,0,0,0,0,0,0,0,0,513,0,0,0,0,0.0000000,0.0000000,0.0000000,0.0000000,0.00,0.0000000,0.0000000,0.0000000,0.0,0.0,0.0,0.0,0.0,872,130,0,0,860.17,26.96,15.98,# data time:30,pm2.5:6.445,pm10:5.704,O2:0.000,NO2:0.000,SO2:0.000,NH3:4.178
8:04:10,0,0,0,0,0,0,0,0,0,0,0,513,0,0,0,0,0.0000000,0.0000000,0.0000000,0.0000000,0.00,0.0000000,0.0000000,0.0000000,0.0,0.0,0.0,0.0,0.0,872,130,0,0,860.19,26.96,15.98,# data time:30,pm2.5:6.445,pm10:5.704,O2:0.000,NO2:0.000,SO2:0.000,NH3:4.178
8:04:11,0,0,0,0,0,0,0,0,0,0,0,513,0,0,0,0,0.0000000,0.0000000,0.0000000,0.0000000,0.00,0.0000000,0.0000000,0.0000000,0.0,0.0,0.0,0.0,0.0,871,128,0,0,860.14,26.92,15.98,# data time:30,pm2.5:6.445,pm10:5.704,O2:0.000,NO2:0.000,SO2:0.000,NH3:4.178
8:04:12,0,0,0,0,0,0,0,0,0,0,0,513,0,0,0,0,0.0000000,0.0000000,0.0000000,0.0000000,0.00,0.0000000,0.0000000,0.0000000,0.0,0.0,0.0,0.0,0.0,871,126,0,0,860.09,26.86,15.87,# data time:30,pm2.5:6.445,pm10:5.704,O2:0.000,NO2:0.000,SO2:0.000,NH3:4.178
8:04:13,0,0,0,0,0,0,0,0,0,0,0,513,0,0,0,0,0.0000000,0.0000000,0.0000000,0.0000000,0.00,0.0000000,0.0000000,0.0000000,0.0,0.0,0.0,0.0,0.0,872,128,0,0,860.11,26.86,15.93,# data time:30,pm2.5:6.445,pm10:5.704,O2:0.000,NO2:0.000,SO2:0.000,NH3:4.178
8:04:15,0,0,0,0,0,0,0,0,0,0,0,513,0,0,0,0,0.0000000,0.0000000,0.0000000,0.0000000,0.00,0.0000000,0.0000000,0.0000000,0.0,0.0,0.0,0.0,0.0,871,123,0,0,860.16,26.83,15.98,# data time:30,pm2.5:6.445,pm10:5.704,O2:0.000,NO2:0.000,SO2:0.000,NH3:4.178
8:04:16,0,0,0,0,0,0,0,0,0,0,0,512,0,0,0,0,0.0000000,0.0000000,0.0000000,0.0000000,0.00,0.0000000,0.0000000,0.0000000,0.0,0.0,0.0,0.0,0.0,871,125,0,0,860.16,26.76,15.99,# data time:30,pm2.5:6.445,pm10:5.704,O2:0.000,NO2:0.000,SO2:0.000,NH3:4.178
8:04:17,0,0,0,0,0,0,0,0,0,0,0,513,0,0,0,0,0.0000000,0.0000000,0.0000000,0.0000000,0.00,0.0000000,0.0000000,0.0000000,0.0,0.0,0.0,0.0,0.0,872,132,0,0,860.14,26.73,15.94,# data time:40,pm2.5:6.445,pm10:5.704,O2:0.000,NO2:0.000,SO2:0.000,NH3:4.178
8:04:18,0,0,0,0,0,0,0,0,0,0,0,512,0,0,0,0,0.0000000,0.0000000,0.0000000,0.0000000,0.00,0.0000000,0.0000000,0.0000000,0.0,0.0,0.0,0.0,0.0,872,127,0,0,860.13,26.67,15.99,# data time:40,pm2.5:6.445,pm10:5.704,O2:0.000,NO2:0.000,SO2:0.000,NH3:4.178
8:04:19,0,0,0,0,0,0,0,0,0,0,0,513,0,0,0,0,0.0000000,0.0000000,0.0000000,0.0000000,0.00,0.0000000,0.0000000,0.0000000,0.0,0.0,0.0,0.0,0.0,871,128,0,0,860.14,26.57,15.99,# data time:40,pm2.5:6.445,pm10:5.704,O2:0.000,NO2:0.000,SO2:0.000,NH3:4.178
8:04:20,0,0,0,0,0,0,0,0,0,0,0,512,0,0,0,0,0.0000000,0.0000000,0.0000000,0.0000000,0.00,0.0000000,0.0000000,0.0000000,0.0,0.0,0.0,0.0,0.0,872,127,0,0,860.13,26.51,15.98,# data time:40,pm2.5:6.445,pm10:5.704,O2:0.000,NO2:0.000,SO2:0.000,NH3:4.178
8:04:21,0,0,0,0,0,0,0,0,0,0,0,514,0,0,0,0,0.0000000,0.0000000,0.0000000,0.0000000,0.00,0.0000000,0.0000000,0.0000000,0.0,0.0,0.0,0.0,0.0,871,128,0,0,860.15,26.47,15.98,# data time:40,pm2.5:6.445,pm10:5.704,O2:0.000,NO2:0.000,SO2:0.000,NH3:4.178
8:04:22,0,0,0,0,0,0,0,0,0,0,0,513,0,0,0,0,0.0000000,0.0000000,0.0000000,0.0000000,0.00,0.0000000,0.0000000,0.0000000,0.0,0.0,0.0,0.0,0.0,871,129,0,0,860.14,26.40,15.97,# data time:40,pm2.5:6.445,pm10:5.704,O2:0.000,NO2:0.000,SO2:0.000,NH3:4.178
8:04:23,0,0,0,0,0,0,0,0,0,0,0,513,0,0,0,0,0.0000000,0.0000000,0.0000000,0.0000000,0.00,0.0000000,0.0000000,0.0000000,0.0,0.0,0.0,0.0,0.0,872,128,0,0,860.16,26.44,16.02,# data time:40,pm2.5:6.445,pm10:5.704,O2:0.000,NO2:0.000,SO2:0.000,NH3:4.178
8:04:24,0,0,0,0,0,0,0,0,0,0,0,512,0,0,0,0,0.0000000,0.0000000,0.0000000,0.0000000,0.00,0.0000000,0.0000000,0.0000000,0.0,0.0,0.0,0.0,0.0,871,128,0,0,860.17,26.41,15.98,# data time:40,pm2.5:6.445,pm10:5.704,O2:0.000,NO2:0.000,SO2:0.000,NH3:4.178
8:04:25,0,0,0,0,0,0,0,0,0,0,0,513,0,0,0,0,0.0000000,0.0000000,0.0000000,0.0000000,0.00,0.0000000,0.0000000,0.0000000,0.0,0.0,0.0,0.0,0.0,872,128,0,0,860.13,26.41,15.98,# data time:40,pm2.5:6.445,pm10:5.704,O2:0.000,NO2:0.000,SO2:0.000,NH3:4.178
8:04:26,0,0,0,0,0,0,0,0,0,0,0,513,0,0,0,0,0.0000000,0.0000000,0.0000000,0.0000000,0.00,0.0000000,0.0000000,0.0000000,0.0,0.0,0.0,0.0,0.0,873,127,0,0,860.11,26.43,15.98,# data time:40,pm2.5:6.445,pm10:5.704,O2:0.000,NO2:0.000,SO2:0.000,NH3:4.178
8:04:27,0,0,0,0,0,0,0,0,0,0,0,513,0,0,0,0,0.0000000,0.0000000,0.0000000,0.0000000,0.00,0.0000000,0.0000000,0.0000000,0.0,0.0,0.0,0.0,0.0,871,127,0,0,860.19,26.41,15.99,# data time:50,pm2.5:6.445,pm10:5.704,O2:0.000,NO2:0.000,SO2:0.000,NH3:4.178
8:04:28,0,0,0,0,0,0,0,0,0,0,0,513,0,0,0,0,0.0000000,0.0000000,0.0000000,0.0000000,0.00,0.0000000,0.0000000,0.0000000,0.0,0.0,0.0,0.0,0.0,867,134,0,0,860.11,26.41,15.98,# data time:50,pm2.5:6.445,pm10:5.704,O2:0.000,NO2:0.000,SO2:0.000,NH3:4.178
8:04:29,0,0,0,0,0,0,0,0,0,0,0,515,0,0,0,0,0.0000000,0.0000000,0.0000000,0.0000000,5.00,38.4064903,-110.7918854,1381.9000244,0.1,165.3,2.6,0.0,0.0,874,116,0,0,860.13,26.40,15.99,# data time:50,pm2.5:6.445,pm10:5.704,O2:0.000,NO2:0.000,SO2:0.000,NH3:4.178
8:04:30,0,0,0,0,0,0,0,0,0,0,0,516,0,0,0,0,0.0000000,0.0000000,0.0000000,0.0000000,5.00,38.4064903,-110.7918854,1381.9000244,0.9,213.2,2.6,0.0,0.0,868,103,0,0,860.18,26.37,16.03,# data time:50,pm2.5:6.445,pm10:5.704,O2:0.000,NO2:0.000,SO2:0.000,NH3:4.178
8:04:31,0,0,0,0,0,0,0,0,0,0,0,513,0,0,0,0,0.0000000,0.0000000,0.0000000,0.0000000,5.00,38.4065285,-110.7918854,1381.1999512,0.5,211.1,2.6,0.0,0.0,871,127,0,0,860.16,26.40,15.98,# data time:50,pm2.5:6.445,pm10:5.704,O2:0.000,NO2:0.000,SO2:0.000,NH3:4.178
8:04:32,0,0,0,0,0,0,0,0,0,0,0,513,0,0,0,0,0.0000000,0.0000000,0.0000000,0.0000000,5.00,38.4065514,-110.7918701,1381.5999756,0.2,221.3,2.6,0.0,0.0,871,123,0,0,860.17,26.40,15.98,# data time:50,pm2.5:6.445,pm10:5.704,O2:0.000,NO2:0.000,SO2:0.000,NH3:4.178
8:04:33,0,0,0,0,0,0,0,0,0,0,0,513,0,0,0,0,0.0000000,0.0000000,0.0000000,0.0000000,5.00,38.4065552,-110.7918701,1382.3000488,0.1,233.3,2.6,0.0,0.0,871,128,0,0,860.20,26.38,15.98,# data time:50,pm2.5:6.445,pm10:5.704,O2:0.000,NO2:0.000,SO2:0.000,NH3:4.178
8:04:34,0,0,0,0,0,0,0,0,0,0,0,513,0,0,0,0,0.0000000,0.0000000,0.0000000,0.0000000,5.00,38.4065704,-110.7918701,1382.6999512,0.2,223.9,2.6,0.0,0.0,871,127,0,0,860.11,26.38,15.98,# data time:50,pm2.5:6.445,pm10:5.704,O2:0.000,NO2:0.000,SO2:0.000,NH3:4.178
8:04:35,0,0,0,0,0,0,0,0,0,0,0,512,0,0,0,0,0.0000000,0.0000000,0.0000000,0.0000000,5.00,38.4065666,-110.7918701,1382.5999756,0.3,204.6,2.6,0.0,0.0,870,128,0,0,860.09,26.41,15.98,# data time:50,pm2.5:6.445,pm10:5.704,O2:0.000,NO2:0.000,SO2:0.000,NH3:4.178
8:04:36,0,0,0,0,0,0,0,0,0,0,0,513,0,0,0,0,0.0000000,0.0000000,0.0000000,0.0000000,5.00,38.4065590,-110.7918701,1382.1999512,0.7,231.8,2.6,0.0,0.0,871,126,0,0,860.12,26.43,15.99,# data time:50,pm2.5:6.445,pm10:5.704,O2:0.000,NO2:0.000,SO2:0.000,NH3:4.178
8:04:37,0,0,0,0,0,0,0,0,0,0,0,515,0,0,0,0,0.0000000,0.0000000,0.0000000,0.0000000,5.00,38.4065590,-110.7918701,1381.8000488,0.5,218.8,2.6,0.0,0.0,871,125,0,0,860.16,26.44,15.98,# data time:60,pm2.5:6.445,pm10:5.704,O2:0.000,NO2:0.000,SO2:0.000,NH3:4.178
8:04:38,0,0,0,0,0,0,0,0,0,0,0,513,0,0,0,0,0.0000000,0.0000000,0.0000000,0.0000000,5.00,38.4065666,-110.7918701,1381.9000244,0.2,250.8,2.6,0.0,0.0,870,129,0,0,860.16,26.47,15.99,# data time:60,pm2.5:6.445,pm10:5.704,O2:0.000,NO2:0.000,SO2:0.000,NH3:4.178
8:04:39,0,0,0,0,0,0,0,0,0,0,0,513,0,0,0,0,0.0000000,0.0000000,0.0000000,0.0000000,5.00,38.4065704,-110.7918701,1382.0999756,0.2,250.0,2.6,0.0,0.0,871,126,0,0,860.11,26.47,15.98,# data time:60,pm2.5:6.445,pm10:5.704,O2:0.000,NO2:0.000,SO2:0.000,NH3:4.178
8:04:40,0,0,0,0,0,0,0,0,0,0,0,513,0,0,0,0,0.0000000,0.0000000,0.0000000,0.0000000,5.00,38.4065704,-110.7918701,1382.0999756,0.2,223.1,2.6,0.0,0.0,871,128,0,0,860.13,26.54,15.99,# data time:60,pm2.5:6.445,pm10:5.704,O2:0.000,NO2:0.000,SO2:0.000,NH3:4.178
8:04:41,0,0,0,0,0,0,0,0,0,0,0,514,0,0,0,0,0.0000000,0.0000000,0.0000000,0.0000000,5.00,38.4065742,-110.7918701,1382.0999756,0.3,241.2,2.6,0.0,0.0,871,127,0,0,860.16,26.55,15.99,# data time:60,pm2.5:6.445,pm10:5.704,O2:0.000,NO2:0.000,SO2:0.000,NH3:4.178
8:04:42,0,0,0,0,0,0,0,0,0,0,0,512,0,0,0,0,0.0000000,0.0000000,0.0000000,0.0000000,5.00,38.4065781,-110.7918701,1382.1999512,0.2,314.2,2.6,0.0,0.0,871,128,0,0,860.19,26.55,16.00,# data time:60,pm2.5:6.445,pm10:5.704,O2:0.000,NO2:0.000,SO2:0.000,NH3:4.178
8:04:43,0,0,0,0,0,0,0,0,0,0,0,513,0,0,0,0,0.0000000,0.0000000,0.0000000,0.0000000,5.00,38.4065781,-110.7918701,1382.1999512,0.1,346.2,2.6,0.0,0.0,871,126,0,0,860.12,26.57,15.99,# data time:60,pm2.5:6.445,pm10:5.704,O2:0.000,NO2:0.000,SO2:0.000,NH3:4.178
8:04:44,0,0,0,0,0,0,0,0,0,0,0,511,0,0,0,0,0.0000000,0.0000000,0.0000000,0.0000000,5.00,38.4065742,-110.7918701,1382.0999756,0.0,30.1,2.8,0.0,0.0,866,139,0,0,860.16,26.60,16.00,# data time:60,pm2.5:6.445,pm10:5.704,O2:0.000,NO2:0.000,SO2:0.000,NH3:4.178
8:04:45,0,0,0,0,0,0,0,0,0,0,0,513,0,0,0,0,0.0000000,0.0000000,0.0000000,0.0000000,5.00,38.4065742,-110.7918701,1382.0999756,0.1,56.8,2.6,0.0,0.0,870,126,0,0,860.14,26.61,16.00,# data time:60,pm2.5:6.445,pm10:5.704,O2:0.000,NO2:0.000,SO2:0.000,NH3:4.178
8:04:46,0,0,0,0,0,0,0,0,0,0,0,513,0,0,0,0,0.0000000,0.0000000,0.0000000,0.0000000,5.00,38.4065742,-110.7918701,1382.0999756,0.2,359.6,2.6,0.0,0.0,874,146,0,0,860.10,26.61,16.00,# data time:60,pm2.5:6.445,pm10:5.704,O2:0.000,NO2:0.000,SO2:0.000,NH3:4.178
8:04:47,0,0,0,0,0,0,0,0,0,0,0,510,0,0,0,0,0.0000000,0.0000000,0.0000000,0.0000000,5.00,38.4065742,-110.7918701,1382.0999756,0.2,354.6,2.8,0.0,0.0,874,150,0,0,860.13,26.60,16.00,# data time:70,pm2.5:6.445,pm10:5.704,O2:0.000,NO2:0.000,SO2:0.000,NH3:4.404
8:04:48,0,0,0,0,0,0,0,0,0,0,0,511,0,0,0,0,0.0000000,0.0000000,0.0000000,0.0000000,5.00,38.4065704,-110.7918701,1382.0000000,0.1,251.1,2.8,0.0,0.0,867,119,0,0,860.10,26.61,16.00,# data time:70,pm2.5:6.445,pm10:5.704,O2:0.000,NO2:0.000,SO2:0.000,NH3:4.404
8:04:49,0,0,0,0,0,0,0,0,0,0,0,509,0,0,0,0,0.0000000,0.0000000,0.0000000,0.0000000,5.00,38.4065666,-110.7918854,1381.5000000,0.1,149.8,2.6,0.0,0.0,872,101,0,0,860.12,26.60,16.00,# data time:70,pm2.5:6.445,pm10:5.704,O2:0.000,NO2:0.000,SO2:0.000,NH3:4.404
8:04:50,0,0,0,0,0,0,0,0,0,0,0,514,0,0,0,0,0.0000000,0.0000000,0.0000000,0.0000000,5.00,38.4065666,-110.7918854,1381.3000488,0.3,307.1,2.6,0.0,0.0,871,126,0,0,860.12,26.55,16.01,# data time:70,pm2.5:6.445,pm10:5.704,O2:0.000,NO2:0.000,SO2:0.000,NH3:4.404
8:04:51,0,0,0,0,0,0,0,0,0,0,0,513,0,0,0,0,0.0000000,0.0000000,0.0000000,0.0000000,5.00,38.4065666,-110.7918854,1381.4000244,0.2,282.3,2.6,0.0,0.0,871,126,0,0,860.11,26.54,16.01,# data time:70,pm2.5:6.445,pm10:5.704,O2:0.000,NO2:0.000,SO2:0.000,NH3:4.404
8:04:52,0,0,0,0,0,0,0,0,0,0,0,513,0,0,0,0,0.0000000,0.0000000,0.0000000,0.0000000,5.00,38.4065666,-110.7918854,1381.6999512,0.1,304.7,2.6,0.0,0.0,870,126,0,0,860.10,26.49,16.01,# data time:70,pm2.5:6.445,pm10:5.704,O2:0.000,NO2:0.000,SO2:0.000,NH3:4.404
8:04:53,0,0,0,0,0,0,0,0,0,0,0,513,0,0,0,0,0.0000000,0.0000000,0.0000000,0.0000000,5.00,38.4065704,-110.7919006,1382.0999756,0.2,329.0,2.6,0.0,0.0,871,127,0,0,860.16,26.49,16.00,# data time:70,pm2.5:6.445,pm10:5.704,O2:0.000,NO2:0.000,SO2:0.000,NH3:4.404
8:04:54,0,0,0,0,0,0,0,0,0,0,0,513,0,0,0,0,0.0000000,0.0000000,0.0000000,0.0000000,5.00,38.4065666,-110.7918854,1382.4000244,0.2,3.6,2.6,0.0,0.0,870,132,0,0,860.12,26.49,16.01,# data time:70,pm2.5:6.445,pm10:5.704,O2:0.000,NO2:0.000,SO2:0.000,NH3:4.404
8:04:55,0,0,0,0,0,0,0,0,0,0,0,512,0,0,0,0,0.0000000,0.0000000,0.0000000,0.0000000,5.00,38.4065628,-110.7919006,1382.6999512,0.0,347.1,2.8,0.0,0.0,871,128,0,0,860.12,26.49,16.01,# data time:70,pm2.5:6.445,pm10:5.704,O2:0.000,NO2:0.000,SO2:0.000,NH3:4.404
8:04:56,0,0,0,0,0,0,0,0,0,0,0,512,0,0,0,0,0.0000000,0.0000000,0.0000000,0.0000000,5.00,38.4065628,-110.7919006,1383.0000000,0.1,359.5,2.8,0.0,0.0,872,128,0,0,860.17,26.49,16.01,# data time:80,pm2.5:6.445,pm10:5.704,O2:0.000,NO2:0.000,SO2:0.000,NH3:4.630
8:04:57,0,0,0,0,0,0,0,0,0,0,0,513,0,0,0,0,0.0000000,0.0000000,0.0000000,0.0000000,5.00,38.4065628,-110.7918854,1383.3000488,0.2,324.9,2.8,0.0,0.0,871,128,0,0,860.14,26.47,16.01,# data time:80,pm2.5:6.445,pm10:5.704,O2:0.000,NO2:0.000,SO2:0.000,NH3:4.630
8:04:58,0,0,0,0,0,0,0,0,0,0,0,511,0,0,0,0,0.0000000,0.0000000,0.0000000,0.0000000,5.00,38.4065628,-110.7918854,1383.5999756,0.1,321.9,2.6,0.0,0.0,870,72,0,0,860.14,26.49,16.01,# data time:80,pm2.5:6.445,pm10:5.704,O2:0.000,NO2:0.000,SO2:0.000,NH3:4.630
8:04:59,0,0,0,0,0,0,0,0,0,0,0,517,0,0,0,0,0.0000000,0.0000000,0.0000000,0.0000000,5.00,38.4065628,-110.7918854,1383.5999756,0.1,15.4,2.6,0.0,0.0,871,101,0,0,860.12,26.44,16.02,# data time:80,pm2.5:6.445,pm10:5.704,O2:0.000,NO2:0.000,SO2:0.000,NH3:4.630
8:05:00,0,0,0,0,0,0,0,0,0,0,0,515,0,0,0,0,0.0000000,0.0000000,0.0000000,0.0000000,5.00,38.4065666,-110.7918854,1383.6999512,0.2,46.0,2.6,0.0,0.0,871,127,0,0,860.14,26.41,16.02,# data time:80,pm2.5:6.445,pm10:5.704,O2:0.000,NO2:0.000,SO2:0.000,NH3:4.630
8:05:01,0,0,0,0,0,0,0,0,0,0,0,510,0,0,0,0,0.0000000,0.0000000,0.0000000,0.0000000,5.00,38.4065628,-110.7918854,1383.6999512,0.2,62.6,2.6,0.0,0.0,870,126,0,0,860.14,26.38,16.02,# data time:80,pm2.5:6.445,pm10:5.704,O2:0.000,NO2:0.000,SO2:0.000,NH3:4.630
8:05:02,0,0,0,0,0,0,0,0,0,0,0,513,0,0,0,0,0.0000000,0.0000000,0.0000000,0.0000000,5.00,38.4065628,-110.7918854,1383.6999512,0.1,26.5,2.6,0.0,0.0,871,125,0,0,860.13,26.38,16.02,# data time:80,pm2.5:6.445,pm10:5.704,O2:0.000,NO2:0.000,SO2:0.000,NH3:4.630
8:05:03,0,0,0,0,0,0,0,0,0,0,0,519,0,0,0,0,0.0000000,0.0000000,0.0000000,0.0000000,5.00,38.4065628,-110.7918854,1383.6999512,0.0,344.6,2.6,0.0,0.0,874,154,0,0,860.09,26.38,15.92,# data time:80,pm2.5:6.445,pm10:5.704,O2:0.000,NO2:0.000,SO2:0.000,NH3:4.630
8:05:04,0,0,0,0,0,0,0,0,0,0,0,513,0,0,0,0,0.0000000,0.0000000,0.0000000,0.0000000,5.00,38.4065628,-110.7918854,1383.6999512,0.0,4.4,2.6,0.0,0.0,871,129,0,0,860.09,26.40,15.93,# data time:80,pm2.5:6.445,pm10:5.704,O2:0.000,NO2:0.000,SO2:0.000,NH3:4.630
8:05:05,0,0,0,0,0,0,0,0,0,0,0,512,0,0,0,0,0.0000000,0.0000000,0.0000000,0.0000000,5.00,38.4065628,-110.7918854,1383.6999512,0.1,347.3,2.6,0.0,0.0,871,125,0,0,860.07,26.41,15.93,# data time:80,pm2.5:6.445,pm10:5.704,O2:0.000,NO2:0.000,SO2:0.000,NH3:4.630
8:05:06,0,0,0,0,0,0,0,0,0,0,0,518,0,0,0,0,0.0000000,0.0000000,0.0000000,0.0000000,5.00,38.4065628,-110.7918854,1383.6999512,0.1,283.2,2.6,0.0,0.0,864,111,0,0,860.13,26.41,15.98,# data time:90,pm2.5:5.640,pm10:4.991,O2:0.000,NO2:0.000,SO2:0.000,NH3:4.630
8:05:07,0,0,0,0,0,0,0,0,0,0,0,513,0,0,0,0,0.0000000,0.0000000,0.0000000,0.0000000,5.00,38.4065628,-110.7918854,1383.6999512,0.1,283.2,2.6,0.0,0.0,871,130,0,0,860.11,26.32,15.93,# data time:90,pm2.5:5.640,pm10:4.991,O2:0.000,NO2:0.000,SO2:0.000,NH3:4.630
8:05:08,0,0,0,0,0,0,0,0,0,0,0,513,0,0,0,0,0.0000000,0.0000000,0.0000000,0.0000000,5.00,38.4065628,-110.7918854,1383.6999512,0.1,269.5,2.6,0.0,0.0,871,124,0,0,860.13,26.34,15.97,# data time:90,pm2.5:5.640,pm10:4.991,O2:0.000,NO2:0.000,SO2:0.000,NH3:4.630
8:05:09,0,0,0,0,0,0,0,0,0,0,0,513,0,0,0,0,0.0000000,0.0000000,0.0000000,0.0000000,5.00,38.4065628,-110.7918854,1383.6999512,0.2,283.3,2.6,0.0,0.0,870,129,0,0,860.13,26.31,16.02,# data time:90,pm2.5:5.640,pm10:4.991,O2:0.000,NO2:0.000,SO2:0.000,NH3:4.630
8:05:10,0,0,0,0,0,0,0,0,0,0,0,513,0,0,0,0,0.0000000,0.0000000,0.0000000,0.0000000,5.00,38.4065628,-110.7918854,1383.6999512,0.1,223.4,2.6,0.0,0.0,870,126,0,0,860.15,26.31,16.03,# data time:90,pm2.5:5.640,pm10:4.991,O2:0.000,NO2:0.000,SO2:0.000,NH3:4.630
8:05:11,0,0,0,0,0,0,0,0,0,0,0,514,0,0,0,0,0.0000000,0.0000000,0.0000000,0.0000000,5.00,38.4065628,-110.7918854,1383.6999512,0.1,208.8,2.6,0.0,0.0,872,127,0,0,860.15,26.34,16.03,# data time:90,pm2.5:5.640,pm10:4.991,O2:0.000,NO2:0.000,SO2:0.000,NH3:4.630
8:05:12,0,0,0,0,0,0,0,0,0,0,0,513,0,0,0,0,0.0000000,0.0000000,0.0000000,0.0000000,5.00,38.4065628,-110.7918854,1383.6999512,0.2,166.3,2.6,0.0,0.0,870,128,0,0,860.13,26.37,16.03,# data time:90,pm2.5:5.640,pm10:4.991,O2:0.000,NO2:0.000,SO2:0.000,NH3:4.630
8:05:14,0,0,0,0,0,0,0,0,0,0,0,513,0,0,0,0,0.0000000,0.0000000,0.0000000,0.0000000,5.00,38.4065628,-110.7918854,1383.6999512,0.3,196.5,2.6,0.0,0.0,871,126,0,0,860.16,26.41,16.03,# data time:90,pm2.5:5.640,pm10:4.991,O2:0.000,NO2:0.000,SO2:0.000,NH3:4.630
8:05:15,0,0,0,0,0,0,0,0,0,0,0,513,0,0,0,0,0.0000000,0.0000000,0.0000000,0.0000000,5.00,38.4065590,-110.7918854,1383.6999512,0.2,185.7,2.6,0.0,0.0,871,130,0,0,860.17,26.44,16.03,# data time:90,pm2.5:5.640,pm10:4.991,O2:0.000,NO2:0.000,SO2:0.000,NH3:4.630
8:05:16,0,0,0,0,0,0,0,0,0,0,0,513,0,0,0,0,0.0000000,0.0000000,0.0000000,0.0000000,5.00,38.4065590,-110.7918854,1383.6999512,0.4,189.0,2.6,0.0,0.0,870,128,0,0,860.14,26.44,16.03,# data time:90,pm2.5:5.640,pm10:4.991,O2:0.000,NO2:0.000,SO2:0.000,NH3:4.630
8:05:17,0,0,0,0,0,0,0,0,0,0,0,513,0,0,0,0,0.0000000,0.0000000,0.0000000,0.0000000,5.00,38.4065552,-110.7918854,1383.6999512,0.3,198.6,2.6,0.0,0.0,871,130,0,0,860.14,26.44,16.04,# data time:100,pm2.5:6.445,pm10:5.704,O2:0.000,NO2:0.000,SO2:0.000,NH3:4.630
8:05:18,0,0,0,0,0,0,0,0,0,0,0,514,0,0,0,0,0.0000000,0.0000000,0.0000000,0.0000000,7.00,38.4065552,-110.7918854,1383.6999512,0.3,187.9,1.0,0.0,0.0,870,126,0,0,860.14,26.44,16.03,# data time:100,pm2.5:6.445,pm10:5.704,O2:0.000,NO2:0.000,SO2:0.000,NH3:4.630
8:05:19,0,0,0,0,0,0,0,0,0,0,0,513,0,0,0,0,0.0000000,0.0000000,0.0000000,0.0000000,7.00,38.4065437,-110.7919006,1383.6999512,0.1,183.1,1.0,0.0,0.0,871,127,0,0,860.13,26.43,16.03,# data time:100,pm2.5:6.445,pm10:5.704,O2:0.000,NO2:0.000,SO2:0.000,NH3:4.630
8:05:20,0,0,0,0,0,0,0,0,0,0,0,513,0,0,0,0,0.0000000,0.0000000,0.0000000,0.0000000,7.00,38.4065437,-110.7919006,1383.6999512,0.1,266.1,1.0,0.0,0.0,871,127,0,0,860.14,26.49,16.03,# data time:100,pm2.5:6.445,pm10:5.704,O2:0.000,NO2:0.000,SO2:0.000,NH3:4.630
8:05:21,0,0,0,0,0,0,0,0,0,0,0,512,0,0,0,0,0.0000000,0.0000000,0.0000000,0.0000000,7.00,38.4065437,-110.7919006,1383.6999512,0.3,117.8,1.0,0.0,0.0,871,127,0,0,860.13,26.47,16.04,# data time:100,pm2.5:6.445,pm10:5.704,O2:0.000,NO2:0.000,SO2:0.000,NH3:4.630
8:05:22,0,0,0,0,0,0,0,0,0,0,0,514,0,0,0,0,0.0000000,0.0000000,0.0000000,0.0000000,7.00,38.4065437,-110.7919006,1383.6999512,0.2,246.2,1.0,0.0,0.0,870,128,0,0,860.14,26.54,16.04,# data time:100,pm2.5:6.445,pm10:5.704,O2:0.000,NO2:0.000,SO2:0.000,NH3:4.630
8:05:23,0,0,0,0,0,0,0,0,0,0,0,514,0,0,0,0,0.0000000,0.0000000,0.0000000,0.0000000,7.00,38.4065399,-110.7919006,1383.6999512,0.1,273.9,1.0,0.0,0.0,870,131,0,0,860.13,26.52,16.04,# data time:100,pm2.5:6.445,pm10:5.704,O2:0.000,NO2:0.000,SO2:0.000,NH3:4.630
8:05:24,0,0,0,0,0,0,0,0,0,0,0,513,0,0,0,0,0.0000000,0.0000000,0.0000000,0.0000000,8.00,38.4065399,-110.7919006,1383.6999512,0.1,234.7,1.0,0.0,0.0,871,125,0,0,860.11,26.49,16.04,# data time:100,pm2.5:6.445,pm10:5.704,O2:0.000,NO2:0.000,SO2:0.000,NH3:4.630
8:05:25,0,0,0,0,0,0,0,0,0,0,0,513,0,0,0,0,0.0000000,0.0000000,0.0000000,0.0000000,8.00,38.4065399,-110.7919006,1383.6999512,0.1,215.2,1.0,0.0,0.0,870,125,0,0,860.13,26.49,16.04,# data time:100,pm2.5:6.445,pm10:5.704,O2:0.000,NO2:0.000,SO2:0.000,NH3:4.630
8:05:26,0,0,0,0,0,0,0,0,0,0,0,513,0,0,0,0,0.0000000,0.0000000,0.0000000,0.0000000,8.00,38.4065399,-110.7919006,1383.6999512,0.1,195.5,1.0,0.0,0.0,870,128,0,0,860.14,26.49,16.04,# data time:100,pm2.5:6.445,pm10:5.704,O2:0.000,NO2:0.000,SO2:0.000,NH3:4.630
8:05:27,0,0,0,0,0,0,0,0,0,0,0,513,0,0,0,0,0.0000000,0.0000000,0.0000000,0.0000000,8.00,38.4065399,-110.7919006,1383.6999512,0.1,198.1,1.0,0.0,0.0,871,127,0,0,860.12,26.46,16.04,# data time:110,pm2.5:6.445,pm10:5.704,O2:0.000,NO2:0.000,SO2:0.000,NH3:4.630
8:05:28,0,0,0,0,0,0,0,0,0,0,0,513,0,0,0,0,0.0000000,0.0000000,0.0000000,0.0000000,8.00,38.4065399,-110.7919006,1383.6999512,0.0,249.3,1.0,0.0,0.0,870,127,0,0,860.12,26.46,16.04,# data time:110,pm2.5:6.445,pm10:5.704,O2:0.000,NO2:0.000,SO2:0.000,NH3:4.630
8:05:29,0,0,0,0,0,0,0,0,0,0,0,513,0,0,0,0,0.0000000,0.0000000,0.0000000,0.0000000,8.00,38.4065399,-110.7919006,1383.6999512,0.0,162.2,1.0,0.0,0.0,870,126,0,0,860.08,26.47,16.04,# data time:110,pm2.5:6.445,pm10:5.704,O2:0.000,NO2:0.000,SO2:0.000,NH3:4.630
8:05:30,0,0,0,0,0,0,0,0,0,0,0,513,0,0,0,0,0.0000000,0.0000000,0.0000000,0.0000000,8.00,38.4065399,-110.7919006,1383.5999756,0.0,359.8,1.0,0.0,0.0,871,130,0,0,860.13,26.47,16.04,# data time:110,pm2.5:6.445,pm10:5.704,O2:0.000,NO2:0.000,SO2:0.000,NH3:4.630
8:05:31,0,0,0,0,0,0,0,0,0,0,0,513,0,0,0,0,0.0000000,0.0000000,0.0000000,0.0000000,8.00,38.4065399,-110.7919006,1383.5999756,0.0,78.3,1.1,0.0,0.0,871,125,0,0,860.12,26.46,16.05,# data time:110,pm2.5:6.445,pm10:5.704,O2:0.000,NO2:0.000,SO2:0.000,NH3:4.630
8:05:32,0,0,0,0,0,0,0,0,0,0,0,513,0,0,0,0,0.0000000,0.0000000,0.0000000,0.0000000,8.00,38.4065399,-110.7919006,1383.5999756,0.0,61.5,1.0,0.0,0.0,871,129,0,0,860.11,26.49,16.04,# data time:110,pm2.5:6.445,pm10:5.704,O2:0.000,NO2:0.000,SO2:0.000,NH3:4.630
8:05:33,0,0,0,0,0,0,0,0,0,0,0,513,0,0,0,0,0.0000000,0.0000000,0.0000000,0.0000000,8.00,38.4065399,-110.7919006,1383.6999512,0.0,0.0,1.0,0.0,0.0,871,127,0,0,860.15,26.49,16.05,# data time:110,pm2.5:6.445,pm10:5.704,O2:0.000,NO2:0.000,SO2:0.000,NH3:4.630
8:05:34,0,0,0,0,0,0,0,0,0,0,0,513,0,0,0,0,0.0000000,0.0000000,0.0000000,0.0000000,8.00,38.4065399,-110.7919006,1383.6999512,0.0,54.8,1.1,0.0,0.0,871,128,0,0,860.11,26.51,16.05,# data time:110,pm2.5:6.445,pm10:5.704,O2:0.000,NO2:0.000,SO2:0.000,NH3:4.630
8:05:35,0,0,0,0,0,0,0,0,0,0,0,513,0,0,0,0,0.0000000,0.0000000,0.0000000,0.0000000,8.00,38.4065399,-110.7919006,1383.6999512,0.0,169.1,1.0,0.0,0.0,870,127,0,0,860.11,26.51,16.05,# data time:110,pm2.5:6.445,pm10:5.704,O2:0.000,NO2:0.000,SO2:0.000,NH3:4.630
8:05:36,0,0,0,0,0,0,0,0,0,0,0,513,0,0,0,0,0.0000000,0.0000000,0.0000000,0.0000000,8.00,38.4065399,-110.7919006,1383.6999512,0.2,287.0,1.0,0.0,0.0,871,129,0,0,860.11,26.40,16.05,# data time:110,pm2.5:6.445,pm10:5.704,O2:0.000,NO2:0.000,SO2:0.000,NH3:4.630
8:05:37,0,0,0,0,0,0,0,0,0,0,0,513,0,0,0,0,0.0000000,0.0000000,0.0000000,0.0000000,8.00,38.4065399,-110.7919006,1383.6999512,0.2,283.2,1.0,0.0,0.0,870,128,0,0,860.11,26.31,16.05,# data time:120,pm2.5:6.445,pm10:5.704,O2:0.000,NO2:0.000,SO2:0.000,NH3:4.630
8:05:38,0,0,0,0,0,0,0,0,0,0,0,513,0,0,0,0,0.0000000,0.0000000,0.0000000,0.0000000,8.00,38.4065399,-110.7919006,1383.6999512,0.1,326.1,1.0,0.0,0.0,871,127,0,0,860.15,26.31,16.05,# data time:120,pm2.5:6.445,pm10:5.704,O2:0.000,NO2:0.000,SO2:0.000,NH3:4.630
8:05:39,0,0,0,0,0,0,0,0,0,0,0,513,0,0,0,0,0.0000000,0.0000000,0.0000000,0.0000000,8.00,38.4065399,-110.7919006,1383.6999512,0.2,310.8,1.0,0.0,0.0,871,126,0,0,860.13,26.32,16.05,# data time:120,pm2.5:6.445,pm10:5.704,O2:0.000,NO2:0.000,SO2:0.000,NH3:4.630
8:05:40,0,0,0,0,0,0,0,0,0,0,0,513,0,0,0,0,0.0000000,0.0000000,0.0000000,0.0000000,8.00,38.4065399,-110.7919006,1383.6999512,0.1,344.0,1.0,0.0,0.0,870,126,0,0,860.13,26.35,16.05,# data time:120,pm2.5:6.445,pm10:5.704,O2:0.000,NO2:0.000,SO2:0.000,NH3:4.630
8:05:41,0,0,0,0,0,0,0,0,0,0,0,512,0,0,0,0,0.0000000,0.0000000,0.0000000,0.0000000,8.00,38.4065399,-110.7919006,1383.6999512,0.2,27.8,1.0,0.0,0.0,871,128,0,0,860.15,26.35,16.05,# data time:120,pm2.5:6.445,pm10:5.704,O2:0.000,NO2:0.000,SO2:0.000,NH3:4.630
8:05:42,0,0,0,0,0,0,0,0,0,0,0,513,0,0,0,0,0.0000000,0.0000000,0.0000000,0.0000000,8.00,38.4065399,-110.7919006,1383.5999756,0.1,30.3,1.0,0.0,0.0,871,127,0,0,860.14,26.34,16.06,# data time:120,pm2.5:6.445,pm10:5.704,O2:0.000,NO2:0.000,SO2:0.000,NH3:4.630
8:05:43,0,0,0,0,0,0,0,0,0,0,0,513,0,0,0,0,0.0000000,0.0000000,0.0000000,0.0000000,8.00,38.4065437,-110.7919006,1383.5999756,0.3,36.5,1.0,0.0,0.0,871,126,0,0,860.13,26.32,16.06,# data time:120,pm2.5:6.445,pm10:5.704,O2:0.000,NO2:0.000,SO2:0.000,NH3:4.630
8:05:44,0,0,0,0,0,0,0,0,0,0,0,513,0,0,0,0,0.0000000,0.0000000,0.0000000,0.0000000,8.00,38.4065437,-110.7919006,1383.5999756,0.1,19.8,1.0,0.0,0.0,871,130,0,0,860.16,26.29,16.06,# data time:120,pm2.5:6.445,pm10:5.704,O2:0.000,NO2:0.000,SO2:0.000,NH3:4.630
8:05:45,0,0,0,0,0,0,0,0,0,0,0,513,0,0,0,0,0.0000000,0.0000000,0.0000000,0.0000000,8.00,38.4065437,-110.7919006,1383.5999756,0.0,58.8,1.0,0.0,0.0,870,127,0,0,860.18,26.32,16.06,# data time:120,pm2.5:6.445,pm10:5.704,O2:0.000,NO2:0.000,SO2:0.000,NH3:4.630
8:05:46,0,0,0,0,0,0,0,0,0,0,0,514,0,0,0,0,0.0000000,0.0000000,0.0000000,0.0000000,8.00,38.4065437,-110.7919006,1383.5999756,0.1,90.6,1.0,0.0,0.0,870,127,0,0,860.12,26.32,16.06,# data time:120,pm2.5:6.445,pm10:5.704,O2:0.000,NO2:0.000,SO2:0.000,NH3:4.630
8:05:47,0,0,0,0,0,0,0,0,0,0,0,513,0,0,0,0,0.0000000,0.0000000,0.0000000,0.0000000,8.00,38.4065437,-110.7919006,1383.5999756,0.1,294.2,1.0,0.0,0.0,870,125,0,0,860.13,26.29,16.06,# data time:130,pm2.5:6.445,pm10:5.704,O2:0.000,NO2:0.000,SO2:0.000,NH3:4.630
8:05:48,0,0,0,0,0,0,0,0,0,0,0,513,0,0,0,0,0.0000000,0.0000000,0.0000000,0.0000000,8.00,38.4065437,-110.7919006,1383.5999756,0.1,251.2,1.0,0.0,0.0,871,130,0,0,860.12,26.29,16.06,# data time:130,pm2.5:6.445,pm10:5.704,O2:0.000,NO2:0.000,SO2:0.000,NH3:4.630
8:05:49,0,0,0,0,0,0,0,0,0,0,0,514,0,0,0,0,0.0000000,0.0000000,0.0000000,0.0000000,8.00,38.4065437,-110.7919006,1383.5999756,0.1,210.8,1.0,0.0,0.0,871,129,0,0,860.15,26.29,16.06,# data time:130,pm2.5:6.445,pm10:5.704,O2:0.000,NO2:0.000,SO2:0.000,NH3:4.630
8:05:50,0,0,0,0,0,0,0,0,0,0,0,513,0,0,0,0,0.0000000,0.0000000,0.0000000,0.0000000,8.00,38.4065437,-110.7919006,1383.5999756,0.2,120.2,1.0,0.0,0.0,870,130,0,0,860.12,26.28,16.06,# data time:130,pm2.5:6.445,pm10:5.704,O2:0.000,NO2:0.000,SO2:0.000,NH3:4.630
8:05:51,0,0,0,0,0,0,0,0,0,0,0,514,0,0,0,0,0.0000000,0.0000000,0.0000000,0.0000000,8.00,38.4065437,-110.7919006,1383.5999756,0.2,349.6,1.0,0.0,0.0,870,127,0,0,860.14,26.31,16.06,# data time:130,pm2.5:6.445,pm10:5.704,O2:0.000,NO2:0.000,SO2:0.000,NH3:4.630
8:05:52,0,0,0,0,0,0,0,0,0,0,0,513,0,0,0,0,0.0000000,0.0000000,0.0000000,0.0000000,8.00,38.4065437,-110.7919006,1383.5999756,0.0,350.6,1.1,0.0,0.0,872,129,0,0,860.10,26.31,16.06,# data time:130,pm2.5:6.445,pm10:5.704,O2:0.000,NO2:0.000,SO2:0.000,NH3:4.630
8:05:53,0,0,0,0,0,0,0,0,0,0,0,513,0,0,0,0,0.0000000,0.0000000,0.0000000,0.0000000,8.00,38.4065437,-110.7919006,1383.5999756,0.0,127.6,1.1,0.0,0.0,870,129,0,0,860.12,26.31,16.06,# data time:130,pm2.5:6.445,pm10:5.704,O2:0.000,NO2:0.000,SO2:0.000,NH3:4.630
8:05:54,0,0,0,0,0,0,0,0,0,0,0,514,0,0,0,0,0.0000000,0.0000000,0.0000000,0.0000000,8.00,38.4065437,-110.7919006,1383.5999756,0.0,78.8,1.0,0.0,0.0,870,127,0,0,860.07,26.29,16.07,# data time:130,pm2.5:6.445,pm10:5.704,O2:0.000,NO2:0.000,SO2:0.000,NH3:4.630
8:05:55,0,0,0,0,0,0,0,0,0,0,0,513,0,0,0,0,0.0000000,0.0000000,0.0000000,0.0000000,8.00,38.4065437,-110.7919006,1383.5999756,0.1,8.1,1.0,0.0,0.0,871,127,0,0,860.12,26.22,16.06,# data time:130,pm2.5:6.445,pm10:5.704,O2:0.000,NO2:0.000,SO2:0.000,NH3:4.630
8:05:56,0,0,0,0,0,0,0,0,0,0,0,513,0,0,0,0,0.0000000,0.0000000,0.0000000,0.0000000,8.00,38.4065437,-110.7919006,1383.5999756,0.1,244.4,1.1,0.0,0.0,871,127,0,0,860.15,26.23,16.07,# data time:140,pm2.5:6.445,pm10:5.704,O2:0.000,NO2:0.000,SO2:0.000,NH3:4.630
8:05:57,0,0,0,0,0,0,0,0,0,0,0,514,0,0,0,0,0.0000000,0.0000000,0.0000000,0.0000000,8.00,38.4065437,-110.7919006,1383.5999756,0.1,264.4,1.0,0.0,0.0,871,127,0,0,860.10,26.20,16.06,# data time:140,pm2.5:6.445,pm10:5.704,O2:0.000,NO2:0.000,SO2:0.000,NH3:4.630
8:05:58,0,0,0,0,0,0,0,0,0,0,0,514,0,0,0,0,0.0000000,0.0000000,0.0000000,0.0000000,8.00,38.4065437,-110.7919006,1383.5999756,0.1,184.9,1.0,0.0,0.0,870,126,0,0,860.14,26.20,16.07,# data time:140,pm2.5:6.445,pm10:5.704,O2:0.000,NO2:0.000,SO2:0.000,NH3:4.630
8:05:59,0,0,0,0,0,0,0,0,0,0,0,512,0,0,0,0,0.0000000,0.0000000,0.0000000,0.0000000,8.00,38.4065437,-110.7919006,1383.5999756,0.2,41.9,1.0,0.0,0.0,870,128,0,0,860.14,26.20,16.07,# data time:140,pm2.5:6.445,pm10:5.704,O2:0.000,NO2:0.000,SO2:0.000,NH3:4.630
8:06:00,0,0,0,0,0,0,0,0,0,0,0,513,0,0,0,0,0.0000000,0.0000000,0.0000000,0.0000000,8.00,38.4065437,-110.7919006,1383.5999756,0.1,32.0,1.0,0.0,0.0,870,129,0,0,860.10,26.22,16.07,# data time:140,pm2.5:6.445,pm10:5.704,O2:0.000,NO2:0.000,SO2:0.000,NH3:4.630
8:06:01,0,0,0,0,0,0,0,0,0,0,0,513,0,0,0,0,0.0000000,0.0000000,0.0000000,0.0000000,8.00,38.4065437,-110.7919006,1383.5999756,0.0,117.2,1.0,0.0,0.0,870,128,0,0,860.13,26.25,16.07,# data time:140,pm2.5:6.445,pm10:5.704,O2:0.000,NO2:0.000,SO2:0.000,NH3:4.630
8:06:02,0,0,0,0,0,0,0,0,0,0,0,513,0,0,0,0,0.0000000,0.0000000,0.0000000,0.0000000,8.00,38.4065437,-110.7919006,1383.5999756,0.0,52.1,1.0,0.0,0.0,870,124,0,0,860.13,26.22,16.07,# data time:140,pm2.5:6.445,pm10:5.704,O2:0.000,NO2:0.000,SO2:0.000,NH3:4.630
8:06:03,0,0,0,0,0,0,0,0,0,0,0,513,0,0,0,0,0.0000000,0.0000000,0.0000000,0.0000000,8.00,38.4065437,-110.7919006,1383.5000000,0.1,348.9,1.0,0.0,0.0,870,127,0,0,860.13,26.25,16.08,# data time:140,pm2.5:6.445,pm10:5.704,O2:0.000,NO2:0.000,SO2:0.000,NH3:4.630
8:06:04,0,0,0,0,0,0,0,0,0,0,0,513,0,0,0,0,0.0000000,0.0000000,0.0000000,0.0000000,8.00,38.4065437,-110.7919006,1383.5000000,0.0,287.0,1.1,0.0,0.0,870,127,0,0,860.13,26.28,16.08,# data time:140,pm2.5:6.445,pm10:5.704,O2:0.000,NO2:0.000,SO2:0.000,NH3:4.630
8:06:05,0,0,0,0,0,0,0,0,0,0,0,513,0,0,0,0,0.0000000,0.0000000,0.0000000,0.0000000,8.00,38.4065437,-110.7919006,1383.5000000,0.0,141.4,1.0,0.0,0.0,870,128,0,0,860.11,26.28,16.08,# data time:140,pm2.5:6.445,pm10:5.704,O2:0.000,NO2:0.000,SO2:0.000,NH3:4.630
8:06:06,0,0,0,0,0,0,0,0,0,0,0,513,0,0,0,0,0.0000000,0.0000000,0.0000000,0.0000000,8.00,38.4065437,-110.7919006,1383.4000244,0.0,350.2,1.0,0.0,0.0,870,125,0,0,860.14,26.26,16.08,# data time:150,pm2.5:6.445,pm10:5.704,O2:0.000,NO2:0.000,SO2:0.000,NH3:4.857
8:06:07,0,0,0,0,0,0,0,0,0,0,0,513,0,0,0,0,0.0000000,0.0000000,0.0000000,0.0000000,8.00,38.4065437,-110.7919006,1383.1999512,0.2,321.8,1.1,0.0,0.0,870,128,0,0,860.14,26.31,16.08,# data time:150,pm2.5:6.445,pm10:5.704,O2:0.000,NO2:0.000,SO2:0.000,NH3:4.857
8:06:08,0,0,0,0,0,0,0,0,0,0,0,514,0,0,0,0,0.0000000,0.0000000,0.0000000,0.0000000,8.00,38.4065475,-110.7919006,1383.1999512,0.2,319.0,1.1,0.0,0.0,870,126,0,0,860.09,26.44,15.98,# data time:150,pm2.5:6.445,pm10:5.704,O2:0.000,NO2:0.000,SO2:0.000,NH3:4.857
8:06:09,0,0,0,0,0,0,0,0,0,0,0,513,0,0,0,0,0.0000000,0.0000000,0.0000000,0.0000000,8.00,38.4065475,-110.7919006,1382.9000244,0.3,323.5,1.0,0.0,0.0,870,128,0,0,860.01,28.09,15.99,# data time:150,pm2.5:6.445,pm10:5.704,O2:0.000,NO2:0.000,SO2:0.000,NH3:4.857
8:06:10,0,0,0,0,0,0,0,0,0,0,0,514,0,0,0,0,0.0000000,0.0000000,0.0000000,0.0000000,8.00,38.4065399,-110.7919006,1382.4000244,0.3,323.5,1.0,0.0,0.0,870,129,0,0,860.03,28.52,16.04,# data time:150,pm2.5:6.445,pm10:5.704,O2:0.000,NO2:0.000,SO2:0.000,NH3:4.857
8:06:11,0,0,0,0,0,0,0,0,0,0,0,514,0,0,0,0,0.0000000,0.0000000,0.0000000,0.0000000,8.00,38.4065323,-110.7919006,1382.1999512,0.2,88.9,1.0,0.0,0.0,870,128,0,0,860.02,27.97,16.04,# data time:150,pm2.5:6.445,pm10:5.704,O2:0.000,NO2:0.000,SO2:0.000,NH3:4.857
8:06:12,0,0,0,0,0,0,0,0,0,0,0,515,0,0,0,0,0.0000000,0.0000000,0.0000000,0.0000000,8.00,38.4065285,-110.7919006,1382.0000000,0.4,153.7,1.0,0.0,0.0,870,127,0,0,860.05,27.56,16.03,# data time:150,pm2.5:6.445,pm10:5.704,O2:0.000,NO2:0.000,SO2:0.000,NH3:4.857
8:06:13,0,0,0,0,0,0,0,0,0,0,0,513,0,0,0,0,0.0000000,0.0000000,0.0000000,0.0000000,8.00,38.4065170,-110.7919083,1381.6999512,0.5,216.9,1.0,0.0,0.0,870,135,0,0,860.03,27.24,16.06,# data time:150,pm2.5:6.445,pm10:5.704,O2:0.000,NO2:0.000,SO2:0.000,NH3:4.857
8:06:14,0,0,0,0,0,0,0,0,0,0,0,513,0,0,0,0,0.0000000,0.0000000,0.0000000,0.0000000,8.00,38.4065132,-110.7919083,1381.4000244,0.5,220.3,1.0,0.0,0.0,870,131,0,0,860.05,26.90,16.05,# data time:150,pm2.5:6.445,pm10:5.704,O2:0.000,NO2:0.000,SO2:0.000,NH3:4.857
8:06:15,0,0,0,0,0,0,0,0,0,0,0,514,0,0,0,0,0.0000000,0.0000000,0.0000000,0.0000000,8.00,38.4064980,-110.7919235,1381.1999512,0.9,223.6,1.0,0.0,0.0,870,132,0,0,860.07,26.79,16.05,# data time:150,pm2.5:6.445,pm10:5.704,O2:0.000,NO2:0.000,SO2:0.000,NH3:4.857
8:06:17,0,0,0,0,0,0,0,0,0,0,0,514,0,0,0,0,0.0000000,0.0000000,0.0000000,0.0000000,8.00,38.4064903,-110.7919235,1380.8000488,1.0,228.0,1.0,0.0,0.0,870,129,0,0,860.05,26.75,16.06,# data time:160,pm2.5:6.445,pm10:5.704,O2:0.000,NO2:0.000,SO2:0.000,NH3:5.083
8:06:18,0,0,0,0,0,0,0,0,0,0,0,514,0,0,0,0,0.0000000,0.0000000,0.0000000,0.0000000,8.00,38.4064865,-110.7919388,1380.5999756,0.8,246.2,1.0,0.0,0.0,870,130,0,0,860.04,26.60,16.07,# data time:160,pm2.5:6.445,pm10:5.704,O2:0.000,NO2:0.000,SO2:0.000,NH3:5.083
8:06:19,0,0,0,0,0,0,0,0,0,0,0,513,0,0,0,0,0.0000000,0.0000000,0.0000000,0.0000000,8.00,38.4064751,-110.7919388,1380.3000488,0.7,247.7,1.0,0.0,0.0,870,130,0,0,860.10,26.43,16.07,# data time:160,pm2.5:6.445,pm10:5.704,O2:0.000,NO2:0.000,SO2:0.000,NH3:5.083
8:06:20,0,0,0,0,0,0,0,0,0,0,0,514,0,0,0,0,0.0000000,0.0000000,0.0000000,0.0000000,8.00,38.4064713,-110.7919464,1379.9000244,0.5,254.3,1.0,0.0,0.0,870,131,0,0,860.07,26.43,16.06,# data time:160,pm2.5:6.445,pm10:5.704,O2:0.000,NO2:0.000,SO2:0.000,NH3:5.083
8:06:21,0,0,0,0,0,0,0,0,0,0,0,514,0,0,0,0,0.0000000,0.0000000,0.0000000,0.0000000,8.00,38.4064674,-110.7919464,1379.5999756,0.4,269.1,1.0,0.0,0.0,870,134,0,0,860.09,26.66,16.06,# data time:160,pm2.5:6.445,pm10:5.704,O2:0.000,NO2:0.000,SO2:0.000,NH3:5.083
8:06:22,0,0,0,0,0,0,0,0,0,0,0,514,0,0,0,0,0.0000000,0.0000000,0.0000000,0.0000000,8.00,38.4064674,-110.7919464,1379.5999756,0.4,269.1,1.0,0.0,0.0,870,134,0,0,860.09,26.66,16.06,# data time:160,pm2.5:6.445,pm10:5.704,O2:0.000,NO2:0.000,SO2:0.000,NH3:5.083
8:06:23,0,0,0,0,0,0,0,0,0,0,0,514,0,0,0,0,0.0000000,0.0000000,0.0000000,0.0000000,8.00,38.4064636,-110.7919464,1379.3000488,0.1,238.8,1.0,0.0,0.0,870,129,0,0,860.04,26.81,15.96,# data time:160,pm2.5:6.445,pm10:5.704,O2:0.000,NO2:0.000,SO2:0.000,NH3:5.083
8:06:24,0,0,0,0,0,0,0,0,0,0,0,514,0,0,0,0,0.0000000,0.0000000,0.0000000,0.0000000,8.00,38.4064598,-110.7919464,1379.1999512,0.0,295.4,1.0,0.0,0.0,870,129,0,0,860.04,26.67,16.01,# data time:160,pm2.5:6.445,pm10:5.704,O2:0.000,NO2:0.000,SO2:0.000,NH3:5.083
8:06:25,0,0,0,0,0,0,0,0,0,0,0,513,0,0,0,0,0.0000000,0.0000000,0.0000000,0.0000000,8.00,38.4064598,-110.7919464,1379.1999512,0.2,235.6,1.0,0.0,0.0,872,130,0,0,860.06,26.60,16.05,# data time:160,pm2.5:6.445,pm10:5.704,O2:0.000,NO2:0.000,SO2:0.000,NH3:5.083
8:06:26,0,0,0,0,0,0,0,0,0,0,0,514,0,0,0,0,0.0000000,0.0000000,0.0000000,0.0000000,8.00,38.4064598,-110.7919464,1379.0999756,0.2,286.5,1.0,0.0,0.0,870,127,0,0,860.05,26.64,16.05,# data time:160,pm2.5:6.445,pm10:5.704,O2:0.000,NO2:0.000,SO2:0.000,NH3:5.083
8:06:27,0,0,0,0,0,0,0,0,0,0,0,514,0,0,0,0,0.0000000,0.0000000,0.0000000,0.0000000,8.00,38.4064598,-110.7919464,1379.0999756,0.0,348.5,1.0,0.0,0.0,870,125,0,0,860.10,26.63,16.05,# data time:170,pm2.5:6.445,pm10:5.704,O2:0.000,NO2:0.000,SO2:0.000,NH3:5.083
8:06:28,0,0,0,0,0,0,0,0,0,0,0,513,0,0,0,0,0.0000000,0.0000000,0.0000000,0.0000000,8.00,38.4064598,-110.7919464,1379.0999756,0.1,72.9,1.1,0.0,0.0,870,132,0,0,860.06,26.66,16.06,# data time:170,pm2.5:6.445,pm10:5.704,O2:0.000,NO2:0.000,SO2:0.000,NH3:5.083
8:06:29,0,0,0,0,0,0,0,0,0,0,0,514,0,0,0,0,0.0000000,0.0000000,0.0000000,0.0000000,8.00,38.4064598,-110.7919464,1379.0999756,0.1,308.5,1.0,0.0,0.0,870,123,0,0,860.05,26.58,16.05,# data time:170,pm2.5:6.445,pm10:5.704,O2:0.000,NO2:0.000,SO2:0.000,NH3:5.083
8:06:30,0,0,0,0,0,0,0,0,0,0,0,514,0,0,0,0,0.0000000,0.0000000,0.0000000,0.0000000,8.00,38.4064598,-110.7919464,1379.0999756,0.1,291.2,1.0,0.0,0.0,870,126,0,0,860.08,26.54,16.05,# data time:170,pm2.5:6.445,pm10:5.704,O2:0.000,NO2:0.000,SO2:0.000,NH3:5.083
8:06:31,0,0,0,0,0,0,0,0,0,0,0,514,0,0,0,0,0.0000000,0.0000000,0.0000000,0.0000000,8.00,38.4064598,-110.7919464,1379.0999756,0.1,15.7,1.0,0.0,0.0,869,130,0,0,860.04,26.47,16.06,# data time:170,pm2.5:6.445,pm10:5.704,O2:0.000,NO2:0.000,SO2:0.000,NH3:5.083
8:06:32,0,0,0,0,0,0,0,0,0,0,0,514,0,0,0,0,0.0000000,0.0000000,0.0000000,0.0000000,8.00,38.4064598,-110.7919464,1379.0999756,0.1,294.3,1.0,0.0,0.0,869,127,0,0,860.06,26.49,16.05,# data time:170,pm2.5:6.445,pm10:5.704,O2:0.000,NO2:0.000,SO2:0.000,NH3:5.083
8:06:33,0,0,0,0,0,0,0,0,0,0,0,514,0,0,0,0,0.0000000,0.0000000,0.0000000,0.0000000,8.00,38.4064598,-110.7919464,1379.0999756,0.1,347.3,1.0,0.0,0.0,870,129,0,0,860.08,26.64,16.06,# data time:170,pm2.5:6.445,pm10:5.704,O2:0.000,NO2:0.000,SO2:0.000,NH3:5.083
8:06:34,0,0,0,0,0,0,0,0,0,0,0,515,0,0,0,0,0.0000000,0.0000000,0.0000000,0.0000000,8.00,38.4064598,-110.7919464,1379.0999756,0.1,359.9,1.1,0.0,0.0,870,129,0,0,860.07,27.10,16.05,# data time:170,pm2.5:6.445,pm10:5.704,O2:0.000,NO2:0.000,SO2:0.000,NH3:5.083
8:06:35,0,0,0,0,0,0,0,0,0,0,0,514,0,0,0,0,0.0000000,0.0000000,0.0000000,0.0000000,8.00,38.4064598,-110.7919464,1379.0999756,0.1,345.3,1.1,0.0,0.0,870,130,0,0,860.13,28.53,16.06,# data time:170,pm2.5:6.445,pm10:5.704,O2:0.000,NO2:0.000,SO2:0.000,NH3:5.083
8:06:36,0,0,0,0,0,0,0,0,0,0,0,514,0,0,0,0,0.0000000,0.0000000,0.0000000,0.0000000,8.00,38.4064598,-110.7919464,1379.0999756,0.2,332.6,1.1,0.0,0.0,870,129,0,0,860.11,29.74,16.06,# data time:170,pm2.5:6.445,pm10:5.704,O2:0.000,NO2:0.000,SO2:0.000,NH3:5.083
8:06:37,0,0,0,0,0,0,0,0,0,0,0,514,0,0,0,0,0.0000000,0.0000000,0.0000000,0.0000000,8.00,38.4064598,-110.7919464,1379.0999756,0.1,331.0,1.0,0.0,0.0,870,139,0,0,860.08,29.89,16.06,# data time:180,pm2.5:6.445,pm10:5.704,O2:0.000,NO2:0.000,SO2:0.000,NH3:5.083
8:06:38,0,0,0,0,0,0,0,0,0,0,0,514,0,0,0,0,0.0000000,0.0000000,0.0000000,0.0000000,8.00,38.4064598,-110.7919464,1379.0999756,0.1,274.3,1.0,0.0,0.0,870,139,0,0,860.09,30.90,16.06,# data time:180,pm2.5:6.445,pm10:5.704,O2:0.000,NO2:0.000,SO2:0.000,NH3:5.083
8:06:39,0,0,0,0,0,0,0,0,0,0,0,514,0,0,0,0,0.0000000,0.0000000,0.0000000,0.0000000,8.00,38.4064598,-110.7919464,1379.0999756,0.1,249.7,1.0,0.0,0.0,870,137,0,0,860.10,31.86,16.06,# data time:180,pm2.5:6.445,pm10:5.704,O2:0.000,NO2:0.000,SO2:0.000,NH3:5.083
8:06:40,0,0,0,0,0,0,0,0,0,0,0,515,0,0,0,0,0.0000000,0.0000000,0.0000000,0.0000000,8.00,38.4064598,-110.7919464,1379.0999756,0.1,172.3,1.0,0.0,0.0,871,136,0,0,860.10,31.92,16.06,# data time:180,pm2.5:6.445,pm10:5.704,O2:0.000,NO2:0.000,SO2:0.000,NH3:5.083
8:06:41,0,0,0,0,0,0,0,0,0,0,0,514,0,0,0,0,0.0000000,0.0000000,0.0000000,0.0000000,8.00,38.4064598,-110.7919464,1379.0999756,0.1,152.3,1.0,0.0,0.0,870,136,0,0,860.08,31.43,16.06,# data time:180,pm2.5:6.445,pm10:5.704,O2:0.000,NO2:0.000,SO2:0.000,NH3:5.083
8:06:42,0,0,0,0,0,0,0,0,0,0,0,515,0,0,0,0,0.0000000,0.0000000,0.0000000,0.0000000,8.00,38.4064598,-110.7919464,1379.0999756,0.1,131.2,1.0,0.0,0.0,870,132,0,0,860.09,30.85,16.06,# data time:180,pm2.5:6.445,pm10:5.704,O2:0.000,NO2:0.000,SO2:0.000,NH3:5.083
8:06:43,0,0,0,0,0,0,0,0,0,0,0,514,0,0,0,0,0.0000000,0.0000000,0.0000000,0.0000000,8.00,38.4064598,-110.7919464,1379.0999756,0.1,110.1,1.0,0.0,0.0,870,136,0,0,860.08,30.14,16.06,# data time:180,pm2.5:6.445,pm10:5.704,O2:0.000,NO2:0.000,SO2:0.000,NH3:5.083
8:06:44,0,0,0,0,0,0,0,0,0,0,0,514,0,0,0,0,0.0000000,0.0000000,0.0000000,0.0000000,8.00,38.4064598,-110.7919464,1379.0999756,0.1,132.4,1.0,0.0,0.0,870,133,0,0,860.06,29.47,16.05,# data time:180,pm2.5:6.445,pm10:5.704,O2:0.000,NO2:0.000,SO2:0.000,NH3:5.083
8:06:45,0,0,0,0,0,0,0,0,0,0,0,513,0,0,0,0,0.0000000,0.0000000,0.0000000,0.0000000,8.00,38.4064598,-110.7919464,1379.0000000,0.1,224.6,1.0,0.0,0.0,870,134,0,0,860.05,28.90,16.05,# data time:180,pm2.5:6.445,pm10:5.704,O2:0.000,NO2:0.000,SO2:0.000,NH3:5.083
8:06:46,0,0,0,0,0,0,0,0,0,0,0,514,0,0,0,0,0.0000000,0.0000000,0.0000000,0.0000000,8.00,38.4064598,-110.7919464,1379.0000000,0.2,251.8,1.0,0.0,0.0,870,141,0,0,860.05,28.46,16.05,# data time:190,pm2.5:6.445,pm10:5.704,O2:0.000,NO2:0.000,SO2:0.000,NH3:5.309
8:06:47,0,0,0,0,0,0,0,0,0,0,0,514,0,0,0,0,0.0000000,0.0000000,0.0000000,0.0000000,8.00,38.4064598,-110.7919464,1379.0000000,0.3,268.0,1.0,0.0,0.0,869,130,0,0,860.11,28.09,16.06,# data time:190,pm2.5:6.445,pm10:5.704,O2:0.000,NO2:0.000,SO2:0.000,NH3:5.309
8:06:48,0,0,0,0,0,0,0,0,0,0,0,514,0,0,0,0,0.0000000,0.0000000,0.0000000,0.0000000,9.00,38.4064598,-110.7919464,1379.0000000,0.4,255.3,0.9,0.0,0.0,870,132,0,0,860.06,27.79,16.05,# data time:190,pm2.5:6.445,pm10:5.704,O2:0.000,NO2:0.000,SO2:0.000,NH3:5.309
8:06:49,0,0,0,0,0,0,0,0,0,0,0,515,0,0,0,0,0.0000000,0.0000000,0.0000000,0.0000000,9.00,38.4064560,-110.7919464,1379.0000000,0.4,272.0,0.9,0.0,0.0,870,131,0,0,860.05,27.59,16.06,# data time:190,pm2.5:6.445,pm10:5.704,O2:0.000,NO2:0.000,SO2:0.000,NH3:5.309
8:06:50,0,0,0,0,0,0,0,0,0,0,0,514,0,0,0,0,0.0000000,0.0000000,0.0000000,0.0000000,9.00,38.4064560,-110.7919617,1379.0000000,0.4,263.6,0.9,0.0,0.0,870,133,0,0,860.10,27.34,16.05,# data time:190,pm2.5:6.445,pm10:5.704,O2:0.000,NO2:0.000,SO2:0.000,NH3:5.309
8:06:51,0,0,0,0,0,0,0,0,0,0,0,515,0,0,0,0,0.0000000,0.0000000,0.0000000,0.0000000,9.00,38.4064560,-110.7919617,1379.0000000,0.3,265.8,0.9,0.0,0.0,870,131,0,0,860.06,27.15,16.06,# data time:190,pm2.5:6.445,pm10:5.704,O2:0.000,NO2:0.000,SO2:0.000,NH3:5.309
8:06:52,0,0,0,0,0,0,0,0,0,0,0,514,0,0,0,0,0.0000000,0.0000000,0.0000000,0.0000000,9.00,38.4064560,-110.7919617,1379.0000000,0.2,269.5,0.9,0.0,0.0,870,131,0,0,860.11,26.98,16.05,# data time:190,pm2.5:6.445,pm10:5.704,O2:0.000,NO2:0.000,SO2:0.000,NH3:5.309
8:06:53,0,0,0,0,0,0,0,0,0,0,0,514,0,0,0,0,0.0000000,0.0000000,0.0000000,0.0000000,9.00,38.4064560,-110.7919617,1379.0000000,0.2,264.8,0.9,0.0,0.0,869,130,0,0,860.10,26.90,16.05,# data time:190,pm2.5:6.445,pm10:5.704,O2:0.000,NO2:0.000,SO2:0.000,NH3:5.309
8:06:54,0,0,0,0,0,0,0,0,0,0,0,514,0,0,0,0,0.0000000,0.0000000,0.0000000,0.0000000,9.00,38.4064560,-110.7919617,1379.0000000,0.1,291.2,0.9,0.0,0.0,870,132,0,0,860.14,26.81,16.05,# data time:190,pm2.5:6.445,pm10:5.704,O2:0.000,NO2:0.000,SO2:0.000,NH3:5.309
8:06:55,0,0,0,0,0,0,0,0,0,0,0,514,0,0,0,0,0.0000000,0.0000000,0.0000000,0.0000000,9.00,38.4064560,-110.7919617,1379.0000000,0.1,298.8,0.9,0.0,0.0,869,132,0,0,860.07,26.70,16.05,# data time:190,pm2.5:6.445,pm10:5.704,O2:0.000,NO2:0.000,SO2:0.000,NH3:5.309
8:06:56,0,0,0,0,0,0,0,0,0,0,0,514,0,0,0,0,0.0000000,0.0000000,0.0000000,0.0000000,9.00,38.4064560,-110.7919617,1379.0000000,0.0,43.7,0.9,0.0,0.0,870,133,0,0,860.08,26.60,16.05,# data time:200,pm2.5:6.445,pm10:5.704,O2:0.000,NO2:0.000,SO2:0.000,NH3:5.536
8:06:57,0,0,0,0,0,0,0,0,0,0,0,514,0,0,0,0,0.0000000,0.0000000,0.0000000,0.0000000,9.00,38.4064560,-110.7919617,1379.0000000,0.1,14.5,0.9,0.0,0.0,870,133,0,0,860.08,26.52,16.05,# data time:200,pm2.5:6.445,pm10:5.704,O2:0.000,NO2:0.000,SO2:0.000,NH3:5.536
8:06:58,0,0,0,0,0,0,0,0,0,0,0,514,0,0,0,0,0.0000000,0.0000000,0.0000000,0.0000000,9.00,38.4064560,-110.7919617,1379.0000000,0.2,22.8,1.0,0.0,0.0,870,128,0,0,860.07,26.41,16.05,# data time:200,pm2.5:6.445,pm10:5.704,O2:0.000,NO2:0.000,SO2:0.000,NH3:5.536
8:06:59,0,0,0,0,0,0,0,0,0,0,0,515,0,0,0,0,0.0000000,0.0000000,0.0000000,0.0000000,9.00,38.4064598,-110.7919617,1379.0000000,0.1,30.6,0.9,0.0,0.0,870,131,0,0,860.08,26.40,16.05,# data time:200,pm2.5:6.445,pm10:5.704,O2:0.000,NO2:0.000,SO2:0.000,NH3:5.536
8:07:00,0,0,0,0,0,0,0,0,0,0,0,514,0,0,0,0,0.0000000,0.0000000,0.0000000,0.0000000,9.00,38.4064598,-110.7919617,1379.0000000,0.2,103.6,0.9,0.0,0.0,870,124,0,0,860.05,26.25,15.94,# data time:200,pm2.5:6.445,pm10:5.704,O2:0.000,NO2:0.000,SO2:0.000,NH3:5.536
8:07:01,0,0,0,0,0,0,0,0,0,0,0,514,0,0,0,0,0.0000000,0.0000000,0.0000000,0.0000000,9.00,38.4064598,-110.7919617,1379.0000000,0.2,149.6,0.9,0.0,0.0,869,120,0,0,860.06,26.22,15.94,# data time:200,pm2.5:6.445,pm10:5.704,O2:0.000,NO2:0.000,SO2:0.000,NH3:5.536
8:07:02,0,0,0,0,0,0,0,0,0,0,0,514,0,0,0,0,0.0000000,0.0000000,0.0000000,0.0000000,9.00,38.4064560,-110.7919617,1379.0000000,0.1,200.4,0.9,0.0,0.0,870,128,0,0,860.01,26.18,15.94,# data time:200,pm2.5:6.445,pm10:5.704,O2:0.000,NO2:0.000,SO2:0.000,NH3:5.536
8:07:03,0,0,0,0,0,0,0,0,0,0,0,514,0,0,0,0,0.0000000,0.0000000,0.0000000,0.0000000,9.00,38.4064560,-110.7919617,1379.0000000,0.1,183.3,0.9,0.0,0.0,870,127,0,0,860.06,26.18,16.00,# data time:200,pm2.5:6.445,pm10:5.704,O2:0.000,NO2:0.000,SO2:0.000,NH3:5.536
8:07:04,0,0,0,0,0,0,0,0,0,0,0,513,0,0,0,0,0.0000000,0.0000000,0.0000000,0.0000000,9.00,38.4064560,-110.7919617,1379.0000000,0.1,341.1,0.9,0.0,0.0,870,128,0,0,860.09,26.22,15.99,# data time:200,pm2.5:6.445,pm10:5.704,O2:0.000,NO2:0.000,SO2:0.000,NH3:5.536
8:07:05,0,0,0,0,0,0,0,0,0,0,0,514,0,0,0,0,0.0000000,0.0000000,0.0000000,0.0000000,9.00,38.4064560,-110.7919617,1379.0000000,0.2,33.6,0.9,0.0,0.0,871,127,0,0,860.11,26.17,16.04,# data time:200,pm2.5:6.445,pm10:5.704,O2:0.000,NO2:0.000,SO2:0.000,NH3:5.536
8:07:06,0,0,0,0,0,0,0,0,0,0,0,514,0,0,0,0,0.0000000,0.0000000,0.0000000,0.0000000,9.00,38.4064560,-110.7919617,1379.0000000,0.3,63.7,0.9,0.0,0.0,870,128,0,0,860.10,26.15,16.04,# data time:210,pm2.5:6.445,pm10:5.704,O2:0.000,NO2:0.000,SO2:0.000,NH3:5.536
8:07:07,0,0,0,0,0,0,0,0,0,0,0,514,0,0,0,0,0.0000000,0.0000000,0.0000000,0.0000000,9.00,38.4064560,-110.7919617,1379.0000000,0.3,63.7,0.9,0.0,0.0,870,128,0,0,860.10,26.15,16.04,# data time:210,pm2.5:6.445,pm10:5.704,O2:0.000,NO2:0.000,SO2:0.000,NH3:5.536
8:07:09,0,0,0,0,0,0,0,0,0,0,0,515,0,0,0,0,0.0000000,0.0000000,0.0000000,0.0000000,9.00,38.4064598,-110.7919617,1379.0000000,0.4,90.1,0.9,0.0,0.0,870,126,0,0,860.10,26.11,16.03,# data time:210,pm2.5:6.445,pm10:5.704,O2:0.000,NO2:0.000,SO2:0.000,NH3:5.536
8:07:10,0,0,0,0,0,0,0,0,0,0,0,514,0,0,0,0,0.0000000,0.0000000,0.0000000,0.0000000,9.00,38.4064598,-110.7919617,1379.0000000,0.4,78.1,0.9,0.0,0.0,870,134,0,0,860.11,26.08,16.03,# data time:210,pm2.5:6.445,pm10:5.704,O2:0.000,NO2:0.000,SO2:0.000,NH3:5.536
8:07:11,0,0,0,0,0,0,0,0,0,0,0,514,0,0,0,0,0.0000000,0.0000000,0.0000000,0.0000000,9.00,38.4064598,-110.7919464,1379.0000000,0.2,84.3,0.9,0.0,0.0,870,125,0,0,860.09,26.09,16.03,# data time:210,pm2.5:6.445,pm10:5.704,O2:0.000,NO2:0.000,SO2:0.000,NH3:5.536
8:07:12,0,0,0,0,0,0,0,0,0,0,0,514,0,0,0,0,0.0000000,0.0000000,0.0000000,0.0000000,9.00,38.4064598,-110.7919464,1379.0000000,0.2,84.3,0.9,0.0,0.0,870,127,0,0,860.05,26.09,15.93,# data time:210,pm2.5:6.445,pm10:5.704,O2:0.000,NO2:0.000,SO2:0.000,NH3:5.536
8:07:13,0,0,0,0,0,0,0,0,0,0,0,514,0,0,0,0,0.0000000,0.0000000,0.0000000,0.0000000,9.00,38.4064598,-110.7919464,1379.0000000,0.2,80.3,0.9,0.0,0.0,870,128,0,0,860.08,26.12,15.93,# data time:210,pm2.5:6.445,pm10:5.704,O2:0.000,NO2:0.000,SO2:0.000,NH3:5.536
8:07:14,0,0,0,0,0,0,0,0,0,0,0,514,0,0,0,0,0.0000000,0.0000000,0.0000000,0.0000000,9.00,38.4064598,-110.7919464,1379.0000000,0.0,134.8,0.9,0.0,0.0,870,126,0,0,860.09,26.20,15.99,# data time:210,pm2.5:6.445,pm10:5.704,O2:0.000,NO2:0.000,SO2:0.000,NH3:5.536
8:07:15,0,0,0,0,0,0,0,0,0,0,0,515,0,0,0,0,0.0000000,0.0000000,0.0000000,0.0000000,9.00,38.4064560,-110.7919464,1379.0000000,0.1,197.6,0.9,0.0,0.0,869,126,0,0,860.12,26.15,16.03,# data time:210,pm2.5:6.445,pm10:5.704,O2:0.000,NO2:0.000,SO2:0.000,NH3:5.536
8:07:16,0,0,0,0,0,0,0,0,0,0,0,514,0,0,0,0,0.0000000,0.0000000,0.0000000,0.0000000,9.00,38.4064560,-110.7919464,1379.0000000,0.1,180.9,0.9,0.0,0.0,870,129,0,0,860.10,26.12,16.03,# data time:210,pm2.5:6.445,pm10:5.704,O2:0.000,NO2:0.000,SO2:0.000,NH3:5.536
8:07:17,0,0,0,0,0,0,0,0,0,0,0,514,0,0,0,0,0.0000000,0.0000000,0.0000000,0.0000000,9.00,38.4064560,-110.7919464,1379.0000000,0.1,67.8,0.9,0.0,0.0,870,129,0,0,860.10,26.06,16.02,# data time:220,pm2.5:6.445,pm10:5.704,O2:0.000,NO2:0.000,SO2:0.000,NH3:5.083
8:07:18,0,0,0,0,0,0,0,0,0,0,0,514,0,0,0,0,0.0000000,0.0000000,0.0000000,0.0000000,9.00,38.4064560,-110.7919464,1379.0000000,0.1,144.4,0.9,0.0,0.0,870,127,0,0,860.11,26.08,16.02,# data time:220,pm2.5:6.445,pm10:5.704,O2:0.000,NO2:0.000,SO2:0.000,NH3:5.083
8:07:19,0,0,0,0,0,0,0,0,0,0,0,513,0,0,0,0,0.0000000,0.0000000,0.0000000,0.0000000,9.00,38.4064560,-110.7919464,1379.0000000,0.1,46.1,0.9,0.0,0.0,869,130,0,0,860.10,26.05,16.02,# data time:220,pm2.5:6.445,pm10:5.704,O2:0.000,NO2:0.000,SO2:0.000,NH3:5.083
8:07:20,0,0,0,0,0,0,0,0,0,0,0,514,0,0,0,0,0.0000000,0.0000000,0.0000000,0.0000000,9.00,38.4064560,-110.7919464,1379.0000000,0.1,45.4,0.9,0.0,0.0,869,125,0,0,860.06,26.05,16.02,# data time:220,pm2.5:6.445,pm10:5.704,O2:0.000,NO2:0.000,SO2:0.000,NH3:5.083
8:07:21,0,0,0,0,0,0,0,0,0,0,0,514,0,0,0,0,0.0000000,0.0000000,0.0000000,0.0000000,9.00,38.4064560,-110.7919464,1379.0000000,0.0,28.2,0.9,0.0,0.0,869,128,0,0,860.04,26.09,16.02,# data time:220,pm2.5:6.445,pm10:5.704,O2:0.000,NO2:0.000,SO2:0.000,NH3:5.083
8:07:22,0,0,0,0,0,0,0,0,0,0,0,514,0,0,0,0,0.0000000,0.0000000,0.0000000,0.0000000,9.00,38.4064560,-110.7919464,1379.0000000,0.1,292.2,0.9,0.0,0.0,869,127,0,0,860.09,26.06,16.02,# data time:220,pm2.5:6.445,pm10:5.704,O2:0.000,NO2:0.000,SO2:0.000,NH3:5.083
8:07:23,0,0,0,0,0,0,0,0,0,0,0,514,0,0,0,0,0.0000000,0.0000000,0.0000000,0.0000000,9.00,38.4064560,-110.7919464,1379.0000000,0.1,297.9,0.9,0.0,0.0,870,127,0,0,860.06,26.08,16.02,# data time:220,pm2.5:6.445,pm10:5.704,O2:0.000,NO2:0.000,SO2:0.000,NH3:5.083
8:07:24,0,0,0,0,0,0,0,0,0,0,0,514,0,0,0,0,0.0000000,0.0000000,0.0000000,0.0000000,9.00,38.4064560,-110.7919464,1378.9000244,0.1,169.5,0.9,0.0,0.0,870,130,0,0,860.09,26.12,16.01,# data time:220,pm2.5:6.445,pm10:5.704,O2:0.000,NO2:0.000,SO2:0.000,NH3:5.083
8:07:25,0,0,0,0,0,0,0,0,0,0,0,513,0,0,0,0,0.0000000,0.0000000,0.0000000,0.0000000,9.00,38.4064560,-110.7919464,1378.9000244,0.1,173.1,0.9,0.0,0.0,870,127,0,0,860.07,26.12,16.01,# data time:220,pm2.5:6.445,pm10:5.704,O2:0.000,NO2:0.000,SO2:0.000,NH3:5.083
8:07:26,0,0,0,0,0,0,0,0,0,0,0,515,0,0,0,0,0.0000000,0.0000000,0.0000000,0.0000000,9.00,38.4064560,-110.7919464,1378.9000244,0.2,188.2,0.9,0.0,0.0,870,128,0,0,860.11,26.15,16.02,# data time:220,pm2.5:6.445,pm10:5.704,O2:0.000,NO2:0.000,SO2:0.000,NH3:5.083
8:07:27,0,0,0,0,0,0,0,0,0,0,0,514,0,0,0,0,0.0000000,0.0000000,0.0000000,0.0000000,9.00,38.4064560,-110.7919464,1378.9000244,0.3,186.3,0.9,0.0,0.0,869,128,0,0,860.11,26.18,16.02,# data time:230,pm2.5:6.445,pm10:5.704,O2:0.000,NO2:0.000,SO2:0.000,NH3:5.083
8:07:28,0,0,0,0,0,0,0,0,0,0,0,513,0,0,0,0,0.0000000,0.0000000,0.0000000,0.0000000,9.00,38.4064560,-110.7919464,1378.9000244,0.2,184.1,0.9,0.0,0.0,869,130,0,0,860.06,26.17,16.01,# data time:230,pm2.5:6.445,pm10:5.704,O2:0.000,NO2:0.000,SO2:0.000,NH3:5.083
8:07:29,0,0,0,0,0,0,0,0,0,0,0,514,0,0,0,0,0.0000000,0.0000000,0.0000000,0.0000000,9.00,38.4064560,-110.7919464,1378.9000244,0.1,214.9,0.9,0.0,0.0,869,128,0,0,860.05,26.09,16.01,# data time:230,pm2.5:6.445,pm10:5.704,O2:0.000,NO2:0.000,SO2:0.000,NH3:5.083
8:07:30,0,0,0,0,0,0,0,0,0,0,0,514,0,0,0,0,0.0000000,0.0000000,0.0000000,0.0000000,9.00,38.4064560,-110.7919464,1378.9000244,0.2,165.6,0.9,0.0,0.0,870,127,0,0,860.05,26.06,16.01,# data time:230,pm2.5:6.445,pm10:5.704,O2:0.000,NO2:0.000,SO2:0.000,NH3:5.083
8:07:31,0,0,0,0,0,0,0,0,0,0,0,515,0,0,0,0,0.0000000,0.0000000,0.0000000,0.0000000,9.00,38.4064560,-110.7919464,1378.9000244,0.2,158.3,0.9,0.0,0.0,869,127,0,0,860.05,26.05,16.00,# data time:230,pm2.5:6.445,pm10:5.704,O2:0.000,NO2:0.000,SO2:0.000,NH3:5.083
8:07:32,0,0,0,0,0,0,0,0,0,0,0,514,0,0,0,0,0.0000000,0.0000000,0.0000000,0.0000000,9.00,38.4064560,-110.7919464,1378.9000244,0.1,164.9,0.9,0.0,0.0,870,127,0,0,860.08,26.05,16.01,# data time:230,pm2.5:6.445,pm10:5.704,O2:0.000,NO2:0.000,SO2:0.000,NH3:5.083
8:07:33,0,0,0,0,0,0,0,0,0,0,0,514,0,0,0,0,0.0000000,0.0000000,0.0000000,0.0000000,9.00,38.4064522,-110.7919464,1378.9000244,0.1,95.0,0.9,0.0,0.0,870,129,0,0,860.06,26.08,16.01,# data time:230,pm2.5:6.445,pm10:5.704,O2:0.000,NO2:0.000,SO2:0.000,NH3:5.083
8:07:34,0,0,0,0,0,0,0,0,0,0,0,514,0,0,0,0,0.0000000,0.0000000,0.0000000,0.0000000,9.00,38.4064522,-110.7919464,1378.9000244,0.1,242.5,0.9,0.0,0.0,869,130,0,0,860.07,26.12,16.01,# data time:230,pm2.5:6.445,pm10:5.704,O2:0.000,NO2:0.000,SO2:0.000,NH3:5.083
8:07:35,0,0,0,0,0,0,0,0,0,0,0,514,0,0,0,0,0.0000000,0.0000000,0.0000000,0.0000000,9.00,38.4064522,-110.7919464,1378.9000244,0.2,254.2,0.9,0.0,0.0,870,129,0,0,860.06,26.15,16.01,# data time:230,pm2.5:6.445,pm10:5.704,O2:0.000,NO2:0.000,SO2:0.000,NH3:5.083
8:07:36,0,0,0,0,0,0,0,0,0,0,0,514,0,0,0,0,0.0000000,0.0000000,0.0000000,0.0000000,9.00,38.4064522,-110.7919464,1378.9000244,0.2,280.4,0.9,0.0,0.0,869,127,0,0,860.06,26.14,16.01,# data time:240,pm2.5:5.640,pm10:4.991,O2:0.000,NO2:0.000,SO2:0.000,NH3:5.083
