Time, Motor A Speed, Motor A Dir, Motor B Speed, Motor B Dir, Servo Rail Current Sensor, Servo Pos - Arm L, Servo Pos - Arm R, Servo Pos - End, Servo Pos - Hopper, Servo Pos - Lid, Servo Pos - Extra, Servo Current, LED - Front L, LED - Front R, LED - Back L, LED - Back R, IMU Pitch, IMU Roll, IMU Yaw, Compass Heading, GPS Sats, GPS Latitude, GPS Longitude, GPS Altitude, GPS Speed, GPS Angle, GPS HDOP, GPS VDOP, GPS PDOP, Battery, Wind, Comm Xbee Latency, Comm Arduino Latency, Pressure, Humidity, Temperature, uRADMonitor
10:10:44,0,0,0,0,0,0,0,0,0,0,0,514,0,0,0,0,0.0000000,0.0000000,0.0000000,0.0000000,11.00,38.4150887,-110.7717514,1371.0000000,5.6,349.7,0.7,0.0,0.0,851,132,0,0,860.52,23.82,19.90,# data time:7630,pm2.5:6.445,pm10:5.704,O2:0.000,NO2:0.000,SO2:0.000,NH3:4.630
10:10:45,0,0,0,0,0,0,0,0,0,0,0,515,0,0,0,0,0.0000000,0.0000000,0.0000000,0.0000000,11.00,38.4151154,-110.7717667,1371.0999756,5.8,349.0,0.7,0.0,0.0,851,145,0,0,860.56,23.85,19.90,# data time:7630,pm2.5:6.445,pm10:5.704,O2:0.000,NO2:0.000,SO2:0.000,NH3:4.630
10:10:46,0,0,0,0,0,0,0,0,0,0,0,513,0,0,0,0,0.0000000,0.0000000,0.0000000,0.0000000,11.00,38.4151382,-110.7717667,1371.4000244,5.8,348.0,0.7,0.0,0.0,852,132,0,0,860.50,23.88,19.90,# data time:7630,pm2.5:6.445,pm10:5.704,O2:0.000,NO2:0.000,SO2:0.000,NH3:4.630
10:10:47,0,0,0,0,0,0,0,0,0,0,0,513,0,0,0,0,0.0000000,0.0000000,0.0000000,0.0000000,11.00,38.4151688,-110.7717743,1371.5999756,6.1,347.0,0.7,0.0,0.0,850,135,0,0,860.54,23.82,19.88,# data time:7630,pm2.5:6.445,pm10:5.704,O2:0.000,NO2:0.000,SO2:0.000,NH3:4.630
10:10:48,0,0,0,0,0,0,0,0,0,0,0,514,0,0,0,0,0.0000000,0.0000000,0.0000000,0.0000000,11.00,38.4151955,-110.7717743,1371.8000488,6.1,346.7,0.7,0.0,0.0,852,133,0,0,860.49,23.90,19.87,# data time:7630,pm2.5:6.445,pm10:5.704,O2:0.000,NO2:0.000,SO2:0.000,NH3:4.630
10:10:49,0,0,0,0,0,0,0,0,0,0,0,515,0,0,0,0,0.0000000,0.0000000,0.0000000,0.0000000,11.00,38.4152298,-110.7717896,1371.9000244,6.2,345.4,0.7,0.0,0.0,851,127,0,0,860.45,23.93,19.86,# data time:7630,pm2.5:6.445,pm10:5.704,O2:0.000,NO2:0.000,SO2:0.000,NH3:4.630
10:10:50,0,0,0,0,0,0,0,0,0,0,0,514,0,0,0,0,0.0000000,0.0000000,0.0000000,0.0000000,11.00,38.4152565,-110.7718048,1372.0999756,6.4,345.6,0.7,0.0,0.0,851,136,0,0,860.40,24.02,19.86,# data time:7630,pm2.5:6.445,pm10:5.704,O2:0.000,NO2:0.000,SO2:0.000,NH3:4.630
10:10:51,0,0,0,0,0,0,0,0,0,0,0,514,0,0,0,0,0.0000000,0.0000000,0.0000000,0.0000000,11.00,38.4152908,-110.7718124,1372.1999512,6.4,345.0,0.7,0.0,0.0,852,133,0,0,860.41,24.00,19.86,# data time:7630,pm2.5:6.445,pm10:5.704,O2:0.000,NO2:0.000,SO2:0.000,NH3:4.630
10:10:52,0,0,0,0,0,0,0,0,0,0,0,514,0,0,0,0,0.0000000,0.0000000,0.0000000,0.0000000,11.00,38.4153214,-110.7718124,1372.3000488,6.4,345.0,0.7,0.0,0.0,850,135,0,0,860.42,24.03,19.80,# data time:7640,pm2.5:6.445,pm10:5.704,O2:0.000,NO2:0.000,SO2:0.000,NH3:4.630
10:10:53,0,0,0,0,0,0,0,0,0,0,0,514,0,0,0,0,0.0000000,0.0000000,0.0000000,0.0000000,11.00,38.4153519,-110.7718277,1372.3000488,6.7,344.6,0.7,0.0,0.0,851,135,0,0,860.38,24.02,19.80,# data time:7640,pm2.5:6.445,pm10:5.704,O2:0.000,NO2:0.000,SO2:0.000,NH3:4.630
10:10:54,0,0,0,0,0,0,0,0,0,0,0,513,0,0,0,0,0.0000000,0.0000000,0.0000000,0.0000000,11.00,38.4153824,-110.7718430,1372.3000488,6.8,345.4,0.7,0.0,0.0,851,133,0,0,860.44,23.91,19.81,# data time:7640,pm2.5:6.445,pm10:5.704,O2:0.000,NO2:0.000,SO2:0.000,NH3:4.630
10:10:55,0,0,0,0,0,0,0,0,0,0,0,514,0,0,0,0,0.0000000,0.0000000,0.0000000,0.0000000,11.00,38.4154129,-110.7718506,1372.3000488,6.8,345.0,0.7,0.0,0.0,851,136,0,0,860.44,23.91,19.80,# data time:7640,pm2.5:6.445,pm10:5.704,O2:0.000,NO2:0.000,SO2:0.000,NH3:4.630
10:10:56,0,0,0,0,0,0,0,0,0,0,0,513,0,0,0,0,0.0000000,0.0000000,0.0000000,0.0000000,11.00,38.4154434,-110.7718506,1372.3000488,6.3,346.1,0.7,0.0,0.0,851,137,0,0,860.42,23.91,19.77,# data time:7640,pm2.5:6.445,pm10:5.704,O2:0.000,NO2:0.000,SO2:0.000,NH3:4.630
10:10:57,0,0,0,0,0,0,0,0,0,0,0,514,0,0,0,0,0.0000000,0.0000000,0.0000000,0.0000000,11.00,38.4154701,-110.7718658,1372.4000244,5.6,348.2,0.7,0.0,0.0,851,139,0,0,860.37,23.94,19.75,# data time:7640,pm2.5:6.445,pm10:5.704,O2:0.000,NO2:0.000,SO2:0.000,NH3:4.630
10:10:58,0,0,0,0,0,0,0,0,0,0,0,514,0,0,0,0,0.0000000,0.0000000,0.0000000,0.0000000,11.00,38.4154930,-110.7718811,1372.5000000,5.6,348.5,0.7,0.0,0.0,851,137,0,0,860.37,23.94,19.74,# data time:7640,pm2.5:6.445,pm10:5.704,O2:0.000,NO2:0.000,SO2:0.000,NH3:4.630
10:10:59,0,0,0,0,0,0,0,0,0,0,0,514,0,0,0,0,0.0000000,0.0000000,0.0000000,0.0000000,11.00,38.4155197,-110.7718811,1372.5999756,5.5,349.5,0.7,0.0,0.0,851,134,0,0,860.34,24.03,19.72,# data time:7640,pm2.5:6.445,pm10:5.704,O2:0.000,NO2:0.000,SO2:0.000,NH3:4.630
10:11:00,0,0,0,0,0,0,0,0,0,0,0,514,0,0,0,0,0.0000000,0.0000000,0.0000000,0.0000000,11.00,38.4155464,-110.7718887,1372.5999756,5.6,349.2,0.7,0.0,0.0,851,140,0,0,860.39,24.03,19.73,# data time:7640,pm2.5:6.445,pm10:5.704,O2:0.000,NO2:0.000,SO2:0.000,NH3:4.630
10:11:01,0,0,0,0,0,0,0,0,0,0,0,514,0,0,0,0,0.0000000,0.0000000,0.0000000,0.0000000,11.00,38.4155693,-110.7718887,1372.5000000,5.8,349.4,0.7,0.0,0.0,851,139,0,0,860.36,23.96,19.73,# data time:7640,pm2.5:6.445,pm10:5.704,O2:0.000,NO2:0.000,SO2:0.000,NH3:4.630
10:11:02,0,0,0,0,0,0,0,0,0,0,0,514,0,0,0,0,0.0000000,0.0000000,0.0000000,0.0000000,11.00,38.4155998,-110.7719040,1372.5000000,5.8,349.4,0.7,0.0,0.0,851,136,0,0,860.39,24.00,19.69,# data time:7650,pm2.5:6.445,pm10:5.704,O2:0.000,NO2:0.000,SO
10:11:03,0,0,0,0,0,0,0,0,0,0,0,514,0,0,0,0,0.0000000,0.0000000,0.0000000,0.0000000,11.00,38.4156303,-110.7719193,1372.4000244,6.8,345.8,0.7,0.0,0.0,852,139,0,0,860.36,23.96,19.67,# data time:7650,pm2.5:6.445,pm10:5.704,O2:0.000,NO2:0.000,SO
10:11:04,0,0,0,0,0,0,0,0,0,0,0,514,0,0,0,0,0.0000000,0.0000000,0.0000000,0.0000000,11.00,38.4156647,-110.7719269,1372.3000488,7.1,338.9,0.7,0.0,0.0,851,138,0,0,860.38,23.96,19.67,# data time:7650,pm2.5:6.445,pm10:5.704,O2:0.000,NO2:0.000,SO
10:11:05,0,0,0,0,0,0,0,0,0,0,0,514,0,0,0,0,0.0000000,0.0000000,0.0000000,0.0000000,11.00,38.4156914,-110.7719421,1372.5000000,6.6,335.2,0.7,0.0,0.0,851,135,0,0,860.34,24.05,19.69,# data time:7650,pm2.5:6.445,pm10:5.704,O2:0.000,NO2:0.000,SO
10:11:06,0,0,0,0,0,0,0,0,0,0,0,514,0,0,0,0,0.0000000,0.0000000,0.0000000,0.0000000,11.00,38.4157181,-110.7719574,1372.5999756,5.9,332.3,0.7,0.0,0.0,851,139,0,0,860.27,24.12,19.65,# data time:7650,pm2.5:6.445,pm10:5.704,O2:0.000,NO2:0.000,SO
10:11:07,0,0,0,0,0,0,0,0,0,0,0,512,0,0,0,0,0.0000000,0.0000000,0.0000000,0.0000000,11.00,38.4157448,-110.7719650,1372.6999512,5.9,328.3,0.7,0.0,0.0,851,137,0,0,860.34,24.22,19.65,# data time:7650,pm2.5:6.445,pm10:5.704,O2:0.000,NO2:0.000,SO
10:11:08,0,0,0,0,0,0,0,0,0,0,0,514,0,0,0,0,0.0000000,0.0000000,0.0000000,0.0000000,11.00,38.4157677,-110.7719955,1372.9000244,5.8,325.1,0.7,0.0,0.0,850,145,0,0,860.17,24.26,19.67,# data time:7650,pm2.5:6.445,pm10:5.704,O2:0.000,NO2:0.000,SO
10:11:09,0,0,0,0,0,0,0,0,0,0,0,514,0,0,0,0,0.0000000,0.0000000,0.0000000,0.0000000,11.00,38.4157906,-110.7720032,1373.1999512,5.6,322.4,0.7,0.0,0.0,851,140,0,0,860.17,24.28,19.70,# data time:7650,pm2.5:6.445,pm10:5.704,O2:0.000,NO2:0.000,SO
10:11:10,0,0,0,0,0,0,0,0,0,0,0,514,0,0,0,0,0.0000000,0.0000000,0.0000000,0.0000000,11.00,38.4158134,-110.7720337,1373.1999512,5.4,320.9,0.7,0.0,0.0,851,138,0,0,860.18,24.32,19.72,# data time:7650,pm2.5:6.445,pm10:5.704,O2:0.000,NO2:0.000,SO
10:11:11,0,0,0,0,0,0,0,0,0,0,0,514,0,0,0,0,0.0000000,0.0000000,0.0000000,0.0000000,11.00,38.4158363,-110.7720566,1373.1999512,5.4,321.1,0.7,0.0,0.0,851,135,0,0,860.18,24.23,19.76,# data time:7650,pm2.5:6.445,pm10:5.704,O2:0.000,NO2:0.000,SO
10:11:12,0,0,0,0,0,0,0,0,0,0,0,514,0,0,0,0,0.0000000,0.0000000,0.0000000,0.0000000,11.00,38.4158363,-110.7720566,1373.1999512,5.4,321.1,0.7,0.0,0.0,851,142,0,0,860.17,24.26,19.67,# data time:7660,pm2.5:6.445,pm10:5.704,O2:0.000,NO2:0.000,SO2:630
10:11:13,0,0,0,0,0,0,0,0,0,0,0,514,0,0,0,0,0.0000000,0.0000000,0.0000000,0.0000000,11.00,38.4158783,-110.7720947,1373.0000000,5.4,321.5,0.7,0.0,0.0,851,143,0,0,860.16,24.23,19.81,# data time:7660,pm2.5:6.445,pm10:5.704,O2:0.000,NO2:0.000,SO2:630
10:11:14,0,0,0,0,0,0,0,0,0,0,0,514,0,0,0,0,0.0000000,0.0000000,0.0000000,0.0000000,11.00,38.4158974,-110.7721252,1372.9000244,5.3,320.7,0.7,0.0,0.0,851,141,0,0,860.25,24.12,19.86,# data time:7660,pm2.5:6.445,pm10:5.704,O2:0.000,NO2:0.000,SO2:630
10:11:15,0,0,0,0,0,0,0,0,0,0,0,514,0,0,0,0,0.0000000,0.0000000,0.0000000,0.0000000,11.00,38.4159164,-110.7721329,1372.9000244,5.1,319.3,0.7,0.0,0.0,851,138,0,0,860.23,24.11,19.90,# data time:7660,pm2.5:6.445,pm10:5.704,O2:0.000,NO2:0.000,SO2:630
10:11:16,0,0,0,0,0,0,0,0,0,0,0,514,0,0,0,0,0.0000000,0.0000000,0.0000000,0.0000000,11.00,38.4159317,-110.7721634,1372.8000488,5.0,322.7,0.7,0.0,0.0,851,141,0,0,860.15,24.17,19.93,# data time:7660,pm2.5:6.445,pm10:5.704,O2:0.000,NO2:0.000,SO2:630
10:11:17,0,0,0,0,0,0,0,0,0,0,0,514,0,0,0,0,0.0000000,0.0000000,0.0000000,0.0000000,11.00,38.4159508,-110.7721710,1372.8000488,5.0,324.2,0.7,0.0,0.0,851,137,0,0,860.14,24.26,19.94,# data time:7660,pm2.5:6.445,pm10:5.704,O2:0.000,NO2:0.000,SO2:630
10:11:18,0,0,0,0,0,0,0,0,0,0,0,514,0,0,0,0,0.0000000,0.0000000,0.0000000,0.0000000,11.00,38.4159698,-110.7721863,1372.9000244,5.0,327.8,0.7,0.0,0.0,851,138,0,0,860.16,24.25,19.98,# data time:7660,pm2.5:6.445,pm10:5.704,O2:0.000,NO2:0.000,SO2:630
10:11:19,0,0,0,0,0,0,0,0,0,0,0,514,0,0,0,0,0.0000000,0.0000000,0.0000000,0.0000000,11.00,38.4159889,-110.7722092,1372.9000244,4.9,328.2,0.7,0.0,0.0,851,139,0,0,860.15,24.16,19.98,# data time:7660,pm2.5:6.445,pm10:5.704,O2:0.000,NO2:0.000,SO2:630
10:11:20,0,0,0,0,0,0,0,0,0,0,0,514,0,0,0,0,0.0000000,0.0000000,0.0000000,0.0000000,11.00,38.4160118,-110.7722244,1373.0000000,5.0,331.0,0.7,0.0,0.0,851,134,0,0,860.19,24.14,20.01,# data time:7660,pm2.5:6.445,pm10:5.704,O2:0.000,NO2:0.000,SO2:630
10:11:21,0,0,0,0,0,0,0,0,0,0,0,514,0,0,0,0,0.0000000,0.0000000,0.0000000,0.0000000,11.00,38.4160309,-110.7722397,1373.1999512,5.0,331.9,0.7,0.0,0.0,851,140,0,0,860.20,24.05,20.02,# data time:7660,pm2.5:6.445,pm10:5.704,O2:0.000,NO2:0.000,SO2:630
10:11:22,0,0,0,0,0,0,0,0,0,0,0,514,0,0,0,0,0.0000000,0.0000000,0.0000000,0.0000000,11.00,38.4160538,-110.7722473,1373.4000244,5.0,331.9,0.7,0.0,0.0,851,140,0,0,860.12,24.00,19.93,# data time:7670,pm2.5:5.640,pm10:4.991,O2:0.000,NO2:0.000,SO2:0.000,NH3:4.630
10:11:23,0,0,0,0,0,0,0,0,0,0,0,515,0,0,0,0,0.0000000,0.0000000,0.0000000,0.0000000,11.00,38.4160728,-110.7722626,1373.6999512,5.2,328.4,0.7,0.0,0.0,849,145,0,0,860.15,24.03,19.93,# data time:7670,pm2.5:5.640,pm10:4.991,O2:0.000,NO2:0.000,SO2:0.000,NH3:4.630
10:11:24,0,0,0,0,0,0,0,0,0,0,0,514,0,0,0,0,0.0000000,0.0000000,0.0000000,0.0000000,11.00,38.4160919,-110.7722855,1373.8000488,5.2,325.9,0.7,0.0,0.0,850,145,0,0,860.26,23.99,19.97,# data time:7670,pm2.5:5.640,pm10:4.991,O2:0.000,NO2:0.000,SO2:0.000,NH3:4.630
10:11:25,0,0,0,0,0,0,0,0,0,0,0,514,0,0,0,0,0.0000000,0.0000000,0.0000000,0.0000000,11.00,38.4161110,-110.7723007,1373.8000488,4.7,324.6,0.7,0.0,0.0,850,146,0,0,860.19,23.96,19.95,# data time:7670,pm2.5:5.640,pm10:4.991,O2:0.000,NO2:0.000,SO2:0.000,NH3:4.630
10:11:26,0,0,0,0,0,0,0,0,0,0,0,514,0,0,0,0,0.0000000,0.0000000,0.0000000,0.0000000,11.00,38.4161301,-110.7723160,1374.0000000,4.4,321.4,0.7,0.0,0.0,850,144,0,0,860.15,24.06,19.96,# data time:7670,pm2.5:5.640,pm10:4.991,O2:0.000,NO2:0.000,SO2:0.000,NH3:4.630
10:11:28,0,0,0,0,0,0,0,0,0,0,0,515,0,0,0,0,0.0000000,0.0000000,0.0000000,0.0000000,11.00,38.4161453,-110.7723236,1374.0999756,4.4,317.7,0.7,0.0,0.0,851,144,0,0,860.08,24.12,19.91,# data time:7670,pm2.5:5.640,pm10:4.991,O2:0.000,NO2:0.000,SO2:0.000,NH3:4.630
10:11:29,0,0,0,0,0,0,0,0,0,0,0,514,0,0,0,0,0.0000000,0.0000000,0.0000000,0.0000000,11.00,38.4161644,-110.7723541,1374.0999756,4.4,313.2,0.7,0.0,0.0,851,146,0,0,859.99,24.17,19.89,# data time:7670,pm2.5:5.640,pm10:4.991,O2:0.000,NO2:0.000,SO2:0.000,NH3:4.630
10:11:30,0,0,0,0,0,0,0,0,0,0,0,514,0,0,0,0,0.0000000,0.0000000,0.0000000,0.0000000,11.00,38.4161758,-110.7723618,1374.0999756,4.6,311.5,0.7,0.0,0.0,851,152,0,0,860.02,24.12,19.88,# data time:7670,pm2.5:5.640,pm10:4.991,O2:0.000,NO2:0.000,SO2:0.000,NH3:4.630
10:11:31,0,0,0,0,0,0,0,0,0,0,0,514,0,0,0,0,0.0000000,0.0000000,0.0000000,0.0000000,11.00,38.4161911,-110.7723923,1374.0999756,4.6,309.2,0.7,0.0,0.0,851,148,0,0,859.86,24.29,19.89,# data time:7670,pm2.5:5.640,pm10:4.991,O2:0.000,NO2:0.000,SO2:0.000,NH3:4.630
10:11:32,0,0,0,0,0,0,0,0,0,0,0,514,0,0,0,0,0.0000000,0.0000000,0.0000000,0.0000000,11.00,38.4162178,-110.7724380,1374.3000488,4.7,307.9,0.7,0.0,0.0,851,149,0,0,859.77,24.35,19.94,# data time:7680,pm2.5:6.445,pm10:5.704,O2:0.000,NO2:0.000,SO
10:11:33,0,0,0,0,0,0,0,0,0,0,0,514,0,0,0,0,0.0000000,0.0000000,0.0000000,0.0000000,11.00,38.4162292,-110.7724686,1374.6999512,5.4,301.5,0.7,0.0,0.0,851,152,0,0,859.80,24.41,19.92,# data time:7680,pm2.5:6.445,pm10:5.704,O2:0.000,NO2:0.000,SO
10:11:34,0,0,0,0,0,0,0,0,0,0,0,514,0,0,0,0,0.0000000,0.0000000,0.0000000,0.0000000,11.00,38.4162445,-110.7724915,1375.0000000,5.6,299.7,0.7,0.0,0.0,851,152,0,0,859.78,24.41,19.98,# data time:7680,pm2.5:6.445,pm10:5.704,O2:0.000,NO2:0.000,SO
10:11:35,0,0,0,0,0,0,0,0,0,0,0,514,0,0,0,0,0.0000000,0.0000000,0.0000000,0.0000000,11.00,38.4162560,-110.7725220,1375.1999512,6.0,299.4,0.7,0.0,0.0,851,152,0,0,859.80,24.48,20.03,# data time:7680,pm2.5:6.445,pm10:5.704,O2:0.000,NO2:0.000,SO
10:11:36,0,0,0,0,0,0,0,0,0,0,0,514,0,0,0,0,0.0000000,0.0000000,0.0000000,0.0000000,11.00,38.4162674,-110.7725601,1375.1999512,6.1,299.5,0.7,0.0,0.0,851,146,0,0,859.84,24.49,20.06,# data time:7680,pm2.5:6.445,pm10:5.704,O2:0.000,NO2:0.000,SO
10:11:37,0,0,0,0,0,0,0,0,0,0,0,514,0,0,0,0,0.0000000,0.0000000,0.0000000,0.0000000,11.00,38.4162865,-110.7725830,1375.4000244,6.3,299.7,0.7,0.0,0.0,851,145,0,0,859.80,24.46,20.10,# data time:7680,pm2.5:6.445,pm10:5.704,O2:0.000,NO2:0.000,SO
10:11:38,0,0,0,0,0,0,0,0,0,0,0,514,0,0,0,0,0.0000000,0.0000000,0.0000000,0.0000000,11.00,38.4163017,-110.7726212,1375.5999756,6.1,301.3,0.7,0.0,0.0,851,148,0,0,859.79,24.29,20.13,# data time:7680,pm2.5:6.445,pm10:5.704,O2:0.000,NO2:0.000,SO
10:11:39,0,0,0,0,0,0,0,0,0,0,0,514,0,0,0,0,0.0000000,0.0000000,0.0000000,0.0000000,11.00,38.4163170,-110.7726440,1375.8000488,6.1,304.2,0.7,0.0,0.0,851,138,0,0,859.78,24.22,20.16,# data time:7680,pm2.5:6.445,pm10:5.704,O2:0.000,NO2:0.000,SO
10:11:40,0,0,0,0,0,0,0,0,0,0,0,514,0,0,0,0,0.0000000,0.0000000,0.0000000,0.0000000,11.00,38.4163361,-110.7726822,1375.9000244,6.0,306.2,0.7,0.0,0.0,851,143,0,0,859.78,24.19,20.18,# data time:7680,pm2.5:6.445,pm10:5.704,O2:0.000,NO2:0.000,SO
10:11:41,0,0,0,0,0,0,0,0,0,0,0,514,0,0,0,0,0.0000000,0.0000000,0.0000000,0.0000000,11.00,38.4163513,-110.7727127,1376.0999756,5.6,307.4,0.7,0.0,0.0,851,140,0,0,859.78,24.05,20.19,# data time:7680,pm2.5:6.445,pm10:5.704,O2:0.000,NO2:0.000,SO
10:11:42,0,0,0,0,0,0,0,0,0,0,0,514,0,0,0,0,0.0000000,0.0000000,0.0000000,0.0000000,11.00,38.4163513,-110.7727127,1376.0999756,5.6,307.4,0.7,0.0,0.0,851,139,0,0,859.82,24.05,20.13,# data time:7690,pm2.5:6.445,pm10:5.704,O2:0.000,NO2:0.000,SO
10:11:43,0,0,0,0,0,0,0,0,0,0,0,514,0,0,0,0,0.0000000,0.0000000,0.0000000,0.0000000,11.00,38.4163895,-110.7727509,1376.1999512,5.6,317.0,0.7,0.0,0.0,851,141,0,0,859.85,23.88,20.24,# data time:7690,pm2.5:6.445,pm10:5.704,O2:0.000,NO2:0.000,SO
10:11:44,0,0,0,0,0,0,0,0,0,0,0,515,0,0,0,0,0.0000000,0.0000000,0.0000000,0.0000000,11.00,38.4164085,-110.7727737,1376.1999512,5.5,322.5,0.7,0.0,0.0,851,138,0,0,859.95,23.76,20.26,# data time:7690,pm2.5:6.445,pm10:5.704,O2:0.000,NO2:0.000,SO
10:11:45,0,0,0,0,0,0,0,0,0,0,0,514,0,0,0,0,0.0000000,0.0000000,0.0000000,0.0000000,11.00,38.4164276,-110.7727966,1376.3000488,5.5,328.1,0.7,0.0,0.0,850,139,0,0,859.94,23.62,20.27,# data time:7690,pm2.5:6.445,pm10:5.704,O2:0.000,NO2:0.000,SO
10:11:46,0,0,0,0,0,0,0,0,0,0,0,515,0,0,0,0,0.0000000,0.0000000,0.0000000,0.0000000,10.00,38.4164467,-110.7728119,1376.1999512,5.3,332.6,0.8,0.0,0.0,850,134,0,0,859.87,23.56,20.29,# data time:7690,pm2.5:6.445,pm10:5.704,O2:0.000,NO2:0.000,SO
10:11:47,0,0,0,0,0,0,0,0,0,0,0,514,0,0,0,0,0.0000000,0.0000000,0.0000000,0.0000000,11.00,38.4164658,-110.7728271,1376.1999512,4.4,337.2,0.7,0.0,0.0,851,138,0,0,859.96,23.50,20.32,# data time:7690,pm2.5:6.445,pm10:5.704,O2:0.000,NO2:0.000,SO
10:11:48,0,0,0,0,0,0,0,0,0,0,0,515,0,0,0,0,0.0000000,0.0000000,0.0000000,0.0000000,11.00,38.4164848,-110.7728271,1376.0000000,4.1,342.7,0.7,0.0,0.0,851,139,0,0,860.00,23.33,20.31,# data time:7690,pm2.5:6.445,pm10:5.704,O2:0.000,NO2:0.000,SO
10:11:49,0,0,0,0,0,0,0,0,0,0,0,514,0,0,0,0,0.0000000,0.0000000,0.0000000,0.0000000,11.00,38.4165001,-110.7728348,1375.8000488,4.1,347.8,0.7,0.0,0.0,851,139,0,0,860.05,23.18,20.34,# data time:7690,pm2.5:6.445,pm10:5.704,O2:0.000,NO2:0.000,SO
10:11:50,0,0,0,0,0,0,0,0,0,0,0,514,0,0,0,0,0.0000000,0.0000000,0.0000000,0.0000000,11.00,38.4165154,-110.7728348,1375.6999512,4.1,352.8,0.7,0.0,0.0,851,137,0,0,859.97,23.30,20.35,# data time:7690,pm2.5:6.445,pm10:5.704,O2:0.000,NO2:0.000,SO
10:11:51,0,0,0,0,0,0,0,0,0,0,0,514,0,0,0,0,0.0000000,0.0000000,0.0000000,0.0000000,11.00,38.4165344,-110.7728348,1375.8000488,4.4,354.1,0.7,0.0,0.0,851,141,0,0,859.88,23.50,20.35,# data time:7690,pm2.5:6.445,pm10:5.704,O2:0.000,NO2:0.000,SO
10:11:52,0,0,0,0,0,0,0,0,0,0,0,514,0,0,0,0,0.0000000,0.0000000,0.0000000,0.0000000,11.00,38.4165344,-110.7728348,1375.8000488,4.4,354.1,0.7,0.0,0.0,851,138,0,0,859.77,23.59,20.27,# data time:7700,pm2.5:5.640,pm10:4.991,O2:0.000,NO2:0.000,SO
10:11:53,0,0,0,0,0,0,0,0,0,0,0,514,0,0,0,0,0.0000000,0.0000000,0.0000000,0.0000000,11.00,38.4165764,-110.7728500,1375.9000244,4.2,344.2,0.7,0.0,0.0,850,140,0,0,859.81,23.39,20.39,# data time:7700,pm2.5:5.640,pm10:4.991,O2:0.000,NO2:0.000,SO
10:11:54,0,0,0,0,0,0,0,0,0,0,0,514,0,0,0,0,0.0000000,0.0000000,0.0000000,0.0000000,11.00,38.4165955,-110.7728500,1376.0999756,3.8,345.6,0.7,0.0,0.0,851,139,0,0,859.79,23.44,20.39,# data time:7700,pm2.5:5.640,pm10:4.991,O2:0.000,NO2:0.000,SO
10:11:55,0,0,0,0,0,0,0,0,0,0,0,514,0,0,0,0,0.0000000,0.0000000,0.0000000,0.0000000,11.00,38.4166145,-110.7728653,1376.1999512,4.1,343.4,0.7,0.0,0.0,851,136,0,0,859.87,23.42,20.41,# data time:7700,pm2.5:5.640,pm10:4.991,O2:0.000,NO2:0.000,SO
10:11:56,0,0,0,0,0,0,0,0,0,0,0,514,0,0,0,0,0.0000000,0.0000000,0.0000000,0.0000000,11.00,38.4166336,-110.7728653,1376.1999512,4.2,347.4,0.7,0.0,0.0,851,140,0,0,859.86,23.39,20.40,# data time:7700,pm2.5:5.640,pm10:4.991,O2:0.000,NO2:0.000,SO
10:11:57,0,0,0,0,0,0,0,0,0,0,0,514,0,0,0,0,0.0000000,0.0000000,0.0000000,0.0000000,11.00,38.4166565,-110.7728653,1376.5000000,4.2,352.0,0.7,0.0,0.0,851,134,0,0,859.79,23.39,20.43,# data time:7700,pm2.5:5.640,pm10:4.991,O2:0.000,NO2:0.000,SO
10:11:58,0,0,0,0,0,0,0,0,0,0,0,514,0,0,0,0,0.0000000,0.0000000,0.0000000,0.0000000,11.00,38.4166794,-110.7728806,1376.3000488,4.7,352.9,0.7,0.0,0.0,851,129,0,0,859.82,23.35,20.45,# data time:7700,pm2.5:5.640,pm10:4.991,O2:0.000,NO2:0.000,SO
10:11:59,0,0,0,0,0,0,0,0,0,0,0,514,0,0,0,0,0.0000000,0.0000000,0.0000000,0.0000000,11.00,38.4167023,-110.7728806,1376.0000000,4.7,355.7,0.7,0.0,0.0,850,132,0,0,859.84,23.22,20.47,# data time:7700,pm2.5:5.640,pm10:4.991,O2:0.000,NO2:0.000,SO
10:12:00,0,0,0,0,0,0,0,0,0,0,0,515,0,0,0,0,0.0000000,0.0000000,0.0000000,0.0000000,11.00,38.4167213,-110.7728806,1376.1999512,4.4,2.6,0.7,0.0,0.0,850,135,0,0,859.88,23.10,20.49,# data time:7700,pm2.5:5.640,pm10:4.991,O2:0.000,NO2:0.000,SO
10:12:01,0,0,0,0,0,0,0,0,0,0,0,514,0,0,0,0,0.0000000,0.0000000,0.0000000,0.0000000,11.00,38.4167442,-110.7728806,1376.4000244,3.9,2.6,0.7,0.0,0.0,851,132,0,0,859.85,23.15,20.51,# data time:7700,pm2.5:5.640,pm10:4.991,O2:0.000,NO2:0.000,SO
10:12:02,0,0,0,0,0,0,0,0,0,0,0,514,0,0,0,0,0.0000000,0.0000000,0.0000000,0.0000000,11.00,38.4167633,-110.7728653,1376.6999512,3.9,2.6,0.7,0.0,0.0,850,136,0,0,859.70,23.18,20.49,# data time:7710,pm2.5:6.445,pm10:5.704,O2:0.000,NO2:0.000,SO
10:12:03,0,0,0,0,0,0,0,0,0,0,0,514,0,0,0,0,0.0000000,0.0000000,0.0000000,0.0000000,11.00,38.4167824,-110.7728653,1377.0999756,4.0,8.4,0.7,0.0,0.0,851,138,0,0,859.79,23.25,20.52,# data time:7710,pm2.5:6.445,pm10:5.704,O2:0.000,NO2:0.000,SO
10:12:04,0,0,0,0,0,0,0,0,0,0,0,515,0,0,0,0,0.0000000,0.0000000,0.0000000,0.0000000,11.00,38.4168015,-110.7728653,1377.3000488,4.6,7.9,0.7,0.0,0.0,851,139,0,0,859.80,23.29,20.59,# data time:7710,pm2.5:6.445,pm10:5.704,O2:0.000,NO2:0.000,SO
10:12:05,0,0,0,0,0,0,0,0,0,0,0,514,0,0,0,0,0.0000000,0.0000000,0.0000000,0.0000000,11.00,38.4168205,-110.7728500,1377.6999512,4.6,6.2,0.7,0.0,0.0,852,137,0,0,859.76,22.93,20.61,# data time:7710,pm2.5:6.445,pm10:5.704,O2:0.000,NO2:0.000,SO
10:12:06,0,0,0,0,0,0,0,0,0,0,0,515,0,0,0,0,0.0000000,0.0000000,0.0000000,0.0000000,11.00,38.4168434,-110.7728500,1378.0000000,4.9,3.7,0.7,0.0,0.0,851,140,0,0,859.80,22.95,20.61,# data time:7710,pm2.5:6.445,pm10:5.704,O2:0.000,NO2:0.000,SO
10:12:07,0,0,0,0,0,0,0,0,0,0,0,514,0,0,0,0,0.0000000,0.0000000,0.0000000,0.0000000,11.00,38.4168663,-110.7728500,1378.0999756,5.5,7.1,0.7,0.0,0.0,851,146,0,0,859.82,22.98,20.63,# data time:7710,pm2.5:6.445,pm10:5.704,O2:0.000,NO2:0.000,SO
10:12:08,0,0,0,0,0,0,0,0,0,0,0,514,0,0,0,0,0.0000000,0.0000000,0.0000000,0.0000000,11.00,38.4168930,-110.7728500,1378.0999756,6.2,6.2,0.7,0.0,0.0,851,142,0,0,859.84,22.98,20.63,# data time:7710,pm2.5:6.445,pm10:5.704,O2:0.000,NO2:0.000,SO
10:12:09,0,0,0,0,0,0,0,0,0,0,0,514,0,0,0,0,0.0000000,0.0000000,0.0000000,0.0000000,11.00,38.4169235,-110.7728348,1378.1999512,6.2,6.9,0.7,0.0,0.0,851,141,0,0,859.81,23.04,20.64,# data time:7710,pm2.5:6.445,pm10:5.704,O2:0.000,NO2:0.000,SO
10:12:10,0,0,0,0,0,0,0,0,0,0,0,515,0,0,0,0,0.0000000,0.0000000,0.0000000,0.0000000,11.00,38.4169540,-110.7728348,1377.8000488,6.2,8.0,0.7,0.0,0.0,850,138,0,0,859.74,23.10,20.64,# data time:7710,pm2.5:6.445,pm10:5.704,O2:0.000,NO2:0.000,SO
10:12:11,0,0,0,0,0,0,0,0,0,0,0,514,0,0,0,0,0.0000000,0.0000000,0.0000000,0.0000000,11.00,38.4169807,-110.7728348,1377.6999512,5.7,6.3,0.7,0.0,0.0,851,137,0,0,859.76,23.18,20.65,# data time:7710,pm2.5:6.445,pm10:5.704,O2:0.000,NO2:0.000,SO
10:12:12,0,0,0,0,0,0,0,0,0,0,0,515,0,0,0,0,0.0000000,0.0000000,0.0000000,0.0000000,11.00,38.4169807,-110.7728348,1377.6999512,5.7,6.3,0.7,0.0,0.0,851,136,0,0,859.68,23.18,20.56,# data time:7720,pm2.5:6.445,pm10:5.704,O2:0.000,NO2:0.000,SO2:00,NH3:4.630
10:12:13,0,0,0,0,0,0,0,0,0,0,0,514,0,0,0,0,0.0000000,0.0000000,0.0000000,0.0000000,11.00,38.4170227,-110.7728271,1377.6999512,4.0,7.2,0.7,0.0,0.0,850,136,0,0,859.83,23.19,20.59,# data time:7720,pm2.5:6.445,pm10:5.704,O2:0.000,NO2:0.000,SO2:00,NH3:4.630
10:12:14,0,0,0,0,0,0,0,0,0,0,0,514,0,0,0,0,0.0000000,0.0000000,0.0000000,0.0000000,11.00,38.4170418,-110.7728119,1377.5999756,3.7,8.6,0.7,0.0,0.0,850,139,0,0,859.65,23.33,20.63,# data time:7720,pm2.5:6.445,pm10:5.704,O2:0.000,NO2:0.000,SO2:00,NH3:4.630
10:12:15,0,0,0,0,0,0,0,0,0,0,0,515,0,0,0,0,0.0000000,0.0000000,0.0000000,0.0000000,11.00,38.4170570,-110.7728119,1377.5000000,3.7,8.3,0.7,0.0,0.0,851,135,0,0,859.74,23.16,20.60,# data time:7720,pm2.5:6.445,pm10:5.704,O2:0.000,NO2:0.000,SO2:00,NH3:4.630
10:12:16,0,0,0,0,0,0,0,0,0,0,0,513,0,0,0,0,0.0000000,0.0000000,0.0000000,0.0000000,11.00,38.4170761,-110.7728119,1377.5000000,4.0,0.2,0.7,0.0,0.0,851,141,0,0,859.79,22.87,20.61,# data time:7720,pm2.5:6.445,pm10:5.704,O2:0.000,NO2:0.000,SO2:00,NH3:4.630
10:12:17,0,0,0,0,0,0,0,0,0,0,0,514,0,0,0,0,0.0000000,0.0000000,0.0000000,0.0000000,11.00,38.4170914,-110.7728119,1377.5000000,3.8,9.6,0.7,0.0,0.0,851,139,0,0,859.79,22.92,20.61,# data time:7720,pm2.5:6.445,pm10:5.704,O2:0.000,NO2:0.000,SO2:00,NH3:4.630
10:12:18,0,0,0,0,0,0,0,0,0,0,0,514,0,0,0,0,0.0000000,0.0000000,0.0000000,0.0000000,11.00,38.4171104,-110.7728119,1377.5999756,3.8,11.0,0.7,0.0,0.0,851,138,0,0,859.77,23.01,20.61,# data time:7720,pm2.5:6.445,pm10:5.704,O2:0.000,NO2:0.000,SO2:00,NH3:4.630
10:12:19,0,0,0,0,0,0,0,0,0,0,0,515,0,0,0,0,0.0000000,0.0000000,0.0000000,0.0000000,11.00,38.4171295,-110.7728119,1377.6999512,4.6,8.8,0.7,0.0,0.0,851,137,0,0,859.68,23.07,20.61,# data time:7720,pm2.5:6.445,pm10:5.704,O2:0.000,NO2:0.000,SO2:00,NH3:4.630
10:12:20,0,0,0,0,0,0,0,0,0,0,0,515,0,0,0,0,0.0000000,0.0000000,0.0000000,0.0000000,11.00,38.4171524,-110.7727966,1377.8000488,4.9,10.0,0.7,0.0,0.0,851,136,0,0,859.70,23.13,20.59,# data time:7720,pm2.5:6.445,pm10:5.704,O2:0.000,NO2:0.000,SO2:00,NH3:4.630
10:12:21,0,0,0,0,0,0,0,0,0,0,0,514,0,0,0,0,0.0000000,0.0000000,0.0000000,0.0000000,11.00,38.4171753,-110.7727966,1377.6999512,5.3,7.6,0.7,0.0,0.0,851,135,0,0,859.70,23.04,20.59,# data time:7720,pm2.5:6.445,pm10:5.704,O2:0.000,NO2:0.000,SO2:00,NH3:4.630
10:12:22,0,0,0,0,0,0,0,0,0,0,0,513,0,0,0,0,0.0000000,0.0000000,0.0000000,0.0000000,11.00,38.4171753,-110.7727966,1377.6999512,5.3,7.6,0.7,0.0,0.0,851,141,0,0,859.65,23.03,20.47,# data time:7730,pm2.5:6.445,pm10:5.704,O2:0.000,NO2:0.000,SO
10:12:23,0,0,0,0,0,0,0,0,0,0,0,514,0,0,0,0,0.0000000,0.0000000,0.0000000,0.0000000,11.00,38.4172249,-110.7727890,1378.1999512,5.7,9.1,0.7,0.0,0.0,851,145,0,0,859.64,23.03,20.53,# data time:7730,pm2.5:6.445,pm10:5.704,O2:0.000,NO2:0.000,SO
10:12:24,0,0,0,0,0,0,0,0,0,0,0,514,0,0,0,0,0.0000000,0.0000000,0.0000000,0.0000000,11.00,38.4172516,-110.7727890,1378.4000244,5.5,8.9,0.7,0.0,0.0,851,143,0,0,859.55,23.21,20.55,# data time:7730,pm2.5:6.445,pm10:5.704,O2:0.000,NO2:0.000,SO
10:12:26,0,0,0,0,0,0,0,0,0,0,0,514,0,0,0,0,0.0000000,0.0000000,0.0000000,0.0000000,11.00,38.4172783,-110.7727737,1378.4000244,5.2,9.4,0.7,0.0,0.0,851,139,0,0,859.54,23.24,20.43,# data time:7730,pm2.5:6.445,pm10:5.704,O2:0.000,NO2:0.000,SO
10:12:27,0,0,0,0,0,0,0,0,0,0,0,514,0,0,0,0,0.0000000,0.0000000,0.0000000,0.0000000,11.00,38.4172974,-110.7727737,1378.6999512,5.2,8.6,0.7,0.0,0.0,851,129,0,0,859.54,23.19,20.52,# data time:7730,pm2.5:6.445,pm10:5.704,O2:0.000,NO2:0.000,SO
10:12:28,0,0,0,0,0,0,0,0,0,0,0,514,0,0,0,0,0.0000000,0.0000000,0.0000000,0.0000000,11.00,38.4173241,-110.7727737,1378.9000244,5.3,4.6,0.7,0.0,0.0,851,134,0,0,859.51,23.09,20.45,# data time:7730,pm2.5:6.445,pm10:5.704,O2:0.000,NO2:0.000,SO
10:12:29,0,0,0,0,0,0,0,0,0,0,0,514,0,0,0,0,0.0000000,0.0000000,0.0000000,0.0000000,11.00,38.4173775,-110.7727585,1379.0000000,5.4,6.2,0.7,0.0,0.0,851,134,0,0,859.53,23.07,20.50,# data time:7730,pm2.5:6.445,pm10:5.704,O2:0.000,NO2:0.000,SO
10:12:30,0,0,0,0,0,0,0,0,0,0,0,514,0,0,0,0,0.0000000,0.0000000,0.0000000,0.0000000,11.00,38.4174080,-110.7727585,1378.9000244,5.4,6.2,0.7,0.0,0.0,850,139,0,0,859.55,23.09,20.43,# data time:7730,pm2.5:6.445,pm10:5.704,O2:0.000,NO2:0.000,SO
10:12:31,0,0,0,0,0,0,0,0,0,0,0,514,0,0,0,0,0.0000000,0.0000000,0.0000000,0.0000000,11.00,38.4174385,-110.7727509,1378.8000488,6.4,6.0,0.7,0.0,0.0,850,133,0,0,859.57,23.16,20.47,# data time:7730,pm2.5:6.445,pm10:5.704,O2:0.000,NO2:0.000,SO
10:12:32,0,0,0,0,0,0,0,0,0,0,0,514,0,0,0,0,0.0000000,0.0000000,0.0000000,0.0000000,11.00,38.4174690,-110.7727509,1378.9000244,6.4,6.0,0.7,0.0,0.0,850,136,0,0,859.56,23.04,20.42,# data time:7740,pm2.5:6.445,pm10:5.704,O2:0.000,NO2:0.000,SO2:0.000,NH3:4.630
10:12:33,0,0,0,0,0,0,0,0,0,0,0,514,0,0,0,0,0.0000000,0.0000000,0.0000000,0.0000000,11.00,38.4174957,-110.7727356,1378.9000244,6.0,14.5,0.7,0.0,0.0,851,133,0,0,859.58,23.06,20.47,# data time:7740,pm2.5:6.445,pm10:5.704,O2:0.000,NO2:0.000,SO2:0.000,NH3:4.630
10:12:34,0,0,0,0,0,0,0,0,0,0,0,514,0,0,0,0,0.0000000,0.0000000,0.0000000,0.0000000,11.00,38.4175224,-110.7727356,1378.9000244,5.8,17.1,0.7,0.0,0.0,850,138,0,0,859.56,23.00,20.52,# data time:7740,pm2.5:6.445,pm10:5.704,O2:0.000,NO2:0.000,SO2:0.000,NH3:4.630
10:12:35,0,0,0,0,0,0,0,0,0,0,0,513,0,0,0,0,0.0000000,0.0000000,0.0000000,0.0000000,11.00,38.4175491,-110.7727203,1378.8000488,5.7,18.8,0.7,0.0,0.0,850,136,0,0,859.62,23.13,20.53,# data time:7740,pm2.5:6.445,pm10:5.704,O2:0.000,NO2:0.000,SO2:0.000,NH3:4.630
10:12:36,0,0,0,0,0,0,0,0,0,0,0,515,0,0,0,0,0.0000000,0.0000000,0.0000000,0.0000000,11.00,38.4175758,-110.7727127,1378.6999512,5.7,19.6,0.7,0.0,0.0,851,133,0,0,859.63,23.01,20.55,# data time:7740,pm2.5:6.445,pm10:5.704,O2:0.000,NO2:0.000,SO2:0.000,NH3:4.630
10:12:37,0,0,0,0,0,0,0,0,0,0,0,514,0,0,0,0,0.0000000,0.0000000,0.0000000,0.0000000,11.00,38.4175987,-110.7726974,1378.5999756,5.8,21.7,0.7,0.0,0.0,851,136,0,0,859.62,22.90,20.57,# data time:7740,pm2.5:6.445,pm10:5.704,O2:0.000,NO2:0.000,SO2:0.000,NH3:4.630
10:12:38,0,0,0,0,0,0,0,0,0,0,0,514,0,0,0,0,0.0000000,0.0000000,0.0000000,0.0000000,11.00,38.4176254,-110.7726822,1378.5999756,6.0,20.6,0.7,0.0,0.0,851,138,0,0,859.61,22.92,20.59,# data time:7740,pm2.5:6.445,pm10:5.704,O2:0.000,NO2:0.000,SO2:0.000,NH3:4.630
10:12:39,0,0,0,0,0,0,0,0,0,0,0,514,0,0,0,0,0.0000000,0.0000000,0.0000000,0.0000000,11.00,38.4176521,-110.7726746,1378.6999512,6.2,22.3,0.7,0.0,0.0,851,139,0,0,859.60,23.00,20.62,# data time:7740,pm2.5:6.445,pm10:5.704,O2:0.000,NO2:0.000,SO2:0.000,NH3:4.630
10:12:40,0,0,0,0,0,0,0,0,0,0,0,515,0,0,0,0,0.0000000,0.0000000,0.0000000,0.0000000,11.00,38.4176788,-110.7726593,1378.8000488,6.2,23.3,0.7,0.0,0.0,850,140,0,0,859.54,22.93,20.65,# data time:7740,pm2.5:6.445,pm10:5.704,O2:0.000,NO2:0.000,SO2:0.000,NH3:4.630
10:12:41,0,0,0,0,0,0,0,0,0,0,0,514,0,0,0,0,0.0000000,0.0000000,0.0000000,0.0000000,11.00,38.4177055,-110.7726440,1378.9000244,6.0,23.4,0.7,0.0,0.0,851,131,0,0,859.48,22.90,20.67,# data time:7740,pm2.5:6.445,pm10:5.704,O2:0.000,NO2:0.000,SO2:0.000,NH3:4.630
10:12:42,0,0,0,0,0,0,0,0,0,0,0,514,0,0,0,0,0.0000000,0.0000000,0.0000000,0.0000000,11.00,38.4177055,-110.7726440,1378.9000244,6.0,23.4,0.7,0.0,0.0,851,136,0,0,859.50,22.75,20.63,# data time:7750,pm2.5:6.445,pm10:5.704,O2:0.000,NO2:0.000,SO
10:12:43,0,0,0,0,0,0,0,0,0,0,0,514,0,0,0,0,0.0000000,0.0000000,0.0000000,0.0000000,11.00,38.4177551,-110.7726059,1379.0000000,5.8,19.6,0.7,0.0,0.0,851,135,0,0,859.55,22.63,20.76,# data time:7750,pm2.5:6.445,pm10:5.704,O2:0.000,NO2:0.000,SO
10:12:44,0,0,0,0,0,0,0,0,0,0,0,514,0,0,0,0,0.0000000,0.0000000,0.0000000,0.0000000,11.00,38.4177818,-110.7725983,1379.0999756,5.6,17.9,0.7,0.0,0.0,851,132,0,0,859.51,22.64,20.77,# data time:7750,pm2.5:6.445,pm10:5.704,O2:0.000,NO2:0.000,SO
10:12:45,0,0,0,0,0,0,0,0,0,0,0,514,0,0,0,0,0.0000000,0.0000000,0.0000000,0.0000000,11.00,38.4178085,-110.7725983,1379.1999512,5.6,16.2,0.7,0.0,0.0,850,138,0,0,859.54,22.68,20.78,# data time:7750,pm2.5:6.445,pm10:5.704,O2:0.000,NO2:0.000,SO
10:12:46,0,0,0,0,0,0,0,0,0,0,0,514,0,0,0,0,0.0000000,0.0000000,0.0000000,0.0000000,11.00,38.4178352,-110.7725830,1379.3000488,5.4,13.5,0.7,0.0,0.0,851,133,0,0,859.46,22.68,20.79,# data time:7750,pm2.5:6.445,pm10:5.704,O2:0.000,NO2:0.000,SO
10:12:47,0,0,0,0,0,0,0,0,0,0,0,515,0,0,0,0,0.0000000,0.0000000,0.0000000,0.0000000,11.00,38.4178619,-110.7725677,1379.3000488,5.4,9.2,0.7,0.0,0.0,851,131,0,0,859.46,22.66,20.78,# data time:7750,pm2.5:6.445,pm10:5.704,O2:0.000,NO2:0.000,SO
10:12:48,0,0,0,0,0,0,0,0,0,0,0,514,0,0,0,0,0.0000000,0.0000000,0.0000000,0.0000000,11.00,38.4178886,-110.7725677,1379.3000488,5.4,4.8,0.7,0.0,0.0,851,129,0,0,859.45,22.69,20.75,# data time:7750,pm2.5:6.445,pm10:5.704,O2:0.000,NO2:0.000,SO
10:12:49,0,0,0,0,0,0,0,0,0,0,0,515,0,0,0,0,0.0000000,0.0000000,0.0000000,0.0000000,11.00,38.4179153,-110.7725677,1379.4000244,5.4,2.3,0.7,0.0,0.0,850,135,0,0,859.43,22.77,20.71,# data time:7750,pm2.5:6.445,pm10:5.704,O2:0.000,NO2:0.000,SO
10:12:50,0,0,0,0,0,0,0,0,0,0,0,514,0,0,0,0,0.0000000,0.0000000,0.0000000,0.0000000,11.00,38.4179344,-110.7725677,1379.5000000,5.3,359.0,0.7,0.0,0.0,851,133,0,0,859.44,22.69,20.68,# data time:7750,pm2.5:6.445,pm10:5.704,O2:0.000,NO2:0.000,SO
10:12:51,0,0,0,0,0,0,0,0,0,0,0,514,0,0,0,0,0.0000000,0.0000000,0.0000000,0.0000000,11.00,38.4179611,-110.7725677,1379.5000000,5.0,353.6,0.7,0.0,0.0,850,134,0,0,859.43,23.06,20.60,# data time:7750,pm2.5:6.445,pm10:5.704,O2:0.000,NO2:0.000,SO
10:12:52,0,0,0,0,0,0,0,0,0,0,0,515,0,0,0,0,0.0000000,0.0000000,0.0000000,0.0000000,11.00,38.4179611,-110.7725677,1379.5000000,5.0,353.6,0.7,0.0,0.0,851,135,0,0,859.29,23.03,20.50,# data time:7760,pm2.5:6.445,pm10:5.704,O2:0.000,NO2:0.000,SO2:0.000,NH3:4.630
10:12:53,0,0,0,0,0,0,0,0,0,0,0,514,0,0,0,0,0.0000000,0.0000000,0.0000000,0.0000000,11.00,38.4180031,-110.7725830,1379.8000488,4.4,343.9,0.7,0.0,0.0,851,134,0,0,859.24,23.07,20.54,# data time:7760,pm2.5:6.445,pm10:5.704,O2:0.000,NO2:0.000,SO2:0.000,NH3:4.630
10:12:54,0,0,0,0,0,0,0,0,0,0,0,514,0,0,0,0,0.0000000,0.0000000,0.0000000,0.0000000,11.00,38.4180222,-110.7725983,1380.0000000,4.7,341.4,0.7,0.0,0.0,851,128,0,0,859.28,23.22,20.58,# data time:7760,pm2.5:6.445,pm10:5.704,O2:0.000,NO2:0.000,SO2:0.000,NH3:4.630
10:12:55,0,0,0,0,0,0,0,0,0,0,0,514,0,0,0,0,0.0000000,0.0000000,0.0000000,0.0000000,11.00,38.4180450,-110.7725983,1380.1999512,4.9,340.7,0.7,0.0,0.0,851,132,0,0,859.28,23.24,20.59,# data time:7760,pm2.5:6.445,pm10:5.704,O2:0.000,NO2:0.000,SO2:0.000,NH3:4.630
10:12:56,0,0,0,0,0,0,0,0,0,0,0,514,0,0,0,0,0.0000000,0.0000000,0.0000000,0.0000000,11.00,38.4180679,-110.7726059,1380.4000244,5.0,341.5,0.7,0.0,0.0,851,129,0,0,859.25,23.18,20.59,# data time:7760,pm2.5:6.445,pm10:5.704,O2:0.000,NO2:0.000,SO2:0.000,NH3:4.630
10:12:57,0,0,0,0,0,0,0,0,0,0,0,514,0,0,0,0,0.0000000,0.0000000,0.0000000,0.0000000,11.00,38.4180870,-110.7726212,1380.6999512,4.9,343.1,0.7,0.0,0.0,850,130,0,0,859.29,23.27,20.59,# data time:7760,pm2.5:6.445,pm10:5.704,O2:0.000,NO2:0.000,SO2:0.000,NH3:4.630
10:12:58,0,0,0,0,0,0,0,0,0,0,0,514,0,0,0,0,0.0000000,0.0000000,0.0000000,0.0000000,11.00,38.4181137,-110.7726212,1381.0000000,4.7,343.2,0.7,0.0,0.0,851,135,0,0,859.28,23.22,20.58,# data time:7760,pm2.5:6.445,pm10:5.704,O2:0.000,NO2:0.000,SO2:0.000,NH3:4.630
10:12:59,0,0,0,0,0,0,0,0,0,0,0,514,0,0,0,0,0.0000000,0.0000000,0.0000000,0.0000000,11.00,38.4181328,-110.7726364,1381.1999512,4.5,343.6,0.7,0.0,0.0,851,127,0,0,859.23,23.32,20.57,# data time:7760,pm2.5:6.445,pm10:5.704,O2:0.000,NO2:0.000,SO2:0.000,NH3:4.630
10:13:00,0,0,0,0,0,0,0,0,0,0,0,514,0,0,0,0,0.0000000,0.0000000,0.0000000,0.0000000,11.00,38.4181519,-110.7726440,1381.4000244,4.4,344.0,0.7,0.0,0.0,850,129,0,0,859.19,23.25,20.55,# data time:7760,pm2.5:6.445,pm10:5.704,O2:0.000,NO2:0.000,SO2:0.000,NH3:4.630
10:13:01,0,0,0,0,0,0,0,0,0,0,0,514,0,0,0,0,0.0000000,0.0000000,0.0000000,0.0000000,11.00,38.4181709,-110.7726440,1381.5999756,4.2,342.6,0.7,0.0,0.0,850,131,0,0,859.20,22.93,20.54,# data time:7760,pm2.5:6.445,pm10:5.704,O2:0.000,NO2:0.000,SO2:0.000,NH3:4.630
10:13:02,0,0,0,0,0,0,0,0,0,0,0,514,0,0,0,0,0.0000000,0.0000000,0.0000000,0.0000000,11.00,38.4181709,-110.7726440,1381.5999756,4.2,342.6,0.7,0.0,0.0,851,130,0,0,859.16,23.07,20.44,# data time:7770,pm2.5:6.445,pm10:5.704,O2:0.000,NO2:0.000,SO
10:13:03,0,0,0,0,0,0,0,0,0,0,0,514,0,0,0,0,0.0000000,0.0000000,0.0000000,0.0000000,11.00,38.4182091,-110.7726593,1382.1999512,3.8,339.7,0.7,0.0,0.0,850,130,0,0,859.04,23.45,20.47,# data time:7770,pm2.5:6.445,pm10:5.704,O2:0.000,NO2:0.000,SO
10:13:04,0,0,0,0,0,0,0,0,0,0,0,514,0,0,0,0,0.0000000,0.0000000,0.0000000,0.0000000,11.00,38.4182243,-110.7726746,1382.0999756,3.2,330.9,0.7,0.0,0.0,850,132,0,0,858.95,23.62,20.36,# data time:7770,pm2.5:6.445,pm10:5.704,O2:0.000,NO2:0.000,SO
10:13:05,0,0,0,0,0,0,0,0,0,0,0,514,0,0,0,0,0.0000000,0.0000000,0.0000000,0.0000000,11.00,38.4182358,-110.7726746,1382.0000000,2.1,330.9,0.7,0.0,0.0,851,135,0,0,858.90,23.65,20.38,# data time:7770,pm2.5:6.445,pm10:5.704,O2:0.000,NO2:0.000,SO
10:13:06,0,0,0,0,0,0,0,0,0,0,0,515,0,0,0,0,0.0000000,0.0000000,0.0000000,0.0000000,11.00,38.4182434,-110.7726822,1381.9000244,1.6,330.9,0.7,0.0,0.0,850,137,0,0,858.91,23.59,20.40,# data time:7770,pm2.5:6.445,pm10:5.704,O2:0.000,NO2:0.000,SO
10:13:07,0,0,0,0,0,0,0,0,0,0,0,514,0,0,0,0,0.0000000,0.0000000,0.0000000,0.0000000,11.00,38.4182472,-110.7726822,1381.9000244,2.0,330.9,0.7,0.0,0.0,851,135,0,0,858.88,23.67,20.43,# data time:7770,pm2.5:6.445,pm10:5.704,O2:0.000,NO2:0.000,SO
10:13:08,0,0,0,0,0,0,0,0,0,0,0,514,0,0,0,0,0.0000000,0.0000000,0.0000000,0.0000000,11.00,38.4182510,-110.7726974,1381.9000244,2.0,330.9,0.7,0.0,0.0,850,133,0,0,858.81,23.79,20.42,# data time:7770,pm2.5:6.445,pm10:5.704,O2:0.000,NO2:0.000,SO
10:13:09,0,0,0,0,0,0,0,0,0,0,0,514,0,0,0,0,0.0000000,0.0000000,0.0000000,0.0000000,11.00,38.4182549,-110.7727127,1382.0999756,1.9,330.9,0.7,0.0,0.0,851,137,0,0,858.80,23.82,20.43,# data time:7770,pm2.5:6.445,pm10:5.704,O2:0.000,NO2:0.000,SO
10:13:10,0,0,0,0,0,0,0,0,0,0,0,514,0,0,0,0,0.0000000,0.0000000,0.0000000,0.0000000,11.00,38.4182587,-110.7727127,1382.0999756,1.8,330.9,0.7,0.0,0.0,851,139,0,0,858.79,23.87,20.45,# data time:7770,pm2.5:6.445,pm10:5.704,O2:0.000,NO2:0.000,SO
10:13:11,0,0,0,0,0,0,0,0,0,0,0,515,0,0,0,0,0.0000000,0.0000000,0.0000000,0.0000000,11.00,38.4182625,-110.7727203,1382.0999756,1.1,330.9,0.7,0.0,0.0,851,137,0,0,858.77,23.87,20.47,# data time:7770,pm2.5:6.445,pm10:5.704,O2:0.000,NO2:0.000,SO
10:13:12,0,0,0,0,0,0,0,0,0,0,0,514,0,0,0,0,0.0000000,0.0000000,0.0000000,0.0000000,11.00,38.4182625,-110.7727203,1382.0999756,1.1,330.9,0.7,0.0,0.0,850,137,0,0,858.73,23.82,20.41,# data time:7780,pm2.5:6.445,pm10:5.704,O2:0.000,NO2:0.000,SO2:0.000,NH3:4.630
10:13:13,0,0,0,0,0,0,0,0,0,0,0,514,0,0,0,0,0.0000000,0.0000000,0.0000000,0.0000000,11.00,38.4182663,-110.7727203,1382.0999756,0.3,330.9,0.7,0.0,0.0,851,140,0,0,858.78,23.80,20.54,# data time:7780,pm2.5:6.445,pm10:5.704,O2:0.000,NO2:0.000,SO2:0.000,NH3:4.630
10:13:14,0,0,0,0,0,0,0,0,0,0,0,515,0,0,0,0,0.0000000,0.0000000,0.0000000,0.0000000,11.00,38.4182701,-110.7727356,1382.1999512,0.1,330.9,0.7,0.0,0.0,851,140,0,0,858.78,23.79,20.57,# data time:7780,pm2.5:6.445,pm10:5.704,O2:0.000,NO2:0.000,SO2:0.000,NH3:4.630
10:13:15,0,0,0,0,0,0,0,0,0,0,0,515,0,0,0,0,0.0000000,0.0000000,0.0000000,0.0000000,11.00,38.4182701,-110.7727356,1382.1999512,0.1,330.9,0.7,0.0,0.0,850,136,0,0,858.74,23.74,20.56,# data time:7780,pm2.5:6.445,pm10:5.704,O2:0.000,NO2:0.000,SO2:0.000,NH3:4.630
10:13:16,0,0,0,0,0,0,0,0,0,0,0,513,0,0,0,0,0.0000000,0.0000000,0.0000000,0.0000000,11.00,38.4182663,-110.7727356,1382.1999512,0.1,330.9,0.7,0.0,0.0,851,148,0,0,858.76,23.76,20.57,# data time:7780,pm2.5:6.445,pm10:5.704,O2:0.000,NO2:0.000,SO2:0.000,NH3:4.630
10:13:17,0,0,0,0,0,0,0,0,0,0,0,514,0,0,0,0,0.0000000,0.0000000,0.0000000,0.0000000,11.00,38.4182663,-110.7727356,1382.3000488,0.2,330.9,0.7,0.0,0.0,851,147,0,0,858.82,23.70,20.59,# data time:7780,pm2.5:6.445,pm10:5.704,O2:0.000,NO2:0.000,SO2:0.000,NH3:4.630
10:13:18,0,0,0,0,0,0,0,0,0,0,0,512,0,0,0,0,0.0000000,0.0000000,0.0000000,0.0000000,11.00,38.4182663,-110.7727356,1382.3000488,0.1,330.9,0.7,0.0,0.0,856,141,0,0,858.78,23.74,20.59,# data time:7780,pm2.5:6.445,pm10:5.704,O2:0.000,NO2:0.000,SO2:0.000,NH3:4.630
10:13:19,0,0,0,0,0,0,0,0,0,0,0,515,0,0,0,0,0.0000000,0.0000000,0.0000000,0.0000000,11.00,38.4182625,-110.7727356,1382.3000488,0.3,330.9,0.7,0.0,0.0,851,147,0,0,858.74,23.77,20.62,# data time:7780,pm2.5:6.445,pm10:5.704,O2:0.000,NO2:0.000,SO2:0.000,NH3:4.630
10:13:20,0,0,0,0,0,0,0,0,0,0,0,514,0,0,0,0,0.0000000,0.0000000,0.0000000,0.0000000,11.00,38.4182663,-110.7727356,1382.4000244,1.2,330.9,0.7,0.0,0.0,850,151,0,0,858.81,23.85,20.65,# data time:7780,pm2.5:6.445,pm10:5.704,O2:0.000,NO2:0.000,SO2:0.000,NH3:4.630
10:13:21,0,0,0,0,0,0,0,0,0,0,0,514,0,0,0,0,0.0000000,0.0000000,0.0000000,0.0000000,11.00,38.4182701,-110.7727356,1382.4000244,1.9,330.9,0.7,0.0,0.0,851,146,0,0,858.90,23.93,20.59,# data time:7780,pm2.5:6.445,pm10:5.704,O2:0.000,NO2:0.000,SO2:0.000,NH3:4.630
10:13:22,0,0,0,0,0,0,0,0,0,0,0,514,0,0,0,0,0.0000000,0.0000000,0.0000000,0.0000000,11.00,38.4182701,-110.7727356,1382.4000244,1.9,330.9,0.7,0.0,0.0,851,151,0,0,858.79,23.96,20.41,# data time:7790,pm2.5:5.640,pm10:4.991,O2:0.000,NO2:0.000,SO2:0.000,NH3:4.630
10:13:23,0,0,0,0,0,0,0,0,0,0,0,514,0,0,0,0,0.0000000,0.0000000,0.0000000,0.0000000,11.00,38.4182701,-110.7727585,1382.4000244,3.1,287.8,0.7,0.0,0.0,851,149,0,0,858.83,24.00,20.52,# data time:7790,pm2.5:5.640,pm10:4.991,O2:0.000,NO2:0.000,SO2:0.000,NH3:4.630
10:13:24,0,0,0,0,0,0,0,0,0,0,0,514,0,0,0,0,0.0000000,0.0000000,0.0000000,0.0000000,11.00,38.4182777,-110.7727737,1382.4000244,2.8,279.3,0.7,0.0,0.0,851,159,0,0,858.88,24.06,20.59,# data time:7790,pm2.5:5.640,pm10:4.991,O2:0.000,NO2:0.000,SO2:0.000,NH3:4.630
10:13:25,0,0,0,0,0,0,0,0,0,0,0,515,0,0,0,0,0.0000000,0.0000000,0.0000000,0.0000000,11.00,38.4182816,-110.7727890,1382.4000244,2.2,274.4,0.7,0.0,0.0,850,151,0,0,858.86,24.14,20.60,# data time:7790,pm2.5:5.640,pm10:4.991,O2:0.000,NO2:0.000,SO2:0.000,NH3:4.630
10:13:26,0,0,0,0,0,0,0,0,0,0,0,514,0,0,0,0,0.0000000,0.0000000,0.0000000,0.0000000,11.00,38.4182777,-110.7727966,1382.5999756,1.9,273.5,0.7,0.0,0.0,851,148,0,0,858.88,24.08,20.61,# data time:7790,pm2.5:5.640,pm10:4.991,O2:0.000,NO2:0.000,SO2:0.000,NH3:4.630
10:13:27,0,0,0,0,0,0,0,0,0,0,0,514,0,0,0,0,0.0000000,0.0000000,0.0000000,0.0000000,11.00,38.4182816,-110.7728119,1382.5999756,2.4,269.2,0.7,0.0,0.0,851,141,0,0,858.82,23.90,20.61,# data time:7790,pm2.5:5.640,pm10:4.991,O2:0.000,NO2:0.000,SO2:0.000,NH3:4.630
10:13:28,0,0,0,0,0,0,0,0,0,0,0,514,0,0,0,0,0.0000000,0.0000000,0.0000000,0.0000000,11.00,38.4182816,-110.7728348,1382.4000244,3.3,268.3,0.7,0.0,0.0,851,148,0,0,858.94,24.14,20.62,# data time:7790,pm2.5:5.640,pm10:4.991,O2:0.000,NO2:0.000,SO2:0.000,NH3:4.630
10:13:29,0,0,0,0,0,0,0,0,0,0,0,514,0,0,0,0,0.0000000,0.0000000,0.0000000,0.0000000,11.00,38.4182777,-110.7728653,1382.3000488,4.1,259.8,0.7,0.0,0.0,850,147,0,0,858.93,24.64,20.65,# data time:7790,pm2.5:5.640,pm10:4.991,O2:0.000,NO2:0.000,SO2:0.000,NH3:4.630
10:13:30,0,0,0,0,0,0,0,0,0,0,0,515,0,0,0,0,0.0000000,0.0000000,0.0000000,0.0000000,11.00,38.4182739,-110.7728882,1382.3000488,4.2,245.7,0.7,0.0,0.0,851,142,0,0,858.97,24.63,20.67,# data time:7790,pm2.5:5.640,pm10:4.991,O2:0.000,NO2:0.000,SO2:0.000,NH3:4.630
10:13:32,0,0,0,0,0,0,0,0,0,0,0,514,0,0,0,0,0.0000000,0.0000000,0.0000000,0.0000000,11.00,38.4182663,-110.7729187,1382.3000488,3.7,235.8,0.7,0.0,0.0,851,139,0,0,858.97,24.86,20.64,# data time:7800,pm2.5:6.445,pm10:5.704,O2:0.000,NO2:0.000,SO
10:13:33,0,0,0,0,0,0,0,0,0,0,0,522,0,0,0,0,0.0000000,0.0000000,0.0000000,0.0000000,11.00,38.4182396,-110.7729416,1382.4000244,3.7,235.8,0.7,0.0,0.0,848,151,0,0,859.02,24.63,20.62,# data time:7800,pm2.5:6.445,pm10:5.704,O2:0.000,NO2:0.000,SO
10:13:34,0,0,0,0,0,0,0,0,0,0,0,514,0,0,0,0,0.0000000,0.0000000,0.0000000,0.0000000,11.00,38.4182205,-110.7729568,1382.4000244,4.0,218.2,0.7,0.0,0.0,850,146,0,0,859.07,24.77,20.61,# data time:7800,pm2.5:6.445,pm10:5.704,O2:0.000,NO2:0.000,SO
10:13:35,0,0,0,0,0,0,0,0,0,0,0,514,0,0,0,0,0.0000000,0.0000000,0.0000000,0.0000000,11.00,38.4182014,-110.7729645,1382.5000000,4.4,206.0,0.7,0.0,0.0,850,144,0,0,859.11,24.29,20.54,# data time:7800,pm2.5:6.445,pm10:5.704,O2:0.000,NO2:0.000,SO
10:13:36,0,0,0,0,0,0,0,0,0,0,0,514,0,0,0,0,0.0000000,0.0000000,0.0000000,0.0000000,11.00,38.4181786,-110.7729797,1382.5999756,4.7,199.8,0.7,0.0,0.0,850,143,0,0,859.11,24.77,20.60,# data time:7800,pm2.5:6.445,pm10:5.704,O2:0.000,NO2:0.000,SO
10:13:37,0,0,0,0,0,0,0,0,0,0,0,514,0,0,0,0,0.0000000,0.0000000,0.0000000,0.0000000,11.00,38.4181595,-110.7729950,1382.9000244,4.1,204.3,0.7,0.0,0.0,851,141,0,0,859.05,24.78,20.63,# data time:7800,pm2.5:6.445,pm10:5.704,O2:0.000,NO2:0.000,SO
10:13:38,0,0,0,0,0,0,0,0,0,0,0,514,0,0,0,0,0.0000000,0.0000000,0.0000000,0.0000000,11.00,38.4181442,-110.7729950,1383.1999512,3.9,202.4,0.7,0.0,0.0,850,139,0,0,859.12,24.96,20.67,# data time:7800,pm2.5:6.445,pm10:5.704,O2:0.000,NO2:0.000,SO
10:13:39,0,0,0,0,0,0,0,0,0,0,0,514,0,0,0,0,0.0000000,0.0000000,0.0000000,0.0000000,11.00,38.4181252,-110.7730026,1383.5000000,4.3,204.8,0.7,0.0,0.0,850,138,0,0,859.02,25.13,20.69,# data time:7800,pm2.5:6.445,pm10:5.704,O2:0.000,NO2:0.000,SO
10:13:40,0,0,0,0,0,0,0,0,0,0,0,514,0,0,0,0,0.0000000,0.0000000,0.0000000,0.0000000,11.00,38.4181099,-110.7730179,1384.0999756,4.5,204.5,0.7,0.0,0.0,850,140,0,0,858.99,24.92,20.71,# data time:7800,pm2.5:6.445,pm10:5.704,O2:0.000,NO2:0.000,SO
10:13:41,0,0,0,0,0,0,0,0,0,0,0,514,0,0,0,0,0.0000000,0.0000000,0.0000000,0.0000000,11.00,38.4180908,-110.7730331,1384.5999756,3.6,203.3,0.7,0.0,0.0,850,137,0,0,859.00,25.09,20.67,# data time:7800,pm2.5:6.445,pm10:5.704,O2:0.000,NO2:0.000,SO
10:13:42,0,0,0,0,0,0,0,0,0,0,0,514,0,0,0,0,0.0000000,0.0000000,0.0000000,0.0000000,11.00,38.4180908,-110.7730331,1384.5999756,3.6,203.3,0.7,0.0,0.0,850,140,0,0,858.82,24.90,20.56,# data time:7810,pm2.5:6.445,pm10:5.704,O2:0.000,NO2:0.000,SO2:0.000,NH3:4.630
10:13:43,0,0,0,0,0,0,0,0,0,0,0,514,0,0,0,0,0.0000000,0.0000000,0.0000000,0.0000000,11.00,38.4180565,-110.7730560,1385.5000000,4.6,204.8,0.7,0.0,0.0,850,140,0,0,858.88,25.04,20.66,# data time:7810,pm2.5:6.445,pm10:5.704,O2:0.000,NO2:0.000,SO2:0.000,NH3:4.630
10:13:44,0,0,0,0,0,0,0,0,0,0,0,514,0,0,0,0,0.0000000,0.0000000,0.0000000,0.0000000,11.00,38.4180374,-110.7730713,1385.9000244,5.6,209.7,0.7,0.0,0.0,850,138,0,0,858.85,24.58,20.73,# data time:7810,pm2.5:6.445,pm10:5.704,O2:0.000,NO2:0.000,SO2:0.000,NH3:4.630
10:13:45,0,0,0,0,0,0,0,0,0,0,0,514,0,0,0,0,0.0000000,0.0000000,0.0000000,0.0000000,11.00,38.4180145,-110.7730942,1386.1999512,6.1,213.1,0.7,0.0,0.0,851,141,0,0,858.85,24.54,20.72,# data time:7810,pm2.5:6.445,pm10:5.704,O2:0.000,NO2:0.000,SO2:0.000,NH3:4.630
10:13:46,0,0,0,0,0,0,0,0,0,0,0,514,0,0,0,0,0.0000000,0.0000000,0.0000000,0.0000000,11.00,38.4179955,-110.7731094,1386.5999756,5.2,217.3,0.7,0.0,0.0,850,138,0,0,858.82,24.74,20.70,# data time:7810,pm2.5:6.445,pm10:5.704,O2:0.000,NO2:0.000,SO2:0.000,NH3:4.630
10:13:47,0,0,0,0,0,0,0,0,0,0,0,515,0,0,0,0,0.0000000,0.0000000,0.0000000,0.0000000,11.00,38.4179764,-110.7731323,1386.8000488,4.0,218.1,0.7,0.0,0.0,850,135,0,0,858.75,24.81,20.75,# data time:7810,pm2.5:6.445,pm10:5.704,O2:0.000,NO2:0.000,SO2:0.000,NH3:4.630
10:13:48,0,0,0,0,0,0,0,0,0,0,0,514,0,0,0,0,0.0000000,0.0000000,0.0000000,0.0000000,11.00,38.4179649,-110.7731476,1387.0000000,3.4,221.0,0.7,0.0,0.0,850,135,0,0,858.70,24.57,20.79,# data time:7810,pm2.5:6.445,pm10:5.704,O2:0.000,NO2:0.000,SO2:0.000,NH3:4.630
10:13:49,0,0,0,0,0,0,0,0,0,0,0,514,0,0,0,0,0.0000000,0.0000000,0.0000000,0.0000000,11.00,38.4179535,-110.7731552,1387.0999756,3.7,222.1,0.7,0.0,0.0,851,138,0,0,858.68,24.75,20.80,# data time:7810,pm2.5:6.445,pm10:5.704,O2:0.000,NO2:0.000,SO2:0.000,NH3:4.630
10:13:50,0,0,0,0,0,0,0,0,0,0,0,514,0,0,0,0,0.0000000,0.0000000,0.0000000,0.0000000,11.00,38.4179382,-110.7731857,1387.1999512,4.4,221.3,0.7,0.0,0.0,851,134,0,0,858.66,25.18,20.79,# data time:7810,pm2.5:6.445,pm10:5.704,O2:0.000,NO2:0.000,SO2:0.000,NH3:4.630
10:13:51,0,0,0,0,0,0,0,0,0,0,0,514,0,0,0,0,0.0000000,0.0000000,0.0000000,0.0000000,11.00,38.4179268,-110.7731934,1387.1999512,5.3,224.0,0.7,0.0,0.0,850,134,0,0,858.65,25.01,20.82,# data time:7810,pm2.5:6.445,pm10:5.704,O2:0.000,NO2:0.000,SO2:0.000,NH3:4.630
10:13:52,0,0,0,0,0,0,0,0,0,0,0,514,0,0,0,0,0.0000000,0.0000000,0.0000000,0.0000000,11.00,38.4179268,-110.7731934,1387.1999512,5.3,224.0,0.7,0.0,0.0,850,136,0,0,858.66,24.90,20.73,# data time:7820,pm2.5:6.445,pm10:5.704,O2:0.000,NO2:0.000,SO2:0.000,NH3:4.630
10:13:53,0,0,0,0,0,0,0,0,0,0,0,514,0,0,0,0,0.0000000,0.0000000,0.0000000,0.0000000,11.00,38.4178963,-110.7732468,1387.1999512,4.6,225.4,0.7,0.0,0.0,850,138,0,0,858.69,24.89,20.79,# data time:7820,pm2.5:6.445,pm10:5.704,O2:0.000,NO2:0.000,SO2:0.000,NH3:4.630
10:13:54,0,0,0,0,0,0,0,0,0,0,0,514,0,0,0,0,0.0000000,0.0000000,0.0000000,0.0000000,11.00,38.4178810,-110.7732620,1387.0999756,4.2,225.9,0.7,0.0,0.0,851,133,0,0,858.65,25.18,20.83,# data time:7820,pm2.5:6.445,pm10:5.704,O2:0.000,NO2:0.000,SO2:0.000,NH3:4.630
10:13:55,0,0,0,0,0,0,0,0,0,0,0,514,0,0,0,0,0.0000000,0.0000000,0.0000000,0.0000000,11.00,38.4178696,-110.7732849,1387.0999756,4.0,222.9,0.7,0.0,0.0,850,141,0,0,858.58,24.87,20.89,# data time:7820,pm2.5:6.445,pm10:5.704,O2:0.000,NO2:0.000,SO2:0.000,NH3:4.630
10:13:56,0,0,0,0,0,0,0,0,0,0,0,514,0,0,0,0,0.0000000,0.0000000,0.0000000,0.0000000,11.00,38.4178543,-110.7733154,1387.0999756,4.2,222.5,0.7,0.0,0.0,851,134,0,0,858.54,24.93,20.89,# data time:7820,pm2.5:6.445,pm10:5.704,O2:0.000,NO2:0.000,SO2:0.000,NH3:4.630
10:13:57,0,0,0,0,0,0,0,0,0,0,0,515,0,0,0,0,0.0000000,0.0000000,0.0000000,0.0000000,11.00,38.4178391,-110.7733231,1387.1999512,4.6,220.2,0.7,0.0,0.0,851,134,0,0,858.50,25.33,20.89,# data time:7820,pm2.5:6.445,pm10:5.704,O2:0.000,NO2:0.000,SO2:0.000,NH3:4.630
10:13:58,0,0,0,0,0,0,0,0,0,0,0,515,0,0,0,0,0.0000000,0.0000000,0.0000000,0.0000000,10.00,38.4178238,-110.7733536,1387.4000244,4.9,214.6,0.8,0.0,0.0,850,142,0,0,858.50,25.41,20.86,# data time:7820,pm2.5:6.445,pm10:5.704,O2:0.000,NO2:0.000,SO2:0.000,NH3:4.630
10:13:59,0,0,0,0,0,0,0,0,0,0,0,514,0,0,0,0,0.0000000,0.0000000,0.0000000,0.0000000,10.00,38.4178085,-110.7733612,1387.5999756,5.4,212.9,0.8,0.0,0.0,850,143,0,0,858.49,25.39,20.87,# data time:7820,pm2.5:6.445,pm10:5.704,O2:0.000,NO2:0.000,SO2:0.000,NH3:4.630
10:14:00,0,0,0,0,0,0,0,0,0,0,0,514,0,0,0,0,0.0000000,0.0000000,0.0000000,0.0000000,10.00,38.4177856,-110.7733765,1387.9000244,5.8,207.9,0.8,0.0,0.0,851,147,0,0,858.45,25.35,20.85,# data time:7820,pm2.5:6.445,pm10:5.704,O2:0.000,NO2:0.000,SO2:0.000,NH3:4.630
10:14:01,0,0,0,0,0,0,0,0,0,0,0,515,0,0,0,0,0.0000000,0.0000000,0.0000000,0.0000000,10.00,38.4177589,-110.7733994,1388.1999512,6.1,202.5,0.8,0.0,0.0,850,152,0,0,858.53,25.57,20.86,# data time:7820,pm2.5:6.445,pm10:5.704,O2:0.000,NO2:0.000,SO2:0.000,NH3:4.630
10:14:02,0,0,0,0,0,0,0,0,0,0,0,514,0,0,0,0,0.0000000,0.0000000,0.0000000,0.0000000,10.00,38.4177589,-110.7733994,1388.1999512,6.1,202.5,0.8,0.0,0.0,850,152,0,0,858.53,25.36,20.75,# data time:7830,pm2.5:6.445,pm10:5.704,O2:0.000,NO2:0.000,SO2:0.000,NH3:4.630
10:14:03,0,0,0,0,0,0,0,0,0,0,0,515,0,0,0,0,0.0000000,0.0000000,0.0000000,0.0000000,10.00,38.4177055,-110.7734146,1389.0000000,6.4,189.3,0.8,0.0,0.0,850,154,0,0,858.53,25.35,20.80,# data time:7830,pm2.5:6.445,pm10:5.704,O2:0.000,NO2:0.000,SO2:0.000,NH3:4.630
10:14:04,0,0,0,0,0,0,0,0,0,0,0,515,0,0,0,0,0.0000000,0.0000000,0.0000000,0.0000000,10.00,38.4176750,-110.7734146,1389.3000488,6.1,183.9,0.8,0.0,0.0,850,151,0,0,858.61,25.35,20.80,# data time:7830,pm2.5:6.445,pm10:5.704,O2:0.000,NO2:0.000,SO2:0.000,NH3:4.630
10:14:05,0,0,0,0,0,0,0,0,0,0,0,514,0,0,0,0,0.0000000,0.0000000,0.0000000,0.0000000,10.00,38.4176483,-110.7734146,1389.5999756,5.2,187.8,0.8,0.0,0.0,850,146,0,0,858.58,24.95,20.83,# data time:7830,pm2.5:6.445,pm10:5.704,O2:0.000,NO2:0.000,SO2:0.000,NH3:4.630
10:14:06,0,0,0,0,0,0,0,0,0,0,0,514,0,0,0,0,0.0000000,0.0000000,0.0000000,0.0000000,10.00,38.4176254,-110.7734146,1389.6999512,5.0,185.9,0.8,0.0,0.0,850,146,0,0,858.64,25.07,20.85,# data time:7830,pm2.5:6.445,pm10:5.704,O2:0.000,NO2:0.000,SO2:0.000,NH3:4.630
10:14:07,0,0,0,0,0,0,0,0,0,0,0,514,0,0,0,0,0.0000000,0.0000000,0.0000000,0.0000000,10.00,38.4176025,-110.7734299,1390.0000000,5.0,186.8,0.8,0.0,0.0,850,151,0,0,858.63,24.31,20.78,# data time:7830,pm2.5:6.445,pm10:5.704,O2:0.000,NO2:0.000,SO2:0.000,NH3:4.630
10:14:08,0,0,0,0,0,0,0,0,0,0,0,514,0,0,0,0,0.0000000,0.0000000,0.0000000,0.0000000,10.00,38.4175758,-110.7734299,1390.0999756,5.4,186.5,0.8,0.0,0.0,850,141,0,0,858.49,24.87,20.72,# data time:7830,pm2.5:6.445,pm10:5.704,O2:0.000,NO2:0.000,SO2:0.000,NH3:4.630
10:14:09,0,0,0,0,0,0,0,0,0,0,0,515,0,0,0,0,0.0000000,0.0000000,0.0000000,0.0000000,10.00,38.4175529,-110.7734299,1390.3000488,5.2,185.6,0.8,0.0,0.0,850,139,0,0,858.45,25.27,20.60,# data time:7830,pm2.5:6.445,pm10:5.704,O2:0.000,NO2:0.000,SO2:0.000,NH3:4.630
10:14:10,0,0,0,0,0,0,0,0,0,0,0,515,0,0,0,0,0.0000000,0.0000000,0.0000000,0.0000000,10.00,38.4175301,-110.7734299,1390.5000000,4.3,190.9,0.8,0.0,0.0,851,143,0,0,858.51,25.30,20.52,# data time:7830,pm2.5:6.445,pm10:5.704,O2:0.000,NO2:0.000,SO2:0.000,NH3:4.630
10:14:11,0,0,0,0,0,0,0,0,0,0,0,515,0,0,0,0,0.0000000,0.0000000,0.0000000,0.0000000,10.00,38.4175034,-110.7734299,1390.1999512,5.0,184.5,0.8,0.0,0.0,851,145,0,0,858.54,25.44,20.42,# data time:7830,pm2.5:6.445,pm10:5.704,O2:0.000,NO2:0.000,SO2:0.000,NH3:4.630
10:14:12,0,0,0,0,0,0,0,0,0,0,0,514,0,0,0,0,0.0000000,0.0000000,0.0000000,0.0000000,10.00,38.4175034,-110.7734299,1390.1999512,5.0,184.5,0.8,0.0,0.0,851,144,0,0,858.50,25.62,20.29,# data time:7840,pm2.5:6.445,pm10:5.704,O2:0.000,NO2:0.000,SO2:0.000,NH3:4.630
10:14:13,0,0,0,0,0,0,0,0,0,0,0,515,0,0,0,0,0.0000000,0.0000000,0.0000000,0.0000000,10.00,38.4174576,-110.7734375,1390.0000000,4.6,180.6,0.8,0.0,0.0,851,138,0,0,858.63,25.60,20.42,# data time:7840,pm2.5:6.445,pm10:5.704,O2:0.000,NO2:0.000,SO2:0.000,NH3:4.630
10:14:14,0,0,0,0,0,0,0,0,0,0,0,514,0,0,0,0,0.0000000,0.0000000,0.0000000,0.0000000,10.00,38.4174423,-110.7734375,1389.9000244,4.0,182.9,0.8,0.0,0.0,850,142,0,0,858.59,25.64,20.41,# data time:7840,pm2.5:6.445,pm10:5.704,O2:0.000,NO2:0.000,SO2:0.000,NH3:4.630
10:14:15,0,0,0,0,0,0,0,0,0,0,0,515,0,0,0,0,0.0000000,0.0000000,0.0000000,0.0000000,10.00,38.4174232,-110.7734375,1390.0000000,3.9,181.1,0.8,0.0,0.0,850,137,0,0,858.54,25.07,20.35,# data time:7840,pm2.5:6.445,pm10:5.704,O2:0.000,NO2:0.000,SO2:0.000,NH3:4.630
10:14:16,0,0,0,0,0,0,0,0,0,0,0,514,0,0,0,0,0.0000000,0.0000000,0.0000000,0.0000000,10.00,38.4174080,-110.7734375,1390.0000000,3.5,189.6,0.8,0.0,0.0,850,137,0,0,858.60,25.22,20.35,# data time:7840,pm2.5:6.445,pm10:5.704,O2:0.000,NO2:0.000,SO2:0.000,NH3:4.630
10:14:17,0,0,0,0,0,0,0,0,0,0,0,514,0,0,0,0,0.0000000,0.0000000,0.0000000,0.0000000,10.00,38.4173927,-110.7734375,1389.8000488,3.6,186.9,0.8,0.0,0.0,851,134,0,0,858.53,25.57,20.29,# data time:7840,pm2.5:6.445,pm10:5.704,O2:0.000,NO2:0.000,SO2:0.000,NH3:4.630
10:14:18,0,0,0,0,0,0,0,0,0,0,0,514,0,0,0,0,0.0000000,0.0000000,0.0000000,0.0000000,10.00,38.4173737,-110.7734375,1389.6999512,3.8,190.9,0.8,0.0,0.0,850,133,0,0,858.56,25.42,20.31,# data time:7840,pm2.5:6.445,pm10:5.704,O2:0.000,NO2:0.000,SO2:0.000,NH3:4.630
10:14:19,0,0,0,0,0,0,0,0,0,0,0,515,0,0,0,0,0.0000000,0.0000000,0.0000000,0.0000000,10.00,38.4173584,-110.7734528,1389.4000244,3.8,198.0,0.8,0.0,0.0,851,132,0,0,858.60,24.75,20.28,# data time:7840,pm2.5:6.445,pm10:5.704,O2:0.000,NO2:0.000,SO2:0.000,NH3:4.630
10:14:20,0,0,0,0,0,0,0,0,0,0,0,514,0,0,0,0,0.0000000,0.0000000,0.0000000,0.0000000,10.00,38.4173393,-110.7734528,1389.3000488,4.0,197.5,0.8,0.0,0.0,850,135,0,0,858.65,24.54,20.35,# data time:7840,pm2.5:6.445,pm10:5.704,O2:0.000,NO2:0.000,SO2:0.000,NH3:4.630
10:14:21,0,0,0,0,0,0,0,0,0,0,0,514,0,0,0,0,0.0000000,0.0000000,0.0000000,0.0000000,10.00,38.4173241,-110.7734680,1389.1999512,3.5,203.7,0.8,0.0,0.0,850,140,0,0,858.61,24.63,20.40,# data time:7840,pm2.5:6.445,pm10:5.704,O2:0.000,NO2:0.000,SO2:0.000,NH3:4.630
10:14:22,0,0,0,0,0,0,0,0,0,0,0,514,0,0,0,0,0.0000000,0.0000000,0.0000000,0.0000000,10.00,38.4173241,-110.7734680,1389.1999512,3.5,203.7,0.8,0.0,0.0,850,135,0,0,858.50,24.80,20.29,# data time:7850,pm2.5:6.445,pm10:5.704,O2:0.000,NO2:0.000,SO2:0.000,NH3:4.630
10:14:23,0,0,0,0,0,0,0,0,0,0,0,514,0,0,0,0,0.0000000,0.0000000,0.0000000,0.0000000,10.00,38.4172974,-110.7734756,1389.1999512,3.1,198.4,0.8,0.0,0.0,850,136,0,0,858.61,24.84,20.45,# data time:7850,pm2.5:6.445,pm10:5.704,O2:0.000,NO2:0.000,SO2:0.000,NH3:4.630
10:14:24,0,0,0,0,0,0,0,0,0,0,0,514,0,0,0,0,0.0000000,0.0000000,0.0000000,0.0000000,10.00,38.4172859,-110.7734909,1389.0999756,3.0,199.8,0.8,0.0,0.0,850,137,0,0,858.61,24.86,20.49,# data time:7850,pm2.5:6.445,pm10:5.704,O2:0.000,NO2:0.000,SO2:0.000,NH3:4.630
10:14:25,0,0,0,0,0,0,0,0,0,0,0,515,0,0,0,0,0.0000000,0.0000000,0.0000000,0.0000000,10.00,38.4172783,-110.7734909,1389.0999756,2.7,199.8,0.8,0.0,0.0,850,131,0,0,858.55,24.69,20.54,# data time:7850,pm2.5:6.445,pm10:5.704,O2:0.000,NO2:0.000,SO2:0.000,NH3:4.630
10:14:26,0,0,0,0,0,0,0,0,0,0,0,514,0,0,0,0,0.0000000,0.0000000,0.0000000,0.0000000,10.00,38.4172745,-110.7735138,1389.1999512,2.5,199.8,0.8,0.0,0.0,850,136,0,0,858.55,24.17,20.59,# data time:7850,pm2.5:6.445,pm10:5.704,O2:0.000,NO2:0.000,SO2:0.000,NH3:4.630
10:14:27,0,0,0,0,0,0,0,0,0,0,0,514,0,0,0,0,0.0000000,0.0000000,0.0000000,0.0000000,10.00,38.4172630,-110.7735291,1389.3000488,2.8,199.8,0.8,0.0,0.0,851,133,0,0,858.53,23.85,20.63,# data time:7850,pm2.5:6.445,pm10:5.704,O2:0.000,NO2:0.000,SO2:0.000,NH3:4.630
10:14:28,0,0,0,0,0,0,0,0,0,0,0,514,0,0,0,0,0.0000000,0.0000000,0.0000000,0.0000000,10.00,38.4172592,-110.7735443,1389.3000488,3.7,233.4,0.8,0.0,0.0,850,139,0,0,858.47,24.09,20.66,# data time:7850,pm2.5:6.445,pm10:5.704,O2:0.000,NO2:0.000,SO2:0.000,NH3:4.630
10:14:29,0,0,0,0,0,0,0,0,0,0,0,514,0,0,0,0,0.0000000,0.0000000,0.0000000,0.0000000,10.00,38.4172478,-110.7735672,1389.1999512,4.7,239.5,0.8,0.0,0.0,851,136,0,0,858.68,24.77,20.70,# data time:7850,pm2.5:6.445,pm10:5.704,O2:0.000,NO2:0.000,SO2:0.000,NH3:4.630
10:14:31,0,0,0,0,0,0,0,0,0,0,0,514,0,0,0,0,0.0000000,0.0000000,0.0000000,0.0000000,10.00,38.4172401,-110.7735825,1389.0999756,4.3,237.4,0.8,0.0,0.0,851,134,0,0,858.63,24.84,20.69,# data time:7850,pm2.5:6.445,pm10:5.704,O2:0.000,NO2:0.000,SO2:0.000,NH3:4.630
10:14:31,0,0,0,0,0,0,0,0,0,0,0,514,0,0,0,0,0.0000000,0.0000000,0.0000000,0.0000000,10.00,38.4172287,-110.7736053,1389.1999512,4.3,233.5,0.8,0.0,0.0,850,139,0,0,858.59,24.84,20.78,# data time:7860,pm2.5:6.445,pm10:5.704,O2:0.000,NO2:0.000,SO2:0.000,NH3:4.630
10:14:33,0,0,0,0,0,0,0,0,0,0,0,514,0,0,0,0,0.0000000,0.0000000,0.0000000,0.0000000,10.00,38.4171982,-110.7736588,1390.0000000,4.3,233.5,0.8,0.0,0.0,851,139,0,0,858.57,24.72,20.82,# data time:7860,pm2.5:6.445,pm10:5.704,O2:0.000,NO2:0.000,SO2:0.000,NH3:4.630
10:14:34,0,0,0,0,0,0,0,0,0,0,0,514,0,0,0,0,0.0000000,0.0000000,0.0000000,0.0000000,10.00,38.4171829,-110.7736816,1390.5999756,5.7,233.7,0.8,0.0,0.0,850,138,0,0,858.49,24.70,20.86,# data time:7860,pm2.5:6.445,pm10:5.704,O2:0.000,NO2:0.000,SO2:0.000,NH3:4.630
10:14:35,0,0,0,0,0,0,0,0,0,0,0,515,0,0,0,0,0.0000000,0.0000000,0.0000000,0.0000000,10.00,38.4171677,-110.7737198,1391.1999512,5.8,232.8,0.8,0.0,0.0,850,134,0,0,858.47,24.58,20.93,# data time:7860,pm2.5:6.445,pm10:5.704,O2:0.000,NO2:0.000,SO2:0.000,NH3:4.630
10:14:36,0,0,0,0,0,0,0,0,0,0,0,514,0,0,0,0,0.0000000,0.0000000,0.0000000,0.0000000,10.00,38.4171562,-110.7737503,1391.9000244,5.7,235.1,0.8,0.0,0.0,850,136,0,0,858.51,24.52,20.95,# data time:7860,pm2.5:6.445,pm10:5.704,O2:0.000,NO2:0.000,SO2:0.000,NH3:4.630
10:14:37,0,0,0,0,0,0,0,0,0,0,0,514,0,0,0,0,0.0000000,0.0000000,0.0000000,0.0000000,10.00,38.4171410,-110.7737732,1392.3000488,5.3,238.6,0.8,0.0,0.0,850,136,0,0,858.48,24.38,20.96,# data time:7860,pm2.5:6.445,pm10:5.704,O2:0.000,NO2:0.000,SO2:0.000,NH3:4.630
10:14:38,0,0,0,0,0,0,0,0,0,0,0,514,0,0,0,0,0.0000000,0.0000000,0.0000000,0.0000000,10.00,38.4171257,-110.7738113,1392.5000000,5.0,240.6,0.8,0.0,0.0,851,138,0,0,858.46,24.40,20.99,# data time:7860,pm2.5:6.445,pm10:5.704,O2:0.000,NO2:0.000,SO2:0.000,NH3:4.630
10:14:39,0,0,0,0,0,0,0,0,0,0,0,514,0,0,0,0,0.0000000,0.0000000,0.0000000,0.0000000,10.00,38.4171181,-110.7738342,1392.6999512,5.3,245.1,0.8,0.0,0.0,850,137,0,0,858.42,24.41,21.00,# data time:7860,pm2.5:6.445,pm10:5.704,O2:0.000,NO2:0.000,SO2:0.000,NH3:4.630
10:14:40,0,0,0,0,0,0,0,0,0,0,0,514,0,0,0,0,0.0000000,0.0000000,0.0000000,0.0000000,10.00,38.4171066,-110.7738647,1392.9000244,5.5,246.5,0.8,0.0,0.0,850,142,0,0,858.40,24.49,21.03,# data time:7860,pm2.5:6.445,pm10:5.704,O2:0.000,NO2:0.000,SO2:0.000,NH3:4.630
10:14:41,0,0,0,0,0,0,0,0,0,0,0,513,0,0,0,0,0.0000000,0.0000000,0.0000000,0.0000000,10.00,38.4170990,-110.7739029,1393.1999512,5.9,252.1,0.8,0.0,0.0,850,136,0,0,858.31,24.40,21.06,# data time:7860,pm2.5:6.445,pm10:5.704,O2:0.000,NO2:0.000,SO2:0.000,NH3:4.630
10:14:42,0,0,0,0,0,0,0,0,0,0,0,514,0,0,0,0,0.0000000,0.0000000,0.0000000,0.0000000,10.00,38.4170990,-110.7739029,1393.1999512,5.9,252.1,0.8,0.0,0.0,850,136,0,0,858.23,24.28,20.95,# data time:7870,pm2.5:6.445,pm10:5.704,O2:0.000,NO2:0.000,SO2:0.000,NH3:4.630
10:14:43,0,0,0,0,0,0,0,0,0,0,0,514,0,0,0,0,0.0000000,0.0000000,0.0000000,0.0000000,10.00,38.4170837,-110.7739639,1394.0000000,6.0,261.8,0.8,0.0,0.0,850,142,0,0,858.21,24.11,21.08,# data time:7870,pm2.5:6.445,pm10:5.704,O2:0.000,NO2:0.000,SO2:0.000,NH3:4.630
