Time, Motor A Speed, Motor A Dir, Motor B Speed, Motor B Dir, Servo Rail Current Sensor, Servo Pos - Arm L, Servo Pos - Arm R, Servo Pos - End, Servo Pos - Hopper, Servo Pos - Lid, Servo Pos - Extra, Servo Current, LED - Front L, LED - Front R, LED - Back L, LED - Back R, IMU Pitch, IMU Roll, IMU Yaw, Compass Heading, GPS Sats, GPS Latitude, GPS Longitude, GPS Altitude, GPS Speed, GPS Angle, GPS HDOP, GPS VDOP, GPS PDOP, Battery, Wind, Comm Xbee Latency, Comm Arduino Latency, Pressure, Humidity, Temperature, uRADMonitor
11:10:44,0,0,0,0,0,0,0,0,0,0,0,514,0,0,0,0,0.0000000,0.0000000,0.0000000,0.0000000,10.00,38.4064102,-110.7922668,1379.3000488,0.0,17.5,0.8,0.0,0.0,835,126,0,0,860.53,23.33,17.35,# data time:11230,pm2.5:6.445,pm10:5.704,O2:0.000,NO2:0.000,SO2:0.000,NH3:5.536
11:10:45,0,0,0,0,0,0,0,0,0,0,0,514,0,0,0,0,0.0000000,0.0000000,0.0000000,0.0000000,10.00,38.4064102,-110.7922668,1379.3000488,0.0,17.5,0.8,0.0,0.0,835,127,0,0,860.51,23.32,17.35,# data time:11230,pm2.5:6.445,pm10:5.704,O2:0.000,NO2:0.000,SO2:0.000,NH3:5.536
11:10:46,0,0,0,0,0,0,0,0,0,0,0,514,0,0,0,0,0.0000000,0.0000000,0.0000000,0.0000000,11.00,38.4064102,-110.7922668,1379.3000488,0.0,17.5,0.8,0.0,0.0,836,128,0,0,860.49,23.33,17.35,# data time:11230,pm2.5:6.445,pm10:5.704,O2:0.000,NO2:0.000,SO2:0.000,NH3:5.536
11:10:47,0,0,0,0,0,0,0,0,0,0,0,514,0,0,0,0,0.0000000,0.0000000,0.0000000,0.0000000,11.00,38.4064102,-110.7922668,1379.3000488,0.0,17.5,0.8,0.0,0.0,835,129,0,0,860.54,23.32,17.35,# data time:11230,pm2.5:6.445,pm10:5.704,O2:0.000,NO2:0.000,SO2:0.000,NH3:5.536
11:10:48,0,0,0,0,0,0,0,0,0,0,0,514,0,0,0,0,0.0000000,0.0000000,0.0000000,0.0000000,11.00,38.4064102,-110.7922668,1379.3000488,0.0,17.5,0.8,0.0,0.0,835,127,0,0,860.52,23.35,17.36,# data time:11230,pm2.5:6.445,pm10:5.704,O2:0.000,NO2:0.000,SO2:0.000,NH3:5.536
11:10:49,0,0,0,0,0,0,0,0,0,0,0,514,0,0,0,0,0.0000000,0.0000000,0.0000000,0.0000000,11.00,38.4064102,-110.7922668,1379.3000488,0.0,17.5,0.8,0.0,0.0,835,126,0,0,860.55,23.35,17.36,# data time:11230,pm2.5:6.445,pm10:5.704,O2:0.000,NO2:0.000,SO2:0.000,NH3:5.536
11:10:50,0,0,0,0,0,0,0,0,0,0,0,513,0,0,0,0,0.0000000,0.0000000,0.0000000,0.0000000,11.00,38.4064102,-110.7922668,1379.3000488,0.0,17.5,0.8,0.0,0.0,836,127,0,0,860.51,23.35,17.27,# data time:11240,pm2.5:6.445,pm10:5.704,O2:0.000,NO2:0.000,SO2.536
11:10:51,0,0,0,0,0,0,0,0,0,0,0,514,0,0,0,0,0.0000000,0.0000000,0.0000000,0.0000000,11.00,38.4064102,-110.7922668,1379.3000488,0.0,17.5,0.8,0.0,0.0,835,128,0,0,860.50,23.33,17.35,# data time:11240,pm2.5:6.445,pm10:5.704,O2:0.000,NO2:0.000,SO2.536
11:10:52,0,0,0,0,0,0,0,0,0,0,0,513,0,0,0,0,0.0000000,0.0000000,0.0000000,0.0000000,11.00,38.4064102,-110.7922668,1379.3000488,0.0,17.5,0.8,0.0,0.0,835,127,0,0,860.48,23.35,17.35,# data time:11240,pm2.5:6.445,pm10:5.704,O2:0.000,NO2:0.000,SO2.536
11:10:53,0,0,0,0,0,0,0,0,0,0,0,514,0,0,0,0,0.0000000,0.0000000,0.0000000,0.0000000,10.00,38.4064102,-110.7922668,1379.3000488,0.0,17.5,0.8,0.0,0.0,835,126,0,0,860.51,23.36,17.35,# data time:11240,pm2.5:6.445,pm10:5.704,O2:0.000,NO2:0.000,SO2.536
11:10:54,0,0,0,0,0,0,0,0,0,0,0,514,0,0,0,0,0.0000000,0.0000000,0.0000000,0.0000000,10.00,38.4064102,-110.7922668,1379.3000488,0.0,17.5,0.8,0.0,0.0,835,130,0,0,860.46,23.38,17.35,# data time:11240,pm2.5:6.445,pm10:5.704,O2:0.000,NO2:0.000,SO2.536
11:10:55,0,0,0,0,0,0,0,0,0,0,0,514,0,0,0,0,0.0000000,0.0000000,0.0000000,0.0000000,10.00,38.4064102,-110.7922668,1379.3000488,0.0,17.5,0.8,0.0,0.0,835,128,0,0,860.51,23.42,17.35,# data time:11240,pm2.5:6.445,pm10:5.704,O2:0.000,NO2:0.000,SO2.536
11:10:56,0,0,0,0,0,0,0,0,0,0,0,514,0,0,0,0,0.0000000,0.0000000,0.0000000,0.0000000,10.00,38.4064102,-110.7922668,1379.3000488,0.0,17.5,0.8,0.0,0.0,836,126,0,0,860.50,23.39,17.36,# data time:11240,pm2.5:6.445,pm10:5.704,O2:0.000,NO2:0.000,SO2.536
11:10:57,0,0,0,0,0,0,0,0,0,0,0,514,0,0,0,0,0.0000000,0.0000000,0.0000000,0.0000000,11.00,38.4064102,-110.7922668,1379.3000488,0.0,17.5,0.8,0.0,0.0,835,125,0,0,860.50,23.39,17.35,# data time:11240,pm2.5:6.445,pm10:5.704,O2:0.000,NO2:0.000,SO2.536
11:10:58,0,0,0,0,0,0,0,0,0,0,0,514,0,0,0,0,0.0000000,0.0000000,0.0000000,0.0000000,10.00,38.4064102,-110.7922668,1379.3000488,0.0,17.5,0.8,0.0,0.0,835,126,0,0,860.53,23.42,17.35,# data time:11240,pm2.5:6.445,pm10:5.704,O2:0.000,NO2:0.000,SO2.536
11:10:59,0,0,0,0,0,0,0,0,0,0,0,514,0,0,0,0,0.0000000,0.0000000,0.0000000,0.0000000,11.00,38.4064102,-110.7922668,1379.3000488,0.0,17.5,0.8,0.0,0.0,835,131,0,0,860.48,23.38,17.35,# data time:11240,pm2.5:6.445,pm10:5.704,O2:0.000,NO2:0.000,SO2.536
11:11:00,0,0,0,0,0,0,0,0,0,0,0,513,0,0,0,0,0.0000000,0.0000000,0.0000000,0.0000000,11.00,38.4064102,-110.7922668,1379.3000488,0.0,17.5,0.8,0.0,0.0,835,125,0,0,860.51,23.44,17.26,# data time:11250,pm2.5:5.640,pm10:4.991,O2:0.000,NO2:0.000,SO2:0.000,NH3:5.762
11:11:01,0,0,0,0,0,0,0,0,0,0,0,514,0,0,0,0,0.0000000,0.0000000,0.0000000,0.0000000,11.00,38.4064064,-110.7922668,1379.3000488,0.0,17.5,0.8,0.0,0.0,835,128,0,0,860.56,23.44,17.35,# data time:11250,pm2.5:5.640,pm10:4.991,O2:0.000,NO2:0.000,SO2:0.000,NH3:5.762
11:11:02,0,0,0,0,0,0,0,0,0,0,0,514,0,0,0,0,0.0000000,0.0000000,0.0000000,0.0000000,11.00,38.4064064,-110.7922668,1379.3000488,0.0,17.5,0.8,0.0,0.0,835,128,0,0,860.46,23.42,17.35,# data time:11250,pm2.5:5.640,pm10:4.991,O2:0.000,NO2:0.000,SO2:0.000,NH3:5.762
11:11:03,0,0,0,0,0,0,0,0,0,0,0,514,0,0,0,0,0.0000000,0.0000000,0.0000000,0.0000000,11.00,38.4064064,-110.7922668,1379.3000488,0.0,17.5,0.8,0.0,0.0,835,127,0,0,860.47,23.44,17.35,# data time:11250,pm2.5:5.640,pm10:4.991,O2:0.000,NO2:0.000,SO2:0.000,NH3:5.762
11:11:04,0,0,0,0,0,0,0,0,0,0,0,514,0,0,0,0,0.0000000,0.0000000,0.0000000,0.0000000,10.00,38.4064064,-110.7922668,1379.3000488,0.0,17.5,0.8,0.0,0.0,836,126,0,0,860.51,23.44,17.35,# data time:11250,pm2.5:5.640,pm10:4.991,O2:0.000,NO2:0.000,SO2:0.000,NH3:5.762
11:11:05,0,0,0,0,0,0,0,0,0,0,0,514,0,0,0,0,0.0000000,0.0000000,0.0000000,0.0000000,10.00,38.4064064,-110.7922668,1379.3000488,0.0,17.5,0.8,0.0,0.0,834,126,0,0,860.49,23.45,17.35,# data time:11250,pm2.5:5.640,pm10:4.991,O2:0.000,NO2:0.000,SO2:0.000,NH3:5.762
11:11:06,0,0,0,0,0,0,0,0,0,0,0,514,0,0,0,0,0.0000000,0.0000000,0.0000000,0.0000000,10.00,38.4064064,-110.7922668,1379.3000488,0.0,17.5,0.8,0.0,0.0,834,128,0,0,860.50,23.47,17.35,# data time:11250,pm2.5:5.640,pm10:4.991,O2:0.000,NO2:0.000,SO2:0.000,NH3:5.762
11:11:07,0,0,0,0,0,0,0,0,0,0,0,513,0,0,0,0,0.0000000,0.0000000,0.0000000,0.0000000,10.00,38.4064064,-110.7922668,1379.3000488,0.0,17.5,0.8,0.0,0.0,835,127,0,0,860.50,23.45,17.35,# data time:11250,pm2.5:5.640,pm10:4.991,O2:0.000,NO2:0.000,SO2:0.000,NH3:5.762
11:11:08,0,0,0,0,0,0,0,0,0,0,0,514,0,0,0,0,0.0000000,0.0000000,0.0000000,0.0000000,10.00,38.4064064,-110.7922668,1379.3000488,0.0,17.5,0.8,0.0,0.0,835,126,0,0,860.47,23.47,17.35,# data time:11250,pm2.5:5.640,pm10:4.991,O2:0.000,NO2:0.000,SO2:0.000,NH3:5.762
11:11:09,0,0,0,0,0,0,0,0,0,0,0,514,0,0,0,0,0.0000000,0.0000000,0.0000000,0.0000000,10.00,38.4064064,-110.7922668,1379.3000488,0.0,17.5,0.8,0.0,0.0,835,126,0,0,860.54,23.42,17.35,# data time:11250,pm2.5:5.640,pm10:4.991,O2:0.000,NO2:0.000,SO2:0.000,NH3:5.762
11:11:10,0,0,0,0,0,0,0,0,0,0,0,514,0,0,0,0,0.0000000,0.0000000,0.0000000,0.0000000,10.00,38.4064064,-110.7922668,1379.3000488,0.0,17.5,0.8,0.0,0.0,836,126,0,0,860.49,23.44,17.26,# data time:11260,pm2.5:6.445,pm10:5.704,O2:0.000,NO2:0.000,SO2:0.000,NH3:5.536
11:11:11,0,0,0,0,0,0,0,0,0,0,0,514,0,0,0,0,0.0000000,0.0000000,0.0000000,0.0000000,10.00,38.4064064,-110.7922668,1379.3000488,0.0,17.5,0.8,0.0,0.0,835,126,0,0,860.51,23.41,17.35,# data time:11260,pm2.5:6.445,pm10:5.704,O2:0.000,NO2:0.000,SO2:0.000,NH3:5.536
11:11:12,0,0,0,0,0,0,0,0,0,0,0,514,0,0,0,0,0.0000000,0.0000000,0.0000000,0.0000000,10.00,38.4064064,-110.7922668,1379.3000488,0.0,17.5,0.8,0.0,0.0,835,131,0,0,860.52,23.44,17.35,# data time:11260,pm2.5:6.445,pm10:5.704,O2:0.000,NO2:0.000,SO2:0.000,NH3:5.536
11:11:13,0,0,0,0,0,0,0,0,0,0,0,514,0,0,0,0,0.0000000,0.0000000,0.0000000,0.0000000,10.00,38.4064064,-110.7922668,1379.3000488,0.0,17.5,0.8,0.0,0.0,835,125,0,0,860.51,23.42,17.35,# data time:11260,pm2.5:6.445,pm10:5.704,O2:0.000,NO2:0.000,SO2:0.000,NH3:5.536
11:11:14,0,0,0,0,0,0,0,0,0,0,0,514,0,0,0,0,0.0000000,0.0000000,0.0000000,0.0000000,10.00,38.4064064,-110.7922668,1379.3000488,0.0,17.5,0.8,0.0,0.0,835,127,0,0,860.47,23.44,17.35,# data time:11260,pm2.5:6.445,pm10:5.704,O2:0.000,NO2:0.000,SO2:0.000,NH3:5.536
11:11:15,0,0,0,0,0,0,0,0,0,0,0,514,0,0,0,0,0.0000000,0.0000000,0.0000000,0.0000000,10.00,38.4064064,-110.7922668,1379.3000488,0.0,17.5,0.8,0.0,0.0,835,134,0,0,860.50,23.42,17.36,# data time:11260,pm2.5:6.445,pm10:5.704,O2:0.000,NO2:0.000,SO2:0.000,NH3:5.536
11:11:16,0,0,0,0,0,0,0,0,0,0,0,514,0,0,0,0,0.0000000,0.0000000,0.0000000,0.0000000,10.00,38.4064064,-110.7922668,1379.3000488,0.0,17.5,0.8,0.0,0.0,836,128,0,0,860.55,23.42,17.36,# data time:11260,pm2.5:6.445,pm10:5.704,O2:0.000,NO2:0.000,SO2:0.000,NH3:5.536
11:11:17,0,0,0,0,0,0,0,0,0,0,0,514,0,0,0,0,0.0000000,0.0000000,0.0000000,0.0000000,9.00,38.4064064,-110.7922668,1379.3000488,0.0,17.5,0.9,0.0,0.0,834,127,0,0,860.49,23.41,17.35,# data time:11260,pm2.5:6.445,pm10:5.704,O2:0.000,NO2:0.000,SO2:0.000,NH3:5.536
11:11:18,0,0,0,0,0,0,0,0,0,0,0,514,0,0,0,0,0.0000000,0.0000000,0.0000000,0.0000000,9.00,38.4064064,-110.7922668,1379.3000488,0.0,17.5,0.9,0.0,0.0,835,128,0,0,860.50,23.38,17.36,# data time:11260,pm2.5:6.445,pm10:5.704,O2:0.000,NO2:0.000,SO2:0.000,NH3:5.536
11:11:19,0,0,0,0,0,0,0,0,0,0,0,514,0,0,0,0,0.0000000,0.0000000,0.0000000,0.0000000,10.00,38.4064064,-110.7922668,1379.3000488,0.0,17.5,0.8,0.0,0.0,834,127,0,0,860.49,23.38,17.36,# data time:11260,pm2.5:6.445,pm10:5.704,O2:0.000,NO2:0.000,SO2:0.000,NH3:5.536
11:11:20,0,0,0,0,0,0,0,0,0,0,0,514,0,0,0,0,0.0000000,0.0000000,0.0000000,0.0000000,10.00,38.4064064,-110.7922668,1379.3000488,0.0,17.5,0.8,0.0,0.0,834,129,0,0,860.49,23.36,17.26,# data time:11270,pm2.5:5.640,pm10:4.991,O2:0.000,NO2:0.000,SO2:0.000,NH3:5.536
11:11:21,0,0,0,0,0,0,0,0,0,0,0,514,0,0,0,0,0.0000000,0.0000000,0.0000000,0.0000000,11.00,38.4064064,-110.7922668,1379.3000488,0.0,17.5,0.8,0.0,0.0,835,127,0,0,860.49,23.35,17.35,# data time:11270,pm2.5:5.640,pm10:4.991,O2:0.000,NO2:0.000,SO2:0.000,NH3:5.536
11:11:22,0,0,0,0,0,0,0,0,0,0,0,514,0,0,0,0,0.0000000,0.0000000,0.0000000,0.0000000,10.00,38.4064064,-110.7922668,1379.3000488,0.0,17.5,0.8,0.0,0.0,835,132,0,0,860.50,23.32,17.36,# data time:11270,pm2.5:5.640,pm10:4.991,O2:0.000,NO2:0.000,SO2:0.000,NH3:5.536
11:11:23,0,0,0,0,0,0,0,0,0,0,0,514,0,0,0,0,0.0000000,0.0000000,0.0000000,0.0000000,10.00,38.4064064,-110.7922668,1379.3000488,0.0,17.5,0.8,0.0,0.0,835,131,0,0,860.53,23.30,17.36,# data time:11270,pm2.5:5.640,pm10:4.991,O2:0.000,NO2:0.000,SO2:0.000,NH3:5.536
11:11:24,0,0,0,0,0,0,0,0,0,0,0,514,0,0,0,0,0.0000000,0.0000000,0.0000000,0.0000000,10.00,38.4064064,-110.7922668,1379.3000488,0.0,17.5,0.8,0.0,0.0,835,127,0,0,860.51,23.32,17.36,# data time:11270,pm2.5:5.640,pm10:4.991,O2:0.000,NO2:0.000,SO2:0.000,NH3:5.536
11:11:25,0,0,0,0,0,0,0,0,0,0,0,513,0,0,0,0,0.0000000,0.0000000,0.0000000,0.0000000,10.00,38.4064064,-110.7922668,1379.3000488,0.0,17.5,0.8,0.0,0.0,835,127,0,0,860.53,23.29,17.36,# data time:11270,pm2.5:5.640,pm10:4.991,O2:0.000,NO2:0.000,SO2:0.000,NH3:5.536
11:11:26,0,0,0,0,0,0,0,0,0,0,0,514,0,0,0,0,0.0000000,0.0000000,0.0000000,0.0000000,10.00,38.4064064,-110.7922668,1379.3000488,0.0,17.5,0.8,0.0,0.0,835,131,0,0,860.49,23.30,17.36,# data time:11270,pm2.5:5.640,pm10:4.991,O2:0.000,NO2:0.000,SO2:0.000,NH3:5.536
11:11:27,0,0,0,0,0,0,0,0,0,0,0,513,0,0,0,0,0.0000000,0.0000000,0.0000000,0.0000000,10.00,38.4064064,-110.7922668,1379.3000488,0.0,17.5,0.8,0.0,0.0,835,125,0,0,860.52,23.27,17.36,# data time:11270,pm2.5:5.640,pm10:4.991,O2:0.000,NO2:0.000,SO2:0.000,NH3:5.536
11:11:28,0,0,0,0,0,0,0,0,0,0,0,514,0,0,0,0,0.0000000,0.0000000,0.0000000,0.0000000,10.00,38.4064064,-110.7922668,1379.3000488,0.0,17.5,0.8,0.0,0.0,835,126,0,0,860.48,23.30,17.27,# data time:11270,pm2.5:5.640,pm10:4.991,O2:0.000,NO2:0.000,SO2:0.000,NH3:5.536
11:11:29,0,0,0,0,0,0,0,0,0,0,0,514,0,0,0,0,0.0000000,0.0000000,0.0000000,0.0000000,10.00,38.4064064,-110.7922668,1379.3000488,0.0,17.5,0.8,0.0,0.0,835,126,0,0,860.50,23.33,17.36,# data time:11280,pm2.5:5.640,pm10:4.991,O2:0.000,NO2:0.000,SO2:0.000,NH3:5.536
11:11:30,0,0,0,0,0,0,0,0,0,0,0,514,0,0,0,0,0.0000000,0.0000000,0.0000000,0.0000000,11.00,38.4064064,-110.7922668,1379.3000488,0.0,17.5,0.8,0.0,0.0,835,127,0,0,860.49,23.33,17.25,# data time:11280,pm2.5:5.640,pm10:4.991,O2:0.000,NO2:0.000,SO2:0.000,NH3:5.536
11:11:31,0,0,0,0,0,0,0,0,0,0,0,513,0,0,0,0,0.0000000,0.0000000,0.0000000,0.0000000,11.00,38.4064064,-110.7922668,1379.3000488,0.0,17.5,0.8,0.0,0.0,835,129,0,0,860.50,23.35,17.30,# data time:11280,pm2.5:5.640,pm10:4.991,O2:0.000,NO2:0.000,SO2:0.000,NH3:5.536
11:11:33,0,0,0,0,0,0,0,0,0,0,0,514,0,0,0,0,0.0000000,0.0000000,0.0000000,0.0000000,10.00,38.4064064,-110.7922668,1379.3000488,0.0,17.5,0.8,0.0,0.0,835,126,0,0,860.49,23.35,17.31,# data time:11280,pm2.5:5.640,pm10:4.991,O2:0.000,NO2:0.000,SO2:0.000,NH3:5.536
11:11:34,0,0,0,0,0,0,0,0,0,0,0,514,0,0,0,0,0.0000000,0.0000000,0.0000000,0.0000000,11.00,38.4064064,-110.7922668,1379.3000488,0.0,17.5,0.8,0.0,0.0,835,126,0,0,860.54,23.38,17.35,# data time:11280,pm2.5:5.640,pm10:4.991,O2:0.000,NO2:0.000,SO2:0.000,NH3:5.536
11:11:35,0,0,0,0,0,0,0,0,0,0,0,514,0,0,0,0,0.0000000,0.0000000,0.0000000,0.0000000,11.00,38.4064064,-110.7922668,1379.3000488,0.0,17.5,0.8,0.0,0.0,835,124,0,0,860.56,23.38,17.35,# data time:11280,pm2.5:5.640,pm10:4.991,O2:0.000,NO2:0.000,SO2:0.000,NH3:5.536
11:11:36,0,0,0,0,0,0,0,0,0,0,0,513,0,0,0,0,0.0000000,0.0000000,0.0000000,0.0000000,10.00,38.4064064,-110.7922668,1379.3000488,0.0,17.5,0.8,0.0,0.0,835,129,0,0,860.51,23.36,17.36,# data time:11280,pm2.5:5.640,pm10:4.991,O2:0.000,NO2:0.000,SO2:0.000,NH3:5.536
11:11:37,0,0,0,0,0,0,0,0,0,0,0,515,0,0,0,0,0.0000000,0.0000000,0.0000000,0.0000000,10.00,38.4064064,-110.7922668,1379.3000488,0.0,17.5,0.8,0.0,0.0,835,131,0,0,860.55,23.38,17.36,# data time:11280,pm2.5:5.640,pm10:4.991,O2:0.000,NO2:0.000,SO2:0.000,NH3:5.536
11:11:38,0,0,0,0,0,0,0,0,0,0,0,514,0,0,0,0,0.0000000,0.0000000,0.0000000,0.0000000,10.00,38.4064064,-110.7922668,1379.3000488,0.0,17.5,0.8,0.0,0.0,834,126,0,0,860.50,23.39,17.36,# data time:11280,pm2.5:5.640,pm10:4.991,O2:0.000,NO2:0.000,SO2:0.000,NH3:5.536
11:11:39,0,0,0,0,0,0,0,0,0,0,0,514,0,0,0,0,0.0000000,0.0000000,0.0000000,0.0000000,11.00,38.4064064,-110.7922668,1379.3000488,0.0,17.5,0.8,0.0,0.0,834,130,0,0,860.54,23.42,17.36,# data time:11280,pm2.5:5.640,pm10:4.991,O2:0.000,NO2:0.000,SO2:0.000,NH3:5.536
11:11:40,0,0,0,0,0,0,0,0,0,0,0,514,0,0,0,0,0.0000000,0.0000000,0.0000000,0.0000000,11.00,38.4064064,-110.7922668,1379.3000488,0.0,17.5,0.8,0.0,0.0,834,125,0,0,860.49,23.42,17.26,# data time:11290,pm2.5:6.445,pm10:5.704,O2:0.000,NO2:0.000,SO2:0.000,NH3:5.536
11:11:41,0,0,0,0,0,0,0,0,0,0,0,514,0,0,0,0,0.0000000,0.0000000,0.0000000,0.0000000,11.00,38.4064064,-110.7922668,1379.3000488,0.0,17.5,0.8,0.0,0.0,834,126,0,0,860.50,23.41,17.35,# data time:11290,pm2.5:6.445,pm10:5.704,O2:0.000,NO2:0.000,SO2:0.000,NH3:5.536
11:11:42,0,0,0,0,0,0,0,0,0,0,0,514,0,0,0,0,0.0000000,0.0000000,0.0000000,0.0000000,10.00,38.4064064,-110.7922668,1379.3000488,0.0,17.5,0.8,0.0,0.0,835,129,0,0,860.52,23.39,17.36,# data time:11290,pm2.5:6.445,pm10:5.704,O2:0.000,NO2:0.000,SO2:0.000,NH3:5.536
11:11:43,0,0,0,0,0,0,0,0,0,0,0,513,0,0,0,0,0.0000000,0.0000000,0.0000000,0.0000000,11.00,38.4064064,-110.7922668,1379.3000488,0.0,17.5,0.8,0.0,0.0,834,132,0,0,860.48,23.36,17.36,# data time:11290,pm2.5:6.445,pm10:5.704,O2:0.000,NO2:0.000,SO2:0.000,NH3:5.536
11:11:44,0,0,0,0,0,0,0,0,0,0,0,513,0,0,0,0,0.0000000,0.0000000,0.0000000,0.0000000,11.00,38.4064064,-110.7922668,1379.3000488,0.0,17.5,0.8,0.0,0.0,835,127,0,0,860.46,23.35,17.37,# data time:11290,pm2.5:6.445,pm10:5.704,O2:0.000,NO2:0.000,SO2:0.000,NH3:5.536
11:11:45,0,0,0,0,0,0,0,0,0,0,0,514,0,0,0,0,0.0000000,0.0000000,0.0000000,0.0000000,11.00,38.4064064,-110.7922668,1379.3000488,0.0,17.5,0.8,0.0,0.0,835,127,0,0,860.51,23.35,17.37,# data time:11290,pm2.5:6.445,pm10:5.704,O2:0.000,NO2:0.000,SO2:0.000,NH3:5.536
11:11:46,0,0,0,0,0,0,0,0,0,0,0,513,0,0,0,0,0.0000000,0.0000000,0.0000000,0.0000000,11.00,38.4064064,-110.7922668,1379.3000488,0.0,17.5,0.8,0.0,0.0,835,125,0,0,860.47,23.32,17.36,# data time:11290,pm2.5:6.445,pm10:5.704,O2:0.000,NO2:0.000,SO2:0.000,NH3:5.536
11:11:47,0,0,0,0,0,0,0,0,0,0,0,514,0,0,0,0,0.0000000,0.0000000,0.0000000,0.0000000,11.00,38.4064064,-110.7922668,1379.3000488,0.0,17.5,0.8,0.0,0.0,835,126,0,0,860.53,23.32,17.37,# data time:11290,pm2.5:6.445,pm10:5.704,O2:0.000,NO2:0.000,SO2:0.000,NH3:5.536
11:11:48,0,0,0,0,0,0,0,0,0,0,0,514,0,0,0,0,0.0000000,0.0000000,0.0000000,0.0000000,11.00,38.4064064,-110.7922668,1379.3000488,0.0,17.5,0.8,0.0,0.0,835,130,0,0,860.46,23.35,17.37,# data time:11290,pm2.5:6.445,pm10:5.704,O2:0.000,NO2:0.000,SO2:0.000,NH3:5.536
11:11:49,0,0,0,0,0,0,0,0,0,0,0,514,0,0,0,0,0.0000000,0.0000000,0.0000000,0.0000000,11.00,38.4064064,-110.7922668,1379.3000488,0.0,17.5,0.8,0.0,0.0,834,129,0,0,860.48,23.36,17.37,# data time:11290,pm2.5:6.445,pm10:5.704,O2:0.000,NO2:0.000,SO2:0.000,NH3:5.536
11:11:50,0,0,0,0,0,0,0,0,0,0,0,514,0,0,0,0,0.0000000,0.0000000,0.0000000,0.0000000,11.00,38.4064064,-110.7922668,1379.3000488,0.0,17.5,0.8,0.0,0.0,834,127,0,0,860.46,23.38,17.28,# data time:11300,pm2.5:5.640,pm10:4.991,O2:0.000,NO2:0.000,S
11:11:51,0,0,0,0,0,0,0,0,0,0,0,515,0,0,0,0,0.0000000,0.0000000,0.0000000,0.0000000,11.00,38.4064064,-110.7922668,1379.3000488,0.0,17.5,0.8,0.0,0.0,835,127,0,0,860.47,23.38,17.37,# data time:11300,pm2.5:5.640,pm10:4.991,O2:0.000,NO2:0.000,S
11:11:52,0,0,0,0,0,0,0,0,0,0,0,514,0,0,0,0,0.0000000,0.0000000,0.0000000,0.0000000,11.00,38.4064064,-110.7922668,1379.3000488,0.0,17.5,0.8,0.0,0.0,834,135,0,0,860.50,23.36,17.37,# data time:11300,pm2.5:5.640,pm10:4.991,O2:0.000,NO2:0.000,S
11:11:53,0,0,0,0,0,0,0,0,0,0,0,514,0,0,0,0,0.0000000,0.0000000,0.0000000,0.0000000,11.00,38.4064064,-110.7922668,1379.3000488,0.0,17.5,0.8,0.0,0.0,835,132,0,0,860.49,23.38,17.37,# data time:11300,pm2.5:5.640,pm10:4.991,O2:0.000,NO2:0.000,S
11:11:54,0,0,0,0,0,0,0,0,0,0,0,514,0,0,0,0,0.0000000,0.0000000,0.0000000,0.0000000,11.00,38.4064064,-110.7922668,1379.3000488,0.0,17.5,0.8,0.0,0.0,835,129,0,0,860.52,23.36,17.37,# data time:11300,pm2.5:5.640,pm10:4.991,O2:0.000,NO2:0.000,S
11:11:55,0,0,0,0,0,0,0,0,0,0,0,514,0,0,0,0,0.0000000,0.0000000,0.0000000,0.0000000,11.00,38.4064064,-110.7922668,1379.3000488,0.0,17.5,0.8,0.0,0.0,835,130,0,0,860.47,23.38,17.37,# data time:11300,pm2.5:5.640,pm10:4.991,O2:0.000,NO2:0.000,S
11:11:56,0,0,0,0,0,0,0,0,0,0,0,514,0,0,0,0,0.0000000,0.0000000,0.0000000,0.0000000,11.00,38.4064064,-110.7922668,1379.3000488,0.0,17.5,0.8,0.0,0.0,835,131,0,0,860.50,23.39,17.37,# data time:11300,pm2.5:5.640,pm10:4.991,O2:0.000,NO2:0.000,S
11:11:57,0,0,0,0,0,0,0,0,0,0,0,514,0,0,0,0,0.0000000,0.0000000,0.0000000,0.0000000,11.00,38.4064064,-110.7922668,1379.3000488,0.0,17.5,0.8,0.0,0.0,835,134,0,0,860.48,23.41,17.37,# data time:11300,pm2.5:5.640,pm10:4.991,O2:0.000,NO2:0.000,S
11:11:58,0,0,0,0,0,0,0,0,0,0,0,514,0,0,0,0,0.0000000,0.0000000,0.0000000,0.0000000,11.00,38.4064064,-110.7922668,1379.3000488,0.0,17.5,0.8,0.0,0.0,834,130,0,0,860.49,23.41,17.37,# data time:11300,pm2.5:5.640,pm10:4.991,O2:0.000,NO2:0.000,S
11:11:59,0,0,0,0,0,0,0,0,0,0,0,514,0,0,0,0,0.0000000,0.0000000,0.0000000,0.0000000,11.00,38.4064064,-110.7922668,1379.3000488,0.0,17.5,0.8,0.0,0.0,835,130,0,0,860.47,23.41,17.36,# data time:11300,pm2.5:5.640,pm10:4.991,O2:0.000,NO2:0.000,S
11:12:00,0,0,0,0,0,0,0,0,0,0,0,514,0,0,0,0,0.0000000,0.0000000,0.0000000,0.0000000,11.00,38.4064064,-110.7922668,1379.3000488,0.0,17.5,0.8,0.0,0.0,834,128,0,0,860.47,23.41,17.27,# data time:11310,pm2.5:6.445,pm10:5.704,O2:0.000,NO2:0.000,SO2:0.000,NH3:5.762
11:12:01,0,0,0,0,0,0,0,0,0,0,0,514,0,0,0,0,0.0000000,0.0000000,0.0000000,0.0000000,10.00,38.4064064,-110.7922668,1379.3000488,0.0,17.5,0.8,0.0,0.0,835,132,0,0,860.46,23.42,17.36,# data time:11310,pm2.5:6.445,pm10:5.704,O2:0.000,NO2:0.000,SO2:0.000,NH3:5.762
11:12:02,0,0,0,0,0,0,0,0,0,0,0,514,0,0,0,0,0.0000000,0.0000000,0.0000000,0.0000000,10.00,38.4064064,-110.7922668,1379.3000488,0.0,17.5,0.8,0.0,0.0,834,129,0,0,860.43,23.39,17.36,# data time:11310,pm2.5:6.445,pm10:5.704,O2:0.000,NO2:0.000,SO2:0.000,NH3:5.762
11:12:03,0,0,0,0,0,0,0,0,0,0,0,514,0,0,0,0,0.0000000,0.0000000,0.0000000,0.0000000,11.00,38.4064064,-110.7922668,1379.3000488,0.0,17.5,0.8,0.0,0.0,835,130,0,0,860.53,23.38,17.37,# data time:11310,pm2.5:6.445,pm10:5.704,O2:0.000,NO2:0.000,SO2:0.000,NH3:5.762
11:12:04,0,0,0,0,0,0,0,0,0,0,0,514,0,0,0,0,0.0000000,0.0000000,0.0000000,0.0000000,11.00,38.4064064,-110.7922668,1379.3000488,0.0,17.5,0.8,0.0,0.0,835,132,0,0,860.53,23.36,17.38,# data time:11310,pm2.5:6.445,pm10:5.704,O2:0.000,NO2:0.000,SO2:0.000,NH3:5.762
11:12:05,0,0,0,0,0,0,0,0,0,0,0,515,0,0,0,0,0.0000000,0.0000000,0.0000000,0.0000000,11.00,38.4064064,-110.7922668,1379.3000488,0.0,17.5,0.8,0.0,0.0,834,129,0,0,860.50,23.38,17.38,# data time:11310,pm2.5:6.445,pm10:5.704,O2:0.000,NO2:0.000,SO2:0.000,NH3:5.762
11:12:06,0,0,0,0,0,0,0,0,0,0,0,514,0,0,0,0,0.0000000,0.0000000,0.0000000,0.0000000,11.00,38.4064064,-110.7922668,1379.3000488,0.0,17.5,0.8,0.0,0.0,834,128,0,0,860.54,23.41,17.37,# data time:11310,pm2.5:6.445,pm10:5.704,O2:0.000,NO2:0.000,SO2:0.000,NH3:5.762
11:12:07,0,0,0,0,0,0,0,0,0,0,0,515,0,0,0,0,0.0000000,0.0000000,0.0000000,0.0000000,11.00,38.4064064,-110.7922668,1379.3000488,0.0,17.5,0.8,0.0,0.0,835,126,0,0,860.55,23.41,17.38,# data time:11310,pm2.5:6.445,pm10:5.704,O2:0.000,NO2:0.000,SO2:0.000,NH3:5.762
11:12:08,0,0,0,0,0,0,0,0,0,0,0,514,0,0,0,0,0.0000000,0.0000000,0.0000000,0.0000000,11.00,38.4064064,-110.7922668,1379.3000488,0.0,17.5,0.8,0.0,0.0,835,127,0,0,860.51,23.45,17.38,# data time:11310,pm2.5:6.445,pm10:5.704,O2:0.000,NO2:0.000,SO2:0.000,NH3:5.762
11:12:09,0,0,0,0,0,0,0,0,0,0,0,514,0,0,0,0,0.0000000,0.0000000,0.0000000,0.0000000,11.00,38.4064064,-110.7922668,1379.3000488,0.0,17.5,0.8,0.0,0.0,835,124,0,0,860.50,23.50,17.37,# data time:11310,pm2.5:6.445,pm10:5.704,O2:0.000,NO2:0.000,SO2:0.000,NH3:5.762
11:12:10,0,0,0,0,0,0,0,0,0,0,0,514,0,0,0,0,0.0000000,0.0000000,0.0000000,0.0000000,11.00,38.4064064,-110.7922668,1379.3000488,0.0,17.5,0.8,0.0,0.0,835,129,0,0,860.51,23.54,17.28,# data time:11320,pm2.5:6.445,pm10:5.704,O2:0.000,NO2:0.000,SO2:0.000,NH3:5.536
11:12:11,0,0,0,0,0,0,0,0,0,0,0,514,0,0,0,0,0.0000000,0.0000000,0.0000000,0.0000000,11.00,38.4064064,-110.7922668,1379.3000488,0.0,17.5,0.8,0.0,0.0,835,130,0,0,860.51,23.58,17.37,# data time:11320,pm2.5:6.445,pm10:5.704,O2:0.000,NO2:0.000,SO2:0.000,NH3:5.536
11:12:12,0,0,0,0,0,0,0,0,0,0,0,514,0,0,0,0,0.0000000,0.0000000,0.0000000,0.0000000,11.00,38.4064064,-110.7922668,1379.3000488,0.0,17.5,0.8,0.0,0.0,835,131,0,0,860.49,23.58,17.37,# data time:11320,pm2.5:6.445,pm10:5.704,O2:0.000,NO2:0.000,SO2:0.000,NH3:5.536
11:12:13,0,0,0,0,0,0,0,0,0,0,0,515,0,0,0,0,0.0000000,0.0000000,0.0000000,0.0000000,11.00,38.4064064,-110.7922668,1379.3000488,0.0,17.5,0.8,0.0,0.0,835,123,0,0,860.50,23.62,17.38,# data time:11320,pm2.5:6.445,pm10:5.704,O2:0.000,NO2:0.000,SO2:0.000,NH3:5.536
11:12:14,0,0,0,0,0,0,0,0,0,0,0,515,0,0,0,0,0.0000000,0.0000000,0.0000000,0.0000000,11.00,38.4064064,-110.7922668,1379.3000488,0.0,17.5,0.8,0.0,0.0,835,128,0,0,860.52,23.59,17.38,# data time:11320,pm2.5:6.445,pm10:5.704,O2:0.000,NO2:0.000,SO2:0.000,NH3:5.536
11:12:15,0,0,0,0,0,0,0,0,0,0,0,514,0,0,0,0,0.0000000,0.0000000,0.0000000,0.0000000,11.00,38.4064064,-110.7922668,1379.3000488,0.0,17.5,0.8,0.0,0.0,835,129,0,0,860.51,23.62,17.38,# data time:11320,pm2.5:6.445,pm10:5.704,O2:0.000,NO2:0.000,SO2:0.000,NH3:5.536
11:12:16,0,0,0,0,0,0,0,0,0,0,0,514,0,0,0,0,0.0000000,0.0000000,0.0000000,0.0000000,11.00,38.4064064,-110.7922668,1379.3000488,0.0,17.5,0.8,0.0,0.0,835,126,0,0,860.51,23.64,17.39,# data time:11320,pm2.5:6.445,pm10:5.704,O2:0.000,NO2:0.000,SO2:0.000,NH3:5.536
11:12:17,0,0,0,0,0,0,0,0,0,0,0,514,0,0,0,0,0.0000000,0.0000000,0.0000000,0.0000000,11.00,38.4064064,-110.7922668,1379.3000488,0.0,17.5,0.8,0.0,0.0,834,128,0,0,860.52,23.61,17.38,# data time:11320,pm2.5:6.445,pm10:5.704,O2:0.000,NO2:0.000,SO2:0.000,NH3:5.536
11:12:18,0,0,0,0,0,0,0,0,0,0,0,514,0,0,0,0,0.0000000,0.0000000,0.0000000,0.0000000,11.00,38.4064064,-110.7922668,1379.3000488,0.0,17.5,0.8,0.0,0.0,835,127,0,0,860.52,23.61,17.38,# data time:11320,pm2.5:6.445,pm10:5.704,O2:0.000,NO2:0.000,SO2:0.000,NH3:5.536
11:12:19,0,0,0,0,0,0,0,0,0,0,0,514,0,0,0,0,0.0000000,0.0000000,0.0000000,0.0000000,10.00,38.4064064,-110.7922668,1379.3000488,0.0,17.5,0.8,0.0,0.0,835,128,0,0,860.50,23.62,17.39,# data time:11320,pm2.5:6.445,pm10:5.704,O2:0.000,NO2:0.000,SO2:0.000,NH3:5.536
11:12:20,0,0,0,0,0,0,0,0,0,0,0,514,0,0,0,0,0.0000000,0.0000000,0.0000000,0.0000000,10.00,38.4064064,-110.7922668,1379.3000488,0.0,17.5,0.8,0.0,0.0,834,127,0,0,860.49,23.62,17.29,# data time:11330,pm2.5:6.445,pm10:5.704,O2:0.000,NO2:0.000,SO2:0.000,NH3:5.536
11:12:21,0,0,0,0,0,0,0,0,0,0,0,514,0,0,0,0,0.0000000,0.0000000,0.0000000,0.0000000,11.00,38.4064064,-110.7922668,1379.3000488,0.0,17.5,0.8,0.0,0.0,835,128,0,0,860.53,23.59,17.34,# data time:11330,pm2.5:6.445,pm10:5.704,O2:0.000,NO2:0.000,SO2:0.000,NH3:5.536
11:12:22,0,0,0,0,0,0,0,0,0,0,0,514,0,0,0,0,0.0000000,0.0000000,0.0000000,0.0000000,11.00,38.4064064,-110.7922668,1379.3000488,0.0,17.5,0.8,0.0,0.0,835,126,0,0,860.54,23.64,17.38,# data time:11330,pm2.5:6.445,pm10:5.704,O2:0.000,NO2:0.000,SO2:0.000,NH3:5.536
11:12:23,0,0,0,0,0,0,0,0,0,0,0,515,0,0,0,0,0.0000000,0.0000000,0.0000000,0.0000000,11.00,38.4064064,-110.7922668,1379.3000488,0.1,17.5,0.8,0.0,0.0,834,129,0,0,860.49,23.65,17.33,# data time:11330,pm2.5:6.445,pm10:5.704,O2:0.000,NO2:0.000,SO2:0.000,NH3:5.536
11:12:24,0,0,0,0,0,0,0,0,0,0,0,515,0,0,0,0,0.0000000,0.0000000,0.0000000,0.0000000,11.00,38.4064064,-110.7922668,1379.3000488,0.0,17.5,0.8,0.0,0.0,834,134,0,0,860.49,23.68,17.38,# data time:11330,pm2.5:6.445,pm10:5.704,O2:0.000,NO2:0.000,SO2:0.000,NH3:5.536
11:12:25,0,0,0,0,0,0,0,0,0,0,0,514,0,0,0,0,0.0000000,0.0000000,0.0000000,0.0000000,11.00,38.4064064,-110.7922668,1379.3000488,0.0,17.5,0.8,0.0,0.0,835,128,0,0,860.49,23.65,17.29,# data time:11330,pm2.5:6.445,pm10:5.704,O2:0.000,NO2:0.000,SO2:0.000,NH3:5.536
11:12:26,0,0,0,0,0,0,0,0,0,0,0,514,0,0,0,0,0.0000000,0.0000000,0.0000000,0.0000000,11.00,38.4064064,-110.7922668,1379.3000488,0.0,17.5,0.8,0.0,0.0,834,125,0,0,860.49,23.68,17.33,# data time:11330,pm2.5:6.445,pm10:5.704,O2:0.000,NO2:0.000,SO2:0.000,NH3:5.536
11:12:27,0,0,0,0,0,0,0,0,0,0,0,514,0,0,0,0,0.0000000,0.0000000,0.0000000,0.0000000,11.00,38.4064064,-110.7922668,1379.3000488,0.0,17.5,0.8,0.0,0.0,835,127,0,0,860.51,23.67,17.28,# data time:11330,pm2.5:6.445,pm10:5.704,O2:0.000,NO2:0.000,SO2:0.000,NH3:5.536
11:12:29,0,0,0,0,0,0,0,0,0,0,0,514,0,0,0,0,0.0000000,0.0000000,0.0000000,0.0000000,11.00,38.4064064,-110.7922668,1379.3000488,0.0,17.5,0.8,0.0,0.0,834,128,0,0,860.55,23.68,17.37,# data time:11330,pm2.5:6.445,pm10:5.704,O2:0.000,NO2:0.000,SO2:0.000,NH3:5.536
11:12:30,0,0,0,0,0,0,0,0,0,0,0,514,0,0,0,0,0.0000000,0.0000000,0.0000000,0.0000000,11.00,38.4064064,-110.7922668,1379.3000488,0.0,17.5,0.8,0.0,0.0,835,128,0,0,860.51,23.67,17.29,# data time:11340,pm2.5:6.445,pm10:5.704,O2:0.000,NO2:0.000,SO2:0.000,NH3:5.762
11:12:31,0,0,0,0,0,0,0,0,0,0,0,515,0,0,0,0,0.0000000,0.0000000,0.0000000,0.0000000,11.00,38.4064064,-110.7922668,1379.3000488,0.0,17.5,0.8,0.0,0.0,835,128,0,0,860.49,23.68,17.38,# data time:11340,pm2.5:6.445,pm10:5.704,O2:0.000,NO2:0.000,SO2:0.000,NH3:5.762
11:12:32,0,0,0,0,0,0,0,0,0,0,0,515,0,0,0,0,0.0000000,0.0000000,0.0000000,0.0000000,11.00,38.4064064,-110.7922668,1379.3000488,0.0,17.5,0.8,0.0,0.0,834,126,0,0,860.50,23.65,17.38,# data time:11340,pm2.5:6.445,pm10:5.704,O2:0.000,NO2:0.000,SO2:0.000,NH3:5.762
11:12:33,0,0,0,0,0,0,0,0,0,0,0,514,0,0,0,0,0.0000000,0.0000000,0.0000000,0.0000000,11.00,38.4064064,-110.7922668,1379.3000488,0.0,17.5,0.8,0.0,0.0,835,128,0,0,860.51,23.65,17.39,# data time:11340,pm2.5:6.445,pm10:5.704,O2:0.000,NO2:0.000,SO2:0.000,NH3:5.762
11:12:34,0,0,0,0,0,0,0,0,0,0,0,514,0,0,0,0,0.0000000,0.0000000,0.0000000,0.0000000,11.00,38.4064064,-110.7922668,1379.3000488,0.0,17.5,0.8,0.0,0.0,834,127,0,0,860.51,23.64,17.39,# data time:11340,pm2.5:6.445,pm10:5.704,O2:0.000,NO2:0.000,SO2:0.000,NH3:5.762
11:12:35,0,0,0,0,0,0,0,0,0,0,0,514,0,0,0,0,0.0000000,0.0000000,0.0000000,0.0000000,11.00,38.4064064,-110.7922668,1379.3000488,0.0,17.5,0.8,0.0,0.0,835,127,0,0,860.53,23.65,17.38,# data time:11340,pm2.5:6.445,pm10:5.704,O2:0.000,NO2:0.000,SO2:0.000,NH3:5.762
11:12:36,0,0,0,0,0,0,0,0,0,0,0,515,0,0,0,0,0.0000000,0.0000000,0.0000000,0.0000000,11.00,38.4064064,-110.7922668,1379.3000488,0.0,17.5,0.8,0.0,0.0,835,128,0,0,860.48,23.64,17.38,# data time:11340,pm2.5:6.445,pm10:5.704,O2:0.000,NO2:0.000,SO2:0.000,NH3:5.762
11:12:37,0,0,0,0,0,0,0,0,0,0,0,514,0,0,0,0,0.0000000,0.0000000,0.0000000,0.0000000,11.00,38.4064064,-110.7922668,1379.3000488,0.0,17.5,0.8,0.0,0.0,834,126,0,0,860.52,23.62,17.38,# data time:11340,pm2.5:6.445,pm10:5.704,O2:0.000,NO2:0.000,SO2:0.000,NH3:5.762
11:12:38,0,0,0,0,0,0,0,0,0,0,0,514,0,0,0,0,0.0000000,0.0000000,0.0000000,0.0000000,11.00,38.4064064,-110.7922668,1379.3000488,0.0,17.5,0.8,0.0,0.0,834,127,0,0,860.48,23.64,17.38,# data time:11340,pm2.5:6.445,pm10:5.704,O2:0.000,NO2:0.000,SO2:0.000,NH3:5.762
11:12:39,0,0,0,0,0,0,0,0,0,0,0,514,0,0,0,0,0.0000000,0.0000000,0.0000000,0.0000000,10.00,38.4064064,-110.7922668,1379.3000488,0.0,17.5,0.8,0.0,0.0,834,126,0,0,860.49,23.64,17.38,# data time:11340,pm2.5:6.445,pm10:5.704,O2:0.000,NO2:0.000,SO2:0.000,NH3:5.762
11:12:40,0,0,0,0,0,0,0,0,0,0,0,514,0,0,0,0,0.0000000,0.0000000,0.0000000,0.0000000,10.00,38.4064064,-110.7922668,1379.3000488,0.0,17.5,0.8,0.0,0.0,835,128,0,0,860.45,23.61,17.29,# data time:11350,pm2.5:6.445,pm10:5.704,O2:0.000,NO2:0.000,SO2:0.000,NH3:5.762
11:12:41,0,0,0,0,0,0,0,0,0,0,0,514,0,0,0,0,0.0000000,0.0000000,0.0000000,0.0000000,10.00,38.4064064,-110.7922668,1379.3000488,0.0,17.5,0.8,0.0,0.0,834,126,0,0,860.49,23.59,17.38,# data time:11350,pm2.5:6.445,pm10:5.704,O2:0.000,NO2:0.000,SO2:0.000,NH3:5.762
11:12:42,0,0,0,0,0,0,0,0,0,0,0,515,0,0,0,0,0.0000000,0.0000000,0.0000000,0.0000000,11.00,38.4064064,-110.7922668,1379.3000488,0.0,17.5,0.8,0.0,0.0,834,125,0,0,860.51,23.61,17.39,# data time:11350,pm2.5:6.445,pm10:5.704,O2:0.000,NO2:0.000,SO2:0.000,NH3:5.762
11:12:43,0,0,0,0,0,0,0,0,0,0,0,514,0,0,0,0,0.0000000,0.0000000,0.0000000,0.0000000,10.00,38.4064064,-110.7922668,1379.3000488,0.0,17.5,0.8,0.0,0.0,834,127,0,0,860.50,23.56,17.39,# data time:11350,pm2.5:6.445,pm10:5.704,O2:0.000,NO2:0.000,SO2:0.000,NH3:5.762
11:12:44,0,0,0,0,0,0,0,0,0,0,0,515,0,0,0,0,0.0000000,0.0000000,0.0000000,0.0000000,11.00,38.4064064,-110.7922668,1379.3000488,0.0,17.5,0.8,0.0,0.0,834,126,0,0,860.51,23.58,17.39,# data time:11350,pm2.5:6.445,pm10:5.704,O2:0.000,NO2:0.000,SO2:0.000,NH3:5.762
11:12:45,0,0,0,0,0,0,0,0,0,0,0,515,0,0,0,0,0.0000000,0.0000000,0.0000000,0.0000000,11.00,38.4064064,-110.7922668,1379.3000488,0.0,17.5,0.8,0.0,0.0,834,127,0,0,860.50,23.59,17.39,# data time:11350,pm2.5:6.445,pm10:5.704,O2:0.000,NO2:0.000,SO2:0.000,NH3:5.762
11:12:46,0,0,0,0,0,0,0,0,0,0,0,514,0,0,0,0,0.0000000,0.0000000,0.0000000,0.0000000,11.00,38.4064064,-110.7922668,1379.3000488,0.0,17.5,0.8,0.0,0.0,834,127,0,0,860.48,23.53,17.39,# data time:11350,pm2.5:6.445,pm10:5.704,O2:0.000,NO2:0.000,SO2:0.000,NH3:5.762
11:12:47,0,0,0,0,0,0,0,0,0,0,0,514,0,0,0,0,0.0000000,0.0000000,0.0000000,0.0000000,11.00,38.4064064,-110.7922668,1379.3000488,0.0,17.5,0.8,0.0,0.0,834,129,0,0,860.49,23.53,17.39,# data time:11350,pm2.5:6.445,pm10:5.704,O2:0.000,NO2:0.000,SO2:0.000,NH3:5.762
11:12:48,0,0,0,0,0,0,0,0,0,0,0,515,0,0,0,0,0.0000000,0.0000000,0.0000000,0.0000000,10.00,38.4064064,-110.7922668,1379.3000488,0.0,17.5,0.8,0.0,0.0,835,127,0,0,860.50,23.53,17.39,# data time:11350,pm2.5:6.445,pm10:5.704,O2:0.000,NO2:0.000,SO2:0.000,NH3:5.762
11:12:49,0,0,0,0,0,0,0,0,0,0,0,515,0,0,0,0,0.0000000,0.0000000,0.0000000,0.0000000,11.00,38.4064064,-110.7922668,1379.3000488,0.1,17.5,0.8,0.0,0.0,834,125,0,0,860.49,23.50,17.40,# data time:11350,pm2.5:6.445,pm10:5.704,O2:0.000,NO2:0.000,SO2:0.000,NH3:5.762
11:12:50,0,0,0,0,0,0,0,0,0,0,0,513,0,0,0,0,0.0000000,0.0000000,0.0000000,0.0000000,11.00,38.4064064,-110.7922668,1379.3000488,0.1,17.5,0.8,0.0,0.0,835,128,0,0,860.51,23.50,17.30,# data time:11360,pm2.5:6.445,pm10:5.704,O2:0.000,NO2:0.000,SO2:0.000,NH3:5.536
11:12:51,0,0,0,0,0,0,0,0,0,0,0,514,0,0,0,0,0.0000000,0.0000000,0.0000000,0.0000000,10.00,38.4064064,-110.7922668,1379.3000488,0.0,17.5,0.8,0.0,0.0,834,134,0,0,860.49,23.48,17.39,# data time:11360,pm2.5:6.445,pm10:5.704,O2:0.000,NO2:0.000,SO2:0.000,NH3:5.536
11:12:52,0,0,0,0,0,0,0,0,0,0,0,514,0,0,0,0,0.0000000,0.0000000,0.0000000,0.0000000,10.00,38.4064064,-110.7922668,1379.3000488,0.0,17.5,0.8,0.0,0.0,835,129,0,0,860.51,23.50,17.39,# data time:11360,pm2.5:6.445,pm10:5.704,O2:0.000,NO2:0.000,SO2:0.000,NH3:5.536
11:12:53,0,0,0,0,0,0,0,0,0,0,0,515,0,0,0,0,0.0000000,0.0000000,0.0000000,0.0000000,10.00,38.4064064,-110.7922668,1379.3000488,0.0,17.5,0.8,0.0,0.0,834,125,0,0,860.54,23.50,17.40,# data time:11360,pm2.5:6.445,pm10:5.704,O2:0.000,NO2:0.000,SO2:0.000,NH3:5.536
11:12:54,0,0,0,0,0,0,0,0,0,0,0,514,0,0,0,0,0.0000000,0.0000000,0.0000000,0.0000000,11.00,38.4064064,-110.7922668,1379.3000488,0.0,17.5,0.8,0.0,0.0,834,129,0,0,860.45,23.50,17.40,# data time:11360,pm2.5:6.445,pm10:5.704,O2:0.000,NO2:0.000,SO2:0.000,NH3:5.536
11:12:55,0,0,0,0,0,0,0,0,0,0,0,514,0,0,0,0,0.0000000,0.0000000,0.0000000,0.0000000,11.00,38.4064064,-110.7922668,1379.3000488,0.0,17.5,0.8,0.0,0.0,833,126,0,0,860.48,23.50,17.40,# data time:11360,pm2.5:6.445,pm10:5.704,O2:0.000,NO2:0.000,SO2:0.000,NH3:5.536
11:12:56,0,0,0,0,0,0,0,0,0,0,0,514,0,0,0,0,0.0000000,0.0000000,0.0000000,0.0000000,9.00,38.4064064,-110.7922668,1379.3000488,0.0,17.5,0.9,0.0,0.0,834,127,0,0,860.47,23.50,17.40,# data time:11360,pm2.5:6.445,pm10:5.704,O2:0.000,NO2:0.000,SO2:0.000,NH3:5.536
11:12:57,0,0,0,0,0,0,0,0,0,0,0,514,0,0,0,0,0.0000000,0.0000000,0.0000000,0.0000000,9.00,38.4064064,-110.7922668,1379.3000488,0.0,17.5,0.9,0.0,0.0,834,126,0,0,860.47,23.50,17.40,# data time:11360,pm2.5:6.445,pm10:5.704,O2:0.000,NO2:0.000,SO2:0.000,NH3:5.536
11:12:58,0,0,0,0,0,0,0,0,0,0,0,513,0,0,0,0,0.0000000,0.0000000,0.0000000,0.0000000,10.00,38.4064064,-110.7922668,1379.3000488,0.0,17.5,0.8,0.0,0.0,834,129,0,0,860.47,23.48,17.40,# data time:11360,pm2.5:6.445,pm10:5.704,O2:0.000,NO2:0.000,SO2:0.000,NH3:5.536
11:12:59,0,0,0,0,0,0,0,0,0,0,0,515,0,0,0,0,0.0000000,0.0000000,0.0000000,0.0000000,10.00,38.4064064,-110.7922668,1379.3000488,0.0,17.5,0.8,0.0,0.0,834,128,0,0,860.52,23.47,17.40,# data time:11360,pm2.5:6.445,pm10:5.704,O2:0.000,NO2:0.000,SO2:0.000,NH3:5.536
11:13:00,0,0,0,0,0,0,0,0,0,0,0,515,0,0,0,0,0.0000000,0.0000000,0.0000000,0.0000000,10.00,38.4064064,-110.7922668,1379.3000488,0.0,17.5,0.8,0.0,0.0,834,127,0,0,860.50,23.50,17.31,# data time:11370,pm2.5:5.640,pm10:4.991,O2:0.000,NO2:0.000,SO2:0.000,NH3:5.536
11:13:01,0,0,0,0,0,0,0,0,0,0,0,513,0,0,0,0,0.0000000,0.0000000,0.0000000,0.0000000,11.00,38.4064064,-110.7922668,1379.3000488,0.0,17.5,0.8,0.0,0.0,834,126,0,0,860.51,23.48,17.39,# data time:11370,pm2.5:5.640,pm10:4.991,O2:0.000,NO2:0.000,SO2:0.000,NH3:5.536
11:13:02,0,0,0,0,0,0,0,0,0,0,0,515,0,0,0,0,0.0000000,0.0000000,0.0000000,0.0000000,11.00,38.4064064,-110.7922668,1379.3000488,0.0,17.5,0.8,0.0,0.0,834,126,0,0,860.50,23.48,17.40,# data time:11370,pm2.5:5.640,pm10:4.991,O2:0.000,NO2:0.000,SO2:0.000,NH3:5.536
11:13:03,0,0,0,0,0,0,0,0,0,0,0,515,0,0,0,0,0.0000000,0.0000000,0.0000000,0.0000000,9.00,38.4064064,-110.7922668,1379.3000488,0.0,17.5,0.9,0.0,0.0,834,127,0,0,860.47,23.50,17.40,# data time:11370,pm2.5:5.640,pm10:4.991,O2:0.000,NO2:0.000,SO2:0.000,NH3:5.536
11:13:04,0,0,0,0,0,0,0,0,0,0,0,515,0,0,0,0,0.0000000,0.0000000,0.0000000,0.0000000,11.00,38.4064064,-110.7922668,1379.3000488,0.0,17.5,0.8,0.0,0.0,834,128,0,0,860.51,23.47,17.40,# data time:11370,pm2.5:5.640,pm10:4.991,O2:0.000,NO2:0.000,SO2:0.000,NH3:5.536
11:13:05,0,0,0,0,0,0,0,0,0,0,0,515,0,0,0,0,0.0000000,0.0000000,0.0000000,0.0000000,11.00,38.4064064,-110.7922668,1379.3000488,0.0,17.5,0.8,0.0,0.0,834,127,0,0,860.48,23.45,17.41,# data time:11370,pm2.5:5.640,pm10:4.991,O2:0.000,NO2:0.000,SO2:0.000,NH3:5.536
11:13:06,0,0,0,0,0,0,0,0,0,0,0,514,0,0,0,0,0.0000000,0.0000000,0.0000000,0.0000000,11.00,38.4064064,-110.7922668,1379.3000488,0.0,17.5,0.8,0.0,0.0,834,128,0,0,860.52,23.47,17.40,# data time:11370,pm2.5:5.640,pm10:4.991,O2:0.000,NO2:0.000,SO2:0.000,NH3:5.536
11:13:07,0,0,0,0,0,0,0,0,0,0,0,513,0,0,0,0,0.0000000,0.0000000,0.0000000,0.0000000,10.00,38.4064064,-110.7922668,1379.3000488,0.0,17.5,0.8,0.0,0.0,834,126,0,0,860.46,23.44,17.41,# data time:11370,pm2.5:5.640,pm10:4.991,O2:0.000,NO2:0.000,SO2:0.000,NH3:5.536
11:13:08,0,0,0,0,0,0,0,0,0,0,0,514,0,0,0,0,0.0000000,0.0000000,0.0000000,0.0000000,10.00,38.4064064,-110.7922668,1379.3000488,0.0,17.5,0.8,0.0,0.0,834,128,0,0,860.52,23.47,17.41,# data time:11370,pm2.5:5.640,pm10:4.991,O2:0.000,NO2:0.000,SO2:0.000,NH3:5.536
11:13:09,0,0,0,0,0,0,0,0,0,0,0,515,0,0,0,0,0.0000000,0.0000000,0.0000000,0.0000000,11.00,38.4064064,-110.7922668,1379.3000488,0.0,17.5,0.8,0.0,0.0,834,128,0,0,860.49,23.45,17.41,# data time:11370,pm2.5:5.640,pm10:4.991,O2:0.000,NO2:0.000,SO2:0.000,NH3:5.536
11:13:10,0,0,0,0,0,0,0,0,0,0,0,514,0,0,0,0,0.0000000,0.0000000,0.0000000,0.0000000,11.00,38.4064064,-110.7922668,1379.3000488,0.0,17.5,0.8,0.0,0.0,834,128,0,0,860.48,23.47,17.31,# data time:11380,pm2.5:6.445,pm10:5.704,O2:0.000,NO2:0.000,SO2:0.000,NH3:5.536
11:13:11,0,0,0,0,0,0,0,0,0,0,0,514,0,0,0,0,0.0000000,0.0000000,0.0000000,0.0000000,10.00,38.4064064,-110.7922668,1379.3000488,0.0,17.5,0.8,0.0,0.0,834,127,0,0,860.53,23.44,17.40,# data time:11380,pm2.5:6.445,pm10:5.704,O2:0.000,NO2:0.000,SO2:0.000,NH3:5.536
11:13:12,0,0,0,0,0,0,0,0,0,0,0,514,0,0,0,0,0.0000000,0.0000000,0.0000000,0.0000000,11.00,38.4064064,-110.7922668,1379.3000488,0.0,17.5,0.8,0.0,0.0,833,125,0,0,860.54,23.42,17.40,# data time:11380,pm2.5:6.445,pm10:5.704,O2:0.000,NO2:0.000,SO2:0.000,NH3:5.536
11:13:13,0,0,0,0,0,0,0,0,0,0,0,514,0,0,0,0,0.0000000,0.0000000,0.0000000,0.0000000,11.00,38.4064064,-110.7922668,1379.3000488,0.0,17.5,0.8,0.0,0.0,834,127,0,0,860.46,23.44,17.40,# data time:11380,pm2.5:6.445,pm10:5.704,O2:0.000,NO2:0.000,SO2:0.000,NH3:5.536
11:13:14,0,0,0,0,0,0,0,0,0,0,0,515,0,0,0,0,0.0000000,0.0000000,0.0000000,0.0000000,10.00,38.4064064,-110.7922668,1379.3000488,0.0,17.5,0.8,0.0,0.0,833,129,0,0,860.46,23.42,17.31,# data time:11380,pm2.5:6.445,pm10:5.704,O2:0.000,NO2:0.000,SO2:0.000,NH3:5.536
11:13:15,0,0,0,0,0,0,0,0,0,0,0,513,0,0,0,0,0.0000000,0.0000000,0.0000000,0.0000000,11.00,38.4064064,-110.7922668,1379.3000488,0.0,17.5,0.8,0.0,0.0,834,127,0,0,860.49,23.39,17.31,# data time:11380,pm2.5:6.445,pm10:5.704,O2:0.000,NO2:0.000,SO2:0.000,NH3:5.536
11:13:16,0,0,0,0,0,0,0,0,0,0,0,514,0,0,0,0,0.0000000,0.0000000,0.0000000,0.0000000,11.00,38.4064064,-110.7922668,1379.3000488,0.0,17.5,0.8,0.0,0.0,834,127,0,0,860.46,23.39,17.30,# data time:11380,pm2.5:6.445,pm10:5.704,O2:0.000,NO2:0.000,SO2:0.000,NH3:5.536
11:13:17,0,0,0,0,0,0,0,0,0,0,0,515,0,0,0,0,0.0000000,0.0000000,0.0000000,0.0000000,10.00,38.4064064,-110.7922668,1379.3000488,0.0,17.5,0.8,0.0,0.0,834,129,0,0,860.50,23.42,17.31,# data time:11380,pm2.5:6.445,pm10:5.704,O2:0.000,NO2:0.000,SO2:0.000,NH3:5.536
11:13:18,0,0,0,0,0,0,0,0,0,0,0,515,0,0,0,0,0.0000000,0.0000000,0.0000000,0.0000000,11.00,38.4064064,-110.7922668,1379.3000488,0.0,17.5,0.8,0.0,0.0,834,125,0,0,860.51,23.38,17.37,# data time:11380,pm2.5:6.445,pm10:5.704,O2:0.000,NO2:0.000,SO2:0.000,NH3:5.536
11:13:19,0,0,0,0,0,0,0,0,0,0,0,514,0,0,0,0,0.0000000,0.0000000,0.0000000,0.0000000,11.00,38.4064064,-110.7922668,1379.3000488,0.0,17.5,0.8,0.0,0.0,834,127,0,0,860.48,23.36,17.31,# data time:11390,pm2.5:6.445,pm10:5.704,O2:0.000,NO2:0.000,SO2:0.000,NH3:5.762
11:13:20,0,0,0,0,0,0,0,0,0,0,0,514,0,0,0,0,0.0000000,0.0000000,0.0000000,0.0000000,11.00,38.4064064,-110.7922668,1379.3000488,0.0,17.5,0.8,0.0,0.0,834,122,0,0,860.53,23.38,17.41,# data time:11390,pm2.5:6.445,pm10:5.704,O2:0.000,NO2:0.000,SO2:0.000,NH3:5.762
11:13:22,0,0,0,0,0,0,0,0,0,0,0,514,0,0,0,0,0.0000000,0.0000000,0.0000000,0.0000000,11.00,38.4064064,-110.7922668,1379.3000488,0.0,17.5,0.8,0.0,0.0,834,129,0,0,860.45,23.39,17.41,# data time:11390,pm2.5:6.445,pm10:5.704,O2:0.000,NO2:0.000,SO2:0.000,NH3:5.762
11:13:23,0,0,0,0,0,0,0,0,0,0,0,514,0,0,0,0,0.0000000,0.0000000,0.0000000,0.0000000,11.00,38.4064064,-110.7922668,1379.3000488,0.0,17.5,0.8,0.0,0.0,834,127,0,0,860.50,23.41,17.41,# data time:11390,pm2.5:6.445,pm10:5.704,O2:0.000,NO2:0.000,SO2:0.000,NH3:5.762
11:13:24,0,0,0,0,0,0,0,0,0,0,0,514,0,0,0,0,0.0000000,0.0000000,0.0000000,0.0000000,11.00,38.4064064,-110.7922668,1379.3000488,0.0,17.5,0.8,0.0,0.0,834,126,0,0,860.50,23.39,17.41,# data time:11390,pm2.5:6.445,pm10:5.704,O2:0.000,NO2:0.000,SO2:0.000,NH3:5.762
11:13:25,0,0,0,0,0,0,0,0,0,0,0,514,0,0,0,0,0.0000000,0.0000000,0.0000000,0.0000000,11.00,38.4064064,-110.7922668,1379.3000488,0.0,17.5,0.8,0.0,0.0,834,128,0,0,860.50,23.38,17.41,# data time:11390,pm2.5:6.445,pm10:5.704,O2:0.000,NO2:0.000,SO2:0.000,NH3:5.762
11:13:26,0,0,0,0,0,0,0,0,0,0,0,514,0,0,0,0,0.0000000,0.0000000,0.0000000,0.0000000,11.00,38.4064064,-110.7922668,1379.3000488,0.0,17.5,0.8,0.0,0.0,834,128,0,0,860.50,23.41,17.41,# data time:11390,pm2.5:6.445,pm10:5.704,O2:0.000,NO2:0.000,SO2:0.000,NH3:5.762
11:13:27,0,0,0,0,0,0,0,0,0,0,0,515,0,0,0,0,0.0000000,0.0000000,0.0000000,0.0000000,11.00,38.4064064,-110.7922668,1379.3000488,0.0,17.5,0.8,0.0,0.0,835,131,0,0,860.49,23.41,17.41,# data time:11390,pm2.5:6.445,pm10:5.704,O2:0.000,NO2:0.000,SO2:0.000,NH3:5.762
11:13:28,0,0,0,0,0,0,0,0,0,0,0,514,0,0,0,0,0.0000000,0.0000000,0.0000000,0.0000000,11.00,38.4064064,-110.7922668,1379.3000488,0.0,17.5,0.8,0.0,0.0,834,127,0,0,860.46,23.39,17.41,# data time:11390,pm2.5:6.445,pm10:5.704,O2:0.000,NO2:0.000,SO2:0.000,NH3:5.762
11:13:29,0,0,0,0,0,0,0,0,0,0,0,514,0,0,0,0,0.0000000,0.0000000,0.0000000,0.0000000,11.00,38.4064064,-110.7922668,1379.3000488,0.0,17.5,0.8,0.0,0.0,834,127,0,0,860.47,23.39,17.41,# data time:11390,pm2.5:6.445,pm10:5.704,O2:0.000,NO2:0.000,SO2:0.000,NH3:5.762
11:13:30,0,0,0,0,0,0,0,0,0,0,0,514,0,0,0,0,0.0000000,0.0000000,0.0000000,0.0000000,11.00,38.4064064,-110.7922668,1379.3000488,0.0,17.5,0.8,0.0,0.0,834,127,0,0,860.46,23.41,17.36,# data time:11400,pm2.5:6.445,pm10:5.704,O2:0.000,NO2:0.000,SO2:0.000,NH3:5.762
11:13:31,0,0,0,0,0,0,0,0,0,0,0,514,0,0,0,0,0.0000000,0.0000000,0.0000000,0.0000000,11.00,38.4064064,-110.7922668,1379.3000488,0.0,17.5,0.8,0.0,0.0,834,128,0,0,860.48,23.41,17.41,# data time:11400,pm2.5:6.445,pm10:5.704,O2:0.000,NO2:0.000,SO2:0.000,NH3:5.762
11:13:32,0,0,0,0,0,0,0,0,0,0,0,514,0,0,0,0,0.0000000,0.0000000,0.0000000,0.0000000,11.00,38.4064064,-110.7922668,1379.3000488,0.0,17.5,0.8,0.0,0.0,834,131,0,0,860.46,23.41,17.41,# data time:11400,pm2.5:6.445,pm10:5.704,O2:0.000,NO2:0.000,SO2:0.000,NH3:5.762
11:13:33,0,0,0,0,0,0,0,0,0,0,0,513,0,0,0,0,0.0000000,0.0000000,0.0000000,0.0000000,11.00,38.4064064,-110.7922668,1379.3000488,0.0,17.5,0.8,0.0,0.0,834,129,0,0,860.47,23.38,17.41,# data time:11400,pm2.5:6.445,pm10:5.704,O2:0.000,NO2:0.000,SO2:0.000,NH3:5.762
11:13:34,0,0,0,0,0,0,0,0,0,0,0,514,0,0,0,0,0.0000000,0.0000000,0.0000000,0.0000000,11.00,38.4064064,-110.7922668,1379.3000488,0.0,17.5,0.8,0.0,0.0,834,128,0,0,860.47,23.38,17.41,# data time:11400,pm2.5:6.445,pm10:5.704,O2:0.000,NO2:0.000,SO2:0.000,NH3:5.762
11:13:35,0,0,0,0,0,0,0,0,0,0,0,515,0,0,0,0,0.0000000,0.0000000,0.0000000,0.0000000,11.00,38.4064064,-110.7922668,1379.3000488,0.0,17.5,0.8,0.0,0.0,834,129,0,0,860.53,23.39,17.42,# data time:11400,pm2.5:6.445,pm10:5.704,O2:0.000,NO2:0.000,SO2:0.000,NH3:5.762
11:13:36,0,0,0,0,0,0,0,0,0,0,0,515,0,0,0,0,0.0000000,0.0000000,0.0000000,0.0000000,11.00,38.4064064,-110.7922668,1379.3000488,0.0,17.5,0.8,0.0,0.0,834,130,0,0,860.51,23.39,17.42,# data time:11400,pm2.5:6.445,pm10:5.704,O2:0.000,NO2:0.000,SO2:0.000,NH3:5.762
11:13:37,0,0,0,0,0,0,0,0,0,0,0,514,0,0,0,0,0.0000000,0.0000000,0.0000000,0.0000000,11.00,38.4064064,-110.7922668,1379.3000488,0.0,17.5,0.8,0.0,0.0,835,128,0,0,860.48,23.36,17.42,# data time:11400,pm2.5:6.445,pm10:5.704,O2:0.000,NO2:0.000,SO2:0.000,NH3:5.762
11:13:38,0,0,0,0,0,0,0,0,0,0,0,514,0,0,0,0,0.0000000,0.0000000,0.0000000,0.0000000,11.00,38.4064064,-110.7922668,1379.3000488,0.0,17.5,0.8,0.0,0.0,834,128,0,0,860.50,23.39,17.42,# data time:11400,pm2.5:6.445,pm10:5.704,O2:0.000,NO2:0.000,SO2:0.000,NH3:5.762
11:13:39,0,0,0,0,0,0,0,0,0,0,0,514,0,0,0,0,0.0000000,0.0000000,0.0000000,0.0000000,11.00,38.4064064,-110.7922668,1379.3000488,0.0,17.5,0.8,0.0,0.0,834,129,0,0,860.51,23.36,17.42,# data time:11400,pm2.5:6.445,pm10:5.704,O2:0.000,NO2:0.000,SO2:0.000,NH3:5.762
11:13:40,0,0,0,0,0,0,0,0,0,0,0,514,0,0,0,0,0.0000000,0.0000000,0.0000000,0.0000000,11.00,38.4064064,-110.7922668,1379.3000488,0.0,17.5,0.8,0.0,0.0,834,125,0,0,860.49,23.36,17.32,# data time:11410,pm2.5:6.445,pm10:5.704,O2:0.000,NO2:0.000,SO2:0.000,NH3:5.762
11:13:41,0,0,0,0,0,0,0,0,0,0,0,514,0,0,0,0,0.0000000,0.0000000,0.0000000,0.0000000,11.00,38.4064064,-110.7922668,1379.3000488,0.0,17.5,0.8,0.0,0.0,834,126,0,0,860.45,23.35,17.41,# data time:11410,pm2.5:6.445,pm10:5.704,O2:0.000,NO2:0.000,SO2:0.000,NH3:5.762
11:13:42,0,0,0,0,0,0,0,0,0,0,0,515,0,0,0,0,0.0000000,0.0000000,0.0000000,0.0000000,11.00,38.4064064,-110.7922668,1379.3000488,0.0,17.5,0.8,0.0,0.0,834,128,0,0,860.51,23.32,17.41,# data time:11410,pm2.5:6.445,pm10:5.704,O2:0.000,NO2:0.000,SO2:0.000,NH3:5.762
11:13:43,0,0,0,0,0,0,0,0,0,0,0,514,0,0,0,0,0.0000000,0.0000000,0.0000000,0.0000000,11.00,38.4064064,-110.7922668,1379.3000488,0.0,17.5,0.8,0.0,0.0,834,126,0,0,860.52,23.33,17.41,# data time:11410,pm2.5:6.445,pm10:5.704,O2:0.000,NO2:0.000,SO2:0.000,NH3:5.762
11:13:44,0,0,0,0,0,0,0,0,0,0,0,514,0,0,0,0,0.0000000,0.0000000,0.0000000,0.0000000,11.00,38.4064064,-110.7922668,1379.3000488,0.0,17.5,0.8,0.0,0.0,834,127,0,0,860.48,23.32,17.41,# data time:11410,pm2.5:6.445,pm10:5.704,O2:0.000,NO2:0.000,SO2:0.000,NH3:5.762
11:13:45,0,0,0,0,0,0,0,0,0,0,0,514,0,0,0,0,0.0000000,0.0000000,0.0000000,0.0000000,11.00,38.4064064,-110.7922668,1379.3000488,0.0,17.5,0.8,0.0,0.0,834,126,0,0,860.48,23.33,17.41,# data time:11410,pm2.5:6.445,pm10:5.704,O2:0.000,NO2:0.000,SO2:0.000,NH3:5.762
11:13:46,0,0,0,0,0,0,0,0,0,0,0,514,0,0,0,0,0.0000000,0.0000000,0.0000000,0.0000000,11.00,38.4064064,-110.7922668,1379.3000488,0.0,17.5,0.8,0.0,0.0,834,125,0,0,860.46,23.33,17.42,# data time:11410,pm2.5:6.445,pm10:5.704,O2:0.000,NO2:0.000,SO2:0.000,NH3:5.762
11:13:47,0,0,0,0,0,0,0,0,0,0,0,514,0,0,0,0,0.0000000,0.0000000,0.0000000,0.0000000,11.00,38.4064064,-110.7922668,1379.3000488,0.0,17.5,0.8,0.0,0.0,834,126,0,0,860.49,23.30,17.42,# data time:11410,pm2.5:6.445,pm10:5.704,O2:0.000,NO2:0.000,SO2:0.000,NH3:5.762
11:13:48,0,0,0,0,0,0,0,0,0,0,0,514,0,0,0,0,0.0000000,0.0000000,0.0000000,0.0000000,11.00,38.4064064,-110.7922668,1379.3000488,0.0,17.5,0.8,0.0,0.0,834,127,0,0,860.45,23.30,17.41,# data time:11410,pm2.5:6.445,pm10:5.704,O2:0.000,NO2:0.000,SO2:0.000,NH3:5.762
11:13:49,0,0,0,0,0,0,0,0,0,0,0,514,0,0,0,0,0.0000000,0.0000000,0.0000000,0.0000000,11.00,38.4064064,-110.7922668,1379.3000488,0.0,17.5,0.8,0.0,0.0,834,128,0,0,860.51,23.30,17.42,# data time:11410,pm2.5:6.445,pm10:5.704,O2:0.000,NO2:0.000,SO2:0.000,NH3:5.762
11:13:50,0,0,0,0,0,0,0,0,0,0,0,514,0,0,0,0,0.0000000,0.0000000,0.0000000,0.0000000,11.00,38.4064064,-110.7922668,1379.3000488,0.0,17.5,0.8,0.0,0.0,834,127,0,0,860.51,23.30,17.36,# data time:11420,pm2.5:6.445,pm10:5.704,O2:0.000,NO2:0.000,SO2:0.000,NH3:5.536
11:13:51,0,0,0,0,0,0,0,0,0,0,0,514,0,0,0,0,0.0000000,0.0000000,0.0000000,0.0000000,11.00,38.4064064,-110.7922668,1379.3000488,0.0,17.5,0.8,0.0,0.0,834,129,0,0,860.47,23.27,17.41,# data time:11420,pm2.5:6.445,pm10:5.704,O2:0.000,NO2:0.000,SO2:0.000,NH3:5.536
11:13:52,0,0,0,0,0,0,0,0,0,0,0,514,0,0,0,0,0.0000000,0.0000000,0.0000000,0.0000000,11.00,38.4064064,-110.7922668,1379.3000488,0.0,17.5,0.8,0.0,0.0,834,127,0,0,860.45,23.27,17.42,# data time:11420,pm2.5:6.445,pm10:5.704,O2:0.000,NO2:0.000,SO2:0.000,NH3:5.536
11:13:53,0,0,0,0,0,0,0,0,0,0,0,514,0,0,0,0,0.0000000,0.0000000,0.0000000,0.0000000,11.00,38.4064064,-110.7922668,1379.3000488,0.0,17.5,0.8,0.0,0.0,833,127,0,0,860.55,23.29,17.42,# data time:11420,pm2.5:6.445,pm10:5.704,O2:0.000,NO2:0.000,SO2:0.000,NH3:5.536
11:13:54,0,0,0,0,0,0,0,0,0,0,0,514,0,0,0,0,0.0000000,0.0000000,0.0000000,0.0000000,11.00,38.4064064,-110.7922668,1379.3000488,0.0,17.5,0.8,0.0,0.0,834,127,0,0,860.51,23.27,17.42,# data time:11420,pm2.5:6.445,pm10:5.704,O2:0.000,NO2:0.000,SO2:0.000,NH3:5.536
11:13:55,0,0,0,0,0,0,0,0,0,0,0,513,0,0,0,0,0.0000000,0.0000000,0.0000000,0.0000000,11.00,38.4064064,-110.7922668,1379.3000488,0.0,17.5,0.8,0.0,0.0,834,128,0,0,860.50,23.30,17.42,# data time:11420,pm2.5:6.445,pm10:5.704,O2:0.000,NO2:0.000,SO2:0.000,NH3:5.536
11:13:56,0,0,0,0,0,0,0,0,0,0,0,514,0,0,0,0,0.0000000,0.0000000,0.0000000,0.0000000,11.00,38.4064064,-110.7922668,1379.3000488,0.0,17.5,0.8,0.0,0.0,834,129,0,0,860.48,23.29,17.42,# data time:11420,pm2.5:6.445,pm10:5.704,O2:0.000,NO2:0.000,SO2:0.000,NH3:5.536
11:13:57,0,0,0,0,0,0,0,0,0,0,0,514,0,0,0,0,0.0000000,0.0000000,0.0000000,0.0000000,11.00,38.4064064,-110.7922668,1379.3000488,0.0,17.5,0.8,0.0,0.0,834,127,0,0,860.51,23.32,17.41,# data time:11420,pm2.5:6.445,pm10:5.704,O2:0.000,NO2:0.000,SO2:0.000,NH3:5.536
11:13:58,0,0,0,0,0,0,0,0,0,0,0,514,0,0,0,0,0.0000000,0.0000000,0.0000000,0.0000000,11.00,38.4064064,-110.7922668,1379.3000488,0.0,17.5,0.8,0.0,0.0,834,128,0,0,860.50,23.30,17.41,# data time:11420,pm2.5:6.445,pm10:5.704,O2:0.000,NO2:0.000,SO2:0.000,NH3:5.536
11:13:59,0,0,0,0,0,0,0,0,0,0,0,514,0,0,0,0,0.0000000,0.0000000,0.0000000,0.0000000,11.00,38.4064064,-110.7922668,1379.3000488,0.0,17.5,0.8,0.0,0.0,834,127,0,0,860.53,23.29,17.42,# data time:11420,pm2.5:6.445,pm10:5.704,O2:0.000,NO2:0.000,SO2:0.000,NH3:5.536
11:14:00,0,0,0,0,0,0,0,0,0,0,0,515,0,0,0,0,0.0000000,0.0000000,0.0000000,0.0000000,10.00,38.4064064,-110.7922668,1379.3000488,0.0,17.5,0.8,0.0,0.0,834,128,0,0,860.53,23.29,17.42,# data time:11430,pm2.5:6.445,pm10:5.704,O2:0.000,NO2:0.000,SO2:0.000,NH3:5.536
11:14:01,0,0,0,0,0,0,0,0,0,0,0,514,0,0,0,0,0.0000000,0.0000000,0.0000000,0.0000000,10.00,38.4064064,-110.7922668,1379.3000488,0.0,17.5,0.8,0.0,0.0,834,125,0,0,860.48,23.30,17.42,# data time:11430,pm2.5:6.445,pm10:5.704,O2:0.000,NO2:0.000,SO2:0.000,NH3:5.536
11:14:02,0,0,0,0,0,0,0,0,0,0,0,515,0,0,0,0,0.0000000,0.0000000,0.0000000,0.0000000,11.00,38.4064064,-110.7922668,1379.3000488,0.0,17.5,0.8,0.0,0.0,834,125,0,0,860.50,23.32,17.41,# data time:11430,pm2.5:6.445,pm10:5.704,O2:0.000,NO2:0.000,SO2:0.000,NH3:5.536
11:14:03,0,0,0,0,0,0,0,0,0,0,0,514,0,0,0,0,0.0000000,0.0000000,0.0000000,0.0000000,10.00,38.4064064,-110.7922668,1379.3000488,0.0,17.5,0.8,0.0,0.0,834,128,0,0,860.51,23.29,17.42,# data time:11430,pm2.5:6.445,pm10:5.704,O2:0.000,NO2:0.000,SO2:0.000,NH3:5.536
11:14:04,0,0,0,0,0,0,0,0,0,0,0,514,0,0,0,0,0.0000000,0.0000000,0.0000000,0.0000000,10.00,38.4064064,-110.7922668,1379.3000488,0.0,17.5,0.8,0.0,0.0,834,128,0,0,860.51,23.33,17.41,# data time:11430,pm2.5:6.445,pm10:5.704,O2:0.000,NO2:0.000,SO2:0.000,NH3:5.536
11:14:05,0,0,0,0,0,0,0,0,0,0,0,513,0,0,0,0,0.0000000,0.0000000,0.0000000,0.0000000,10.00,38.4064064,-110.7922668,1379.3000488,0.0,17.5,0.8,0.0,0.0,834,128,0,0,860.53,23.32,17.42,# data time:11430,pm2.5:6.445,pm10:5.704,O2:0.000,NO2:0.000,SO2:0.000,NH3:5.536
11:14:06,0,0,0,0,0,0,0,0,0,0,0,514,0,0,0,0,0.0000000,0.0000000,0.0000000,0.0000000,10.00,38.4064064,-110.7922668,1379.3000488,0.0,17.5,0.8,0.0,0.0,834,127,0,0,860.54,23.29,17.41,# data time:11430,pm2.5:6.445,pm10:5.704,O2:0.000,NO2:0.000,SO2:0.000,NH3:5.536
11:14:07,0,0,0,0,0,0,0,0,0,0,0,514,0,0,0,0,0.0000000,0.0000000,0.0000000,0.0000000,11.00,38.4064064,-110.7922668,1379.3000488,0.0,17.5,0.8,0.0,0.0,834,130,0,0,860.55,23.32,17.41,# data time:11430,pm2.5:6.445,pm10:5.704,O2:0.000,NO2:0.000,SO2:0.000,NH3:5.536
11:14:08,0,0,0,0,0,0,0,0,0,0,0,515,0,0,0,0,0.0000000,0.0000000,0.0000000,0.0000000,11.00,38.4064064,-110.7922668,1379.3000488,0.0,17.5,0.8,0.0,0.0,834,131,0,0,860.51,23.29,17.41,# data time:11430,pm2.5:6.445,pm10:5.704,O2:0.000,NO2:0.000,SO2:0.000,NH3:5.536
11:14:09,0,0,0,0,0,0,0,0,0,0,0,514,0,0,0,0,0.0000000,0.0000000,0.0000000,0.0000000,10.00,38.4064064,-110.7922668,1379.3000488,0.0,17.5,0.8,0.0,0.0,834,129,0,0,860.54,23.30,17.42,# data time:11440,pm2.5:5.640,pm10:4.991,O2:0.000,NO2:0.000,SO2:0.000,NH3:5.762
11:14:10,0,0,0,0,0,0,0,0,0,0,0,514,0,0,0,0,0.0000000,0.0000000,0.0000000,0.0000000,10.00,38.4064064,-110.7922668,1379.3000488,0.0,17.5,0.8,0.0,0.0,834,127,0,0,860.49,23.32,17.32,# data time:11440,pm2.5:5.640,pm10:4.991,O2:0.000,NO2:0.000,SO2:0.000,NH3:5.762
11:14:11,0,0,0,0,0,0,0,0,0,0,0,514,0,0,0,0,0.0000000,0.0000000,0.0000000,0.0000000,10.00,38.4064064,-110.7922668,1379.3000488,0.0,17.5,0.8,0.0,0.0,834,129,0,0,860.47,23.33,17.32,# data time:11440,pm2.5:5.640,pm10:4.991,O2:0.000,NO2:0.000,SO2:0.000,NH3:5.762
11:14:12,0,0,0,0,0,0,0,0,0,0,0,515,0,0,0,0,0.0000000,0.0000000,0.0000000,0.0000000,10.00,38.4064064,-110.7922668,1379.3000488,0.0,17.5,0.8,0.0,0.0,834,127,0,0,860.41,23.30,17.37,# data time:11440,pm2.5:5.640,pm10:4.991,O2:0.000,NO2:0.000,SO2:0.000,NH3:5.762
11:14:13,0,0,0,0,0,0,0,0,0,0,0,514,0,0,0,0,0.0000000,0.0000000,0.0000000,0.0000000,10.00,38.4064064,-110.7922668,1379.3000488,0.0,17.5,0.8,0.0,0.0,834,130,0,0,860.47,23.30,17.37,# data time:11440,pm2.5:5.640,pm10:4.991,O2:0.000,NO2:0.000,SO2:0.000,NH3:5.762
11:14:14,0,0,0,0,0,0,0,0,0,0,0,514,0,0,0,0,0.0000000,0.0000000,0.0000000,0.0000000,11.00,38.4064064,-110.7922668,1379.3000488,0.0,17.5,0.8,0.0,0.0,834,124,0,0,860.47,23.32,17.38,# data time:11440,pm2.5:5.640,pm10:4.991,O2:0.000,NO2:0.000,SO2:0.000,NH3:5.762
11:14:16,0,0,0,0,0,0,0,0,0,0,0,514,0,0,0,0,0.0000000,0.0000000,0.0000000,0.0000000,10.00,38.4064064,-110.7922668,1379.3000488,0.0,17.5,0.8,0.0,0.0,834,116,0,0,860.48,23.33,17.42,# data time:11440,pm2.5:5.640,pm10:4.991,O2:0.000,NO2:0.000,SO2:0.000,NH3:5.762
11:14:17,0,0,0,0,0,0,0,0,0,0,0,514,0,0,0,0,0.0000000,0.0000000,0.0000000,0.0000000,10.00,38.4064064,-110.7922668,1379.3000488,0.0,17.5,0.8,0.0,0.0,834,126,0,0,860.52,23.32,17.42,# data time:11440,pm2.5:5.640,pm10:4.991,O2:0.000,NO2:0.000,SO2:0.000,NH3:5.762
11:14:18,0,0,0,0,0,0,0,0,0,0,0,514,0,0,0,0,0.0000000,0.0000000,0.0000000,0.0000000,11.00,38.4064064,-110.7922668,1379.3000488,0.0,17.5,0.8,0.0,0.0,834,126,0,0,860.49,23.32,17.42,# data time:11440,pm2.5:5.640,pm10:4.991,O2:0.000,NO2:0.000,SO2:0.000,NH3:5.762
11:14:19,0,0,0,0,0,0,0,0,0,0,0,515,0,0,0,0,0.0000000,0.0000000,0.0000000,0.0000000,10.00,38.4064064,-110.7922668,1379.3000488,0.0,17.5,0.8,0.0,0.0,834,126,0,0,860.55,23.35,17.42,# data time:11440,pm2.5:5.640,pm10:4.991,O2:0.000,NO2:0.000,SO2:0.000,NH3:5.762
11:14:20,0,0,0,0,0,0,0,0,0,0,0,514,0,0,0,0,0.0000000,0.0000000,0.0000000,0.0000000,10.00,38.4064064,-110.7922668,1379.3000488,0.0,17.5,0.8,0.0,0.0,834,128,0,0,860.48,23.35,17.33,# data time:11450,pm2.5:6.445,pm10:5.704,O2:0.000,NO2:0.000,SO2:0.000,NH3:5.536
11:14:21,0,0,0,0,0,0,0,0,0,0,0,513,0,0,0,0,0.0000000,0.0000000,0.0000000,0.0000000,10.00,38.4064064,-110.7922668,1379.3000488,0.0,17.5,0.8,0.0,0.0,834,128,0,0,860.51,23.42,17.42,# data time:11450,pm2.5:6.445,pm10:5.704,O2:0.000,NO2:0.000,SO2:0.000,NH3:5.536
11:14:22,0,0,0,0,0,0,0,0,0,0,0,514,0,0,0,0,0.0000000,0.0000000,0.0000000,0.0000000,11.00,38.4064064,-110.7922668,1379.3000488,0.0,17.5,0.8,0.0,0.0,834,128,0,0,860.47,23.51,17.43,# data time:11450,pm2.5:6.445,pm10:5.704,O2:0.000,NO2:0.000,SO2:0.000,NH3:5.536
11:14:23,0,0,0,0,0,0,0,0,0,0,0,514,0,0,0,0,0.0000000,0.0000000,0.0000000,0.0000000,11.00,38.4064064,-110.7922668,1379.3000488,0.0,17.5,0.8,0.0,0.0,834,127,0,0,860.48,23.54,17.43,# data time:11450,pm2.5:6.445,pm10:5.704,O2:0.000,NO2:0.000,SO2:0.000,NH3:5.536
11:14:24,0,0,0,0,0,0,0,0,0,0,0,513,0,0,0,0,0.0000000,0.0000000,0.0000000,0.0000000,11.00,38.4064064,-110.7922668,1379.3000488,0.0,17.5,0.8,0.0,0.0,834,128,0,0,860.44,23.59,17.43,# data time:11450,pm2.5:6.445,pm10:5.704,O2:0.000,NO2:0.000,SO2:0.000,NH3:5.536
11:14:25,0,0,0,0,0,0,0,0,0,0,0,514,0,0,0,0,0.0000000,0.0000000,0.0000000,0.0000000,11.00,38.4064064,-110.7922668,1379.3000488,0.0,17.5,0.8,0.0,0.0,834,128,0,0,860.48,23.64,17.43,# data time:11450,pm2.5:6.445,pm10:5.704,O2:0.000,NO2:0.000,SO2:0.000,NH3:5.536
11:14:26,0,0,0,0,0,0,0,0,0,0,0,514,0,0,0,0,0.0000000,0.0000000,0.0000000,0.0000000,11.00,38.4064064,-110.7922668,1379.3000488,0.0,17.5,0.8,0.0,0.0,834,124,0,0,860.47,23.58,17.43,# data time:11450,pm2.5:6.445,pm10:5.704,O2:0.000,NO2:0.000,SO2:0.000,NH3:5.536
11:14:27,0,0,0,0,0,0,0,0,0,0,0,514,0,0,0,0,0.0000000,0.0000000,0.0000000,0.0000000,11.00,38.4064064,-110.7922668,1379.3000488,0.0,17.5,0.8,0.0,0.0,834,127,0,0,860.46,23.59,17.43,# data time:11450,pm2.5:6.445,pm10:5.704,O2:0.000,NO2:0.000,SO2:0.000,NH3:5.536
11:14:28,0,0,0,0,0,0,0,0,0,0,0,513,0,0,0,0,0.0000000,0.0000000,0.0000000,0.0000000,11.00,38.4064064,-110.7922668,1379.3000488,0.0,17.5,0.8,0.0,0.0,833,130,0,0,860.47,23.54,17.43,# data time:11450,pm2.5:6.445,pm10:5.704,O2:0.000,NO2:0.000,SO2:0.000,NH3:5.536
11:14:29,0,0,0,0,0,0,0,0,0,0,0,514,0,0,0,0,0.0000000,0.0000000,0.0000000,0.0000000,11.00,38.4064064,-110.7922668,1379.3000488,0.0,17.5,0.8,0.0,0.0,834,125,0,0,860.51,23.54,17.43,# data time:11450,pm2.5:6.445,pm10:5.704,O2:0.000,NO2:0.000,SO2:0.000,NH3:5.536
11:14:30,0,0,0,0,0,0,0,0,0,0,0,514,0,0,0,0,0.0000000,0.0000000,0.0000000,0.0000000,11.00,38.4064064,-110.7922668,1379.3000488,0.0,17.5,0.8,0.0,0.0,834,126,0,0,860.54,23.54,17.43,# data time:11460,pm2.5:6.445,pm10:5.704,O2:0.000,NO2:0.000,SO2:0.000,NH3:5.536
11:14:31,0,0,0,0,0,0,0,0,0,0,0,513,0,0,0,0,0.0000000,0.0000000,0.0000000,0.0000000,10.00,38.4064064,-110.7922668,1379.3000488,0.0,17.5,0.8,0.0,0.0,833,128,0,0,860.49,23.50,17.43,# data time:11460,pm2.5:6.445,pm10:5.704,O2:0.000,NO2:0.000,SO2:0.000,NH3:5.536
11:14:32,0,0,0,0,0,0,0,0,0,0,0,514,0,0,0,0,0.0000000,0.0000000,0.0000000,0.0000000,10.00,38.4064064,-110.7922668,1379.3000488,0.0,17.5,0.8,0.0,0.0,834,125,0,0,860.46,23.50,17.43,# data time:11460,pm2.5:6.445,pm10:5.704,O2:0.000,NO2:0.000,SO2:0.000,NH3:5.536
11:14:33,0,0,0,0,0,0,0,0,0,0,0,514,0,0,0,0,0.0000000,0.0000000,0.0000000,0.0000000,10.00,38.4064102,-110.7922668,1379.3000488,0.0,17.5,0.8,0.0,0.0,834,129,0,0,860.50,23.48,17.44,# data time:11460,pm2.5:6.445,pm10:5.704,O2:0.000,NO2:0.000,SO2:0.000,NH3:5.536
11:14:34,0,0,0,0,0,0,0,0,0,0,0,513,0,0,0,0,0.0000000,0.0000000,0.0000000,0.0000000,11.00,38.4064102,-110.7922668,1379.3000488,0.1,17.5,0.8,0.0,0.0,834,129,0,0,860.48,23.45,17.43,# data time:11460,pm2.5:6.445,pm10:5.704,O2:0.000,NO2:0.000,SO2:0.000,NH3:5.536
11:14:35,0,0,0,0,0,0,0,0,0,0,0,514,0,0,0,0,0.0000000,0.0000000,0.0000000,0.0000000,11.00,38.4064102,-110.7922668,1379.3000488,0.0,17.5,0.8,0.0,0.0,833,127,0,0,860.51,23.44,17.44,# data time:11460,pm2.5:6.445,pm10:5.704,O2:0.000,NO2:0.000,SO2:0.000,NH3:5.536
11:14:36,0,0,0,0,0,0,0,0,0,0,0,515,0,0,0,0,0.0000000,0.0000000,0.0000000,0.0000000,11.00,38.4064102,-110.7922668,1379.3000488,0.0,17.5,0.8,0.0,0.0,834,125,0,0,860.50,23.41,17.43,# data time:11460,pm2.5:6.445,pm10:5.704,O2:0.000,NO2:0.000,SO2:0.000,NH3:5.536
11:14:37,0,0,0,0,0,0,0,0,0,0,0,514,0,0,0,0,0.0000000,0.0000000,0.0000000,0.0000000,11.00,38.4064102,-110.7922668,1379.3000488,0.0,17.5,0.8,0.0,0.0,833,129,0,0,860.49,23.41,17.44,# data time:11460,pm2.5:6.445,pm10:5.704,O2:0.000,NO2:0.000,SO2:0.000,NH3:5.536
