Time, Motor A Speed, Motor A Dir, Motor B Speed, Motor B Dir, Servo Rail Current Sensor, Servo Pos - Arm L, Servo Pos - Arm R, Servo Pos - End, Servo Pos - Hopper, Servo Pos - Lid, Servo Pos - Extra, Servo Current, LED - Front L, LED - Front R, LED - Back L, LED - Back R, IMU Pitch, IMU Roll, IMU Yaw, Compass Heading, GPS Sats, GPS Latitude, GPS Longitude, GPS Altitude, GPS Speed, GPS Angle, GPS HDOP, GPS VDOP, GPS PDOP, Battery, Wind, Comm Xbee Latency, Comm Arduino Latency, Pressure, Humidity, Temperature, uRADMonitor
11:25:43,0,0,0,0,0,0,0,0,0,0,0,514,0,0,0,0,0.0000000,0.0000000,0.0000000,0.0000000,9.00,38.4064064,-110.7923203,1379.5000000,0.1,17.5,0.9,0.0,0.0,830,127,0,0,860.52,22.89,17.75,# data time:12130,pm2.5:5.640,pm10:4.991,O2:0.000,NO2:0.000,SO2:0.000,NH3:5.536
11:25:44,0,0,0,0,0,0,0,0,0,0,0,514,0,0,0,0,0.0000000,0.0000000,0.0000000,0.0000000,9.00,38.4064064,-110.7923203,1379.5999756,0.1,17.5,0.9,0.0,0.0,830,128,0,0,860.50,22.92,17.75,# data time:12130,pm2.5:5.640,pm10:4.991,O2:0.000,NO2:0.000,SO2:0.000,NH3:5.536
11:25:45,0,0,0,0,0,0,0,0,0,0,0,514,0,0,0,0,0.0000000,0.0000000,0.0000000,0.0000000,9.00,38.4064064,-110.7923203,1379.5999756,0.1,17.5,0.9,0.0,0.0,830,127,0,0,860.49,22.95,17.74,# data time:12130,pm2.5:5.640,pm10:4.991,O2:0.000,NO2:0.000,SO2:0.000,NH3:5.536
11:25:46,0,0,0,0,0,0,0,0,0,0,0,514,0,0,0,0,0.0000000,0.0000000,0.0000000,0.0000000,9.00,38.4064064,-110.7923203,1379.5999756,0.1,17.5,0.9,0.0,0.0,829,128,0,0,860.54,22.95,17.74,# data time:12130,pm2.5:5.640,pm10:4.991,O2:0.000,NO2:0.000,SO2:0.000,NH3:5.536
11:25:47,0,0,0,0,0,0,0,0,0,0,0,514,0,0,0,0,0.0000000,0.0000000,0.0000000,0.0000000,9.00,38.4064064,-110.7923203,1379.5999756,0.1,17.5,0.9,0.0,0.0,830,131,0,0,860.50,22.95,17.74,# data time:12130,pm2.5:5.640,pm10:4.991,O2:0.000,NO2:0.000,SO2:0.000,NH3:5.536
11:25:48,0,0,0,0,0,0,0,0,0,0,0,514,0,0,0,0,0.0000000,0.0000000,0.0000000,0.0000000,9.00,38.4064064,-110.7923203,1379.5999756,0.1,17.5,0.9,0.0,0.0,829,127,0,0,860.52,22.95,17.74,# data time:12130,pm2.5:5.640,pm10:4.991,O2:0.000,NO2:0.000,SO2:0.000,NH3:5.536
11:25:49,0,0,0,0,0,0,0,0,0,0,0,514,0,0,0,0,0.0000000,0.0000000,0.0000000,0.0000000,9.00,38.4064064,-110.7923203,1379.5999756,0.1,17.5,0.9,0.0,0.0,830,131,0,0,860.50,22.96,17.74,# data time:12140,pm2.5:5.640,pm10:4.991,O2:0.000,NO2:0.000,SO2:0.000,NH3:5.536
11:25:50,0,0,0,0,0,0,0,0,0,0,0,515,0,0,0,0,0.0000000,0.0000000,0.0000000,0.0000000,9.00,38.4064064,-110.7923203,1379.5999756,0.1,17.5,0.9,0.0,0.0,830,127,0,0,860.50,22.95,17.75,# data time:12140,pm2.5:5.640,pm10:4.991,O2:0.000,NO2:0.000,SO2:0.000,NH3:5.536
11:25:51,0,0,0,0,0,0,0,0,0,0,0,515,0,0,0,0,0.0000000,0.0000000,0.0000000,0.0000000,9.00,38.4064064,-110.7923203,1379.5999756,0.1,17.5,0.9,0.0,0.0,829,126,0,0,860.49,22.95,17.75,# data time:12140,pm2.5:5.640,pm10:4.991,O2:0.000,NO2:0.000,SO2:0.000,NH3:5.536
11:25:52,0,0,0,0,0,0,0,0,0,0,0,515,0,0,0,0,0.0000000,0.0000000,0.0000000,0.0000000,9.00,38.4064064,-110.7923203,1379.5999756,0.1,17.5,0.9,0.0,0.0,830,127,0,0,860.49,22.95,17.75,# data time:12140,pm2.5:5.640,pm10:4.991,O2:0.000,NO2:0.000,SO2:0.000,NH3:5.536
11:25:53,0,0,0,0,0,0,0,0,0,0,0,515,0,0,0,0,0.0000000,0.0000000,0.0000000,0.0000000,9.00,38.4064064,-110.7923203,1379.5999756,0.1,17.5,0.9,0.0,0.0,829,126,0,0,860.51,22.95,17.75,# data time:12140,pm2.5:5.640,pm10:4.991,O2:0.000,NO2:0.000,SO2:0.000,NH3:5.536
11:25:54,0,0,0,0,0,0,0,0,0,0,0,514,0,0,0,0,0.0000000,0.0000000,0.0000000,0.0000000,9.00,38.4064064,-110.7923203,1379.5999756,0.1,17.5,0.9,0.0,0.0,829,128,0,0,860.51,22.95,17.75,# data time:12140,pm2.5:5.640,pm10:4.991,O2:0.000,NO2:0.000,SO2:0.000,NH3:5.536
11:25:55,0,0,0,0,0,0,0,0,0,0,0,514,0,0,0,0,0.0000000,0.0000000,0.0000000,0.0000000,9.00,38.4064064,-110.7923203,1379.5999756,0.1,17.5,0.9,0.0,0.0,829,129,0,0,860.53,23.03,17.75,# data time:12140,pm2.5:5.640,pm10:4.991,O2:0.000,NO2:0.000,SO2:0.000,NH3:5.536
11:25:56,0,0,0,0,0,0,0,0,0,0,0,508,0,0,0,0,0.0000000,0.0000000,0.0000000,0.0000000,9.00,38.4064064,-110.7923203,1379.5999756,0.1,17.5,0.9,0.0,0.0,825,127,0,0,860.53,23.01,17.75,# data time:12140,pm2.5:5.640,pm10:4.991,O2:0.000,NO2:0.000,SO2:0.000,NH3:5.536
11:25:57,0,0,0,0,0,0,0,0,0,0,0,524,0,0,0,0,0.0000000,0.0000000,0.0000000,0.0000000,9.00,38.4064064,-110.7923355,1379.5999756,0.1,17.5,0.9,0.0,0.0,832,126,0,0,860.50,23.03,17.75,# data time:12140,pm2.5:5.640,pm10:4.991,O2:0.000,NO2:0.000,SO2:0.000,NH3:5.536
11:25:58,0,0,0,0,0,0,0,0,0,0,0,513,0,0,0,0,0.0000000,0.0000000,0.0000000,0.0000000,9.00,38.4064102,-110.7923355,1379.6999512,0.1,17.5,0.9,0.0,0.0,822,125,0,0,860.52,23.07,17.75,# data time:12140,pm2.5:5.640,pm10:4.991,O2:0.000,NO2:0.000,SO2:0.000,NH3:5.536
11:25:59,0,0,0,0,0,0,0,0,0,0,0,502,0,0,0,0,0.0000000,0.0000000,0.0000000,0.0000000,8.00,38.4064102,-110.7923355,1379.6999512,0.1,17.5,1.0,0.0,0.0,835,124,0,0,860.55,23.04,17.75,# data time:12150,pm2.5:6.445,pm10:5.704,O2:0.000,NO2:0.000,SO2:0.000,NH3:5.536
11:26:00,0,0,0,0,0,0,0,0,0,0,0,516,0,0,0,0,0.0000000,0.0000000,0.0000000,0.0000000,8.00,38.4064102,-110.7923355,1379.6999512,0.1,17.5,1.0,0.0,0.0,826,127,0,0,860.49,23.03,17.75,# data time:12150,pm2.5:6.445,pm10:5.704,O2:0.000,NO2:0.000,SO2:0.000,NH3:5.536
11:26:01,0,0,0,0,0,0,0,0,0,0,0,514,0,0,0,0,0.0000000,0.0000000,0.0000000,0.0000000,8.00,38.4064102,-110.7923355,1379.6999512,0.1,17.5,1.0,0.0,0.0,830,132,0,0,860.49,23.01,17.75,# data time:12150,pm2.5:6.445,pm10:5.704,O2:0.000,NO2:0.000,SO2:0.000,NH3:5.536
11:26:02,0,0,0,0,0,0,0,0,0,0,0,512,0,0,0,0,0.0000000,0.0000000,0.0000000,0.0000000,8.00,38.4064102,-110.7923355,1379.6999512,0.1,17.5,1.0,0.0,0.0,840,126,0,0,860.47,23.03,17.75,# data time:12150,pm2.5:6.445,pm10:5.704,O2:0.000,NO2:0.000,SO2:0.000,NH3:5.536
11:26:03,0,0,0,0,0,0,0,0,0,0,0,523,0,0,0,0,0.0000000,0.0000000,0.0000000,0.0000000,8.00,38.4064102,-110.7923355,1379.6999512,0.1,17.5,1.0,0.0,0.0,821,135,0,0,860.47,23.01,17.75,# data time:12150,pm2.5:6.445,pm10:5.704,O2:0.000,NO2:0.000,SO2:0.000,NH3:5.536
11:26:04,0,0,0,0,0,0,0,0,0,0,0,514,0,0,0,0,0.0000000,0.0000000,0.0000000,0.0000000,8.00,38.4064102,-110.7923355,1379.6999512,0.1,17.5,1.0,0.0,0.0,829,127,0,0,860.46,23.04,17.75,# data time:12150,pm2.5:6.445,pm10:5.704,O2:0.000,NO2:0.000,SO2:0.000,NH3:5.536
11:26:05,0,0,0,0,0,0,0,0,0,0,0,514,0,0,0,0,0.0000000,0.0000000,0.0000000,0.0000000,8.00,38.4064102,-110.7923355,1379.6999512,0.1,17.5,1.0,0.0,0.0,830,127,0,0,860.56,23.07,17.75,# data time:12150,pm2.5:6.445,pm10:5.704,O2:0.000,NO2:0.000,SO2:0.000,NH3:5.536
11:26:06,0,0,0,0,0,0,0,0,0,0,0,518,0,0,0,0,0.0000000,0.0000000,0.0000000,0.0000000,8.00,38.4064102,-110.7923355,1379.6999512,0.1,17.5,1.0,0.0,0.0,833,131,0,0,860.48,23.09,17.74,# data time:12150,pm2.5:6.445,pm10:5.704,O2:0.000,NO2:0.000,SO2:0.000,NH3:5.536
11:26:07,0,0,0,0,0,0,0,0,0,0,0,519,0,0,0,0,0.0000000,0.0000000,0.0000000,0.0000000,8.00,38.4064102,-110.7923355,1379.6999512,0.1,17.5,1.0,0.0,0.0,835,127,0,0,860.51,23.09,17.74,# data time:12150,pm2.5:6.445,pm10:5.704,O2:0.000,NO2:0.000,SO2:0.000,NH3:5.536
11:26:08,0,0,0,0,0,0,0,0,0,0,0,527,0,0,0,0,0.0000000,0.0000000,0.0000000,0.0000000,8.00,38.4064102,-110.7923355,1379.6999512,0.1,17.5,1.0,0.0,0.0,827,124,0,0,860.49,23.09,17.75,# data time:12150,pm2.5:6.445,pm10:5.704,O2:0.000,NO2:0.000,SO2:0.000,NH3:5.536
11:26:09,0,0,0,0,0,0,0,0,0,0,0,514,0,0,0,0,0.0000000,0.0000000,0.0000000,0.0000000,8.00,38.4064064,-110.7923355,1379.6999512,0.1,17.5,1.0,0.0,0.0,829,126,0,0,860.53,23.06,17.75,# data time:12160,pm2.5:6.445,pm10:5.704,O2:0.000,NO2:0.000,SO2:0.000,NH3:5.536
11:26:10,0,0,0,0,0,0,0,0,0,0,0,514,0,0,0,0,0.0000000,0.0000000,0.0000000,0.0000000,8.00,38.4064064,-110.7923355,1379.8000488,0.1,17.5,1.0,0.0,0.0,829,132,0,0,860.50,23.04,17.66,# data time:12160,pm2.5:6.445,pm10:5.704,O2:0.000,NO2:0.000,SO2:0.000,NH3:5.536
11:26:11,0,0,0,0,0,0,0,0,0,0,0,515,0,0,0,0,0.0000000,0.0000000,0.0000000,0.0000000,8.00,38.4064064,-110.7923355,1379.8000488,0.2,17.5,1.0,0.0,0.0,830,126,0,0,860.50,23.06,17.65,# data time:12160,pm2.5:6.445,pm10:5.704,O2:0.000,NO2:0.000,SO2:0.000,NH3:5.536
11:26:12,0,0,0,0,0,0,0,0,0,0,0,514,0,0,0,0,0.0000000,0.0000000,0.0000000,0.0000000,8.00,38.4064064,-110.7923431,1379.8000488,0.2,17.5,1.0,0.0,0.0,830,128,0,0,860.49,23.04,17.66,# data time:12160,pm2.5:6.445,pm10:5.704,O2:0.000,NO2:0.000,SO2:0.000,NH3:5.536
11:26:13,0,0,0,0,0,0,0,0,0,0,0,515,0,0,0,0,0.0000000,0.0000000,0.0000000,0.0000000,8.00,38.4064064,-110.7923431,1379.8000488,0.2,17.5,1.0,0.0,0.0,829,130,0,0,860.52,23.06,17.70,# data time:12160,pm2.5:6.445,pm10:5.704,O2:0.000,NO2:0.000,SO2:0.000,NH3:5.536
11:26:14,0,0,0,0,0,0,0,0,0,0,0,514,0,0,0,0,0.0000000,0.0000000,0.0000000,0.0000000,8.00,38.4064064,-110.7923431,1379.8000488,0.1,17.5,1.0,0.0,0.0,829,127,0,0,860.52,23.06,17.71,# data time:12160,pm2.5:6.445,pm10:5.704,O2:0.000,NO2:0.000,SO2:0.000,NH3:5.536
11:26:15,0,0,0,0,0,0,0,0,0,0,0,514,0,0,0,0,0.0000000,0.0000000,0.0000000,0.0000000,8.00,38.4064064,-110.7923431,1379.8000488,0.1,17.5,1.0,0.0,0.0,830,128,0,0,860.52,23.07,17.75,# data time:12160,pm2.5:6.445,pm10:5.704,O2:0.000,NO2:0.000,SO2:0.000,NH3:5.536
11:26:16,0,0,0,0,0,0,0,0,0,0,0,515,0,0,0,0,0.0000000,0.0000000,0.0000000,0.0000000,8.00,38.4064064,-110.7923431,1379.8000488,0.1,17.5,1.0,0.0,0.0,829,128,0,0,860.54,23.04,17.75,# data time:12160,pm2.5:6.445,pm10:5.704,O2:0.000,NO2:0.000,SO2:0.000,NH3:5.536
11:26:17,0,0,0,0,0,0,0,0,0,0,0,514,0,0,0,0,0.0000000,0.0000000,0.0000000,0.0000000,8.00,38.4064064,-110.7923431,1379.8000488,0.1,17.5,1.0,0.0,0.0,829,128,0,0,860.53,23.03,17.74,# data time:12160,pm2.5:6.445,pm10:5.704,O2:0.000,NO2:0.000,SO2:0.000,NH3:5.536
11:26:19,0,0,0,0,0,0,0,0,0,0,0,514,0,0,0,0,0.0000000,0.0000000,0.0000000,0.0000000,8.00,38.4064064,-110.7923431,1379.8000488,0.1,17.5,1.0,0.0,0.0,830,123,0,0,860.55,23.03,17.75,# data time:12160,pm2.5:6.445,pm10:5.704,O2:0.000,NO2:0.000,SO2:0.000,NH3:5.536
11:26:20,0,0,0,0,0,0,0,0,0,0,0,514,0,0,0,0,0.0000000,0.0000000,0.0000000,0.0000000,8.00,38.4064064,-110.7923431,1379.9000244,0.1,17.5,1.0,0.0,0.0,830,128,0,0,860.53,23.03,17.75,# data time:12170,pm2.5:6.445,pm10:5.704,O2:0.000,NO2:0.000,SO2:0.000,NH3:5.536
11:26:21,0,0,0,0,0,0,0,0,0,0,0,514,0,0,0,0,0.0000000,0.0000000,0.0000000,0.0000000,8.00,38.4064064,-110.7923431,1379.9000244,0.1,17.5,1.0,0.0,0.0,830,127,0,0,860.54,23.03,17.75,# data time:12170,pm2.5:6.445,pm10:5.704,O2:0.000,NO2:0.000,SO2:0.000,NH3:5.536
11:26:22,0,0,0,0,0,0,0,0,0,0,0,515,0,0,0,0,0.0000000,0.0000000,0.0000000,0.0000000,8.00,38.4064064,-110.7923431,1379.9000244,0.1,17.5,1.0,0.0,0.0,829,125,0,0,860.53,23.01,17.75,# data time:12170,pm2.5:6.445,pm10:5.704,O2:0.000,NO2:0.000,SO2:0.000,NH3:5.536
11:26:23,0,0,0,0,0,0,0,0,0,0,0,514,0,0,0,0,0.0000000,0.0000000,0.0000000,0.0000000,8.00,38.4064064,-110.7923431,1379.9000244,0.1,17.5,1.0,0.0,0.0,830,125,0,0,860.55,23.03,17.75,# data time:12170,pm2.5:6.445,pm10:5.704,O2:0.000,NO2:0.000,SO2:0.000,NH3:5.536
11:26:24,0,0,0,0,0,0,0,0,0,0,0,514,0,0,0,0,0.0000000,0.0000000,0.0000000,0.0000000,8.00,38.4064064,-110.7923431,1379.9000244,0.1,17.5,1.0,0.0,0.0,829,126,0,0,860.53,23.00,17.75,# data time:12170,pm2.5:6.445,pm10:5.704,O2:0.000,NO2:0.000,SO2:0.000,NH3:5.536
11:26:25,0,0,0,0,0,0,0,0,0,0,0,514,0,0,0,0,0.0000000,0.0000000,0.0000000,0.0000000,8.00,38.4064064,-110.7923431,1379.9000244,0.1,17.5,1.0,0.0,0.0,829,136,0,0,860.50,23.01,17.76,# data time:12170,pm2.5:6.445,pm10:5.704,O2:0.000,NO2:0.000,SO2:0.000,NH3:5.536
11:26:26,0,0,0,0,0,0,0,0,0,0,0,514,0,0,0,0,0.0000000,0.0000000,0.0000000,0.0000000,8.00,38.4064064,-110.7923431,1379.9000244,0.1,17.5,1.0,0.0,0.0,829,127,0,0,860.51,22.98,17.76,# data time:12170,pm2.5:6.445,pm10:5.704,O2:0.000,NO2:0.000,SO2:0.000,NH3:5.536
11:26:27,0,0,0,0,0,0,0,0,0,0,0,514,0,0,0,0,0.0000000,0.0000000,0.0000000,0.0000000,8.00,38.4064064,-110.7923431,1379.9000244,0.1,17.5,1.0,0.0,0.0,830,127,0,0,860.54,22.98,17.76,# data time:12170,pm2.5:6.445,pm10:5.704,O2:0.000,NO2:0.000,SO2:0.000,NH3:5.536
11:26:28,0,0,0,0,0,0,0,0,0,0,0,514,0,0,0,0,0.0000000,0.0000000,0.0000000,0.0000000,8.00,38.4064064,-110.7923431,1379.9000244,0.1,17.5,1.0,0.0,0.0,829,130,0,0,860.48,23.00,17.76,# data time:12170,pm2.5:6.445,pm10:5.704,O2:0.000,NO2:0.000,SO2:0.000,NH3:5.536
11:26:29,0,0,0,0,0,0,0,0,0,0,0,514,0,0,0,0,0.0000000,0.0000000,0.0000000,0.0000000,8.00,38.4064064,-110.7923431,1380.0000000,0.1,17.5,1.0,0.0,0.0,830,128,0,0,860.48,23.01,17.76,# data time:12170,pm2.5:6.445,pm10:5.704,O2:0.000,NO2:0.000,SO2:0.000,NH3:5.536
11:26:30,0,0,0,0,0,0,0,0,0,0,0,509,0,0,0,0,0.0000000,0.0000000,0.0000000,0.0000000,8.00,38.4064064,-110.7923431,1380.0000000,0.1,17.5,1.0,0.0,0.0,823,134,0,0,860.49,23.00,17.76,# data time:12180,pm2.5:6.445,pm10:5.704,O2:0.000,NO2:0.000,SO2:0.000,NH3:5.536
11:26:31,0,0,0,0,0,0,0,0,0,0,0,510,0,0,0,0,0.0000000,0.0000000,0.0000000,0.0000000,8.00,38.4064064,-110.7923431,1380.0000000,0.1,17.5,1.0,0.0,0.0,834,129,0,0,860.53,23.01,17.76,# data time:12180,pm2.5:6.445,pm10:5.704,O2:0.000,NO2:0.000,SO2:0.000,NH3:5.536
11:26:32,0,0,0,0,0,0,0,0,0,0,0,514,0,0,0,0,0.0000000,0.0000000,0.0000000,0.0000000,8.00,38.4064064,-110.7923431,1380.0000000,0.1,17.5,1.0,0.0,0.0,829,126,0,0,860.48,23.01,17.76,# data time:12180,pm2.5:6.445,pm10:5.704,O2:0.000,NO2:0.000,SO2:0.000,NH3:5.536
11:26:33,0,0,0,0,0,0,0,0,0,0,0,514,0,0,0,0,0.0000000,0.0000000,0.0000000,0.0000000,8.00,38.4064064,-110.7923584,1380.0000000,0.1,17.5,1.0,0.0,0.0,829,128,0,0,860.54,23.00,17.76,# data time:12180,pm2.5:6.445,pm10:5.704,O2:0.000,NO2:0.000,SO2:0.000,NH3:5.536
11:26:34,0,0,0,0,0,0,0,0,0,0,0,514,0,0,0,0,0.0000000,0.0000000,0.0000000,0.0000000,8.00,38.4064064,-110.7923584,1380.0000000,0.1,17.5,1.0,0.0,0.0,829,127,0,0,860.52,22.98,17.77,# data time:12180,pm2.5:6.445,pm10:5.704,O2:0.000,NO2:0.000,SO2:0.000,NH3:5.536
11:26:35,0,0,0,0,0,0,0,0,0,0,0,515,0,0,0,0,0.0000000,0.0000000,0.0000000,0.0000000,8.00,38.4064064,-110.7923584,1380.0000000,0.1,17.5,1.0,0.0,0.0,830,123,0,0,860.56,23.00,17.76,# data time:12180,pm2.5:6.445,pm10:5.704,O2:0.000,NO2:0.000,SO2:0.000,NH3:5.536
11:26:36,0,0,0,0,0,0,0,0,0,0,0,514,0,0,0,0,0.0000000,0.0000000,0.0000000,0.0000000,8.00,38.4064064,-110.7923584,1380.0000000,0.1,17.5,1.0,0.0,0.0,829,130,0,0,860.56,23.01,17.76,# data time:12180,pm2.5:6.445,pm10:5.704,O2:0.000,NO2:0.000,SO2:0.000,NH3:5.536
11:26:37,0,0,0,0,0,0,0,0,0,0,0,514,0,0,0,0,0.0000000,0.0000000,0.0000000,0.0000000,8.00,38.4064064,-110.7923584,1380.0999756,0.1,17.5,1.0,0.0,0.0,829,127,0,0,860.56,23.00,17.76,# data time:12180,pm2.5:6.445,pm10:5.704,O2:0.000,NO2:0.000,SO2:0.000,NH3:5.536
11:26:38,0,0,0,0,0,0,0,0,0,0,0,515,0,0,0,0,0.0000000,0.0000000,0.0000000,0.0000000,8.00,38.4064064,-110.7923584,1380.0999756,0.1,17.5,1.0,0.0,0.0,829,127,0,0,860.53,23.01,17.77,# data time:12180,pm2.5:6.445,pm10:5.704,O2:0.000,NO2:0.000,SO2:0.000,NH3:5.536
11:26:39,0,0,0,0,0,0,0,0,0,0,0,515,0,0,0,0,0.0000000,0.0000000,0.0000000,0.0000000,8.00,38.4064064,-110.7923584,1380.0999756,0.1,17.5,1.0,0.0,0.0,829,130,0,0,860.54,23.01,17.77,# data time:12190,pm2.5:6.445,pm10:5.704,O2:0.000,NO2:0.000,SO2:0.000,NH3:5.762
11:26:40,0,0,0,0,0,0,0,0,0,0,0,514,0,0,0,0,0.0000000,0.0000000,0.0000000,0.0000000,8.00,38.4064064,-110.7923584,1380.0999756,0.1,17.5,1.0,0.0,0.0,829,128,0,0,860.51,23.00,17.76,# data time:12190,pm2.5:6.445,pm10:5.704,O2:0.000,NO2:0.000,SO2:0.000,NH3:5.762
11:26:41,0,0,0,0,0,0,0,0,0,0,0,514,0,0,0,0,0.0000000,0.0000000,0.0000000,0.0000000,8.00,38.4064064,-110.7923584,1380.0999756,0.1,17.5,1.0,0.0,0.0,830,129,0,0,860.52,23.03,17.77,# data time:12190,pm2.5:6.445,pm10:5.704,O2:0.000,NO2:0.000,SO2:0.000,NH3:5.762
11:26:42,0,0,0,0,0,0,0,0,0,0,0,514,0,0,0,0,0.0000000,0.0000000,0.0000000,0.0000000,8.00,38.4064026,-110.7923584,1380.0999756,0.1,17.5,1.0,0.0,0.0,829,133,0,0,860.50,23.03,17.77,# data time:12190,pm2.5:6.445,pm10:5.704,O2:0.000,NO2:0.000,SO2:0.000,NH3:5.762
11:26:43,0,0,0,0,0,0,0,0,0,0,0,514,0,0,0,0,0.0000000,0.0000000,0.0000000,0.0000000,8.00,38.4064026,-110.7923584,1380.0999756,0.1,17.5,1.0,0.0,0.0,830,127,0,0,860.48,23.04,17.76,# data time:12190,pm2.5:6.445,pm10:5.704,O2:0.000,NO2:0.000,SO2:0.000,NH3:5.762
11:26:44,0,0,0,0,0,0,0,0,0,0,0,514,0,0,0,0,0.0000000,0.0000000,0.0000000,0.0000000,8.00,38.4064026,-110.7923584,1380.0999756,0.1,17.5,1.0,0.0,0.0,829,128,0,0,860.48,23.03,17.77,# data time:12190,pm2.5:6.445,pm10:5.704,O2:0.000,NO2:0.000,SO2:0.000,NH3:5.762
11:26:45,0,0,0,0,0,0,0,0,0,0,0,515,0,0,0,0,0.0000000,0.0000000,0.0000000,0.0000000,8.00,38.4064026,-110.7923584,1380.1999512,0.1,17.5,1.0,0.0,0.0,829,127,0,0,860.58,23.03,17.77,# data time:12190,pm2.5:6.445,pm10:5.704,O2:0.000,NO2:0.000,SO2:0.000,NH3:5.762
11:26:46,0,0,0,0,0,0,0,0,0,0,0,515,0,0,0,0,0.0000000,0.0000000,0.0000000,0.0000000,8.00,38.4064026,-110.7923584,1380.1999512,0.1,17.5,1.0,0.0,0.0,829,126,0,0,860.52,23.04,17.77,# data time:12190,pm2.5:6.445,pm10:5.704,O2:0.000,NO2:0.000,SO2:0.000,NH3:5.762
11:26:47,0,0,0,0,0,0,0,0,0,0,0,513,0,0,0,0,0.0000000,0.0000000,0.0000000,0.0000000,8.00,38.4064026,-110.7923584,1380.1999512,0.1,17.5,1.0,0.0,0.0,829,125,0,0,860.53,23.04,17.77,# data time:12190,pm2.5:6.445,pm10:5.704,O2:0.000,NO2:0.000,SO2:0.000,NH3:5.762
11:26:48,0,0,0,0,0,0,0,0,0,0,0,513,0,0,0,0,0.0000000,0.0000000,0.0000000,0.0000000,8.00,38.4064026,-110.7923584,1380.1999512,0.1,17.5,1.0,0.0,0.0,829,127,0,0,860.54,23.03,17.77,# data time:12190,pm2.5:6.445,pm10:5.704,O2:0.000,NO2:0.000,SO2:0.000,NH3:5.762
11:26:49,0,0,0,0,0,0,0,0,0,0,0,514,0,0,0,0,0.0000000,0.0000000,0.0000000,0.0000000,8.00,38.4064026,-110.7923584,1380.1999512,0.1,17.5,1.0,0.0,0.0,829,127,0,0,860.50,23.00,17.77,# data time:12200,pm2.5:6.445,pm10:5.704,O2:0.000,NO2:0.000,SO2:0.000,NH3:5.536
11:26:50,0,0,0,0,0,0,0,0,0,0,0,514,0,0,0,0,0.0000000,0.0000000,0.0000000,0.0000000,8.00,38.4064026,-110.7923584,1380.1999512,0.1,17.5,1.0,0.0,0.0,829,125,0,0,860.49,23.01,17.77,# data time:12200,pm2.5:6.445,pm10:5.704,O2:0.000,NO2:0.000,SO2:0.000,NH3:5.536
11:26:51,0,0,0,0,0,0,0,0,0,0,0,508,0,0,0,0,0.0000000,0.0000000,0.0000000,0.0000000,8.00,38.4064026,-110.7923584,1380.3000488,0.2,17.5,1.0,0.0,0.0,826,126,0,0,860.49,23.01,17.77,# data time:12200,pm2.5:6.445,pm10:5.704,O2:0.000,NO2:0.000,SO2:0.000,NH3:5.536
11:26:52,0,0,0,0,0,0,0,0,0,0,0,514,0,0,0,0,0.0000000,0.0000000,0.0000000,0.0000000,8.00,38.4064026,-110.7923737,1380.3000488,0.2,17.5,1.0,0.0,0.0,829,126,0,0,860.52,22.98,17.77,# data time:12200,pm2.5:6.445,pm10:5.704,O2:0.000,NO2:0.000,SO2:0.000,NH3:5.536
11:26:53,0,0,0,0,0,0,0,0,0,0,0,514,0,0,0,0,0.0000000,0.0000000,0.0000000,0.0000000,8.00,38.4064026,-110.7923737,1380.3000488,0.2,17.5,1.0,0.0,0.0,829,128,0,0,860.52,23.00,17.78,# data time:12200,pm2.5:6.445,pm10:5.704,O2:0.000,NO2:0.000,SO2:0.000,NH3:5.536
11:26:54,0,0,0,0,0,0,0,0,0,0,0,513,0,0,0,0,0.0000000,0.0000000,0.0000000,0.0000000,8.00,38.4064026,-110.7923737,1380.3000488,0.2,17.5,1.0,0.0,0.0,829,125,0,0,860.54,22.98,17.77,# data time:12200,pm2.5:6.445,pm10:5.704,O2:0.000,NO2:0.000,SO2:0.000,NH3:5.536
11:26:55,0,0,0,0,0,0,0,0,0,0,0,514,0,0,0,0,0.0000000,0.0000000,0.0000000,0.0000000,8.00,38.4064064,-110.7923737,1380.3000488,0.2,17.5,1.0,0.0,0.0,829,127,0,0,860.52,22.98,17.77,# data time:12200,pm2.5:6.445,pm10:5.704,O2:0.000,NO2:0.000,SO2:0.000,NH3:5.536
11:26:56,0,0,0,0,0,0,0,0,0,0,0,513,0,0,0,0,0.0000000,0.0000000,0.0000000,0.0000000,8.00,38.4064064,-110.7923737,1380.3000488,0.2,17.5,1.0,0.0,0.0,829,129,0,0,860.54,23.00,17.77,# data time:12200,pm2.5:6.445,pm10:5.704,O2:0.000,NO2:0.000,SO2:0.000,NH3:5.536
11:26:57,0,0,0,0,0,0,0,0,0,0,0,514,0,0,0,0,0.0000000,0.0000000,0.0000000,0.0000000,8.00,38.4064064,-110.7923737,1380.4000244,0.2,17.5,1.0,0.0,0.0,829,128,0,0,860.56,22.96,17.77,# data time:12200,pm2.5:6.445,pm10:5.704,O2:0.000,NO2:0.000,SO2:0.000,NH3:5.536
11:26:58,0,0,0,0,0,0,0,0,0,0,0,514,0,0,0,0,0.0000000,0.0000000,0.0000000,0.0000000,8.00,38.4064064,-110.7923737,1380.4000244,0.2,17.5,1.0,0.0,0.0,829,129,0,0,860.56,22.92,17.77,# data time:12200,pm2.5:6.445,pm10:5.704,O2:0.000,NO2:0.000,SO2:0.000,NH3:5.536
11:26:59,0,0,0,0,0,0,0,0,0,0,0,515,0,0,0,0,0.0000000,0.0000000,0.0000000,0.0000000,8.00,38.4064064,-110.7923737,1380.4000244,0.2,17.5,1.0,0.0,0.0,829,129,0,0,860.57,22.93,17.77,# data time:12210,pm2.5:6.445,pm10:5.704,O2:0.000,NO2:0.000,SO2:0.000,NH3:5.536
11:27:00,0,0,0,0,0,0,0,0,0,0,0,514,0,0,0,0,0.0000000,0.0000000,0.0000000,0.0000000,8.00,38.4064064,-110.7923737,1380.4000244,0.2,17.5,1.0,0.0,0.0,829,129,0,0,860.49,22.92,17.68,# data time:12210,pm2.5:6.445,pm10:5.704,O2:0.000,NO2:0.000,SO2:0.000,NH3:5.536
11:27:01,0,0,0,0,0,0,0,0,0,0,0,514,0,0,0,0,0.0000000,0.0000000,0.0000000,0.0000000,8.00,38.4064064,-110.7923737,1380.4000244,0.2,17.5,1.0,0.0,0.0,830,126,0,0,860.50,22.93,17.67,# data time:12210,pm2.5:6.445,pm10:5.704,O2:0.000,NO2:0.000,SO2:0.000,NH3:5.536
11:27:02,0,0,0,0,0,0,0,0,0,0,0,514,0,0,0,0,0.0000000,0.0000000,0.0000000,0.0000000,8.00,38.4064064,-110.7923737,1380.4000244,0.2,17.5,1.0,0.0,0.0,829,128,0,0,860.50,22.92,17.67,# data time:12210,pm2.5:6.445,pm10:5.704,O2:0.000,NO2:0.000,SO2:0.000,NH3:5.536
11:27:03,0,0,0,0,0,0,0,0,0,0,0,514,0,0,0,0,0.0000000,0.0000000,0.0000000,0.0000000,8.00,38.4064064,-110.7923737,1380.5000000,0.2,17.5,1.0,0.0,0.0,829,127,0,0,860.42,22.93,17.68,# data time:12210,pm2.5:6.445,pm10:5.704,O2:0.000,NO2:0.000,SO2:0.000,NH3:5.536
11:27:04,0,0,0,0,0,0,0,0,0,0,0,505,0,0,0,0,0.0000000,0.0000000,0.0000000,0.0000000,8.00,38.4064064,-110.7923813,1380.5000000,0.2,17.5,1.0,0.0,0.0,819,122,0,0,860.44,22.98,17.72,# data time:12210,pm2.5:6.445,pm10:5.704,O2:0.000,NO2:0.000,SO2:0.000,NH3:5.536
11:27:05,0,0,0,0,0,0,0,0,0,0,0,518,0,0,0,0,0.0000000,0.0000000,0.0000000,0.0000000,8.00,38.4064102,-110.7923813,1380.5000000,0.2,17.5,1.0,0.0,0.0,824,134,0,0,860.50,22.98,17.76,# data time:12210,pm2.5:6.445,pm10:5.704,O2:0.000,NO2:0.000,SO2:0.000,NH3:5.536
11:27:06,0,0,0,0,0,0,0,0,0,0,0,514,0,0,0,0,0.0000000,0.0000000,0.0000000,0.0000000,8.00,38.4064102,-110.7923813,1380.5000000,0.2,17.5,1.0,0.0,0.0,829,128,0,0,860.56,22.98,17.77,# data time:12210,pm2.5:6.445,pm10:5.704,O2:0.000,NO2:0.000,SO2:0.000,NH3:5.536
11:27:07,0,0,0,0,0,0,0,0,0,0,0,516,0,0,0,0,0.0000000,0.0000000,0.0000000,0.0000000,8.00,38.4064102,-110.7923813,1380.5000000,0.2,17.5,1.0,0.0,0.0,838,125,0,0,860.50,22.98,17.77,# data time:12210,pm2.5:6.445,pm10:5.704,O2:0.000,NO2:0.000,SO2:0.000,NH3:5.536
11:27:08,0,0,0,0,0,0,0,0,0,0,0,504,0,0,0,0,0.0000000,0.0000000,0.0000000,0.0000000,8.00,38.4064102,-110.7923813,1380.5999756,0.2,17.5,1.0,0.0,0.0,832,123,0,0,860.53,22.98,17.77,# data time:12210,pm2.5:6.445,pm10:5.704,O2:0.000,NO2:0.000,SO2:0.000,NH3:5.536
11:27:09,0,0,0,0,0,0,0,0,0,0,0,520,0,0,0,0,0.0000000,0.0000000,0.0000000,0.0000000,8.00,38.4064102,-110.7923813,1380.5999756,0.2,17.5,1.0,0.0,0.0,833,126,0,0,860.48,22.96,17.77,# data time:12220,pm2.5:6.445,pm10:5.704,O2:0.000,NO2:0.000,SO2:0.000,NH3:5.536
11:27:11,0,0,0,0,0,0,0,0,0,0,0,513,0,0,0,0,0.0000000,0.0000000,0.0000000,0.0000000,8.00,38.4064102,-110.7923813,1380.5999756,0.1,17.5,1.0,0.0,0.0,831,126,0,0,860.51,22.95,17.77,# data time:12220,pm2.5:6.445,pm10:5.704,O2:0.000,NO2:0.000,SO2:0.000,NH3:5.536
11:27:12,0,0,0,0,0,0,0,0,0,0,0,511,0,0,0,0,0.0000000,0.0000000,0.0000000,0.0000000,8.00,38.4064102,-110.7923813,1380.5999756,0.2,17.5,1.0,0.0,0.0,829,125,0,0,860.53,22.92,17.77,# data time:12220,pm2.5:6.445,pm10:5.704,O2:0.000,NO2:0.000,SO2:0.000,NH3:5.536
11:27:13,0,0,0,0,0,0,0,0,0,0,0,511,0,0,0,0,0.0000000,0.0000000,0.0000000,0.0000000,8.00,38.4064102,-110.7923813,1380.5999756,0.2,17.5,1.0,0.0,0.0,827,127,0,0,860.48,22.90,17.78,# data time:12220,pm2.5:6.445,pm10:5.704,O2:0.000,NO2:0.000,SO2:0.000,NH3:5.536
11:27:14,0,0,0,0,0,0,0,0,0,0,0,514,0,0,0,0,0.0000000,0.0000000,0.0000000,0.0000000,8.00,38.4064102,-110.7923813,1380.5999756,0.1,17.5,1.0,0.0,0.0,829,129,0,0,860.46,22.89,17.78,# data time:12220,pm2.5:6.445,pm10:5.704,O2:0.000,NO2:0.000,SO2:0.000,NH3:5.536
11:27:15,0,0,0,0,0,0,0,0,0,0,0,514,0,0,0,0,0.0000000,0.0000000,0.0000000,0.0000000,8.00,38.4064102,-110.7923813,1380.6999512,0.1,17.5,1.0,0.0,0.0,829,129,0,0,860.47,22.92,17.78,# data time:12220,pm2.5:6.445,pm10:5.704,O2:0.000,NO2:0.000,SO2:0.000,NH3:5.536
11:27:16,0,0,0,0,0,0,0,0,0,0,0,514,0,0,0,0,0.0000000,0.0000000,0.0000000,0.0000000,8.00,38.4064102,-110.7923813,1380.6999512,0.1,17.5,1.0,0.0,0.0,829,126,0,0,860.51,22.92,17.78,# data time:12220,pm2.5:6.445,pm10:5.704,O2:0.000,NO2:0.000,SO2:0.000,NH3:5.536
11:27:17,0,0,0,0,0,0,0,0,0,0,0,513,0,0,0,0,0.0000000,0.0000000,0.0000000,0.0000000,8.00,38.4064102,-110.7923813,1380.6999512,0.1,17.5,1.0,0.0,0.0,833,128,0,0,860.50,22.92,17.78,# data time:12220,pm2.5:6.445,pm10:5.704,O2:0.000,NO2:0.000,SO2:0.000,NH3:5.536
11:27:18,0,0,0,0,0,0,0,0,0,0,0,516,0,0,0,0,0.0000000,0.0000000,0.0000000,0.0000000,8.00,38.4064140,-110.7923813,1380.6999512,0.1,17.5,1.0,0.0,0.0,829,123,0,0,860.48,22.92,17.78,# data time:12220,pm2.5:6.445,pm10:5.704,O2:0.000,NO2:0.000,SO2:0.000,NH3:5.536
11:27:19,0,0,0,0,0,0,0,0,0,0,0,512,0,0,0,0,0.0000000,0.0000000,0.0000000,0.0000000,8.00,38.4064140,-110.7923813,1380.6999512,0.1,17.5,1.0,0.0,0.0,828,126,0,0,860.50,22.90,17.78,# data time:12220,pm2.5:6.445,pm10:5.704,O2:0.000,NO2:0.000,SO2:0.000,NH3:5.536
11:27:20,0,0,0,0,0,0,0,0,0,0,0,519,0,0,0,0,0.0000000,0.0000000,0.0000000,0.0000000,8.00,38.4064140,-110.7923813,1380.8000488,0.1,17.5,1.0,0.0,0.0,825,128,0,0,860.48,22.93,17.78,# data time:12230,pm2.5:6.445,pm10:5.704,O2:0.000,NO2:0.000,SO2:0.000,NH3:5.762
11:27:21,0,0,0,0,0,0,0,0,0,0,0,511,0,0,0,0,0.0000000,0.0000000,0.0000000,0.0000000,8.00,38.4064140,-110.7923965,1380.8000488,0.1,17.5,1.0,0.0,0.0,830,122,0,0,860.49,22.92,17.78,# data time:12230,pm2.5:6.445,pm10:5.704,O2:0.000,NO2:0.000,SO2:0.000,NH3:5.762
11:27:22,0,0,0,0,0,0,0,0,0,0,0,509,0,0,0,0,0.0000000,0.0000000,0.0000000,0.0000000,8.00,38.4064140,-110.7923965,1380.8000488,0.1,17.5,1.0,0.0,0.0,832,120,0,0,860.50,22.92,17.78,# data time:12230,pm2.5:6.445,pm10:5.704,O2:0.000,NO2:0.000,SO2:0.000,NH3:5.762
11:27:23,0,0,0,0,0,0,0,0,0,0,0,510,0,0,0,0,0.0000000,0.0000000,0.0000000,0.0000000,8.00,38.4064140,-110.7923965,1380.8000488,0.1,17.5,1.0,0.0,0.0,826,125,0,0,860.52,22.90,17.78,# data time:12230,pm2.5:6.445,pm10:5.704,O2:0.000,NO2:0.000,SO2:0.000,NH3:5.762
11:27:24,0,0,0,0,0,0,0,0,0,0,0,517,0,0,0,0,0.0000000,0.0000000,0.0000000,0.0000000,8.00,38.4064140,-110.7923965,1380.8000488,0.1,17.5,1.0,0.0,0.0,830,129,0,0,860.53,22.89,17.78,# data time:12230,pm2.5:6.445,pm10:5.704,O2:0.000,NO2:0.000,SO2:0.000,NH3:5.762
11:27:25,0,0,0,0,0,0,0,0,0,0,0,507,0,0,0,0,0.0000000,0.0000000,0.0000000,0.0000000,8.00,38.4064140,-110.7923965,1380.9000244,0.1,17.5,1.0,0.0,0.0,825,130,0,0,860.50,22.87,17.79,# data time:12230,pm2.5:6.445,pm10:5.704,O2:0.000,NO2:0.000,SO2:0.000,NH3:5.762
11:27:26,0,0,0,0,0,0,0,0,0,0,0,519,0,0,0,0,0.0000000,0.0000000,0.0000000,0.0000000,8.00,38.4064140,-110.7923965,1380.9000244,0.1,17.5,1.0,0.0,0.0,828,125,0,0,860.48,22.92,17.79,# data time:12230,pm2.5:6.445,pm10:5.704,O2:0.000,NO2:0.000,SO2:0.000,NH3:5.762
11:27:27,0,0,0,0,0,0,0,0,0,0,0,515,0,0,0,0,0.0000000,0.0000000,0.0000000,0.0000000,8.00,38.4064140,-110.7923965,1380.9000244,0.1,17.5,1.0,0.0,0.0,831,128,0,0,860.53,22.90,17.79,# data time:12230,pm2.5:6.445,pm10:5.704,O2:0.000,NO2:0.000,SO2:0.000,NH3:5.762
11:27:28,0,0,0,0,0,0,0,0,0,0,0,519,0,0,0,0,0.0000000,0.0000000,0.0000000,0.0000000,8.00,38.4064140,-110.7923965,1380.9000244,0.1,17.5,1.0,0.0,0.0,833,130,0,0,860.51,22.92,17.79,# data time:12230,pm2.5:6.445,pm10:5.704,O2:0.000,NO2:0.000,SO2:0.000,NH3:5.762
11:27:29,0,0,0,0,0,0,0,0,0,0,0,505,0,0,0,0,0.0000000,0.0000000,0.0000000,0.0000000,8.00,38.4064140,-110.7923965,1380.9000244,0.1,17.5,1.0,0.0,0.0,829,126,0,0,860.49,22.87,17.79,# data time:12240,pm2.5:6.445,pm10:5.704,O2:0.000,NO2:0.000,SO2:0.000,NH3:5.536
11:27:30,0,0,0,0,0,0,0,0,0,0,0,518,0,0,0,0,0.0000000,0.0000000,0.0000000,0.0000000,8.00,38.4064140,-110.7923965,1380.9000244,0.1,17.5,1.0,0.0,0.0,830,127,0,0,860.48,22.87,17.79,# data time:12240,pm2.5:6.445,pm10:5.704,O2:0.000,NO2:0.000,SO2:0.000,NH3:5.536
11:27:31,0,0,0,0,0,0,0,0,0,0,0,507,0,0,0,0,0.0000000,0.0000000,0.0000000,0.0000000,8.00,38.4064140,-110.7923965,1381.0000000,0.1,17.5,1.0,0.0,0.0,836,113,0,0,860.47,22.86,17.79,# data time:12240,pm2.5:6.445,pm10:5.704,O2:0.000,NO2:0.000,SO2:0.000,NH3:5.536
11:27:32,0,0,0,0,0,0,0,0,0,0,0,522,0,0,0,0,0.0000000,0.0000000,0.0000000,0.0000000,8.00,38.4064140,-110.7923965,1381.0000000,0.1,17.5,1.0,0.0,0.0,836,119,0,0,860.49,22.84,17.78,# data time:12240,pm2.5:6.445,pm10:5.704,O2:0.000,NO2:0.000,SO2:0.000,NH3:5.536
11:27:33,0,0,0,0,0,0,0,0,0,0,0,514,0,0,0,0,0.0000000,0.0000000,0.0000000,0.0000000,8.00,38.4064140,-110.7923965,1381.0000000,0.1,17.5,1.0,0.0,0.0,828,121,0,0,860.49,22.81,17.78,# data time:12240,pm2.5:6.445,pm10:5.704,O2:0.000,NO2:0.000,SO2:0.000,NH3:5.536
11:27:34,0,0,0,0,0,0,0,0,0,0,0,516,0,0,0,0,0.0000000,0.0000000,0.0000000,0.0000000,8.00,38.4064140,-110.7923965,1381.0000000,0.1,17.5,1.0,0.0,0.0,829,130,0,0,860.50,22.81,17.78,# data time:12240,pm2.5:6.445,pm10:5.704,O2:0.000,NO2:0.000,SO2:0.000,NH3:5.536
11:27:35,0,0,0,0,0,0,0,0,0,0,0,512,0,0,0,0,0.0000000,0.0000000,0.0000000,0.0000000,8.00,38.4064140,-110.7923965,1381.0000000,0.1,17.5,1.0,0.0,0.0,830,130,0,0,860.48,22.80,17.77,# data time:12240,pm2.5:6.445,pm10:5.704,O2:0.000,NO2:0.000,SO2:0.000,NH3:5.536
11:27:36,0,0,0,0,0,0,0,0,0,0,0,514,0,0,0,0,0.0000000,0.0000000,0.0000000,0.0000000,8.00,38.4064140,-110.7923965,1381.0999756,0.1,17.5,1.0,0.0,0.0,829,129,0,0,860.51,22.80,17.77,# data time:12240,pm2.5:6.445,pm10:5.704,O2:0.000,NO2:0.000,SO2:0.000,NH3:5.536
11:27:37,0,0,0,0,0,0,0,0,0,0,0,516,0,0,0,0,0.0000000,0.0000000,0.0000000,0.0000000,8.00,38.4064140,-110.7923965,1381.0999756,0.1,17.5,1.0,0.0,0.0,834,127,0,0,860.50,22.80,17.78,# data time:12240,pm2.5:6.445,pm10:5.704,O2:0.000,NO2:0.000,SO2:0.000,NH3:5.536
11:27:38,0,0,0,0,0,0,0,0,0,0,0,515,0,0,0,0,0.0000000,0.0000000,0.0000000,0.0000000,8.00,38.4064140,-110.7923965,1381.0999756,0.1,17.5,1.0,0.0,0.0,829,128,0,0,860.50,22.77,17.78,# data time:12240,pm2.5:6.445,pm10:5.704,O2:0.000,NO2:0.000,SO2:0.000,NH3:5.536
11:27:39,0,0,0,0,0,0,0,0,0,0,0,504,0,0,0,0,0.0000000,0.0000000,0.0000000,0.0000000,8.00,38.4064140,-110.7923965,1381.0999756,0.1,17.5,1.0,0.0,0.0,828,129,0,0,860.50,22.77,17.78,# data time:12250,pm2.5:6.445,pm10:5.704,O2:0.000,NO2:0.000,SO2:0.000,NH3:5.762
11:27:40,0,0,0,0,0,0,0,0,0,0,0,514,0,0,0,0,0.0000000,0.0000000,0.0000000,0.0000000,8.00,38.4064178,-110.7923965,1381.0999756,0.2,17.5,1.0,0.0,0.0,829,125,0,0,860.52,22.77,17.78,# data time:12250,pm2.5:6.445,pm10:5.704,O2:0.000,NO2:0.000,SO2:0.000,NH3:5.762
11:27:41,0,0,0,0,0,0,0,0,0,0,0,508,0,0,0,0,0.0000000,0.0000000,0.0000000,0.0000000,8.00,38.4064178,-110.7923965,1381.1999512,0.2,17.5,1.0,0.0,0.0,827,126,0,0,860.48,22.77,17.78,# data time:12250,pm2.5:6.445,pm10:5.704,O2:0.000,NO2:0.000,SO2:0.000,NH3:5.762
11:27:42,0,0,0,0,0,0,0,0,0,0,0,518,0,0,0,0,0.0000000,0.0000000,0.0000000,0.0000000,8.00,38.4064178,-110.7923965,1381.1999512,0.2,17.5,1.0,0.0,0.0,828,129,0,0,860.50,22.80,17.78,# data time:12250,pm2.5:6.445,pm10:5.704,O2:0.000,NO2:0.000,SO2:0.000,NH3:5.762
11:27:43,0,0,0,0,0,0,0,0,0,0,0,512,0,0,0,0,0.0000000,0.0000000,0.0000000,0.0000000,8.00,38.4064178,-110.7924118,1381.1999512,0.2,17.5,1.0,0.0,0.0,827,127,0,0,860.47,22.80,17.78,# data time:12250,pm2.5:6.445,pm10:5.704,O2:0.000,NO2:0.000,SO2:0.000,NH3:5.762
11:27:44,0,0,0,0,0,0,0,0,0,0,0,514,0,0,0,0,0.0000000,0.0000000,0.0000000,0.0000000,8.00,38.4064178,-110.7924118,1381.1999512,0.2,17.5,1.0,0.0,0.0,832,127,0,0,860.53,22.77,17.78,# data time:12250,pm2.5:6.445,pm10:5.704,O2:0.000,NO2:0.000,SO2:0.000,NH3:5.762
11:27:45,0,0,0,0,0,0,0,0,0,0,0,517,0,0,0,0,0.0000000,0.0000000,0.0000000,0.0000000,8.00,38.4064178,-110.7924118,1381.1999512,0.2,17.5,1.0,0.0,0.0,828,127,0,0,860.50,22.80,17.79,# data time:12250,pm2.5:6.445,pm10:5.704,O2:0.000,NO2:0.000,SO2:0.000,NH3:5.762
11:27:46,0,0,0,0,0,0,0,0,0,0,0,514,0,0,0,0,0.0000000,0.0000000,0.0000000,0.0000000,8.00,38.4064178,-110.7924118,1381.3000488,0.2,17.5,1.0,0.0,0.0,829,123,0,0,860.54,22.81,17.79,# data time:12250,pm2.5:6.445,pm10:5.704,O2:0.000,NO2:0.000,SO2:0.000,NH3:5.762
11:27:47,0,0,0,0,0,0,0,0,0,0,0,515,0,0,0,0,0.0000000,0.0000000,0.0000000,0.0000000,8.00,38.4064178,-110.7924118,1381.3000488,0.2,17.5,1.0,0.0,0.0,829,126,0,0,860.51,22.83,17.78,# data time:12250,pm2.5:6.445,pm10:5.704,O2:0.000,NO2:0.000,SO2:0.000,NH3:5.762
11:27:48,0,0,0,0,0,0,0,0,0,0,0,515,0,0,0,0,0.0000000,0.0000000,0.0000000,0.0000000,8.00,38.4064178,-110.7924118,1381.3000488,0.2,17.5,1.0,0.0,0.0,829,126,0,0,860.49,22.87,17.79,# data time:12250,pm2.5:6.445,pm10:5.704,O2:0.000,NO2:0.000,SO2:0.000,NH3:5.762
11:27:49,0,0,0,0,0,0,0,0,0,0,0,514,0,0,0,0,0.0000000,0.0000000,0.0000000,0.0000000,8.00,38.4064178,-110.7924118,1381.3000488,0.2,17.5,1.0,0.0,0.0,829,127,0,0,860.53,22.87,17.78,# data time:12260,pm2.5:6.445,pm10:5.704,O2:0.000,NO2:0.000,SO2:0.000,NH3:5.536
11:27:50,0,0,0,0,0,0,0,0,0,0,0,528,0,0,0,0,0.0000000,0.0000000,0.0000000,0.0000000,8.00,38.4064217,-110.7924118,1381.4000244,0.2,17.5,1.0,0.0,0.0,834,125,0,0,860.46,22.87,17.79,# data time:12260,pm2.5:6.445,pm10:5.704,O2:0.000,NO2:0.000,SO2:0.000,NH3:5.536
11:27:51,0,0,0,0,0,0,0,0,0,0,0,514,0,0,0,0,0.0000000,0.0000000,0.0000000,0.0000000,8.00,38.4064217,-110.7924118,1381.4000244,0.2,17.5,1.0,0.0,0.0,829,127,0,0,860.55,22.89,17.79,# data time:12260,pm2.5:6.445,pm10:5.704,O2:0.000,NO2:0.000,SO2:0.000,NH3:5.536
11:27:52,0,0,0,0,0,0,0,0,0,0,0,514,0,0,0,0,0.0000000,0.0000000,0.0000000,0.0000000,8.00,38.4064217,-110.7924118,1381.4000244,0.2,17.5,1.0,0.0,0.0,829,127,0,0,860.44,22.87,17.69,# data time:12260,pm2.5:6.445,pm10:5.704,O2:0.000,NO2:0.000,SO2:0.000,NH3:5.536
11:27:53,0,0,0,0,0,0,0,0,0,0,0,514,0,0,0,0,0.0000000,0.0000000,0.0000000,0.0000000,8.00,38.4064217,-110.7924118,1381.4000244,0.2,17.5,1.0,0.0,0.0,829,127,0,0,860.50,22.89,17.79,# data time:12260,pm2.5:6.445,pm10:5.704,O2:0.000,NO2:0.000,SO2:0.000,NH3:5.536
11:27:54,0,0,0,0,0,0,0,0,0,0,0,515,0,0,0,0,0.0000000,0.0000000,0.0000000,0.0000000,8.00,38.4064255,-110.7924118,1381.4000244,0.2,17.5,1.0,0.0,0.0,829,126,0,0,860.47,22.89,17.70,# data time:12260,pm2.5:6.445,pm10:5.704,O2:0.000,NO2:0.000,SO2:0.000,NH3:5.536
11:27:55,0,0,0,0,0,0,0,0,0,0,0,515,0,0,0,0,0.0000000,0.0000000,0.0000000,0.0000000,8.00,38.4064255,-110.7924118,1381.5000000,0.2,17.5,1.0,0.0,0.0,829,128,0,0,860.53,22.89,17.75,# data time:12260,pm2.5:6.445,pm10:5.704,O2:0.000,NO2:0.000,SO2:0.000,NH3:5.536
11:27:56,0,0,0,0,0,0,0,0,0,0,0,515,0,0,0,0,0.0000000,0.0000000,0.0000000,0.0000000,8.00,38.4064255,-110.7924194,1381.5000000,0.1,17.5,1.0,0.0,0.0,829,127,0,0,860.45,22.84,17.74,# data time:12260,pm2.5:6.445,pm10:5.704,O2:0.000,NO2:0.000,SO2:0.000,NH3:5.536
11:27:57,0,0,0,0,0,0,0,0,0,0,0,514,0,0,0,0,0.0000000,0.0000000,0.0000000,0.0000000,8.00,38.4064255,-110.7924194,1381.5000000,0.1,17.5,1.0,0.0,0.0,829,127,0,0,860.58,22.90,17.78,# data time:12260,pm2.5:6.445,pm10:5.704,O2:0.000,NO2:0.000,SO2:0.000,NH3:5.536
11:27:58,0,0,0,0,0,0,0,0,0,0,0,517,0,0,0,0,0.0000000,0.0000000,0.0000000,0.0000000,8.00,38.4064255,-110.7924194,1381.5000000,0.1,17.5,1.0,0.0,0.0,824,126,0,0,860.49,22.87,17.79,# data time:12260,pm2.5:6.445,pm10:5.704,O2:0.000,NO2:0.000,SO2:0.000,NH3:5.536
11:27:59,0,0,0,0,0,0,0,0,0,0,0,514,0,0,0,0,0.0000000,0.0000000,0.0000000,0.0000000,8.00,38.4064255,-110.7924194,1381.5999756,0.1,17.5,1.0,0.0,0.0,828,130,0,0,860.53,22.87,17.79,# data time:12270,pm2.5:6.445,pm10:5.704,O2:0.000,NO2:0.000,SO2:0.000,NH3:5.762
11:28:00,0,0,0,0,0,0,0,0,0,0,0,514,0,0,0,0,0.0000000,0.0000000,0.0000000,0.0000000,8.00,38.4064255,-110.7924194,1381.5999756,0.1,17.5,1.0,0.0,0.0,829,125,0,0,860.50,22.87,17.79,# data time:12270,pm2.5:6.445,pm10:5.704,O2:0.000,NO2:0.000,SO2:0.000,NH3:5.762
11:28:02,0,0,0,0,0,0,0,0,0,0,0,514,0,0,0,0,0.0000000,0.0000000,0.0000000,0.0000000,8.00,38.4064293,-110.7924194,1381.5999756,0.1,17.5,1.0,0.0,0.0,829,126,0,0,860.48,22.89,17.79,# data time:12270,pm2.5:6.445,pm10:5.704,O2:0.000,NO2:0.000,SO2:0.000,NH3:5.762
11:28:03,0,0,0,0,0,0,0,0,0,0,0,517,0,0,0,0,0.0000000,0.0000000,0.0000000,0.0000000,8.00,38.4064293,-110.7924194,1381.5999756,0.1,17.5,1.0,0.0,0.0,828,128,0,0,860.49,22.87,17.80,# data time:12270,pm2.5:6.445,pm10:5.704,O2:0.000,NO2:0.000,SO2:0.000,NH3:5.762
11:28:04,0,0,0,0,0,0,0,0,0,0,0,520,0,0,0,0,0.0000000,0.0000000,0.0000000,0.0000000,8.00,38.4064293,-110.7924194,1381.6999512,0.1,17.5,1.0,0.0,0.0,831,124,0,0,860.49,22.87,17.80,# data time:12270,pm2.5:6.445,pm10:5.704,O2:0.000,NO2:0.000,SO2:0.000,NH3:5.762
11:28:05,0,0,0,0,0,0,0,0,0,0,0,514,0,0,0,0,0.0000000,0.0000000,0.0000000,0.0000000,8.00,38.4064293,-110.7924194,1381.6999512,0.1,17.5,1.0,0.0,0.0,831,131,0,0,860.48,22.87,17.80,# data time:12270,pm2.5:6.445,pm10:5.704,O2:0.000,NO2:0.000,SO2:0.000,NH3:5.762
11:28:06,0,0,0,0,0,0,0,0,0,0,0,513,0,0,0,0,0.0000000,0.0000000,0.0000000,0.0000000,8.00,38.4064293,-110.7924194,1381.6999512,0.1,17.5,1.0,0.0,0.0,829,127,0,0,860.48,22.87,17.80,# data time:12270,pm2.5:6.445,pm10:5.704,O2:0.000,NO2:0.000,SO2:0.000,NH3:5.762
11:28:07,0,0,0,0,0,0,0,0,0,0,0,514,0,0,0,0,0.0000000,0.0000000,0.0000000,0.0000000,8.00,38.4064293,-110.7924194,1381.6999512,0.1,17.5,1.0,0.0,0.0,829,128,0,0,860.52,22.84,17.80,# data time:12270,pm2.5:6.445,pm10:5.704,O2:0.000,NO2:0.000,SO2:0.000,NH3:5.762
11:28:08,0,0,0,0,0,0,0,0,0,0,0,514,0,0,0,0,0.0000000,0.0000000,0.0000000,0.0000000,8.00,38.4064293,-110.7924194,1381.8000488,0.1,17.5,1.0,0.0,0.0,830,125,0,0,860.52,22.80,17.79,# data time:12270,pm2.5:6.445,pm10:5.704,O2:0.000,NO2:0.000,SO2:0.000,NH3:5.762
11:28:09,0,0,0,0,0,0,0,0,0,0,0,514,0,0,0,0,0.0000000,0.0000000,0.0000000,0.0000000,8.00,38.4064293,-110.7924194,1381.8000488,0.1,17.5,1.0,0.0,0.0,829,125,0,0,860.47,22.74,17.79,# data time:12270,pm2.5:6.445,pm10:5.704,O2:0.000,NO2:0.000,SO2:0.000,NH3:5.762
11:28:10,0,0,0,0,0,0,0,0,0,0,0,514,0,0,0,0,0.0000000,0.0000000,0.0000000,0.0000000,8.00,38.4064293,-110.7924194,1381.8000488,0.1,17.5,1.0,0.0,0.0,829,125,0,0,860.54,22.63,17.79,# data time:12280,pm2.5:6.445,pm10:5.704,O2:0.000,NO2:0.000,SO2:0.000,NH3:5.536
11:28:11,0,0,0,0,0,0,0,0,0,0,0,514,0,0,0,0,0.0000000,0.0000000,0.0000000,0.0000000,8.00,38.4064331,-110.7924194,1381.8000488,0.1,17.5,1.0,0.0,0.0,829,127,0,0,860.51,22.58,17.79,# data time:12280,pm2.5:6.445,pm10:5.704,O2:0.000,NO2:0.000,SO2:0.000,NH3:5.536
11:28:12,0,0,0,0,0,0,0,0,0,0,0,514,0,0,0,0,0.0000000,0.0000000,0.0000000,0.0000000,8.00,38.4064331,-110.7924194,1381.8000488,0.1,17.5,1.0,0.0,0.0,829,127,0,0,860.50,22.49,17.79,# data time:12280,pm2.5:6.445,pm10:5.704,O2:0.000,NO2:0.000,SO2:0.000,NH3:5.536
11:28:13,0,0,0,0,0,0,0,0,0,0,0,508,0,0,0,0,0.0000000,0.0000000,0.0000000,0.0000000,8.00,38.4064331,-110.7924194,1381.9000244,0.1,17.5,1.0,0.0,0.0,837,129,0,0,860.53,22.49,17.79,# data time:12280,pm2.5:6.445,pm10:5.704,O2:0.000,NO2:0.000,SO2:0.000,NH3:5.536
11:28:14,0,0,0,0,0,0,0,0,0,0,0,512,0,0,0,0,0.0000000,0.0000000,0.0000000,0.0000000,8.00,38.4064331,-110.7924194,1381.9000244,0.2,17.5,1.0,0.0,0.0,842,137,0,0,860.51,22.45,17.80,# data time:12280,pm2.5:6.445,pm10:5.704,O2:0.000,NO2:0.000,SO2:0.000,NH3:5.536
11:28:15,0,0,0,0,0,0,0,0,0,0,0,530,0,0,0,0,0.0000000,0.0000000,0.0000000,0.0000000,8.00,38.4064331,-110.7924194,1381.9000244,0.1,17.5,1.0,0.0,0.0,830,124,0,0,860.52,22.42,17.79,# data time:12280,pm2.5:6.445,pm10:5.704,O2:0.000,NO2:0.000,SO2:0.000,NH3:5.536
11:28:16,0,0,0,0,0,0,0,0,0,0,0,497,0,0,0,0,0.0000000,0.0000000,0.0000000,0.0000000,8.00,38.4064331,-110.7924194,1381.9000244,0.2,17.5,1.0,0.0,0.0,837,124,0,0,860.48,22.40,17.80,# data time:12280,pm2.5:6.445,pm10:5.704,O2:0.000,NO2:0.000,SO2:0.000,NH3:5.536
11:28:17,0,0,0,0,0,0,0,0,0,0,0,503,0,0,0,0,0.0000000,0.0000000,0.0000000,0.0000000,8.00,38.4064369,-110.7924194,1382.0000000,0.2,17.5,1.0,0.0,0.0,841,128,0,0,860.51,22.39,17.80,# data time:12280,pm2.5:6.445,pm10:5.704,O2:0.000,NO2:0.000,SO2:0.000,NH3:5.536
11:28:18,0,0,0,0,0,0,0,0,0,0,0,514,0,0,0,0,0.0000000,0.0000000,0.0000000,0.0000000,8.00,38.4064369,-110.7924194,1382.0000000,0.2,17.5,1.0,0.0,0.0,837,127,0,0,860.49,22.34,17.80,# data time:12280,pm2.5:6.445,pm10:5.704,O2:0.000,NO2:0.000,SO2:0.000,NH3:5.536
11:28:19,0,0,0,0,0,0,0,0,0,0,0,522,0,0,0,0,0.0000000,0.0000000,0.0000000,0.0000000,8.00,38.4064369,-110.7924194,1382.0000000,0.1,17.5,1.0,0.0,0.0,843,126,0,0,860.51,22.31,17.80,# data time:12290,pm2.5:6.445,pm10:5.704,O2:0.000,NO2:0.000,SO2:0.000,NH3:5.762
11:28:20,0,0,0,0,0,0,0,0,0,0,0,514,0,0,0,0,0.0000000,0.0000000,0.0000000,0.0000000,8.00,38.4064369,-110.7924194,1382.0000000,0.2,17.5,1.0,0.0,0.0,828,127,0,0,860.44,22.31,17.80,# data time:12290,pm2.5:6.445,pm10:5.704,O2:0.000,NO2:0.000,SO2:0.000,NH3:5.762
11:28:21,0,0,0,0,0,0,0,0,0,0,0,514,0,0,0,0,0.0000000,0.0000000,0.0000000,0.0000000,8.00,38.4064369,-110.7924194,1382.0000000,0.2,17.5,1.0,0.0,0.0,829,126,0,0,860.47,22.31,17.80,# data time:12290,pm2.5:6.445,pm10:5.704,O2:0.000,NO2:0.000,SO2:0.000,NH3:5.762
11:28:22,0,0,0,0,0,0,0,0,0,0,0,514,0,0,0,0,0.0000000,0.0000000,0.0000000,0.0000000,8.00,38.4064369,-110.7924194,1382.0999756,0.2,17.5,1.0,0.0,0.0,829,131,0,0,860.52,22.29,17.80,# data time:12290,pm2.5:6.445,pm10:5.704,O2:0.000,NO2:0.000,SO2:0.000,NH3:5.762
11:28:23,0,0,0,0,0,0,0,0,0,0,0,514,0,0,0,0,0.0000000,0.0000000,0.0000000,0.0000000,8.00,38.4064369,-110.7924347,1382.0999756,0.2,17.5,1.0,0.0,0.0,829,130,0,0,860.51,22.26,17.80,# data time:12290,pm2.5:6.445,pm10:5.704,O2:0.000,NO2:0.000,SO2:0.000,NH3:5.762
11:28:24,0,0,0,0,0,0,0,0,0,0,0,514,0,0,0,0,0.0000000,0.0000000,0.0000000,0.0000000,8.00,38.4064369,-110.7924347,1382.0999756,0.2,17.5,1.0,0.0,0.0,828,126,0,0,860.52,22.25,17.80,# data time:12290,pm2.5:6.445,pm10:5.704,O2:0.000,NO2:0.000,SO2:0.000,NH3:5.762
11:28:25,0,0,0,0,0,0,0,0,0,0,0,514,0,0,0,0,0.0000000,0.0000000,0.0000000,0.0000000,8.00,38.4064407,-110.7924347,1382.0999756,0.2,17.5,1.0,0.0,0.0,829,125,0,0,860.50,22.22,17.80,# data time:12290,pm2.5:6.445,pm10:5.704,O2:0.000,NO2:0.000,SO2:0.000,NH3:5.762
11:28:26,0,0,0,0,0,0,0,0,0,0,0,514,0,0,0,0,0.0000000,0.0000000,0.0000000,0.0000000,8.00,38.4064407,-110.7924347,1382.1999512,0.2,17.5,1.0,0.0,0.0,828,128,0,0,860.51,22.19,17.80,# data time:12290,pm2.5:6.445,pm10:5.704,O2:0.000,NO2:0.000,SO2:0.000,NH3:5.762
11:28:27,0,0,0,0,0,0,0,0,0,0,0,513,0,0,0,0,0.0000000,0.0000000,0.0000000,0.0000000,8.00,38.4064407,-110.7924347,1382.1999512,0.1,17.5,1.0,0.0,0.0,829,127,0,0,860.52,22.17,17.80,# data time:12290,pm2.5:6.445,pm10:5.704,O2:0.000,NO2:0.000,SO2:0.000,NH3:5.762
11:28:28,0,0,0,0,0,0,0,0,0,0,0,511,0,0,0,0,0.0000000,0.0000000,0.0000000,0.0000000,8.00,38.4064407,-110.7924347,1382.1999512,0.1,17.5,1.0,0.0,0.0,823,131,0,0,860.52,22.19,17.80,# data time:12290,pm2.5:6.445,pm10:5.704,O2:0.000,NO2:0.000,SO2:0.000,NH3:5.762
11:28:29,0,0,0,0,0,0,0,0,0,0,0,503,0,0,0,0,0.0000000,0.0000000,0.0000000,0.0000000,8.00,38.4064407,-110.7924347,1382.1999512,0.1,17.5,1.0,0.0,0.0,816,121,0,0,860.49,22.17,17.80,# data time:12300,pm2.5:6.445,pm10:5.704,O2:0.000,NO2:0.000,SO2:0.000,NH3:5.536
11:28:30,0,0,0,0,0,0,0,0,0,0,0,514,0,0,0,0,0.0000000,0.0000000,0.0000000,0.0000000,8.00,38.4064407,-110.7924347,1382.3000488,0.1,17.5,1.0,0.0,0.0,829,127,0,0,860.46,22.17,17.80,# data time:12300,pm2.5:6.445,pm10:5.704,O2:0.000,NO2:0.000,SO2:0.000,NH3:5.536
11:28:31,0,0,0,0,0,0,0,0,0,0,0,514,0,0,0,0,0.0000000,0.0000000,0.0000000,0.0000000,8.00,38.4064445,-110.7924347,1382.3000488,0.2,17.5,1.0,0.0,0.0,829,127,0,0,860.48,22.14,17.80,# data time:12300,pm2.5:6.445,pm10:5.704,O2:0.000,NO2:0.000,SO2:0.000,NH3:5.536
11:28:32,0,0,0,0,0,0,0,0,0,0,0,514,0,0,0,0,0.0000000,0.0000000,0.0000000,0.0000000,8.00,38.4064445,-110.7924347,1382.3000488,0.2,17.5,1.0,0.0,0.0,829,127,0,0,860.51,22.13,17.80,# data time:12300,pm2.5:6.445,pm10:5.704,O2:0.000,NO2:0.000,SO2:0.000,NH3:5.536
11:28:33,0,0,0,0,0,0,0,0,0,0,0,514,0,0,0,0,0.0000000,0.0000000,0.0000000,0.0000000,8.00,38.4064445,-110.7924347,1382.3000488,0.2,17.5,1.0,0.0,0.0,829,128,0,0,860.50,22.14,17.80,# data time:12300,pm2.5:6.445,pm10:5.704,O2:0.000,NO2:0.000,SO2:0.000,NH3:5.536
11:28:34,0,0,0,0,0,0,0,0,0,0,0,514,0,0,0,0,0.0000000,0.0000000,0.0000000,0.0000000,8.00,38.4064445,-110.7924347,1382.3000488,0.2,17.5,1.0,0.0,0.0,829,127,0,0,860.51,22.14,17.80,# data time:12300,pm2.5:6.445,pm10:5.704,O2:0.000,NO2:0.000,SO2:0.000,NH3:5.536
11:28:35,0,0,0,0,0,0,0,0,0,0,0,514,0,0,0,0,0.0000000,0.0000000,0.0000000,0.0000000,8.00,38.4064484,-110.7924347,1382.4000244,0.2,17.5,1.0,0.0,0.0,830,127,0,0,860.47,22.14,17.79,# data time:12300,pm2.5:6.445,pm10:5.704,O2:0.000,NO2:0.000,SO2:0.000,NH3:5.536
11:28:36,0,0,0,0,0,0,0,0,0,0,0,514,0,0,0,0,0.0000000,0.0000000,0.0000000,0.0000000,8.00,38.4064484,-110.7924347,1382.4000244,0.2,17.5,1.0,0.0,0.0,829,136,0,0,860.52,22.17,17.78,# data time:12300,pm2.5:6.445,pm10:5.704,O2:0.000,NO2:0.000,SO2:0.000,NH3:5.536
11:28:37,0,0,0,0,0,0,0,0,0,0,0,514,0,0,0,0,0.0000000,0.0000000,0.0000000,0.0000000,8.00,38.4064484,-110.7924347,1382.4000244,0.2,17.5,1.0,0.0,0.0,829,126,0,0,860.49,22.22,17.78,# data time:12300,pm2.5:6.445,pm10:5.704,O2:0.000,NO2:0.000,SO2:0.000,NH3:5.536
11:28:38,0,0,0,0,0,0,0,0,0,0,0,514,0,0,0,0,0.0000000,0.0000000,0.0000000,0.0000000,8.00,38.4064484,-110.7924347,1382.4000244,0.2,17.5,1.0,0.0,0.0,828,126,0,0,860.51,22.28,17.79,# data time:12300,pm2.5:6.445,pm10:5.704,O2:0.000,NO2:0.000,SO2:0.000,NH3:5.536
11:28:39,0,0,0,0,0,0,0,0,0,0,0,533,0,0,0,0,0.0000000,0.0000000,0.0000000,0.0000000,8.00,38.4064484,-110.7924500,1382.5000000,0.1,17.5,1.0,0.0,0.0,834,123,0,0,860.51,22.31,17.79,# data time:12310,pm2.5:6.445,pm10:5.704,O2:0.000,NO2:0.000,SO2:0.000,NH3:5.536
11:28:40,0,0,0,0,0,0,0,0,0,0,0,515,0,0,0,0,0.0000000,0.0000000,0.0000000,0.0000000,8.00,38.4064484,-110.7924500,1382.5000000,0.1,17.5,1.0,0.0,0.0,827,128,0,0,860.48,22.34,17.80,# data time:12310,pm2.5:6.445,pm10:5.704,O2:0.000,NO2:0.000,SO2:0.000,NH3:5.536
11:28:41,0,0,0,0,0,0,0,0,0,0,0,514,0,0,0,0,0.0000000,0.0000000,0.0000000,0.0000000,8.00,38.4064484,-110.7924500,1382.5000000,0.1,17.5,1.0,0.0,0.0,829,126,0,0,860.48,22.35,17.80,# data time:12310,pm2.5:6.445,pm10:5.704,O2:0.000,NO2:0.000,SO2:0.000,NH3:5.536
11:28:42,0,0,0,0,0,0,0,0,0,0,0,514,0,0,0,0,0.0000000,0.0000000,0.0000000,0.0000000,8.00,38.4064484,-110.7924500,1382.5000000,0.1,17.5,1.0,0.0,0.0,829,127,0,0,860.50,22.42,17.80,# data time:12310,pm2.5:6.445,pm10:5.704,O2:0.000,NO2:0.000,SO2:0.000,NH3:5.536
11:28:43,0,0,0,0,0,0,0,0,0,0,0,514,0,0,0,0,0.0000000,0.0000000,0.0000000,0.0000000,8.00,38.4064484,-110.7924500,1382.5999756,0.1,17.5,1.0,0.0,0.0,829,127,0,0,860.48,22.48,17.80,# data time:12310,pm2.5:6.445,pm10:5.704,O2:0.000,NO2:0.000,SO2:0.000,NH3:5.536
11:28:44,0,0,0,0,0,0,0,0,0,0,0,514,0,0,0,0,0.0000000,0.0000000,0.0000000,0.0000000,8.00,38.4064522,-110.7924500,1382.5999756,0.1,17.5,1.0,0.0,0.0,829,128,0,0,860.48,22.49,17.79,# data time:12310,pm2.5:6.445,pm10:5.704,O2:0.000,NO2:0.000,SO2:0.000,NH3:5.536
11:28:45,0,0,0,0,0,0,0,0,0,0,0,514,0,0,0,0,0.0000000,0.0000000,0.0000000,0.0000000,8.00,38.4064522,-110.7924500,1382.5999756,0.1,17.5,1.0,0.0,0.0,829,127,0,0,860.52,22.51,17.80,# data time:12310,pm2.5:6.445,pm10:5.704,O2:0.000,NO2:0.000,SO2:0.000,NH3:5.536
11:28:46,0,0,0,0,0,0,0,0,0,0,0,514,0,0,0,0,0.0000000,0.0000000,0.0000000,0.0000000,8.00,38.4064522,-110.7924500,1382.5999756,0.1,17.5,1.0,0.0,0.0,828,128,0,0,860.48,22.52,17.80,# data time:12310,pm2.5:6.445,pm10:5.704,O2:0.000,NO2:0.000,SO2:0.000,NH3:5.536
11:28:47,0,0,0,0,0,0,0,0,0,0,0,514,0,0,0,0,0.0000000,0.0000000,0.0000000,0.0000000,8.00,38.4064522,-110.7924500,1382.5999756,0.1,17.5,1.0,0.0,0.0,828,127,0,0,860.45,22.52,17.71,# data time:12310,pm2.5:6.445,pm10:5.704,O2:0.000,NO2:0.000,SO2:0.000,NH3:5.536
11:28:48,0,0,0,0,0,0,0,0,0,0,0,513,0,0,0,0,0.0000000,0.0000000,0.0000000,0.0000000,8.00,38.4064522,-110.7924500,1382.6999512,0.1,17.5,1.0,0.0,0.0,828,128,0,0,860.46,22.55,17.71,# data time:12310,pm2.5:6.445,pm10:5.704,O2:0.000,NO2:0.000,SO2:0.000,NH3:5.536
11:28:49,0,0,0,0,0,0,0,0,0,0,0,496,0,0,0,0,0.0000000,0.0000000,0.0000000,0.0000000,8.00,38.4064522,-110.7924500,1382.6999512,0.1,17.5,1.0,0.0,0.0,821,128,0,0,860.49,22.57,17.71,# data time:12320,pm2.5:6.445,pm10:5.704,O2:0.000,NO2:0.000,SO2:0.000,NH3:5.536
11:28:50,0,0,0,0,0,0,0,0,0,0,0,509,0,0,0,0,0.0000000,0.0000000,0.0000000,0.0000000,8.00,38.4064522,-110.7924500,1382.6999512,0.1,17.5,1.0,0.0,0.0,839,132,0,0,860.47,22.57,17.76,# data time:12320,pm2.5:6.445,pm10:5.704,O2:0.000,NO2:0.000,SO2:0.000,NH3:5.536
11:28:51,0,0,0,0,0,0,0,0,0,0,0,519,0,0,0,0,0.0000000,0.0000000,0.0000000,0.0000000,8.00,38.4064484,-110.7924500,1382.8000488,0.1,17.5,1.0,0.0,0.0,831,131,0,0,860.49,22.57,17.76,# data time:12320,pm2.5:6.445,pm10:5.704,O2:0.000,NO2:0.000,SO2:0.000,NH3:5.536
11:28:52,0,0,0,0,0,0,0,0,0,0,0,513,0,0,0,0,0.0000000,0.0000000,0.0000000,0.0000000,8.00,38.4064484,-110.7924500,1382.8000488,0.1,17.5,1.0,0.0,0.0,828,125,0,0,860.46,22.63,17.80,# data time:12320,pm2.5:6.445,pm10:5.704,O2:0.000,NO2:0.000,SO2:0.000,NH3:5.536
11:28:53,0,0,0,0,0,0,0,0,0,0,0,514,0,0,0,0,0.0000000,0.0000000,0.0000000,0.0000000,8.00,38.4064484,-110.7924500,1382.8000488,0.1,17.5,1.0,0.0,0.0,829,129,0,0,860.45,22.64,17.80,# data time:12320,pm2.5:6.445,pm10:5.704,O2:0.000,NO2:0.000,SO2:0.000,NH3:5.536
11:28:54,0,0,0,0,0,0,0,0,0,0,0,514,0,0,0,0,0.0000000,0.0000000,0.0000000,0.0000000,8.00,38.4064484,-110.7924500,1382.8000488,0.1,17.5,1.0,0.0,0.0,829,126,0,0,860.50,22.66,17.80,# data time:12320,pm2.5:6.445,pm10:5.704,O2:0.000,NO2:0.000,SO2:0.000,NH3:5.536
11:28:56,0,0,0,0,0,0,0,0,0,0,0,514,0,0,0,0,0.0000000,0.0000000,0.0000000,0.0000000,8.00,38.4064484,-110.7924500,1382.9000244,0.1,17.5,1.0,0.0,0.0,829,128,0,0,860.47,22.61,17.80,# data time:12320,pm2.5:6.445,pm10:5.704,O2:0.000,NO2:0.000,SO2:0.000,NH3:5.536
11:28:57,0,0,0,0,0,0,0,0,0,0,0,514,0,0,0,0,0.0000000,0.0000000,0.0000000,0.0000000,8.00,38.4064484,-110.7924500,1382.9000244,0.1,17.5,1.0,0.0,0.0,829,126,0,0,860.46,22.63,17.80,# data time:12320,pm2.5:6.445,pm10:5.704,O2:0.000,NO2:0.000,SO2:0.000,NH3:5.536
11:28:58,0,0,0,0,0,0,0,0,0,0,0,515,0,0,0,0,0.0000000,0.0000000,0.0000000,0.0000000,8.00,38.4064484,-110.7924500,1382.9000244,0.1,17.5,1.0,0.0,0.0,829,125,0,0,860.48,22.63,17.81,# data time:12320,pm2.5:6.445,pm10:5.704,O2:0.000,NO2:0.000,SO2:0.000,NH3:5.536
11:28:59,0,0,0,0,0,0,0,0,0,0,0,514,0,0,0,0,0.0000000,0.0000000,0.0000000,0.0000000,8.00,38.4064484,-110.7924576,1382.9000244,0.1,17.5,1.0,0.0,0.0,828,126,0,0,860.47,22.64,17.80,# data time:12320,pm2.5:6.445,pm10:5.704,O2:0.000,NO2:0.000,SO2:0.000,NH3:5.536
11:29:00,0,0,0,0,0,0,0,0,0,0,0,526,0,0,0,0,0.0000000,0.0000000,0.0000000,0.0000000,8.00,38.4064484,-110.7924576,1383.0000000,0.1,17.5,1.0,0.0,0.0,828,137,0,0,860.51,22.68,17.81,# data time:12330,pm2.5:5.640,pm10:4.991,O2:0.000,NO2:0.000,SO2:0.000,NH3:5.536
11:29:01,0,0,0,0,0,0,0,0,0,0,0,514,0,0,0,0,0.0000000,0.0000000,0.0000000,0.0000000,8.00,38.4064484,-110.7924576,1383.0000000,0.1,17.5,1.0,0.0,0.0,829,126,0,0,860.46,22.69,17.81,# data time:12330,pm2.5:5.640,pm10:4.991,O2:0.000,NO2:0.000,SO2:0.000,NH3:5.536
11:29:02,0,0,0,0,0,0,0,0,0,0,0,515,0,0,0,0,0.0000000,0.0000000,0.0000000,0.0000000,8.00,38.4064484,-110.7924576,1383.0000000,0.1,17.5,1.0,0.0,0.0,829,128,0,0,860.48,22.72,17.81,# data time:12330,pm2.5:5.640,pm10:4.991,O2:0.000,NO2:0.000,SO2:0.000,NH3:5.536
11:29:03,0,0,0,0,0,0,0,0,0,0,0,514,0,0,0,0,0.0000000,0.0000000,0.0000000,0.0000000,8.00,38.4064484,-110.7924576,1383.0000000,0.1,17.5,1.0,0.0,0.0,828,127,0,0,860.48,22.74,17.81,# data time:12330,pm2.5:5.640,pm10:4.991,O2:0.000,NO2:0.000,SO2:0.000,NH3:5.536
11:29:04,0,0,0,0,0,0,0,0,0,0,0,501,0,0,0,0,0.0000000,0.0000000,0.0000000,0.0000000,8.00,38.4064484,-110.7924576,1383.0000000,0.0,17.5,1.0,0.0,0.0,834,133,0,0,860.45,22.75,17.81,# data time:12330,pm2.5:5.640,pm10:4.991,O2:0.000,NO2:0.000,SO2:0.000,NH3:5.536
11:29:05,0,0,0,0,0,0,0,0,0,0,0,513,0,0,0,0,0.0000000,0.0000000,0.0000000,0.0000000,8.00,38.4064484,-110.7924576,1383.0999756,0.0,17.5,1.0,0.0,0.0,829,120,0,0,860.50,22.75,17.81,# data time:12330,pm2.5:5.640,pm10:4.991,O2:0.000,NO2:0.000,SO2:0.000,NH3:5.536
11:29:06,0,0,0,0,0,0,0,0,0,0,0,505,0,0,0,0,0.0000000,0.0000000,0.0000000,0.0000000,8.00,38.4064484,-110.7924576,1383.0999756,0.0,17.5,1.0,0.0,0.0,828,131,0,0,860.49,22.78,17.81,# data time:12330,pm2.5:5.640,pm10:4.991,O2:0.000,NO2:0.000,SO2:0.000,NH3:5.536
11:29:07,0,0,0,0,0,0,0,0,0,0,0,513,0,0,0,0,0.0000000,0.0000000,0.0000000,0.0000000,8.00,38.4064484,-110.7924576,1383.0999756,0.0,17.5,1.0,0.0,0.0,834,135,0,0,860.44,22.75,17.82,# data time:12330,pm2.5:5.640,pm10:4.991,O2:0.000,NO2:0.000,SO2:0.000,NH3:5.536
11:29:08,0,0,0,0,0,0,0,0,0,0,0,513,0,0,0,0,0.0000000,0.0000000,0.0000000,0.0000000,8.00,38.4064484,-110.7924576,1383.0999756,0.1,17.5,1.0,0.0,0.0,828,143,0,0,860.45,22.69,17.82,# data time:12330,pm2.5:5.640,pm10:4.991,O2:0.000,NO2:0.000,SO2:0.000,NH3:5.536
11:29:09,0,0,0,0,0,0,0,0,0,0,0,515,0,0,0,0,0.0000000,0.0000000,0.0000000,0.0000000,8.00,38.4064484,-110.7924576,1383.1999512,0.1,17.5,1.0,0.0,0.0,828,125,0,0,860.47,22.71,17.82,# data time:12340,pm2.5:6.445,pm10:5.704,O2:0.000,NO2:0.000,SO2:0.000,NH3:5.536
11:29:10,0,0,0,0,0,0,0,0,0,0,0,514,0,0,0,0,0.0000000,0.0000000,0.0000000,0.0000000,8.00,38.4064484,-110.7924576,1383.1999512,0.1,17.5,1.0,0.0,0.0,829,127,0,0,860.46,22.64,17.82,# data time:12340,pm2.5:6.445,pm10:5.704,O2:0.000,NO2:0.000,SO2:0.000,NH3:5.536
11:29:11,0,0,0,0,0,0,0,0,0,0,0,514,0,0,0,0,0.0000000,0.0000000,0.0000000,0.0000000,8.00,38.4064484,-110.7924576,1383.1999512,0.1,17.5,1.0,0.0,0.0,829,129,0,0,860.46,22.61,17.82,# data time:12340,pm2.5:6.445,pm10:5.704,O2:0.000,NO2:0.000,SO2:0.000,NH3:5.536
11:29:12,0,0,0,0,0,0,0,0,0,0,0,514,0,0,0,0,0.0000000,0.0000000,0.0000000,0.0000000,8.00,38.4064484,-110.7924576,1383.1999512,0.1,17.5,1.0,0.0,0.0,828,125,0,0,860.46,22.60,17.82,# data time:12340,pm2.5:6.445,pm10:5.704,O2:0.000,NO2:0.000,SO2:0.000,NH3:5.536
11:29:13,0,0,0,0,0,0,0,0,0,0,0,514,0,0,0,0,0.0000000,0.0000000,0.0000000,0.0000000,8.00,38.4064484,-110.7924576,1383.1999512,0.0,17.5,1.0,0.0,0.0,828,127,0,0,860.49,22.58,17.82,# data time:12340,pm2.5:6.445,pm10:5.704,O2:0.000,NO2:0.000,SO2:0.000,NH3:5.536
11:29:14,0,0,0,0,0,0,0,0,0,0,0,514,0,0,0,0,0.0000000,0.0000000,0.0000000,0.0000000,8.00,38.4064484,-110.7924576,1383.3000488,0.0,17.5,1.0,0.0,0.0,829,127,0,0,860.42,22.57,17.82,# data time:12340,pm2.5:6.445,pm10:5.704,O2:0.000,NO2:0.000,SO2:0.000,NH3:5.536
11:29:15,0,0,0,0,0,0,0,0,0,0,0,514,0,0,0,0,0.0000000,0.0000000,0.0000000,0.0000000,8.00,38.4064484,-110.7924576,1383.3000488,0.1,17.5,1.0,0.0,0.0,828,131,0,0,860.48,22.55,17.82,# data time:12340,pm2.5:6.445,pm10:5.704,O2:0.000,NO2:0.000,SO2:0.000,NH3:5.536
11:29:16,0,0,0,0,0,0,0,0,0,0,0,514,0,0,0,0,0.0000000,0.0000000,0.0000000,0.0000000,8.00,38.4064484,-110.7924576,1383.3000488,0.0,17.5,1.0,0.0,0.0,828,128,0,0,860.45,22.57,17.83,# data time:12340,pm2.5:6.445,pm10:5.704,O2:0.000,NO2:0.000,SO2:0.000,NH3:5.536
11:29:17,0,0,0,0,0,0,0,0,0,0,0,514,0,0,0,0,0.0000000,0.0000000,0.0000000,0.0000000,8.00,38.4064484,-110.7924576,1383.3000488,0.0,17.5,1.0,0.0,0.0,829,127,0,0,860.46,22.55,17.82,# data time:12340,pm2.5:6.445,pm10:5.704,O2:0.000,NO2:0.000,SO2:0.000,NH3:5.536
11:29:18,0,0,0,0,0,0,0,0,0,0,0,514,0,0,0,0,0.0000000,0.0000000,0.0000000,0.0000000,8.00,38.4064484,-110.7924576,1383.3000488,0.0,17.5,1.0,0.0,0.0,828,128,0,0,860.45,22.52,17.82,# data time:12340,pm2.5:6.445,pm10:5.704,O2:0.000,NO2:0.000,SO2:0.000,NH3:5.536
11:29:19,0,0,0,0,0,0,0,0,0,0,0,514,0,0,0,0,0.0000000,0.0000000,0.0000000,0.0000000,8.00,38.4064484,-110.7924576,1383.3000488,0.0,17.5,1.0,0.0,0.0,829,127,0,0,860.42,22.49,17.82,# data time:12350,pm2.5:6.445,pm10:5.704,O2:0.000,NO2:0.000,SO2:0.000,NH3:5.536
11:29:20,0,0,0,0,0,0,0,0,0,0,0,513,0,0,0,0,0.0000000,0.0000000,0.0000000,0.0000000,8.00,38.4064484,-110.7924576,1383.3000488,0.0,17.5,1.0,0.0,0.0,832,114,0,0,860.48,22.49,17.83,# data time:12350,pm2.5:6.445,pm10:5.704,O2:0.000,NO2:0.000,SO2:0.000,NH3:5.536
11:29:21,0,0,0,0,0,0,0,0,0,0,0,508,0,0,0,0,0.0000000,0.0000000,0.0000000,0.0000000,8.00,38.4064484,-110.7924576,1383.3000488,0.0,17.5,1.0,0.0,0.0,829,116,0,0,860.42,22.49,17.83,# data time:12350,pm2.5:6.445,pm10:5.704,O2:0.000,NO2:0.000,SO2:0.000,NH3:5.536
11:29:22,0,0,0,0,0,0,0,0,0,0,0,514,0,0,0,0,0.0000000,0.0000000,0.0000000,0.0000000,8.00,38.4064484,-110.7924576,1383.3000488,0.0,17.5,1.0,0.0,0.0,828,112,0,0,860.47,22.48,17.83,# data time:12350,pm2.5:6.445,pm10:5.704,O2:0.000,NO2:0.000,SO2:0.000,NH3:5.536
11:29:23,0,0,0,0,0,0,0,0,0,0,0,518,0,0,0,0,0.0000000,0.0000000,0.0000000,0.0000000,8.00,38.4064484,-110.7924576,1383.3000488,0.0,17.5,1.0,0.0,0.0,829,128,0,0,860.46,22.48,17.83,# data time:12350,pm2.5:6.445,pm10:5.704,O2:0.000,NO2:0.000,SO2:0.000,NH3:5.536
11:29:24,0,0,0,0,0,0,0,0,0,0,0,515,0,0,0,0,0.0000000,0.0000000,0.0000000,0.0000000,8.00,38.4064484,-110.7924576,1383.3000488,0.0,17.5,1.0,0.0,0.0,832,134,0,0,860.48,22.48,17.83,# data time:12350,pm2.5:6.445,pm10:5.704,O2:0.000,NO2:0.000,SO2:0.000,NH3:5.536
11:29:25,0,0,0,0,0,0,0,0,0,0,0,514,0,0,0,0,0.0000000,0.0000000,0.0000000,0.0000000,8.00,38.4064484,-110.7924576,1383.3000488,0.0,17.5,1.0,0.0,0.0,828,128,0,0,860.48,22.49,17.83,# data time:12350,pm2.5:6.445,pm10:5.704,O2:0.000,NO2:0.000,SO2:0.000,NH3:5.536
11:29:26,0,0,0,0,0,0,0,0,0,0,0,514,0,0,0,0,0.0000000,0.0000000,0.0000000,0.0000000,8.00,38.4064484,-110.7924576,1383.3000488,0.0,17.5,1.0,0.0,0.0,829,126,0,0,860.45,22.45,17.83,# data time:12350,pm2.5:6.445,pm10:5.704,O2:0.000,NO2:0.000,SO2:0.000,NH3:5.536
11:29:27,0,0,0,0,0,0,0,0,0,0,0,513,0,0,0,0,0.0000000,0.0000000,0.0000000,0.0000000,8.00,38.4064484,-110.7924576,1383.3000488,0.0,17.5,1.0,0.0,0.0,828,126,0,0,860.51,22.45,17.83,# data time:12350,pm2.5:6.445,pm10:5.704,O2:0.000,NO2:0.000,SO2:0.000,NH3:5.536
11:29:28,0,0,0,0,0,0,0,0,0,0,0,513,0,0,0,0,0.0000000,0.0000000,0.0000000,0.0000000,8.00,38.4064484,-110.7924576,1383.3000488,0.0,17.5,1.0,0.0,0.0,829,126,0,0,860.51,22.45,17.83,# data time:12350,pm2.5:6.445,pm10:5.704,O2:0.000,NO2:0.000,SO2:0.000,NH3:5.536
11:29:29,0,0,0,0,0,0,0,0,0,0,0,515,0,0,0,0,0.0000000,0.0000000,0.0000000,0.0000000,8.00,38.4064484,-110.7924576,1383.3000488,0.0,17.5,1.0,0.0,0.0,828,129,0,0,860.50,22.45,17.84,# data time:12360,pm2.5:5.640,pm10:4.991,O2:0.000,NO2:0.000,SO2:0.000,NH3:5.536
11:29:30,0,0,0,0,0,0,0,0,0,0,0,514,0,0,0,0,0.0000000,0.0000000,0.0000000,0.0000000,8.00,38.4064484,-110.7924576,1383.3000488,0.0,17.5,1.0,0.0,0.0,828,128,0,0,860.49,22.48,17.84,# data time:12360,pm2.5:5.640,pm10:4.991,O2:0.000,NO2:0.000,SO2:0.000,NH3:5.536
11:29:31,0,0,0,0,0,0,0,0,0,0,0,514,0,0,0,0,0.0000000,0.0000000,0.0000000,0.0000000,8.00,38.4064484,-110.7924576,1383.3000488,0.0,17.5,1.0,0.0,0.0,829,126,0,0,860.49,22.48,17.84,# data time:12360,pm2.5:5.640,pm10:4.991,O2:0.000,NO2:0.000,SO2:0.000,NH3:5.536
11:29:32,0,0,0,0,0,0,0,0,0,0,0,514,0,0,0,0,0.0000000,0.0000000,0.0000000,0.0000000,8.00,38.4064484,-110.7924576,1383.3000488,0.0,17.5,1.0,0.0,0.0,828,127,0,0,860.49,22.45,17.84,# data time:12360,pm2.5:5.640,pm10:4.991,O2:0.000,NO2:0.000,SO2:0.000,NH3:5.536
11:29:33,0,0,0,0,0,0,0,0,0,0,0,515,0,0,0,0,0.0000000,0.0000000,0.0000000,0.0000000,8.00,38.4064484,-110.7924576,1383.3000488,0.0,17.5,1.0,0.0,0.0,819,139,0,0,860.51,22.43,17.84,# data time:12360,pm2.5:5.640,pm10:4.991,O2:0.000,NO2:0.000,SO2:0.000,NH3:5.536
11:29:34,0,0,0,0,0,0,0,0,0,0,0,512,0,0,0,0,0.0000000,0.0000000,0.0000000,0.0000000,8.00,38.4064484,-110.7924576,1383.3000488,0.0,17.5,1.0,0.0,0.0,827,116,0,0,860.45,22.43,17.84,# data time:12360,pm2.5:5.640,pm10:4.991,O2:0.000,NO2:0.000,SO2:0.000,NH3:5.536
11:29:35,0,0,0,0,0,0,0,0,0,0,0,527,0,0,0,0,0.0000000,0.0000000,0.0000000,0.0000000,8.00,38.4064484,-110.7924576,1383.3000488,0.0,17.5,1.0,0.0,0.0,836,127,0,0,860.52,22.48,17.84,# data time:12360,pm2.5:5.640,pm10:4.991,O2:0.000,NO2:0.000,SO2:0.000,NH3:5.536
11:29:36,0,0,0,0,0,0,0,0,0,0,0,529,0,0,0,0,0.0000000,0.0000000,0.0000000,0.0000000,8.00,38.4064484,-110.7924576,1383.3000488,0.0,17.5,1.0,0.0,0.0,837,121,0,0,860.52,22.48,17.85,# data time:12360,pm2.5:5.640,pm10:4.991,O2:0.000,NO2:0.000,SO2:0.000,NH3:5.536
