Time, Motor A Speed, Motor A Dir, Motor B Speed, Motor B Dir, Servo Rail Current Sensor, Servo Pos - Arm L, Servo Pos - Arm R, Servo Pos - End, Servo Pos - Hopper, Servo Pos - Lid, Servo Pos - Extra, Servo Current, LED - Front L, LED - Front R, LED - Back L, LED - Back R, IMU Pitch, IMU Roll, IMU Yaw, Compass Heading, GPS Sats, GPS Latitude, GPS Longitude, GPS Altitude, GPS Speed, GPS Angle, GPS HDOP, GPS VDOP, GPS PDOP, Battery, Wind, Comm Xbee Latency, Comm Arduino Latency, Pressure, Humidity, Temperature, uRADMonitor
8:18:39,0,0,0,0,0,0,0,0,0,0,0,514,0,0,0,0,0.0000000,0.0000000,0.0000000,0.0000000,11.00,38.4064636,-110.7919846,1372.6999512,0.0,212.6,0.8,0.0,0.0,866,128,0,0,860.08,26.06,15.81,# data time:900,pm2.5:6.445,pm10:5.704,O2:0.000,NO2:0.000,SO2:0.000,NH3:5.083
8:18:40,0,0,0,0,0,0,0,0,0,0,0,514,0,0,0,0,0.0000000,0.0000000,0.0000000,0.0000000,11.00,38.4064636,-110.7919846,1372.6999512,0.1,227.5,0.8,0.0,0.0,867,131,0,0,860.06,25.99,15.80,# data time:900,pm2.5:6.445,pm10:5.704,O2:0.000,NO2:0.000,SO2:0.000,NH3:5.083
8:18:41,0,0,0,0,0,0,0,0,0,0,0,512,0,0,0,0,0.0000000,0.0000000,0.0000000,0.0000000,11.00,38.4064636,-110.7919846,1372.6999512,0.0,230.7,0.8,0.0,0.0,867,129,0,0,860.07,26.15,15.80,# data time:900,pm2.5:6.445,pm10:5.704,O2:0.000,NO2:0.000,SO2:0.000,NH3:5.083
8:18:42,0,0,0,0,0,0,0,0,0,0,0,514,0,0,0,0,0.0000000,0.0000000,0.0000000,0.0000000,11.00,38.4064636,-110.7919846,1372.6999512,0.0,181.4,0.8,0.0,0.0,867,128,0,0,860.06,26.40,15.79,# data time:900,pm2.5:6.445,pm10:5.704,O2:0.000,NO2:0.000,SO2:0.000,NH3:5.083
8:18:43,0,0,0,0,0,0,0,0,0,0,0,515,0,0,0,0,0.0000000,0.0000000,0.0000000,0.0000000,11.00,38.4064636,-110.7919846,1372.6999512,0.0,280.0,0.8,0.0,0.0,867,136,0,0,860.02,26.84,15.80,# data time:900,pm2.5:6.445,pm10:5.704,O2:0.000,NO2:0.000,SO2:0.000,NH3:5.083
8:18:44,0,0,0,0,0,0,0,0,0,0,0,514,0,0,0,0,0.0000000,0.0000000,0.0000000,0.0000000,11.00,38.4064636,-110.7919846,1372.6999512,0.0,235.8,0.8,0.0,0.0,867,125,0,0,860.04,27.71,15.80,# data time:900,pm2.5:6.445,pm10:5.704,O2:0.000,NO2:0.000,SO2:0.000,NH3:5.083
8:18:45,0,0,0,0,0,0,0,0,0,0,0,515,0,0,0,0,0.0000000,0.0000000,0.0000000,0.0000000,11.00,38.4064636,-110.7919846,1372.6999512,0.0,233.5,0.8,0.0,0.0,867,127,0,0,860.05,28.49,15.82,# data time:900,pm2.5:6.445,pm10:5.704,O2:0.000,NO2:0.000,SO2:0.000,NH3:5.083
8:18:46,0,0,0,0,0,0,0,0,0,0,0,514,0,0,0,0,0.0000000,0.0000000,0.0000000,0.0000000,11.00,38.4064636,-110.7919846,1372.6999512,0.0,233.5,0.8,0.0,0.0,868,125,0,0,860.01,29.43,15.72,# data time:910,pm2.5:6.445,pm10:5.704,O2:0.000,NO2:0.000,SO2:0.000,NH3:5.083
8:18:47,0,0,0,0,0,0,0,0,0,0,0,514,0,0,0,0,0.0000000,0.0000000,0.0000000,0.0000000,11.00,38.4064598,-110.7919846,1372.6999512,0.0,179.6,0.8,0.0,0.0,867,128,0,0,860.06,31.14,15.84,# data time:910,pm2.5:6.445,pm10:5.704,O2:0.000,NO2:0.000,SO2:0.000,NH3:5.083
8:18:48,0,0,0,0,0,0,0,0,0,0,0,514,0,0,0,0,0.0000000,0.0000000,0.0000000,0.0000000,11.00,38.4064598,-110.7919846,1372.6999512,0.0,127.5,0.8,0.0,0.0,867,128,0,0,860.06,32.06,15.85,# data time:910,pm2.5:6.445,pm10:5.704,O2:0.000,NO2:0.000,SO2:0.000,NH3:5.083
8:18:49,0,0,0,0,0,0,0,0,0,0,0,514,0,0,0,0,0.0000000,0.0000000,0.0000000,0.0000000,11.00,38.4064598,-110.7919846,1372.6999512,0.0,185.6,0.8,0.0,0.0,867,126,0,0,860.03,32.93,15.86,# data time:910,pm2.5:6.445,pm10:5.704,O2:0.000,NO2:0.000,SO2:0.000,NH3:5.083
8:18:50,0,0,0,0,0,0,0,0,0,0,0,514,0,0,0,0,0.0000000,0.0000000,0.0000000,0.0000000,11.00,38.4064598,-110.7919846,1372.6999512,0.0,113.0,0.8,0.0,0.0,867,124,0,0,860.04,33.22,15.87,# data time:910,pm2.5:6.445,pm10:5.704,O2:0.000,NO2:0.000,SO2:0.000,NH3:5.083
8:18:51,0,0,0,0,0,0,0,0,0,0,0,514,0,0,0,0,0.0000000,0.0000000,0.0000000,0.0000000,11.00,38.4064598,-110.7919846,1372.6999512,0.0,181.0,0.8,0.0,0.0,867,128,0,0,860.06,33.36,15.86,# data time:910,pm2.5:6.445,pm10:5.704,O2:0.000,NO2:0.000,SO2:0.000,NH3:5.083
8:18:52,0,0,0,0,0,0,0,0,0,0,0,514,0,0,0,0,0.0000000,0.0000000,0.0000000,0.0000000,11.00,38.4064598,-110.7919846,1372.6999512,0.0,164.2,0.8,0.0,0.0,867,126,0,0,860.04,33.81,15.88,# data time:910,pm2.5:6.445,pm10:5.704,O2:0.000,NO2:0.000,SO2:0.000,NH3:5.083
8:18:53,0,0,0,0,0,0,0,0,0,0,0,514,0,0,0,0,0.0000000,0.0000000,0.0000000,0.0000000,11.00,38.4064598,-110.7919846,1372.6999512,0.1,220.3,0.8,0.0,0.0,867,129,0,0,860.01,34.35,15.89,# data time:910,pm2.5:6.445,pm10:5.704,O2:0.000,NO2:0.000,SO2:0.000,NH3:5.083
8:18:54,0,0,0,0,0,0,0,0,0,0,0,517,0,0,0,0,0.0000000,0.0000000,0.0000000,0.0000000,11.00,38.4064598,-110.7919846,1372.6999512,0.1,204.6,0.8,0.0,0.0,866,125,0,0,860.06,34.42,15.89,# data time:910,pm2.5:6.445,pm10:5.704,O2:0.000,NO2:0.000,SO2:0.000,NH3:5.083
8:18:55,0,0,0,0,0,0,0,0,0,0,0,512,0,0,0,0,0.0000000,0.0000000,0.0000000,0.0000000,11.00,38.4064598,-110.7919846,1372.6999512,0.1,181.6,0.8,0.0,0.0,870,151,0,0,860.07,34.33,15.89,# data time:910,pm2.5:6.445,pm10:5.704,O2:0.000,NO2:0.000,SO2:0.000,NH3:5.083
8:18:56,0,0,0,0,0,0,0,0,0,0,0,517,0,0,0,0,0.0000000,0.0000000,0.0000000,0.0000000,11.00,38.4064598,-110.7919846,1372.6999512,0.1,181.6,0.8,0.0,0.0,870,135,0,0,859.99,34.52,15.80,# data time:920,pm2.5:5.640,pm10:4.991,O2:0.000,NO2:0.063,SO2:0.000,NH3:5.309
8:18:57,0,0,0,0,0,0,0,0,0,0,0,513,0,0,0,0,0.0000000,0.0000000,0.0000000,0.0000000,11.00,38.4064598,-110.7919846,1372.6999512,0.0,162.6,0.8,0.0,0.0,867,126,0,0,860.05,34.87,15.90,# data time:920,pm2.5:5.640,pm10:4.991,O2:0.000,NO2:0.063,SO2:0.000,NH3:5.309
8:18:58,0,0,0,0,0,0,0,0,0,0,0,514,0,0,0,0,0.0000000,0.0000000,0.0000000,0.0000000,11.00,38.4064598,-110.7919846,1372.6999512,0.0,224.9,0.8,0.0,0.0,867,130,0,0,860.04,34.87,15.91,# data time:920,pm2.5:5.640,pm10:4.991,O2:0.000,NO2:0.063,SO2:0.000,NH3:5.309
8:18:59,0,0,0,0,0,0,0,0,0,0,0,513,0,0,0,0,0.0000000,0.0000000,0.0000000,0.0000000,11.00,38.4064598,-110.7919846,1372.6999512,0.0,165.9,0.8,0.0,0.0,867,131,0,0,860.05,35.10,15.92,# data time:920,pm2.5:5.640,pm10:4.991,O2:0.000,NO2:0.063,SO2:0.000,NH3:5.309
8:19:00,0,0,0,0,0,0,0,0,0,0,0,505,0,0,0,0,0.0000000,0.0000000,0.0000000,0.0000000,11.00,38.4064598,-110.7919846,1372.6999512,0.0,176.9,0.8,0.0,0.0,866,152,0,0,860.06,35.46,15.93,# data time:920,pm2.5:5.640,pm10:4.991,O2:0.000,NO2:0.063,SO2:0.000,NH3:5.309
8:19:01,0,0,0,0,0,0,0,0,0,0,0,512,0,0,0,0,0.0000000,0.0000000,0.0000000,0.0000000,10.00,38.4064598,-110.7919846,1372.6999512,0.0,172.5,0.9,0.0,0.0,862,144,0,0,860.04,35.60,15.94,# data time:920,pm2.5:5.640,pm10:4.991,O2:0.000,NO2:0.063,SO2:0.000,NH3:5.309
8:19:02,0,0,0,0,0,0,0,0,0,0,0,514,0,0,0,0,0.0000000,0.0000000,0.0000000,0.0000000,11.00,38.4064598,-110.7919846,1372.6999512,0.0,267.2,0.8,0.0,0.0,867,128,0,0,860.08,35.78,15.96,# data time:920,pm2.5:5.640,pm10:4.991,O2:0.000,NO2:0.063,SO2:0.000,NH3:5.309
8:19:03,0,0,0,0,0,0,0,0,0,0,0,514,0,0,0,0,0.0000000,0.0000000,0.0000000,0.0000000,11.00,38.4064598,-110.7919846,1372.6999512,0.0,229.5,0.8,0.0,0.0,867,130,0,0,860.02,36.00,15.96,# data time:920,pm2.5:5.640,pm10:4.991,O2:0.000,NO2:0.063,SO2:0.000,NH3:5.309
8:19:04,0,0,0,0,0,0,0,0,0,0,0,514,0,0,0,0,0.0000000,0.0000000,0.0000000,0.0000000,11.00,38.4064598,-110.7919846,1372.6999512,0.0,197.1,0.8,0.0,0.0,865,137,0,0,860.06,36.15,15.97,# data time:920,pm2.5:5.640,pm10:4.991,O2:0.000,NO2:0.063,SO2:0.000,NH3:5.309
8:19:05,0,0,0,0,0,0,0,0,0,0,0,521,0,0,0,0,0.0000000,0.0000000,0.0000000,0.0000000,11.00,38.4064598,-110.7919846,1372.6999512,0.0,154.5,0.8,0.0,0.0,865,140,0,0,860.07,35.98,15.98,# data time:920,pm2.5:5.640,pm10:4.991,O2:0.000,NO2:0.063,SO2:0.000,NH3:5.309
8:19:06,0,0,0,0,0,0,0,0,0,0,0,514,0,0,0,0,0.0000000,0.0000000,0.0000000,0.0000000,11.00,38.4064598,-110.7919846,1372.6999512,0.0,154.5,0.8,0.0,0.0,867,126,0,0,860.03,35.90,15.89,# data time:930,pm2.5:6.445,pm10:5.704,O2:0.000,NO2:0.000,SO2:0.000,NH3:5.988
8:19:07,0,0,0,0,0,0,0,0,0,0,0,514,0,0,0,0,0.0000000,0.0000000,0.0000000,0.0000000,11.00,38.4064598,-110.7919846,1372.6999512,0.0,282.4,0.8,0.0,0.0,866,129,0,0,860.03,35.63,15.95,# data time:930,pm2.5:6.445,pm10:5.704,O2:0.000,NO2:0.000,SO2:0.000,NH3:5.988
8:19:08,0,0,0,0,0,0,0,0,0,0,0,517,0,0,0,0,0.0000000,0.0000000,0.0000000,0.0000000,11.00,38.4064598,-110.7919846,1372.6999512,0.0,359.4,0.8,0.0,0.0,867,133,0,0,860.09,35.63,15.99,# data time:930,pm2.5:6.445,pm10:5.704,O2:0.000,NO2:0.000,SO2:0.000,NH3:5.988
8:19:09,0,0,0,0,0,0,0,0,0,0,0,517,0,0,0,0,0.0000000,0.0000000,0.0000000,0.0000000,11.00,38.4064598,-110.7919846,1372.6999512,0.0,197.3,0.8,0.0,0.0,866,124,0,0,860.08,35.66,16.00,# data time:930,pm2.5:6.445,pm10:5.704,O2:0.000,NO2:0.000,SO2:0.000,NH3:5.988
8:19:10,0,0,0,0,0,0,0,0,0,0,0,514,0,0,0,0,0.0000000,0.0000000,0.0000000,0.0000000,11.00,38.4064598,-110.7919846,1372.6999512,0.0,22.9,0.8,0.0,0.0,867,130,0,0,860.03,35.77,16.01,# data time:930,pm2.5:6.445,pm10:5.704,O2:0.000,NO2:0.000,SO2:0.000,NH3:5.988
8:19:11,0,0,0,0,0,0,0,0,0,0,0,514,0,0,0,0,0.0000000,0.0000000,0.0000000,0.0000000,11.00,38.4064598,-110.7919846,1372.5999756,0.0,243.7,0.8,0.0,0.0,867,128,0,0,860.02,35.68,16.01,# data time:930,pm2.5:6.445,pm10:5.704,O2:0.000,NO2:0.000,SO2:0.000,NH3:5.988
8:19:12,0,0,0,0,0,0,0,0,0,0,0,514,0,0,0,0,0.0000000,0.0000000,0.0000000,0.0000000,11.00,38.4064598,-110.7919846,1372.5000000,0.0,243.1,0.8,0.0,0.0,866,128,0,0,860.04,35.11,16.02,# data time:930,pm2.5:6.445,pm10:5.704,O2:0.000,NO2:0.000,SO2:0.000,NH3:5.988
8:19:13,0,0,0,0,0,0,0,0,0,0,0,517,0,0,0,0,0.0000000,0.0000000,0.0000000,0.0000000,11.00,38.4064560,-110.7919846,1372.3000488,0.0,187.2,0.8,0.0,0.0,866,127,0,0,860.05,34.78,16.02,# data time:930,pm2.5:6.445,pm10:5.704,O2:0.000,NO2:0.000,SO2:0.000,NH3:5.988
8:19:14,0,0,0,0,0,0,0,0,0,0,0,515,0,0,0,0,0.0000000,0.0000000,0.0000000,0.0000000,11.00,38.4064560,-110.7919769,1372.3000488,0.1,151.2,0.8,0.0,0.0,867,131,0,0,860.03,34.07,16.02,# data time:930,pm2.5:6.445,pm10:5.704,O2:0.000,NO2:0.000,SO2:0.000,NH3:5.988
8:19:15,0,0,0,0,0,0,0,0,0,0,0,515,0,0,0,0,0.0000000,0.0000000,0.0000000,0.0000000,11.00,38.4064484,-110.7919769,1372.1999512,0.1,150.4,0.8,0.0,0.0,866,127,0,0,860.03,33.66,16.01,# data time:930,pm2.5:6.445,pm10:5.704,O2:0.000,NO2:0.000,SO2:0.000,NH3:5.988
8:19:16,0,0,0,0,0,0,0,0,0,0,0,514,0,0,0,0,0.0000000,0.0000000,0.0000000,0.0000000,11.00,38.4064484,-110.7919769,1372.1999512,0.1,150.4,0.8,0.0,0.0,866,130,0,0,859.98,33.36,15.91,# data time:940,pm2.5:6.445,pm10:5.704,O2:0.000,NO2:0.000,SO2:0.000,NH3:6.215
8:19:17,0,0,0,0,0,0,0,0,0,0,0,512,0,0,0,0,0.0000000,0.0000000,0.0000000,0.0000000,11.00,38.4064445,-110.7919769,1372.0999756,0.1,158.3,0.8,0.0,0.0,866,106,0,0,860.03,33.37,16.01,# data time:940,pm2.5:6.445,pm10:5.704,O2:0.000,NO2:0.000,SO2:0.000,NH3:6.215
8:19:18,0,0,0,0,0,0,0,0,0,0,0,513,0,0,0,0,0.0000000,0.0000000,0.0000000,0.0000000,11.00,38.4064445,-110.7919769,1372.0999756,0.1,159.7,0.8,0.0,0.0,867,129,0,0,860.02,33.25,16.02,# data time:940,pm2.5:6.445,pm10:5.704,O2:0.000,NO2:0.000,SO2:0.000,NH3:6.215
8:19:19,0,0,0,0,0,0,0,0,0,0,0,513,0,0,0,0,0.0000000,0.0000000,0.0000000,0.0000000,11.00,38.4064445,-110.7919769,1371.9000244,0.1,165.6,0.8,0.0,0.0,868,129,0,0,860.06,32.81,16.03,# data time:940,pm2.5:6.445,pm10:5.704,O2:0.000,NO2:0.000,SO2:0.000,NH3:6.215
8:19:20,0,0,0,0,0,0,0,0,0,0,0,513,0,0,0,0,0.0000000,0.0000000,0.0000000,0.0000000,11.00,38.4064407,-110.7919769,1372.0999756,0.1,162.1,0.8,0.0,0.0,866,133,0,0,860.01,32.27,16.03,# data time:940,pm2.5:6.445,pm10:5.704,O2:0.000,NO2:0.000,SO2:0.000,NH3:6.215
8:19:21,0,0,0,0,0,0,0,0,0,0,0,514,0,0,0,0,0.0000000,0.0000000,0.0000000,0.0000000,11.00,38.4064407,-110.7919769,1371.9000244,0.1,162.3,0.8,0.0,0.0,867,126,0,0,860.00,32.04,16.03,# data time:940,pm2.5:6.445,pm10:5.704,O2:0.000,NO2:0.000,SO2:0.000,NH3:6.215
8:19:22,0,0,0,0,0,0,0,0,0,0,0,514,0,0,0,0,0.0000000,0.0000000,0.0000000,0.0000000,11.00,38.4064407,-110.7919769,1371.8000488,0.0,186.9,0.8,0.0,0.0,866,127,0,0,860.09,31.94,16.03,# data time:940,pm2.5:6.445,pm10:5.704,O2:0.000,NO2:0.000,SO2:0.000,NH3:6.215
8:19:24,0,0,0,0,0,0,0,0,0,0,0,518,0,0,0,0,0.0000000,0.0000000,0.0000000,0.0000000,11.00,38.4064407,-110.7919769,1371.6999512,0.0,165.4,0.8,0.0,0.0,867,132,0,0,860.03,32.09,16.04,# data time:940,pm2.5:6.445,pm10:5.704,O2:0.000,NO2:0.000,SO2:0.000,NH3:6.215
8:19:25,0,0,0,0,0,0,0,0,0,0,0,512,0,0,0,0,0.0000000,0.0000000,0.0000000,0.0000000,11.00,38.4064369,-110.7919769,1371.5000000,0.0,176.8,0.8,0.0,0.0,868,138,0,0,860.02,32.24,16.03,# data time:940,pm2.5:6.445,pm10:5.704,O2:0.000,NO2:0.000,SO2:0.000,NH3:6.215
8:19:26,0,0,0,0,0,0,0,0,0,0,0,514,0,0,0,0,0.0000000,0.0000000,0.0000000,0.0000000,11.00,38.4064369,-110.7919769,1371.3000488,0.0,148.4,0.8,0.0,0.0,866,129,0,0,860.04,33.01,16.05,# data time:950,pm2.5:5.640,pm10:4.991,O2:0.000,NO2:0.000,SO2:0.000,NH3:6.441
8:19:27,0,0,0,0,0,0,0,0,0,0,0,511,0,0,0,0,0.0000000,0.0000000,0.0000000,0.0000000,11.00,38.4064369,-110.7919769,1371.3000488,0.0,148.4,0.8,0.0,0.0,867,110,0,0,860.02,34.47,15.98,# data time:950,pm2.5:5.640,pm10:4.991,O2:0.000,NO2:0.000,SO2:0.000,NH3:6.441
8:19:28,0,0,0,0,0,0,0,0,0,0,0,513,0,0,0,0,0.0000000,0.0000000,0.0000000,0.0000000,11.00,38.4064331,-110.7919769,1370.5000000,0.0,128.1,0.8,0.0,0.0,867,127,0,0,860.07,34.82,16.05,# data time:950,pm2.5:5.640,pm10:4.991,O2:0.000,NO2:0.000,SO2:0.000,NH3:6.441
8:19:29,0,0,0,0,0,0,0,0,0,0,0,513,0,0,0,0,0.0000000,0.0000000,0.0000000,0.0000000,11.00,38.4064293,-110.7919769,1370.3000488,0.0,199.0,0.8,0.0,0.0,867,128,0,0,860.06,35.17,16.06,# data time:950,pm2.5:5.640,pm10:4.991,O2:0.000,NO2:0.000,SO2:0.000,NH3:6.441
8:19:30,0,0,0,0,0,0,0,0,0,0,0,514,0,0,0,0,0.0000000,0.0000000,0.0000000,0.0000000,11.00,38.4064293,-110.7919769,1370.1999512,0.0,164.9,0.8,0.0,0.0,867,129,0,0,860.02,35.68,16.08,# data time:950,pm2.5:5.640,pm10:4.991,O2:0.000,NO2:0.000,SO2:0.000,NH3:6.441
8:19:31,0,0,0,0,0,0,0,0,0,0,0,514,0,0,0,0,0.0000000,0.0000000,0.0000000,0.0000000,11.00,38.4064293,-110.7919769,1370.0999756,0.0,66.2,0.8,0.0,0.0,866,129,0,0,860.02,35.98,16.09,# data time:950,pm2.5:5.640,pm10:4.991,O2:0.000,NO2:0.000,SO2:0.000,NH3:6.441
8:19:32,0,0,0,0,0,0,0,0,0,0,0,515,0,0,0,0,0.0000000,0.0000000,0.0000000,0.0000000,11.00,38.4064293,-110.7919769,1370.0000000,0.0,43.9,0.8,0.0,0.0,867,130,0,0,860.06,36.09,16.15,# data time:950,pm2.5:5.640,pm10:4.991,O2:0.000,NO2:0.000,SO2:0.000,NH3:6.441
8:19:33,0,0,0,0,0,0,0,0,0,0,0,514,0,0,0,0,0.0000000,0.0000000,0.0000000,0.0000000,11.00,38.4064255,-110.7919769,1369.8000488,0.0,105.2,0.8,0.0,0.0,867,131,0,0,860.10,36.06,16.16,# data time:950,pm2.5:5.640,pm10:4.991,O2:0.000,NO2:0.000,SO2:0.000,NH3:6.441
8:19:34,0,0,0,0,0,0,0,0,0,0,0,514,0,0,0,0,0.0000000,0.0000000,0.0000000,0.0000000,11.00,38.4064255,-110.7919769,1369.5999756,0.0,119.8,0.8,0.0,0.0,867,126,0,0,860.07,35.87,16.16,# data time:950,pm2.5:5.640,pm10:4.991,O2:0.000,NO2:0.000,SO2:0.000,NH3:6.441
8:19:35,0,0,0,0,0,0,0,0,0,0,0,514,0,0,0,0,0.0000000,0.0000000,0.0000000,0.0000000,11.00,38.4064217,-110.7919769,1369.5000000,0.0,164.1,0.8,0.0,0.0,867,128,0,0,860.08,35.92,16.16,# data time:950,pm2.5:5.640,pm10:4.991,O2:0.000,NO2:0.000,SO2:0.000,NH3:6.441
8:19:36,0,0,0,0,0,0,0,0,0,0,0,515,0,0,0,0,0.0000000,0.0000000,0.0000000,0.0000000,11.00,38.4064217,-110.7919769,1369.5000000,0.0,164.1,0.8,0.0,0.0,866,128,0,0,860.05,35.10,16.06,# data time:960,pm2.5:6.445,pm10:5.704,O2:0.000,NO2:0.000,SO2:0.000,NH3:6.441
8:19:37,0,0,0,0,0,0,0,0,0,0,0,512,0,0,0,0,0.0000000,0.0000000,0.0000000,0.0000000,11.00,38.4064217,-110.7919769,1369.4000244,0.0,56.6,0.8,0.0,0.0,864,125,0,0,860.05,34.20,16.14,# data time:960,pm2.5:6.445,pm10:5.704,O2:0.000,NO2:0.000,SO2:0.000,NH3:6.441
8:19:38,0,0,0,0,0,0,0,0,0,0,0,514,0,0,0,0,0.0000000,0.0000000,0.0000000,0.0000000,11.00,38.4064217,-110.7919846,1369.3000488,0.1,248.6,0.8,0.0,0.0,868,117,0,0,860.05,33.72,16.14,# data time:960,pm2.5:6.445,pm10:5.704,O2:0.000,NO2:0.000,SO2:0.000,NH3:6.441
8:19:39,0,0,0,0,0,0,0,0,0,0,0,518,0,0,0,0,0.0000000,0.0000000,0.0000000,0.0000000,11.00,38.4064217,-110.7919846,1369.0999756,0.0,202.8,0.8,0.0,0.0,869,130,0,0,860.00,32.73,16.13,# data time:960,pm2.5:6.445,pm10:5.704,O2:0.000,NO2:0.000,SO2:0.000,NH3:6.441
8:19:40,0,0,0,0,0,0,0,0,0,0,0,514,0,0,0,0,0.0000000,0.0000000,0.0000000,0.0000000,11.00,38.4064217,-110.7919846,1369.0999756,0.0,243.4,0.8,0.0,0.0,866,127,0,0,860.05,32.18,16.12,# data time:960,pm2.5:6.445,pm10:5.704,O2:0.000,NO2:0.000,SO2:0.000,NH3:6.441
8:19:41,0,0,0,0,0,0,0,0,0,0,0,514,0,0,0,0,0.0000000,0.0000000,0.0000000,0.0000000,11.00,38.4064255,-110.7919769,1368.9000244,0.1,62.3,0.8,0.0,0.0,867,128,0,0,860.03,30.90,16.11,# data time:960,pm2.5:6.445,pm10:5.704,O2:0.000,NO2:0.000,SO2:0.000,NH3:6.441
8:19:42,0,0,0,0,0,0,0,0,0,0,0,514,0,0,0,0,0.0000000,0.0000000,0.0000000,0.0000000,11.00,38.4064217,-110.7919846,1368.9000244,0.0,242.1,0.8,0.0,0.0,867,127,0,0,860.06,30.23,16.10,# data time:960,pm2.5:6.445,pm10:5.704,O2:0.000,NO2:0.000,SO2:0.000,NH3:6.441
8:19:43,0,0,0,0,0,0,0,0,0,0,0,514,0,0,0,0,0.0000000,0.0000000,0.0000000,0.0000000,11.00,38.4064217,-110.7919769,1368.9000244,0.1,176.3,0.8,0.0,0.0,867,135,0,0,860.08,29.59,16.09,# data time:960,pm2.5:6.445,pm10:5.704,O2:0.000,NO2:0.000,SO2:0.000,NH3:6.441
8:19:44,0,0,0,0,0,0,0,0,0,0,0,514,0,0,0,0,0.0000000,0.0000000,0.0000000,0.0000000,11.00,38.4064178,-110.7919769,1368.9000244,0.0,105.6,0.8,0.0,0.0,866,131,0,0,860.11,29.01,16.07,# data time:960,pm2.5:6.445,pm10:5.704,O2:0.000,NO2:0.000,SO2:0.000,NH3:6.441
8:19:45,0,0,0,0,0,0,0,0,0,0,0,515,0,0,0,0,0.0000000,0.0000000,0.0000000,0.0000000,11.00,38.4064217,-110.7919769,1368.8000488,0.0,334.3,0.8,0.0,0.0,866,128,0,0,860.03,28.61,16.06,# data time:960,pm2.5:6.445,pm10:5.704,O2:0.000,NO2:0.000,SO2:0.000,NH3:6.441
8:19:46,0,0,0,0,0,0,0,0,0,0,0,514,0,0,0,0,0.0000000,0.0000000,0.0000000,0.0000000,11.00,38.4064217,-110.7919769,1368.8000488,0.0,0.0,0.8,0.0,0.0,867,127,0,0,860.05,28.90,16.02,# data time:970,pm2.5:6.445,pm10:5.704,O2:0.000,NO2:0.000,SO2:0.000,NH3:6.441
8:19:47,0,0,0,0,0,0,0,0,0,0,0,514,0,0,0,0,0.0000000,0.0000000,0.0000000,0.0000000,11.00,38.4064178,-110.7919769,1368.5999756,0.0,277.9,0.8,0.0,0.0,866,127,0,0,860.01,28.52,16.06,# data time:970,pm2.5:6.445,pm10:5.704,O2:0.000,NO2:0.000,SO2:0.000,NH3:6.441
8:19:48,0,0,0,0,0,0,0,0,0,0,0,514,0,0,0,0,0.0000000,0.0000000,0.0000000,0.0000000,11.00,38.4064178,-110.7919769,1368.5999756,0.0,77.6,0.8,0.0,0.0,867,131,0,0,860.08,28.20,16.02,# data time:970,pm2.5:6.445,pm10:5.704,O2:0.000,NO2:0.000,SO2:0.000,NH3:6.441
8:19:49,0,0,0,0,0,0,0,0,0,0,0,515,0,0,0,0,0.0000000,0.0000000,0.0000000,0.0000000,11.00,38.4064178,-110.7919769,1368.5999756,0.0,46.8,0.8,0.0,0.0,867,129,0,0,860.07,28.50,16.04,# data time:970,pm2.5:6.445,pm10:5.704,O2:0.000,NO2:0.000,SO2:0.000,NH3:6.441
8:19:50,0,0,0,0,0,0,0,0,0,0,0,514,0,0,0,0,0.0000000,0.0000000,0.0000000,0.0000000,11.00,38.4064217,-110.7919769,1368.6999512,0.0,27.0,0.8,0.0,0.0,866,129,0,0,860.05,28.70,16.06,# data time:970,pm2.5:6.445,pm10:5.704,O2:0.000,NO2:0.000,SO2:0.000,NH3:6.441
8:19:51,0,0,0,0,0,0,0,0,0,0,0,514,0,0,0,0,0.0000000,0.0000000,0.0000000,0.0000000,11.00,38.4064217,-110.7919769,1368.5999756,0.0,296.5,0.8,0.0,0.0,866,141,0,0,860.07,28.61,16.06,# data time:970,pm2.5:6.445,pm10:5.704,O2:0.000,NO2:0.000,SO2:0.000,NH3:6.441
8:19:52,0,0,0,0,0,0,0,0,0,0,0,514,0,0,0,0,0.0000000,0.0000000,0.0000000,0.0000000,11.00,38.4064217,-110.7919769,1368.5999756,0.0,37.1,0.8,0.0,0.0,867,130,0,0,860.10,28.81,16.07,# data time:970,pm2.5:6.445,pm10:5.704,O2:0.000,NO2:0.000,SO2:0.000,NH3:6.441
8:19:53,0,0,0,0,0,0,0,0,0,0,0,515,0,0,0,0,0.0000000,0.0000000,0.0000000,0.0000000,11.00,38.4064217,-110.7919769,1368.5999756,0.0,339.2,0.8,0.0,0.0,866,132,0,0,860.03,28.99,16.06,# data time:970,pm2.5:6.445,pm10:5.704,O2:0.000,NO2:0.000,SO2:0.000,NH3:6.441
8:19:54,0,0,0,0,0,0,0,0,0,0,0,514,0,0,0,0,0.0000000,0.0000000,0.0000000,0.0000000,11.00,38.4064217,-110.7919769,1368.5999756,0.0,70.3,0.8,0.0,0.0,867,129,0,0,860.03,28.93,16.07,# data time:970,pm2.5:6.445,pm10:5.704,O2:0.000,NO2:0.000,SO2:0.000,NH3:6.441
8:19:55,0,0,0,0,0,0,0,0,0,0,0,514,0,0,0,0,0.0000000,0.0000000,0.0000000,0.0000000,11.00,38.4064217,-110.7919769,1368.5999756,0.0,27.5,0.8,0.0,0.0,867,130,0,0,860.04,28.55,16.07,# data time:970,pm2.5:6.445,pm10:5.704,O2:0.000,NO2:0.000,SO2:0.000,NH3:6.441
8:19:56,0,0,0,0,0,0,0,0,0,0,0,514,0,0,0,0,0.0000000,0.0000000,0.0000000,0.0000000,11.00,38.4064217,-110.7919769,1368.5999756,0.0,359.6,0.8,0.0,0.0,866,133,0,0,860.04,28.95,16.02,# data time:980,pm2.5:5.640,pm10:4.991,O2:0.000,NO2:0.000,SO2:0.000,NH3:6.441
8:19:57,0,0,0,0,0,0,0,0,0,0,0,513,0,0,0,0,0.0000000,0.0000000,0.0000000,0.0000000,11.00,38.4064217,-110.7919769,1368.5999756,0.0,332.2,0.8,0.0,0.0,866,128,0,0,860.06,30.44,16.09,# data time:980,pm2.5:5.640,pm10:4.991,O2:0.000,NO2:0.000,SO2:0.000,NH3:6.441
8:19:58,0,0,0,0,0,0,0,0,0,0,0,514,0,0,0,0,0.0000000,0.0000000,0.0000000,0.0000000,11.00,38.4064217,-110.7919769,1368.5999756,0.0,46.5,0.8,0.0,0.0,866,129,0,0,860.13,32.11,16.10,# data time:980,pm2.5:5.640,pm10:4.991,O2:0.000,NO2:0.000,SO2:0.000,NH3:6.441
8:19:59,0,0,0,0,0,0,0,0,0,0,0,522,0,0,0,0,0.0000000,0.0000000,0.0000000,0.0000000,11.00,38.4064217,-110.7919769,1368.5999756,0.0,265.9,0.8,0.0,0.0,867,117,0,0,860.11,33.42,16.12,# data time:980,pm2.5:5.640,pm10:4.991,O2:0.000,NO2:0.000,SO2:0.000,NH3:6.441
8:20:00,0,0,0,0,0,0,0,0,0,0,0,500,0,0,0,0,0.0000000,0.0000000,0.0000000,0.0000000,11.00,38.4064217,-110.7919769,1368.5999756,0.0,342.0,0.8,0.0,0.0,864,137,0,0,860.06,34.38,16.14,# data time:980,pm2.5:5.640,pm10:4.991,O2:0.000,NO2:0.000,SO2:0.000,NH3:6.441
8:20:01,0,0,0,0,0,0,0,0,0,0,0,505,0,0,0,0,0.0000000,0.0000000,0.0000000,0.0000000,11.00,38.4064217,-110.7919769,1368.5999756,0.0,12.4,0.8,0.0,0.0,870,144,0,0,860.11,34.99,16.15,# data time:980,pm2.5:5.640,pm10:4.991,O2:0.000,NO2:0.000,SO2:0.000,NH3:6.441
8:20:02,0,0,0,0,0,0,0,0,0,0,0,515,0,0,0,0,0.0000000,0.0000000,0.0000000,0.0000000,11.00,38.4064217,-110.7919769,1368.5999756,0.0,312.9,0.8,0.0,0.0,868,131,0,0,860.18,35.39,16.16,# data time:980,pm2.5:5.640,pm10:4.991,O2:0.000,NO2:0.000,SO2:0.000,NH3:6.441
8:20:03,0,0,0,0,0,0,0,0,0,0,0,503,0,0,0,0,0.0000000,0.0000000,0.0000000,0.0000000,11.00,38.4064217,-110.7919769,1368.5999756,0.0,19.3,0.8,0.0,0.0,867,128,0,0,860.14,35.60,16.17,# data time:980,pm2.5:5.640,pm10:4.991,O2:0.000,NO2:0.000,SO2:0.000,NH3:6.441
8:20:04,0,0,0,0,0,0,0,0,0,0,0,518,0,0,0,0,0.0000000,0.0000000,0.0000000,0.0000000,11.00,38.4064217,-110.7919769,1368.5999756,0.0,33.7,0.8,0.0,0.0,862,103,0,0,860.13,35.61,16.17,# data time:980,pm2.5:5.640,pm10:4.991,O2:0.000,NO2:0.000,SO2:0.000,NH3:6.441
8:20:05,0,0,0,0,0,0,0,0,0,0,0,514,0,0,0,0,0.0000000,0.0000000,0.0000000,0.0000000,11.00,38.4064217,-110.7919769,1368.5999756,0.0,27.1,0.8,0.0,0.0,867,128,0,0,860.07,35.61,16.18,# data time:980,pm2.5:5.640,pm10:4.991,O2:0.000,NO2:0.000,SO2:0.000,NH3:6.441
8:20:06,0,0,0,0,0,0,0,0,0,0,0,514,0,0,0,0,0.0000000,0.0000000,0.0000000,0.0000000,11.00,38.4064217,-110.7919769,1368.5999756,0.0,27.1,0.8,0.0,0.0,867,127,0,0,860.06,35.72,16.08,# data time:990,pm2.5:6.445,pm10:5.704,O2:0.000,NO2:0.000,SO2:0.000,NH3:6.441
8:20:07,0,0,0,0,0,0,0,0,0,0,0,514,0,0,0,0,0.0000000,0.0000000,0.0000000,0.0000000,11.00,38.4064217,-110.7919769,1368.5999756,0.0,23.1,0.8,0.0,0.0,867,123,0,0,860.08,35.65,16.19,# data time:990,pm2.5:6.445,pm10:5.704,O2:0.000,NO2:0.000,SO2:0.000,NH3:6.441
8:20:08,0,0,0,0,0,0,0,0,0,0,0,514,0,0,0,0,0.0000000,0.0000000,0.0000000,0.0000000,11.00,38.4064217,-110.7919769,1368.5999756,0.0,346.0,0.8,0.0,0.0,867,126,0,0,860.10,35.07,16.20,# data time:990,pm2.5:6.445,pm10:5.704,O2:0.000,NO2:0.000,SO2:0.000,NH3:6.441
8:20:09,0,0,0,0,0,0,0,0,0,0,0,514,0,0,0,0,0.0000000,0.0000000,0.0000000,0.0000000,11.00,38.4064217,-110.7919769,1368.5999756,0.0,0.3,0.8,0.0,0.0,867,127,0,0,860.12,34.32,16.20,# data time:990,pm2.5:6.445,pm10:5.704,O2:0.000,NO2:0.000,SO2:0.000,NH3:6.441
8:20:10,0,0,0,0,0,0,0,0,0,0,0,513,0,0,0,0,0.0000000,0.0000000,0.0000000,0.0000000,11.00,38.4064217,-110.7919769,1368.5999756,0.0,284.9,0.8,0.0,0.0,866,131,0,0,860.09,33.88,16.19,# data time:990,pm2.5:6.445,pm10:5.704,O2:0.000,NO2:0.000,SO2:0.000,NH3:6.441
8:20:11,0,0,0,0,0,0,0,0,0,0,0,514,0,0,0,0,0.0000000,0.0000000,0.0000000,0.0000000,11.00,38.4064217,-110.7919769,1368.5999756,0.0,312.6,0.8,0.0,0.0,866,126,0,0,860.14,34.24,16.20,# data time:990,pm2.5:6.445,pm10:5.704,O2:0.000,NO2:0.000,SO2:0.000,NH3:6.441
8:20:12,0,0,0,0,0,0,0,0,0,0,0,515,0,0,0,0,0.0000000,0.0000000,0.0000000,0.0000000,11.00,38.4064217,-110.7919769,1368.5999756,0.0,344.6,0.8,0.0,0.0,867,127,0,0,860.23,33.83,16.20,# data time:990,pm2.5:6.445,pm10:5.704,O2:0.000,NO2:0.000,SO2:0.000,NH3:6.441
8:20:13,0,0,0,0,0,0,0,0,0,0,0,514,0,0,0,0,0.0000000,0.0000000,0.0000000,0.0000000,11.00,38.4064217,-110.7919769,1368.5999756,0.0,355.9,0.8,0.0,0.0,866,129,0,0,860.16,33.89,16.20,# data time:990,pm2.5:6.445,pm10:5.704,O2:0.000,NO2:0.000,SO2:0.000,NH3:6.441
8:20:14,0,0,0,0,0,0,0,0,0,0,0,514,0,0,0,0,0.0000000,0.0000000,0.0000000,0.0000000,11.00,38.4064217,-110.7919769,1368.5999756,0.0,14.3,0.8,0.0,0.0,867,129,0,0,860.13,33.86,16.21,# data time:990,pm2.5:6.445,pm10:5.704,O2:0.000,NO2:0.000,SO2:0.000,NH3:6.441
8:20:15,0,0,0,0,0,0,0,0,0,0,0,514,0,0,0,0,0.0000000,0.0000000,0.0000000,0.0000000,11.00,38.4064217,-110.7919769,1368.5999756,0.0,347.1,0.8,0.0,0.0,866,127,0,0,860.14,33.49,16.21,# data time:990,pm2.5:6.445,pm10:5.704,O2:0.000,NO2:0.000,SO2:0.000,NH3:6.441
8:20:16,0,0,0,0,0,0,0,0,0,0,0,520,0,0,0,0,0.0000000,0.0000000,0.0000000,0.0000000,11.00,38.4064217,-110.7919769,1368.5999756,0.1,15.7,0.8,0.0,0.0,866,128,0,0,860.11,34.21,16.22,# data time:1000,pm2.5:6.445,pm10:5.704,O2:0.000,NO2:0.000,SO2:0.000,NH3:6.441
8:20:17,0,0,0,0,0,0,0,0,0,0,0,510,0,0,0,0,0.0000000,0.0000000,0.0000000,0.0000000,11.00,38.4064217,-110.7919769,1368.5999756,0.0,354.2,0.8,0.0,0.0,868,113,0,0,860.06,34.59,16.22,# data time:1000,pm2.5:6.445,pm10:5.704,O2:0.000,NO2:0.000,SO2:0.000,NH3:6.441
8:20:18,0,0,0,0,0,0,0,0,0,0,0,507,0,0,0,0,0.0000000,0.0000000,0.0000000,0.0000000,11.00,38.4064217,-110.7919769,1368.5999756,0.0,30.6,0.8,0.0,0.0,862,147,0,0,859.99,34.65,16.23,# data time:1000,pm2.5:6.445,pm10:5.704,O2:0.000,NO2:0.000,SO2:0.000,NH3:6.441
8:20:19,0,0,0,0,0,0,0,0,0,0,0,516,0,0,0,0,0.0000000,0.0000000,0.0000000,0.0000000,11.00,38.4064217,-110.7919769,1368.5999756,0.0,2.6,0.8,0.0,0.0,873,134,0,0,859.98,34.55,16.23,# data time:1000,pm2.5:6.445,pm10:5.704,O2:0.000,NO2:0.000,SO2:0.000,NH3:6.441
8:20:20,0,0,0,0,0,0,0,0,0,0,0,517,0,0,0,0,0.0000000,0.0000000,0.0000000,0.0000000,11.00,38.4064217,-110.7919769,1368.5999756,0.0,32.7,0.8,0.0,0.0,865,120,0,0,859.99,34.85,16.23,# data time:1000,pm2.5:6.445,pm10:5.704,O2:0.000,NO2:0.000,SO2:0.000,NH3:6.441
8:20:21,0,0,0,0,0,0,0,0,0,0,0,504,0,0,0,0,0.0000000,0.0000000,0.0000000,0.0000000,11.00,38.4064217,-110.7919769,1368.5999756,0.0,22.0,0.8,0.0,0.0,865,112,0,0,860.08,35.19,16.25,# data time:1000,pm2.5:6.445,pm10:5.704,O2:0.000,NO2:0.000,SO2:0.000,NH3:6.441
8:20:23,0,0,0,0,0,0,0,0,0,0,0,512,0,0,0,0,0.0000000,0.0000000,0.0000000,0.0000000,11.00,38.4064217,-110.7919769,1368.5999756,0.0,33.0,0.8,0.0,0.0,865,120,0,0,860.03,35.63,16.26,# data time:1000,pm2.5:6.445,pm10:5.704,O2:0.000,NO2:0.000,SO2:0.000,NH3:6.441
8:20:24,0,0,0,0,0,0,0,0,0,0,0,521,0,0,0,0,0.0000000,0.0000000,0.0000000,0.0000000,11.00,38.4064217,-110.7919769,1368.5999756,0.0,323.2,0.8,0.0,0.0,861,127,0,0,860.02,35.84,16.26,# data time:1000,pm2.5:6.445,pm10:5.704,O2:0.000,NO2:0.000,SO2:0.000,NH3:6.441
8:20:25,0,0,0,0,0,0,0,0,0,0,0,512,0,0,0,0,0.0000000,0.0000000,0.0000000,0.0000000,11.00,38.4064217,-110.7919769,1368.5999756,0.0,301.8,0.8,0.0,0.0,866,159,0,0,860.04,36.16,16.27,# data time:1000,pm2.5:6.445,pm10:5.704,O2:0.000,NO2:0.000,SO2:0.000,NH3:6.441
8:20:25,0,0,0,0,0,0,0,0,0,0,0,514,0,0,0,0,0.0000000,0.0000000,0.0000000,0.0000000,11.00,38.4064217,-110.7919769,1368.5999756,0.0,359.8,0.8,0.0,0.0,867,127,0,0,860.04,36.50,16.28,# data time:1010,pm2.5:5.640,pm10:4.991,O2:0.000,NO2:0.000,SO2:0.000,NH3:6.441
8:20:27,0,0,0,0,0,0,0,0,0,0,0,513,0,0,0,0,0.0000000,0.0000000,0.0000000,0.0000000,11.00,38.4064217,-110.7919769,1368.5999756,0.0,359.8,0.8,0.0,0.0,867,127,0,0,860.05,35.13,16.17,# data time:1010,pm2.5:5.640,pm10:4.991,O2:0.000,NO2:0.000,SO2:0.000,NH3:6.441
8:20:28,0,0,0,0,0,0,0,0,0,0,0,513,0,0,0,0,0.0000000,0.0000000,0.0000000,0.0000000,11.00,38.4064217,-110.7919769,1368.5999756,0.0,0.7,0.8,0.0,0.0,867,129,0,0,860.01,35.29,16.18,# data time:1010,pm2.5:5.640,pm10:4.991,O2:0.000,NO2:0.000,SO2:0.000,NH3:6.441
8:20:29,0,0,0,0,0,0,0,0,0,0,0,513,0,0,0,0,0.0000000,0.0000000,0.0000000,0.0000000,11.00,38.4064217,-110.7919769,1368.5999756,0.0,358.5,0.8,0.0,0.0,866,127,0,0,860.05,35.84,16.19,# data time:1010,pm2.5:5.640,pm10:4.991,O2:0.000,NO2:0.000,SO2:0.000,NH3:6.441
8:20:30,0,0,0,0,0,0,0,0,0,0,0,514,0,0,0,0,0.0000000,0.0000000,0.0000000,0.0000000,11.00,38.4064217,-110.7919769,1368.5999756,0.0,19.2,0.8,0.0,0.0,867,129,0,0,859.99,36.51,16.20,# data time:1010,pm2.5:5.640,pm10:4.991,O2:0.000,NO2:0.000,SO2:0.000,NH3:6.441
8:20:31,0,0,0,0,0,0,0,0,0,0,0,515,0,0,0,0,0.0000000,0.0000000,0.0000000,0.0000000,11.00,38.4064255,-110.7919769,1368.5999756,0.0,147.8,0.8,0.0,0.0,866,126,0,0,860.00,36.80,16.26,# data time:1010,pm2.5:5.640,pm10:4.991,O2:0.000,NO2:0.000,SO2:0.000,NH3:6.441
8:20:32,0,0,0,0,0,0,0,0,0,0,0,514,0,0,0,0,0.0000000,0.0000000,0.0000000,0.0000000,11.00,38.4064255,-110.7919769,1368.5999756,0.0,300.1,0.8,0.0,0.0,866,127,0,0,860.00,36.58,16.30,# data time:1010,pm2.5:5.640,pm10:4.991,O2:0.000,NO2:0.000,SO2:0.000,NH3:6.441
8:20:33,0,0,0,0,0,0,0,0,0,0,0,514,0,0,0,0,0.0000000,0.0000000,0.0000000,0.0000000,11.00,38.4064255,-110.7919769,1368.5999756,0.0,325.3,0.8,0.0,0.0,867,126,0,0,860.06,36.87,16.31,# data time:1010,pm2.5:5.640,pm10:4.991,O2:0.000,NO2:0.000,SO2:0.000,NH3:6.441
8:20:34,0,0,0,0,0,0,0,0,0,0,0,514,0,0,0,0,0.0000000,0.0000000,0.0000000,0.0000000,11.00,38.4064255,-110.7919769,1368.5999756,0.0,335.8,0.8,0.0,0.0,867,134,0,0,860.04,36.80,16.32,# data time:1010,pm2.5:5.640,pm10:4.991,O2:0.000,NO2:0.000,SO2:0.000,NH3:6.441
8:20:35,0,0,0,0,0,0,0,0,0,0,0,514,0,0,0,0,0.0000000,0.0000000,0.0000000,0.0000000,11.00,38.4064255,-110.7919769,1368.5999756,0.0,345.8,0.8,0.0,0.0,867,130,0,0,860.02,36.76,16.32,# data time:1010,pm2.5:5.640,pm10:4.991,O2:0.000,NO2:0.000,SO2:0.000,NH3:6.441
8:20:36,0,0,0,0,0,0,0,0,0,0,0,513,0,0,0,0,0.0000000,0.0000000,0.0000000,0.0000000,11.00,38.4064255,-110.7919769,1368.5999756,0.0,9.7,0.8,0.0,0.0,866,126,0,0,860.04,36.47,16.27,# data time:1020,pm2.5:5.640,pm10:4.991,O2:0.000,NO2:0.000,SO2:0.000,NH3:6.441
8:20:37,0,0,0,0,0,0,0,0,0,0,0,514,0,0,0,0,0.0000000,0.0000000,0.0000000,0.0000000,11.00,38.4064255,-110.7919769,1368.5999756,0.0,326.8,0.8,0.0,0.0,867,127,0,0,859.98,36.29,16.32,# data time:1020,pm2.5:5.640,pm10:4.991,O2:0.000,NO2:0.000,SO2:0.000,NH3:6.441
8:20:38,0,0,0,0,0,0,0,0,0,0,0,514,0,0,0,0,0.0000000,0.0000000,0.0000000,0.0000000,11.00,38.4064255,-110.7919769,1368.5999756,0.0,85.7,0.8,0.0,0.0,867,128,0,0,860.07,36.18,16.33,# data time:1020,pm2.5:5.640,pm10:4.991,O2:0.000,NO2:0.000,SO2:0.000,NH3:6.441
8:20:39,0,0,0,0,0,0,0,0,0,0,0,514,0,0,0,0,0.0000000,0.0000000,0.0000000,0.0000000,11.00,38.4064255,-110.7919769,1368.5999756,0.0,124.6,0.8,0.0,0.0,867,126,0,0,860.12,36.32,16.34,# data time:1020,pm2.5:5.640,pm10:4.991,O2:0.000,NO2:0.000,SO2:0.000,NH3:6.441
8:20:40,0,0,0,0,0,0,0,0,0,0,0,516,0,0,0,0,0.0000000,0.0000000,0.0000000,0.0000000,11.00,38.4064255,-110.7919769,1368.5999756,0.0,92.7,0.8,0.0,0.0,866,130,0,0,860.11,36.44,16.34,# data time:1020,pm2.5:5.640,pm10:4.991,O2:0.000,NO2:0.000,SO2:0.000,NH3:6.441
8:20:41,0,0,0,0,0,0,0,0,0,0,0,509,0,0,0,0,0.0000000,0.0000000,0.0000000,0.0000000,11.00,38.4064255,-110.7919769,1368.5999756,0.0,342.2,0.8,0.0,0.0,870,115,0,0,860.13,36.41,16.35,# data time:1020,pm2.5:5.640,pm10:4.991,O2:0.000,NO2:0.000,SO2:0.000,NH3:6.441
8:20:42,0,0,0,0,0,0,0,0,0,0,0,519,0,0,0,0,0.0000000,0.0000000,0.0000000,0.0000000,11.00,38.4064255,-110.7919769,1368.5999756,0.0,313.7,0.8,0.0,0.0,866,121,0,0,860.03,36.32,16.35,# data time:1020,pm2.5:5.640,pm10:4.991,O2:0.000,NO2:0.000,SO2:0.000,NH3:6.441
8:20:43,0,0,0,0,0,0,0,0,0,0,0,514,0,0,0,0,0.0000000,0.0000000,0.0000000,0.0000000,11.00,38.4064255,-110.7919769,1368.5999756,0.0,316.7,0.8,0.0,0.0,866,127,0,0,860.10,36.35,16.36,# data time:1020,pm2.5:5.640,pm10:4.991,O2:0.000,NO2:0.000,SO2:0.000,NH3:6.441
8:20:44,0,0,0,0,0,0,0,0,0,0,0,515,0,0,0,0,0.0000000,0.0000000,0.0000000,0.0000000,11.00,38.4064255,-110.7919769,1368.5999756,0.0,329.3,0.8,0.0,0.0,866,127,0,0,860.09,36.33,16.37,# data time:1020,pm2.5:5.640,pm10:4.991,O2:0.000,NO2:0.000,SO2:0.000,NH3:6.441
8:20:45,0,0,0,0,0,0,0,0,0,0,0,515,0,0,0,0,0.0000000,0.0000000,0.0000000,0.0000000,11.00,38.4064255,-110.7919769,1368.5999756,0.0,151.7,0.8,0.0,0.0,867,125,0,0,860.08,36.35,16.37,# data time:1020,pm2.5:5.640,pm10:4.991,O2:0.000,NO2:0.000,SO2:0.000,NH3:6.441
8:20:46,0,0,0,0,0,0,0,0,0,0,0,514,0,0,0,0,0.0000000,0.0000000,0.0000000,0.0000000,11.00,38.4064255,-110.7919769,1368.5999756,0.0,96.2,0.8,0.0,0.0,866,130,0,0,860.08,35.98,16.33,# data time:1030,pm2.5:6.445,pm10:5.704,O2:0.000,NO2:0.000,SO2:0.000,NH3:6.667
8:20:47,0,0,0,0,0,0,0,0,0,0,0,514,0,0,0,0,0.0000000,0.0000000,0.0000000,0.0000000,11.00,38.4064255,-110.7919769,1368.5999756,0.0,105.8,0.8,0.0,0.0,866,129,0,0,860.11,35.92,16.38,# data time:1030,pm2.5:6.445,pm10:5.704,O2:0.000,NO2:0.000,SO2:0.000,NH3:6.667
8:20:48,0,0,0,0,0,0,0,0,0,0,0,514,0,0,0,0,0.0000000,0.0000000,0.0000000,0.0000000,11.00,38.4064255,-110.7919769,1368.5999756,0.0,263.9,0.8,0.0,0.0,866,128,0,0,860.10,35.83,16.39,# data time:1030,pm2.5:6.445,pm10:5.704,O2:0.000,NO2:0.000,SO2:0.000,NH3:6.667
8:20:49,0,0,0,0,0,0,0,0,0,0,0,514,0,0,0,0,0.0000000,0.0000000,0.0000000,0.0000000,11.00,38.4064255,-110.7919769,1368.5999756,0.0,93.7,0.8,0.0,0.0,867,135,0,0,860.10,35.60,16.39,# data time:1030,pm2.5:6.445,pm10:5.704,O2:0.000,NO2:0.000,SO2:0.000,NH3:6.667
8:20:50,0,0,0,0,0,0,0,0,0,0,0,514,0,0,0,0,0.0000000,0.0000000,0.0000000,0.0000000,11.00,38.4064255,-110.7919769,1368.5999756,0.0,110.7,0.8,0.0,0.0,867,128,0,0,860.09,35.26,16.39,# data time:1030,pm2.5:6.445,pm10:5.704,O2:0.000,NO2:0.000,SO2:0.000,NH3:6.667
8:20:51,0,0,0,0,0,0,0,0,0,0,0,514,0,0,0,0,0.0000000,0.0000000,0.0000000,0.0000000,11.00,38.4064255,-110.7919769,1368.5999756,0.0,76.9,0.8,0.0,0.0,867,128,0,0,860.01,34.91,16.39,# data time:1030,pm2.5:6.445,pm10:5.704,O2:0.000,NO2:0.000,SO2:0.000,NH3:6.667
8:20:52,0,0,0,0,0,0,0,0,0,0,0,514,0,0,0,0,0.0000000,0.0000000,0.0000000,0.0000000,11.00,38.4064255,-110.7919769,1368.5999756,0.0,167.3,0.8,0.0,0.0,867,129,0,0,860.02,34.52,16.40,# data time:1030,pm2.5:6.445,pm10:5.704,O2:0.000,NO2:0.000,SO2:0.000,NH3:6.667
8:20:53,0,0,0,0,0,0,0,0,0,0,0,514,0,0,0,0,0.0000000,0.0000000,0.0000000,0.0000000,11.00,38.4064255,-110.7919769,1368.5999756,0.0,124.6,0.8,0.0,0.0,866,132,0,0,860.12,34.65,16.40,# data time:1030,pm2.5:6.445,pm10:5.704,O2:0.000,NO2:0.000,SO2:0.000,NH3:6.667
8:20:54,0,0,0,0,0,0,0,0,0,0,0,514,0,0,0,0,0.0000000,0.0000000,0.0000000,0.0000000,11.00,38.4064255,-110.7919769,1368.5999756,0.0,149.5,0.8,0.0,0.0,867,128,0,0,860.09,34.93,16.40,# data time:1030,pm2.5:6.445,pm10:5.704,O2:0.000,NO2:0.000,SO2:0.000,NH3:6.667
8:20:55,0,0,0,0,0,0,0,0,0,0,0,438,0,0,0,0,0.0000000,0.0000000,0.0000000,0.0000000,11.00,38.4064255,-110.7919769,1368.5999756,0.0,93.2,0.8,0.0,0.0,816,297,0,0,860.21,34.96,16.41,# data time:1030,pm2.5:6.445,pm10:5.704,O2:0.000,NO2:0.000,SO2:0.000,NH3:6.667
8:20:56,0,0,0,0,0,0,0,0,0,0,0,439,0,0,0,0,0.0000000,0.0000000,0.0000000,0.0000000,11.00,38.4064255,-110.7919769,1368.5999756,0.0,93.2,0.8,0.0,0.0,770,265,0,0,860.16,34.81,16.32,# data time:1040,pm2.5:6.445,pm10:5.704,O2:0.000,NO2:0.000,SO2:00,NH3:6.894
8:20:57,0,0,0,0,0,0,0,0,0,0,0,527,0,0,0,0,0.0000000,0.0000000,0.0000000,0.0000000,0.00,38.4064255,-110.7919769,1368.5999756,0.0,0.0,100.0,0.0,0.0,833,351,0,0,860.05,34.49,16.37,# data time:1040,pm2.5:6.445,pm10:5.704,O2:0.000,NO2:0.000,SO2:00,NH3:6.894
8:20:58,0,0,0,0,0,0,0,0,0,0,0,501,0,0,0,0,0.0000000,0.0000000,0.0000000,0.0000000,0.00,38.4064255,-110.7919769,1368.5999756,0.0,0.0,100.0,0.0,0.0,867,299,0,0,860.16,34.13,16.42,# data time:1040,pm2.5:6.445,pm10:5.704,O2:0.000,NO2:0.000,SO2:00,NH3:6.894
8:20:59,0,0,0,0,0,0,0,0,0,0,0,446,0,0,0,0,0.0000000,0.0000000,0.0000000,0.0000000,0.00,38.4064255,-110.7919769,1368.5999756,0.0,0.0,100.0,0.0,0.0,821,312,0,0,860.09,33.92,16.42,# data time:1040,pm2.5:6.445,pm10:5.704,O2:0.000,NO2:0.000,SO2:00,NH3:6.894
8:21:00,0,0,0,0,0,0,0,0,0,0,0,453,0,0,0,0,0.0000000,0.0000000,0.0000000,0.0000000,0.00,38.4064255,-110.7919769,1368.5999756,0.0,0.0,100.0,0.0,0.0,803,265,0,0,860.01,33.81,16.43,# data time:1040,pm2.5:6.445,pm10:5.704,O2:0.000,NO2:0.000,SO2:00,NH3:6.894
8:21:01,0,0,0,0,0,0,0,0,0,0,0,475,0,0,0,0,0.0000000,0.0000000,0.0000000,0.0000000,0.00,38.4064255,-110.7919769,1368.5999756,0.0,0.0,100.0,0.0,0.0,764,280,0,0,860.10,33.97,16.44,# data time:1040,pm2.5:6.445,pm10:5.704,O2:0.000,NO2:0.000,SO2:00,NH3:6.894
8:21:02,0,0,0,0,0,0,0,0,0,0,0,514,0,0,0,0,0.0000000,0.0000000,0.0000000,0.0000000,0.00,38.4064255,-110.7919769,1368.5999756,0.0,0.0,100.0,0.0,0.0,867,126,0,0,860.03,34.10,16.45,# data time:1040,pm2.5:6.445,pm10:5.704,O2:0.000,NO2:0.000,SO2:00,NH3:6.894
8:21:03,0,0,0,0,0,0,0,0,0,0,0,514,0,0,0,0,0.0000000,0.0000000,0.0000000,0.0000000,4.00,38.4064255,-110.7919769,1368.5999756,0.7,217.4,100.0,0.0,0.0,866,129,0,0,860.05,34.26,16.45,# data time:1040,pm2.5:6.445,pm10:5.704,O2:0.000,NO2:0.000,SO2:00,NH3:6.894
8:21:04,0,0,0,0,0,0,0,0,0,0,0,514,0,0,0,0,0.0000000,0.0000000,0.0000000,0.0000000,7.00,38.4063950,-110.7920990,1356.0000000,0.6,281.8,1.0,0.0,0.0,867,129,0,0,860.14,34.79,16.44,# data time:1040,pm2.5:6.445,pm10:5.704,O2:0.000,NO2:0.000,SO2:00,NH3:6.894
8:21:05,0,0,0,0,0,0,0,0,0,0,0,514,0,0,0,0,0.0000000,0.0000000,0.0000000,0.0000000,8.00,38.4063873,-110.7920990,1363.9000244,0.2,251.4,0.9,0.0,0.0,867,128,0,0,860.10,35.03,16.46,# data time:1040,pm2.5:6.445,pm10:5.704,O2:0.000,NO2:0.000,SO2:00,NH3:6.894
8:21:06,0,0,0,0,0,0,0,0,0,0,0,514,0,0,0,0,0.0000000,0.0000000,0.0000000,0.0000000,10.00,38.4063911,-110.7920914,1363.5999756,0.3,213.7,0.8,0.0,0.0,866,128,0,0,860.10,35.54,16.47,# data time:1050,pm2.5:6.445,pm10:5.704,O2:0.000,NO2:0.000,SO2:0.000,NH3:6.894
8:21:07,0,0,0,0,0,0,0,0,0,0,0,513,0,0,0,0,0.0000000,0.0000000,0.0000000,0.0000000,9.00,38.4063950,-110.7920990,1364.1999512,0.0,327.4,0.9,0.0,0.0,867,128,0,0,860.09,35.83,16.48,# data time:1050,pm2.5:6.445,pm10:5.704,O2:0.000,NO2:0.000,SO2:0.000,NH3:6.894
8:21:08,0,0,0,0,0,0,0,0,0,0,0,515,0,0,0,0,0.0000000,0.0000000,0.0000000,0.0000000,9.00,38.4063950,-110.7921143,1364.9000244,0.0,325.0,0.9,0.0,0.0,866,131,0,0,860.05,35.29,16.48,# data time:1050,pm2.5:6.445,pm10:5.704,O2:0.000,NO2:0.000,SO2:0.000,NH3:6.894
8:21:09,0,0,0,0,0,0,0,0,0,0,0,514,0,0,0,0,0.0000000,0.0000000,0.0000000,0.0000000,10.00,38.4063950,-110.7921143,1365.5000000,0.0,355.1,0.8,0.0,0.0,867,127,0,0,860.04,35.22,16.47,# data time:1050,pm2.5:6.445,pm10:5.704,O2:0.000,NO2:0.000,SO2:0.000,NH3:6.894
8:21:10,0,0,0,0,0,0,0,0,0,0,0,514,0,0,0,0,0.0000000,0.0000000,0.0000000,0.0000000,10.00,38.4064026,-110.7920990,1365.6999512,0.0,358.1,0.8,0.0,0.0,866,128,0,0,860.11,35.34,16.48,# data time:1050,pm2.5:6.445,pm10:5.704,O2:0.000,NO2:0.000,SO2:0.000,NH3:6.894
8:21:11,0,0,0,0,0,0,0,0,0,0,0,513,0,0,0,0,0.0000000,0.0000000,0.0000000,0.0000000,10.00,38.4064064,-110.7920914,1365.6999512,0.0,317.8,0.8,0.0,0.0,866,128,0,0,860.09,35.54,16.49,# data time:1050,pm2.5:6.445,pm10:5.704,O2:0.000,NO2:0.000,SO2:0.000,NH3:6.894
8:21:12,0,0,0,0,0,0,0,0,0,0,0,514,0,0,0,0,0.0000000,0.0000000,0.0000000,0.0000000,10.00,38.4064102,-110.7920914,1366.0999756,0.1,339.7,0.8,0.0,0.0,866,128,0,0,860.08,35.61,16.49,# data time:1050,pm2.5:6.445,pm10:5.704,O2:0.000,NO2:0.000,SO2:0.000,NH3:6.894
8:21:13,0,0,0,0,0,0,0,0,0,0,0,514,0,0,0,0,0.0000000,0.0000000,0.0000000,0.0000000,11.00,38.4064102,-110.7920914,1366.0999756,0.1,356.5,0.8,0.0,0.0,866,130,0,0,860.10,35.78,16.50,# data time:1050,pm2.5:6.445,pm10:5.704,O2:0.000,NO2:0.000,SO2:0.000,NH3:6.894
8:21:14,0,0,0,0,0,0,0,0,0,0,0,515,0,0,0,0,0.0000000,0.0000000,0.0000000,0.0000000,11.00,38.4064102,-110.7920761,1366.0999756,0.1,3.2,0.8,0.0,0.0,866,126,0,0,860.19,35.89,16.50,# data time:1050,pm2.5:6.445,pm10:5.704,O2:0.000,NO2:0.000,SO2:0.000,NH3:6.894
8:21:15,0,0,0,0,0,0,0,0,0,0,0,515,0,0,0,0,0.0000000,0.0000000,0.0000000,0.0000000,11.00,38.4064102,-110.7920609,1366.1999512,0.1,33.0,0.8,0.0,0.0,867,128,0,0,860.12,36.39,16.51,# data time:1050,pm2.5:6.445,pm10:5.704,O2:0.000,NO2:0.000,SO2:0.000,NH3:6.894
8:21:16,0,0,0,0,0,0,0,0,0,0,0,514,0,0,0,0,0.0000000,0.0000000,0.0000000,0.0000000,11.00,38.4064140,-110.7920532,1366.1999512,0.1,20.9,0.8,0.0,0.0,866,129,0,0,860.11,36.48,16.47,# data time:1060,pm2.5:6.445,pm10:5.704,O2:0.000,NO2:0.000,SO2:0.000,NH3:6.894
8:21:17,0,0,0,0,0,0,0,0,0,0,0,514,0,0,0,0,0.0000000,0.0000000,0.0000000,0.0000000,10.00,38.4064178,-110.7920532,1366.0999756,0.1,4.2,0.8,0.0,0.0,866,129,0,0,860.10,36.24,16.52,# data time:1060,pm2.5:6.445,pm10:5.704,O2:0.000,NO2:0.000,SO2:0.000,NH3:6.894
8:21:18,0,0,0,0,0,0,0,0,0,0,0,514,0,0,0,0,0.0000000,0.0000000,0.0000000,0.0000000,11.00,38.4064178,-110.7920532,1366.3000488,0.1,356.6,0.8,0.0,0.0,866,128,0,0,860.08,36.38,16.54,# data time:1060,pm2.5:6.445,pm10:5.704,O2:0.000,NO2:0.000,SO2:0.000,NH3:6.894
8:21:19,0,0,0,0,0,0,0,0,0,0,0,514,0,0,0,0,0.0000000,0.0000000,0.0000000,0.0000000,11.00,38.4064178,-110.7920532,1366.5000000,0.1,1.5,0.8,0.0,0.0,867,132,0,0,860.11,36.38,16.54,# data time:1060,pm2.5:6.445,pm10:5.704,O2:0.000,NO2:0.000,SO2:0.000,NH3:6.894
8:21:20,0,0,0,0,0,0,0,0,0,0,0,512,0,0,0,0,0.0000000,0.0000000,0.0000000,0.0000000,11.00,38.4064178,-110.7920380,1366.6999512,0.1,9.9,0.8,0.0,0.0,866,128,0,0,860.06,36.18,16.56,# data time:1060,pm2.5:6.445,pm10:5.704,O2:0.000,NO2:0.000,SO2:0.000,NH3:6.894
8:21:21,0,0,0,0,0,0,0,0,0,0,0,513,0,0,0,0,0.0000000,0.0000000,0.0000000,0.0000000,11.00,38.4064178,-110.7920380,1366.9000244,0.1,3.3,0.8,0.0,0.0,867,128,0,0,860.05,35.87,16.56,# data time:1060,pm2.5:6.445,pm10:5.704,O2:0.000,NO2:0.000,SO2:0.000,NH3:6.894
8:21:22,0,0,0,0,0,0,0,0,0,0,0,513,0,0,0,0,0.0000000,0.0000000,0.0000000,0.0000000,11.00,38.4064178,-110.7920380,1367.1999512,0.1,16.1,0.8,0.0,0.0,867,130,0,0,860.00,35.57,16.56,# data time:1060,pm2.5:6.445,pm10:5.704,O2:0.000,NO2:0.000,SO2:0.000,NH3:6.894
8:21:24,0,0,0,0,0,0,0,0,0,0,0,514,0,0,0,0,0.0000000,0.0000000,0.0000000,0.0000000,11.00,38.4064217,-110.7920380,1367.4000244,0.0,30.0,0.8,0.0,0.0,866,129,0,0,860.04,35.48,16.57,# data time:1060,pm2.5:6.445,pm10:5.704,O2:0.000,NO2:0.000,SO2:0.000,NH3:6.894
8:21:25,0,0,0,0,0,0,0,0,0,0,0,513,0,0,0,0,0.0000000,0.0000000,0.0000000,0.0000000,11.00,38.4064217,-110.7920380,1367.3000488,0.0,25.0,0.8,0.0,0.0,866,127,0,0,860.05,35.52,16.58,# data time:1060,pm2.5:6.445,pm10:5.704,O2:0.000,NO2:0.000,SO2:0.000,NH3:6.894
8:21:25,0,0,0,0,0,0,0,0,0,0,0,514,0,0,0,0,0.0000000,0.0000000,0.0000000,0.0000000,11.00,38.4064217,-110.7920380,1367.4000244,0.0,328.5,0.8,0.0,0.0,867,130,0,0,860.09,35.55,16.58,# data time:1070,pm2.5:6.445,pm10:5.704,O2:0.000,NO2:0.000,SO2:0.000,NH3:6.894
8:21:27,0,0,0,0,0,0,0,0,0,0,0,514,0,0,0,0,0.0000000,0.0000000,0.0000000,0.0000000,11.00,38.4064217,-110.7920380,1367.5000000,0.0,323.6,0.8,0.0,0.0,866,126,0,0,860.12,35.63,16.59,# data time:1070,pm2.5:6.445,pm10:5.704,O2:0.000,NO2:0.000,SO2:0.000,NH3:6.894
8:21:28,0,0,0,0,0,0,0,0,0,0,0,514,0,0,0,0,0.0000000,0.0000000,0.0000000,0.0000000,11.00,38.4064255,-110.7920380,1367.5999756,0.0,311.9,0.8,0.0,0.0,866,129,0,0,860.11,35.17,16.50,# data time:1070,pm2.5:6.445,pm10:5.704,O2:0.000,NO2:0.000,SO2:0.000,NH3:6.894
8:21:29,0,0,0,0,0,0,0,0,0,0,0,514,0,0,0,0,0.0000000,0.0000000,0.0000000,0.0000000,11.00,38.4064255,-110.7920380,1367.5999756,0.0,7.2,0.8,0.0,0.0,867,127,0,0,860.15,35.10,16.50,# data time:1070,pm2.5:6.445,pm10:5.704,O2:0.000,NO2:0.000,SO2:0.000,NH3:6.894
8:21:30,0,0,0,0,0,0,0,0,0,0,0,514,0,0,0,0,0.0000000,0.0000000,0.0000000,0.0000000,11.00,38.4064293,-110.7920227,1367.5999756,0.0,49.2,0.8,0.0,0.0,866,129,0,0,860.10,35.03,16.50,# data time:1070,pm2.5:6.445,pm10:5.704,O2:0.000,NO2:0.000,SO2:0.000,NH3:6.894
8:21:31,0,0,0,0,0,0,0,0,0,0,0,514,0,0,0,0,0.0000000,0.0000000,0.0000000,0.0000000,10.00,38.4064293,-110.7920227,1367.5999756,0.0,60.1,0.8,0.0,0.0,866,127,0,0,860.15,34.81,16.57,# data time:1070,pm2.5:6.445,pm10:5.704,O2:0.000,NO2:0.000,SO2:0.000,NH3:6.894
8:21:32,0,0,0,0,0,0,0,0,0,0,0,514,0,0,0,0,0.0000000,0.0000000,0.0000000,0.0000000,11.00,38.4064331,-110.7920227,1367.8000488,0.0,25.2,0.8,0.0,0.0,866,128,0,0,860.12,34.73,16.57,# data time:1070,pm2.5:6.445,pm10:5.704,O2:0.000,NO2:0.000,SO2:0.000,NH3:6.894
8:21:33,0,0,0,0,0,0,0,0,0,0,0,514,0,0,0,0,0.0000000,0.0000000,0.0000000,0.0000000,11.00,38.4064331,-110.7920227,1367.9000244,0.0,339.3,0.8,0.0,0.0,867,128,0,0,860.06,34.85,16.57,# data time:1070,pm2.5:6.445,pm10:5.704,O2:0.000,NO2:0.000,SO2:0.000,NH3:6.894
8:21:34,0,0,0,0,0,0,0,0,0,0,0,513,0,0,0,0,0.0000000,0.0000000,0.0000000,0.0000000,11.00,38.4064331,-110.7920227,1367.9000244,0.0,0.7,0.8,0.0,0.0,867,128,0,0,860.04,34.81,16.57,# data time:1070,pm2.5:6.445,pm10:5.704,O2:0.000,NO2:0.000,SO2:0.000,NH3:6.894
8:21:35,0,0,0,0,0,0,0,0,0,0,0,515,0,0,0,0,0.0000000,0.0000000,0.0000000,0.0000000,11.00,38.4064331,-110.7920227,1368.0000000,0.0,10.1,0.8,0.0,0.0,866,123,0,0,860.12,34.82,16.62,# data time:1070,pm2.5:6.445,pm10:5.704,O2:0.000,NO2:0.000,SO2:0.000,NH3:6.894
8:21:36,0,0,0,0,0,0,0,0,0,0,0,513,0,0,0,0,0.0000000,0.0000000,0.0000000,0.0000000,11.00,38.4064331,-110.7920227,1368.0000000,0.0,2.6,0.8,0.0,0.0,867,123,0,0,860.14,34.99,16.62,# data time:1080,pm2.5:6.445,pm10:5.704,O2:0.000,NO2:0.000,SO2:0.000,NH3:6.894
8:21:37,0,0,0,0,0,0,0,0,0,0,0,514,0,0,0,0,0.0000000,0.0000000,0.0000000,0.0000000,11.00,38.4064331,-110.7920151,1368.0000000,0.0,71.4,0.8,0.0,0.0,866,127,0,0,860.09,35.03,16.63,# data time:1080,pm2.5:6.445,pm10:5.704,O2:0.000,NO2:0.000,SO2:0.000,NH3:6.894
8:21:38,0,0,0,0,0,0,0,0,0,0,0,505,0,0,0,0,0.0000000,0.0000000,0.0000000,0.0000000,11.00,38.4064331,-110.7920151,1368.0000000,0.0,98.7,0.8,0.0,0.0,868,163,0,0,860.12,35.02,16.63,# data time:1080,pm2.5:6.445,pm10:5.704,O2:0.000,NO2:0.000,SO2:0.000,NH3:6.894
8:21:39,0,0,0,0,0,0,0,0,0,0,0,532,0,0,0,0,0.0000000,0.0000000,0.0000000,0.0000000,11.00,38.4064331,-110.7920151,1368.0000000,0.0,141.4,0.8,0.0,0.0,866,203,0,0,860.11,35.22,16.64,# data time:1080,pm2.5:6.445,pm10:5.704,O2:0.000,NO2:0.000,SO2:0.000,NH3:6.894
8:21:40,0,0,0,0,0,0,0,0,0,0,0,497,0,0,0,0,0.0000000,0.0000000,0.0000000,0.0000000,11.00,38.4064331,-110.7920151,1368.0000000,0.0,170.5,0.8,0.0,0.0,867,195,0,0,860.09,35.29,16.65,# data time:1080,pm2.5:6.445,pm10:5.704,O2:0.000,NO2:0.000,SO2:0.000,NH3:6.894
8:21:41,0,0,0,0,0,0,0,0,0,0,0,514,0,0,0,0,0.0000000,0.0000000,0.0000000,0.0000000,11.00,38.4064293,-110.7920151,1367.9000244,0.0,193.4,0.8,0.0,0.0,866,128,0,0,860.04,35.32,16.65,# data time:1080,pm2.5:6.445,pm10:5.704,O2:0.000,NO2:0.000,SO2:0.000,NH3:6.894
8:21:42,0,0,0,0,0,0,0,0,0,0,0,514,0,0,0,0,0.0000000,0.0000000,0.0000000,0.0000000,10.00,38.4064293,-110.7920151,1367.9000244,0.0,50.1,0.8,0.0,0.0,866,131,0,0,860.09,35.37,16.65,# data time:1080,pm2.5:6.445,pm10:5.704,O2:0.000,NO2:0.000,SO2:0.000,NH3:6.894
8:21:43,0,0,0,0,0,0,0,0,0,0,0,518,0,0,0,0,0.0000000,0.0000000,0.0000000,0.0000000,11.00,38.4064293,-110.7920151,1367.8000488,0.0,132.4,0.8,0.0,0.0,867,112,0,0,860.07,35.39,16.66,# data time:1080,pm2.5:6.445,pm10:5.704,O2:0.000,NO2:0.000,SO2:0.000,NH3:6.894
8:21:44,0,0,0,0,0,0,0,0,0,0,0,515,0,0,0,0,0.0000000,0.0000000,0.0000000,0.0000000,11.00,38.4064293,-110.7920151,1367.8000488,0.0,81.2,0.8,0.0,0.0,869,106,0,0,860.09,35.45,16.67,# data time:1080,pm2.5:6.445,pm10:5.704,O2:0.000,NO2:0.000,SO2:0.000,NH3:6.894
8:21:45,0,0,0,0,0,0,0,0,0,0,0,514,0,0,0,0,0.0000000,0.0000000,0.0000000,0.0000000,11.00,38.4064293,-110.7920151,1367.8000488,0.0,83.0,0.8,0.0,0.0,867,128,0,0,860.06,35.51,16.67,# data time:1080,pm2.5:6.445,pm10:5.704,O2:0.000,NO2:0.000,SO2:0.000,NH3:6.894
8:21:46,0,0,0,0,0,0,0,0,0,0,0,514,0,0,0,0,0.0000000,0.0000000,0.0000000,0.0000000,11.00,38.4064293,-110.7920151,1367.8000488,0.0,98.9,0.8,0.0,0.0,867,133,0,0,860.07,35.58,16.63,# data time:1090,pm2.5:6.445,pm10:5.704,O2:0.000,NO2:0.000,SO2:0.000,NH3:6.894
8:21:47,0,0,0,0,0,0,0,0,0,0,0,514,0,0,0,0,0.0000000,0.0000000,0.0000000,0.0000000,11.00,38.4064293,-110.7920151,1367.8000488,0.0,218.2,0.8,0.0,0.0,866,129,0,0,860.12,35.49,16.68,# data time:1090,pm2.5:6.445,pm10:5.704,O2:0.000,NO2:0.000,SO2:0.000,NH3:6.894
8:21:48,0,0,0,0,0,0,0,0,0,0,0,516,0,0,0,0,0.0000000,0.0000000,0.0000000,0.0000000,11.00,38.4064293,-110.7920151,1367.8000488,0.0,11.4,0.8,0.0,0.0,868,157,0,0,860.12,35.25,16.69,# data time:1090,pm2.5:6.445,pm10:5.704,O2:0.000,NO2:0.000,SO2:0.000,NH3:6.894
8:21:49,0,0,0,0,0,0,0,0,0,0,0,507,0,0,0,0,0.0000000,0.0000000,0.0000000,0.0000000,11.00,38.4064293,-110.7920151,1367.8000488,0.0,358.8,0.8,0.0,0.0,867,95,0,0,860.11,35.05,16.69,# data time:1090,pm2.5:6.445,pm10:5.704,O2:0.000,NO2:0.000,SO2:0.000,NH3:6.894
8:21:50,0,0,0,0,0,0,0,0,0,0,0,508,0,0,0,0,0.0000000,0.0000000,0.0000000,0.0000000,11.00,38.4064293,-110.7920151,1367.8000488,0.0,294.6,0.8,0.0,0.0,861,203,0,0,860.01,34.94,16.69,# data time:1090,pm2.5:6.445,pm10:5.704,O2:0.000,NO2:0.000,SO2:0.000,NH3:6.894
8:21:51,0,0,0,0,0,0,0,0,0,0,0,514,0,0,0,0,0.0000000,0.0000000,0.0000000,0.0000000,11.00,38.4064293,-110.7920151,1367.8000488,0.0,313.0,0.8,0.0,0.0,866,127,0,0,860.04,35.13,16.70,# data time:1090,pm2.5:6.445,pm10:5.704,O2:0.000,NO2:0.000,SO2:0.000,NH3:6.894
8:21:52,0,0,0,0,0,0,0,0,0,0,0,514,0,0,0,0,0.0000000,0.0000000,0.0000000,0.0000000,11.00,38.4064293,-110.7920151,1367.8000488,0.0,34.9,0.8,0.0,0.0,867,128,0,0,860.17,35.25,16.71,# data time:1090,pm2.5:6.445,pm10:5.704,O2:0.000,NO2:0.000,SO2:0.000,NH3:6.894
8:21:53,0,0,0,0,0,0,0,0,0,0,0,512,0,0,0,0,0.0000000,0.0000000,0.0000000,0.0000000,11.00,38.4064293,-110.7920151,1367.8000488,0.0,262.8,0.8,0.0,0.0,866,124,0,0,860.08,35.03,16.71,# data time:1090,pm2.5:6.445,pm10:5.704,O2:0.000,NO2:0.000,SO2:0.000,NH3:6.894
8:21:54,0,0,0,0,0,0,0,0,0,0,0,513,0,0,0,0,0.0000000,0.0000000,0.0000000,0.0000000,11.00,38.4064293,-110.7920151,1367.8000488,0.0,314.3,0.8,0.0,0.0,866,129,0,0,860.16,35.08,16.72,# data time:1090,pm2.5:6.445,pm10:5.704,O2:0.000,NO2:0.000,SO2:0.000,NH3:6.894
8:21:55,0,0,0,0,0,0,0,0,0,0,0,514,0,0,0,0,0.0000000,0.0000000,0.0000000,0.0000000,11.00,38.4064293,-110.7920151,1367.8000488,0.0,7.8,0.8,0.0,0.0,866,125,0,0,860.14,35.14,16.72,# data time:1090,pm2.5:6.445,pm10:5.704,O2:0.000,NO2:0.000,SO2:0.000,NH3:6.894
8:21:56,0,0,0,0,0,0,0,0,0,0,0,514,0,0,0,0,0.0000000,0.0000000,0.0000000,0.0000000,11.00,38.4064293,-110.7920151,1367.8000488,0.0,175.3,0.8,0.0,0.0,867,127,0,0,860.07,35.34,16.72,# data time:1100,pm2.5:6.445,pm10:5.704,O2:0.000,NO2:0.000,SO2:0.000,NH3:7.120
8:21:57,0,0,0,0,0,0,0,0,0,0,0,513,0,0,0,0,0.0000000,0.0000000,0.0000000,0.0000000,11.00,38.4064293,-110.7920151,1367.8000488,0.0,282.2,0.8,0.0,0.0,866,131,0,0,860.02,35.36,16.73,# data time:1100,pm2.5:6.445,pm10:5.704,O2:0.000,NO2:0.000,SO2:0.000,NH3:7.120
8:21:58,0,0,0,0,0,0,0,0,0,0,0,513,0,0,0,0,0.0000000,0.0000000,0.0000000,0.0000000,11.00,38.4064293,-110.7920151,1367.8000488,0.0,112.3,0.8,0.0,0.0,866,127,0,0,860.01,35.23,16.74,# data time:1100,pm2.5:6.445,pm10:5.704,O2:0.000,NO2:0.000,SO2:0.000,NH3:7.120
8:21:59,0,0,0,0,0,0,0,0,0,0,0,514,0,0,0,0,0.0000000,0.0000000,0.0000000,0.0000000,11.00,38.4064293,-110.7920151,1367.8000488,0.0,93.4,0.8,0.0,0.0,865,140,0,0,859.96,35.03,16.74,# data time:1100,pm2.5:6.445,pm10:5.704,O2:0.000,NO2:0.000,SO2:0.000,NH3:7.120
8:22:00,0,0,0,0,0,0,0,0,0,0,0,514,0,0,0,0,0.0000000,0.0000000,0.0000000,0.0000000,11.00,38.4064293,-110.7920151,1367.8000488,0.0,143.4,0.8,0.0,0.0,866,134,0,0,859.99,34.70,16.74,# data time:1100,pm2.5:6.445,pm10:5.704,O2:0.000,NO2:0.000,SO2:0.000,NH3:7.120
8:22:01,0,0,0,0,0,0,0,0,0,0,0,515,0,0,0,0,0.0000000,0.0000000,0.0000000,0.0000000,11.00,38.4064293,-110.7920151,1367.8000488,0.1,124.3,0.8,0.0,0.0,866,129,0,0,860.08,34.94,16.74,# data time:1100,pm2.5:6.445,pm10:5.704,O2:0.000,NO2:0.000,SO2:0.000,NH3:7.120
8:22:02,0,0,0,0,0,0,0,0,0,0,0,514,0,0,0,0,0.0000000,0.0000000,0.0000000,0.0000000,11.00,38.4064293,-110.7920151,1367.8000488,0.0,143.9,0.8,0.0,0.0,866,108,0,0,860.03,34.99,16.75,# data time:1100,pm2.5:6.445,pm10:5.704,O2:0.000,NO2:0.000,SO2:0.000,NH3:7.120
8:22:03,0,0,0,0,0,0,0,0,0,0,0,515,0,0,0,0,0.0000000,0.0000000,0.0000000,0.0000000,11.00,38.4064293,-110.7920151,1367.8000488,0.0,94.4,0.8,0.0,0.0,866,130,0,0,860.05,34.91,16.75,# data time:1100,pm2.5:6.445,pm10:5.704,O2:0.000,NO2:0.000,SO2:0.000,NH3:7.120
8:22:04,0,0,0,0,0,0,0,0,0,0,0,520,0,0,0,0,0.0000000,0.0000000,0.0000000,0.0000000,11.00,38.4064293,-110.7920151,1367.8000488,0.0,62.4,0.8,0.0,0.0,870,125,0,0,860.10,34.97,16.76,# data time:1100,pm2.5:6.445,pm10:5.704,O2:0.000,NO2:0.000,SO2:0.000,NH3:7.120
8:22:05,0,0,0,0,0,0,0,0,0,0,0,514,0,0,0,0,0.0000000,0.0000000,0.0000000,0.0000000,11.00,38.4064293,-110.7920151,1367.8000488,0.0,298.8,0.8,0.0,0.0,866,130,0,0,860.17,34.96,16.76,# data time:1100,pm2.5:6.445,pm10:5.704,O2:0.000,NO2:0.000,SO2:0.000,NH3:7.120
8:22:06,0,0,0,0,0,0,0,0,0,0,0,515,0,0,0,0,0.0000000,0.0000000,0.0000000,0.0000000,11.00,38.4064293,-110.7920151,1367.8000488,0.0,87.7,0.8,0.0,0.0,866,127,0,0,860.16,34.73,16.77,# data time:1110,pm2.5:6.445,pm10:5.704,O2:0.000,NO2:0.000,SO2:0.000,NH3:7.346
8:22:07,0,0,0,0,0,0,0,0,0,0,0,514,0,0,0,0,0.0000000,0.0000000,0.0000000,0.0000000,11.00,38.4064293,-110.7920151,1367.8000488,0.0,20.0,0.8,0.0,0.0,866,129,0,0,860.15,34.61,16.78,# data time:1110,pm2.5:6.445,pm10:5.704,O2:0.000,NO2:0.000,SO2:0.000,NH3:7.346
8:22:08,0,0,0,0,0,0,0,0,0,0,0,514,0,0,0,0,0.0000000,0.0000000,0.0000000,0.0000000,11.00,38.4064293,-110.7920151,1367.8000488,0.0,265.1,0.8,0.0,0.0,866,129,0,0,860.13,34.62,16.78,# data time:1110,pm2.5:6.445,pm10:5.704,O2:0.000,NO2:0.000,SO2:0.000,NH3:7.346
8:22:09,0,0,0,0,0,0,0,0,0,0,0,514,0,0,0,0,0.0000000,0.0000000,0.0000000,0.0000000,11.00,38.4064293,-110.7920151,1367.8000488,0.0,333.4,0.8,0.0,0.0,866,129,0,0,860.12,34.65,16.79,# data time:1110,pm2.5:6.445,pm10:5.704,O2:0.000,NO2:0.000,SO2:0.000,NH3:7.346
8:22:10,0,0,0,0,0,0,0,0,0,0,0,514,0,0,0,0,0.0000000,0.0000000,0.0000000,0.0000000,11.00,38.4064293,-110.7920151,1367.8000488,0.0,289.1,0.8,0.0,0.0,866,130,0,0,860.10,34.71,16.79,# data time:1110,pm2.5:6.445,pm10:5.704,O2:0.000,NO2:0.000,SO2:0.000,NH3:7.346
8:22:11,0,0,0,0,0,0,0,0,0,0,0,514,0,0,0,0,0.0000000,0.0000000,0.0000000,0.0000000,11.00,38.4064293,-110.7920151,1367.8000488,0.0,267.0,0.8,0.0,0.0,866,127,0,0,860.10,34.81,16.80,# data time:1110,pm2.5:6.445,pm10:5.704,O2:0.000,NO2:0.000,SO2:0.000,NH3:7.346
8:22:12,0,0,0,0,0,0,0,0,0,0,0,514,0,0,0,0,0.0000000,0.0000000,0.0000000,0.0000000,11.00,38.4064293,-110.7920151,1367.8000488,0.0,103.0,0.8,0.0,0.0,866,128,0,0,860.11,34.82,16.80,# data time:1110,pm2.5:6.445,pm10:5.704,O2:0.000,NO2:0.000,SO2:0.000,NH3:7.346
8:22:13,0,0,0,0,0,0,0,0,0,0,0,514,0,0,0,0,0.0000000,0.0000000,0.0000000,0.0000000,11.00,38.4064293,-110.7920151,1367.8000488,0.0,229.9,0.8,0.0,0.0,866,127,0,0,860.17,35.13,16.81,# data time:1110,pm2.5:6.445,pm10:5.704,O2:0.000,NO2:0.000,SO2:0.000,NH3:7.346
8:22:14,0,0,0,0,0,0,0,0,0,0,0,514,0,0,0,0,0.0000000,0.0000000,0.0000000,0.0000000,11.00,38.4064293,-110.7920151,1367.8000488,0.0,125.7,0.8,0.0,0.0,866,131,0,0,860.23,35.14,16.81,# data time:1110,pm2.5:6.445,pm10:5.704,O2:0.000,NO2:0.000,SO2:0.000,NH3:7.346
8:22:15,0,0,0,0,0,0,0,0,0,0,0,514,0,0,0,0,0.0000000,0.0000000,0.0000000,0.0000000,11.00,38.4064293,-110.7920151,1367.8000488,0.0,70.3,0.8,0.0,0.0,867,131,0,0,860.18,35.07,16.82,# data time:1110,pm2.5:6.445,pm10:5.704,O2:0.000,NO2:0.000,SO2:0.000,NH3:7.346
8:22:16,0,0,0,0,0,0,0,0,0,0,0,514,0,0,0,0,0.0000000,0.0000000,0.0000000,0.0000000,11.00,38.4064293,-110.7920151,1367.8000488,0.0,157.9,0.8,0.0,0.0,866,128,0,0,860.14,34.52,16.81,# data time:1120,pm2.5:5.640,pm10:4.991,O2:0.000,NO2:0.000,SO2:0.000,NH3:7.346
8:22:17,0,0,0,0,0,0,0,0,0,0,0,514,0,0,0,0,0.0000000,0.0000000,0.0000000,0.0000000,11.00,38.4064293,-110.7920151,1367.8000488,0.0,313.0,0.8,0.0,0.0,866,127,0,0,860.15,33.84,16.81,# data time:1120,pm2.5:5.640,pm10:4.991,O2:0.000,NO2:0.000,SO2:0.000,NH3:7.346
8:22:18,0,0,0,0,0,0,0,0,0,0,0,514,0,0,0,0,0.0000000,0.0000000,0.0000000,0.0000000,11.00,38.4064293,-110.7920151,1367.6999512,0.0,61.9,0.8,0.0,0.0,866,125,0,0,860.10,33.80,16.82,# data time:1120,pm2.5:5.640,pm10:4.991,O2:0.000,NO2:0.000,SO2:0.000,NH3:7.346
8:22:19,0,0,0,0,0,0,0,0,0,0,0,514,0,0,0,0,0.0000000,0.0000000,0.0000000,0.0000000,11.00,38.4064293,-110.7920151,1367.6999512,0.0,150.5,0.8,0.0,0.0,867,129,0,0,860.11,33.94,16.82,# data time:1120,pm2.5:5.640,pm10:4.991,O2:0.000,NO2:0.000,SO2:0.000,NH3:7.346
8:22:20,0,0,0,0,0,0,0,0,0,0,0,514,0,0,0,0,0.0000000,0.0000000,0.0000000,0.0000000,11.00,38.4064293,-110.7920151,1367.6999512,0.0,33.6,0.8,0.0,0.0,866,132,0,0,860.09,34.29,16.83,# data time:1120,pm2.5:5.640,pm10:4.991,O2:0.000,NO2:0.000,SO2:0.000,NH3:7.346
8:22:21,0,0,0,0,0,0,0,0,0,0,0,514,0,0,0,0,0.0000000,0.0000000,0.0000000,0.0000000,10.00,38.4064293,-110.7920151,1367.6999512,0.0,180.7,0.8,0.0,0.0,866,128,0,0,860.07,34.47,16.84,# data time:1120,pm2.5:5.640,pm10:4.991,O2:0.000,NO2:0.000,SO2:0.000,NH3:7.346
8:22:22,0,0,0,0,0,0,0,0,0,0,0,513,0,0,0,0,0.0000000,0.0000000,0.0000000,0.0000000,10.00,38.4064293,-110.7920151,1367.6999512,0.0,186.6,0.8,0.0,0.0,866,127,0,0,860.15,34.67,16.84,# data time:1120,pm2.5:5.640,pm10:4.991,O2:0.000,NO2:0.000,SO2:0.000,NH3:7.346
8:22:23,0,0,0,0,0,0,0,0,0,0,0,514,0,0,0,0,0.0000000,0.0000000,0.0000000,0.0000000,10.00,38.4064293,-110.7920151,1367.6999512,0.0,219.5,0.8,0.0,0.0,866,132,0,0,860.09,34.71,16.85,# data time:1120,pm2.5:5.640,pm10:4.991,O2:0.000,NO2:0.000,SO2:0.000,NH3:7.346
8:22:24,0,0,0,0,0,0,0,0,0,0,0,505,0,0,0,0,0.0000000,0.0000000,0.0000000,0.0000000,10.00,38.4064293,-110.7920151,1367.6999512,0.0,54.2,0.8,0.0,0.0,867,97,0,0,860.07,34.74,16.86,# data time:1120,pm2.5:5.640,pm10:4.991,O2:0.000,NO2:0.000,SO2:0.000,NH3:7.346
8:22:25,0,0,0,0,0,0,0,0,0,0,0,516,0,0,0,0,0.0000000,0.0000000,0.0000000,0.0000000,10.00,38.4064293,-110.7920151,1367.6999512,0.0,65.1,0.8,0.0,0.0,873,82,0,0,860.11,34.87,16.86,# data time:1130,pm2.5:6.445,pm10:5.704,O2:0.000,NO2:0.000,SO2:0.000,NH3:7.346
8:22:27,0,0,0,0,0,0,0,0,0,0,0,503,0,0,0,0,0.0000000,0.0000000,0.0000000,0.0000000,10.00,38.4064293,-110.7920151,1367.6999512,0.0,168.6,0.8,0.0,0.0,866,62,0,0,860.16,34.91,16.86,# data time:1130,pm2.5:6.445,pm10:5.704,O2:0.000,NO2:0.000,SO2:0.000,NH3:7.346
8:22:28,0,0,0,0,0,0,0,0,0,0,0,514,0,0,0,0,0.0000000,0.0000000,0.0000000,0.0000000,11.00,38.4064293,-110.7920151,1367.6999512,0.0,214.5,0.8,0.0,0.0,858,148,0,0,860.13,34.71,16.78,# data time:1130,pm2.5:6.445,pm10:5.704,O2:0.000,NO2:0.000,SO2:0.000,NH3:7.346
8:22:29,0,0,0,0,0,0,0,0,0,0,0,502,0,0,0,0,0.0000000,0.0000000,0.0000000,0.0000000,11.00,38.4064293,-110.7920151,1367.6999512,0.0,214.5,0.8,0.0,0.0,864,177,0,0,860.07,34.65,16.78,# data time:1130,pm2.5:6.445,pm10:5.704,O2:0.000,NO2:0.000,SO2:0.000,NH3:7.346
8:22:30,0,0,0,0,0,0,0,0,0,0,0,520,0,0,0,0,0.0000000,0.0000000,0.0000000,0.0000000,11.00,38.4064293,-110.7920151,1367.6999512,0.0,262.0,0.8,0.0,0.0,863,128,0,0,860.13,34.91,16.78,# data time:1130,pm2.5:6.445,pm10:5.704,O2:0.000,NO2:0.000,SO2:0.000,NH3:7.346
8:22:31,0,0,0,0,0,0,0,0,0,0,0,503,0,0,0,0,0.0000000,0.0000000,0.0000000,0.0000000,11.00,38.4064293,-110.7920151,1367.6999512,0.0,262.0,0.8,0.0,0.0,873,106,0,0,860.12,35.00,16.85,# data time:1130,pm2.5:6.445,pm10:5.704,O2:0.000,NO2:0.000,SO2:0.000,NH3:7.346
8:22:32,0,0,0,0,0,0,0,0,0,0,0,498,0,0,0,0,0.0000000,0.0000000,0.0000000,0.0000000,11.00,38.4064293,-110.7920151,1367.6999512,0.0,80.2,0.8,0.0,0.0,871,154,0,0,860.14,34.84,16.85,# data time:1130,pm2.5:6.445,pm10:5.704,O2:0.000,NO2:0.000,SO2:0.000,NH3:7.346
8:22:33,0,0,0,0,0,0,0,0,0,0,0,525,0,0,0,0,0.0000000,0.0000000,0.0000000,0.0000000,10.00,38.4064293,-110.7920151,1367.6999512,0.0,60.3,0.8,0.0,0.0,870,147,0,0,860.12,34.74,16.85,# data time:1130,pm2.5:6.445,pm10:5.704,O2:0.000,NO2:0.000,SO2:0.000,NH3:7.346
