Time, Motor A Speed, Motor A Dir, Motor B Speed, Motor B Dir, Servo Rail Current Sensor, Servo Pos - Arm L, Servo Pos - Arm R, Servo Pos - End, Servo Pos - Hopper, Servo Pos - Lid, Servo Pos - Extra, Servo Current, LED - Front L, LED - Front R, LED - Back L, LED - Back R, IMU Pitch, IMU Roll, IMU Yaw, Compass Heading, GPS Sats, GPS Latitude, GPS Longitude, GPS Altitude, GPS Speed, GPS Angle, GPS HDOP, GPS VDOP, GPS PDOP, Battery, Comm Xbee Latency, Comm Arduino Latency, Pressure, Humidity, Temperature, uRADMonitor
9:12:51,0,0,0,0,0,0,0,0,0,0,0,0,0,0,0,0,0.0000000,0.0000000,0.0000000,0.0000000,0.00,0.0000000,0.0000000,0.0000000,0.0,0.0,0.0,0.0,0.0,0,0,0,0.00,0.00,0.00,0
9:12:52,0,0,0,0,0,0,0,0,0,0,0,513,0,0,0,0,0.0000000,0.0000000,0.0000000,0.0000000,0.00,0.0000000,0.0000000,0.0000000,0.0,0.0,0.0,0.0,0.0,916,0,0,858.80,19.81,21.62,0
9:12:53,0,0,0,0,0,0,0,0,0,0,0,514,0,0,0,0,0.0000000,0.0000000,0.0000000,0.0000000,0.00,0.0000000,0.0000000,0.0000000,0.0,0.0,0.0,0.0,0.0,915,0,0,858.76,18.20,21.67,0
9:12:54,0,0,0,0,0,0,0,0,0,0,0,514,0,0,0,0,0.0000000,0.0000000,0.0000000,0.0000000,0.00,0.0000000,0.0000000,0.0000000,0.0,0.0,0.0,0.0,0.0,915,0,0,858.79,17.11,21.67,0
9:12:55,0,0,0,0,0,0,0,0,0,0,0,514,0,0,0,0,0.0000000,0.0000000,0.0000000,0.0000000,0.00,0.0000000,0.0000000,0.0000000,0.0,0.0,0.0,0.0,0.0,915,0,0,858.81,16.42,21.67,0
9:12:56,0,0,0,0,0,0,0,0,0,0,0,513,0,0,0,0,0.0000000,0.0000000,0.0000000,0.0000000,0.00,0.0000000,0.0000000,0.0000000,0.0,0.0,0.0,0.0,0.0,915,0,0,858.77,15.90,21.67,0
9:12:57,0,0,0,0,0,0,0,0,0,0,0,513,0,0,0,0,0.0000000,0.0000000,0.0000000,0.0000000,0.00,0.0000000,0.0000000,0.0000000,0.0,0.0,0.0,0.0,0.0,915,0,0,858.77,15.64,21.66,0
9:12:58,0,0,0,0,0,0,0,0,0,0,0,514,0,0,0,0,0.0000000,0.0000000,0.0000000,0.0000000,0.00,0.0000000,0.0000000,0.0000000,0.0,0.0,0.0,0.0,0.0,915,0,0,858.74,15.52,21.66,0
9:12:59,0,0,0,0,0,0,0,0,0,0,0,513,0,0,0,0,0.0000000,0.0000000,0.0000000,0.0000000,0.00,0.0000000,0.0000000,0.0000000,0.0,0.0,0.0,0.0,0.0,914,0,0,858.74,16.28,21.66,0
9:13:00,0,0,0,0,0,0,0,0,0,0,0,514,0,0,0,0,0.0000000,0.0000000,0.0000000,0.0000000,0.00,0.0000000,0.0000000,0.0000000,0.0,0.0,0.0,0.0,0.0,915,0,0,858.71,16.43,21.70,0
9:13:01,0,0,0,0,0,0,0,0,0,0,0,513,0,0,0,0,0.0000000,0.0000000,0.0000000,0.0000000,0.00,0.0000000,0.0000000,0.0000000,0.0,0.0,0.0,0.0,0.0,916,0,0,858.69,16.17,21.70,0
9:13:02,0,0,0,0,0,0,0,0,0,0,0,513,0,0,0,0,0.0000000,0.0000000,0.0000000,0.0000000,0.00,0.0000000,0.0000000,0.0000000,0.0,0.0,0.0,0.0,0.0,915,0,0,858.71,15.95,21.69,0
9:13:03,0,0,0,0,0,0,0,0,0,0,0,513,0,0,0,0,0.0000000,0.0000000,0.0000000,0.0000000,0.00,0.0000000,0.0000000,0.0000000,0.0,0.0,0.0,0.0,0.0,915,0,0,858.74,15.98,21.69,0
9:13:04,0,0,0,0,0,0,0,0,0,0,0,514,0,0,0,0,0.0000000,0.0000000,0.0000000,0.0000000,0.00,0.0000000,0.0000000,0.0000000,0.0,0.0,0.0,0.0,0.0,915,0,0,858.87,15.63,21.69,0
9:13:05,0,0,0,0,0,0,0,0,0,0,0,513,0,0,0,0,0.0000000,0.0000000,0.0000000,0.0000000,0.00,0.0000000,0.0000000,0.0000000,0.0,0.0,0.0,0.0,0.0,914,0,0,858.72,15.34,21.68,0
9:13:06,0,0,0,0,0,0,0,0,0,0,0,514,0,0,0,0,0.0000000,0.0000000,0.0000000,0.0000000,0.00,0.0000000,0.0000000,0.0000000,0.0,0.0,0.0,0.0,0.0,915,0,0,858.77,15.37,21.68,0
9:13:07,0,0,0,0,0,0,0,0,0,0,0,514,0,0,0,0,0.0000000,0.0000000,0.0000000,0.0000000,0.00,0.0000000,0.0000000,0.0000000,0.0,0.0,0.0,0.0,0.0,915,0,0,858.69,15.43,21.68,0
9:13:08,0,0,0,0,0,0,0,0,0,0,0,513,0,0,0,0,0.0000000,0.0000000,0.0000000,0.0000000,0.00,0.0000000,0.0000000,0.0000000,0.0,0.0,0.0,0.0,0.0,915,0,0,858.73,15.27,21.68,0
9:13:09,0,0,0,0,0,0,0,0,0,0,0,514,0,0,0,0,0.0000000,0.0000000,0.0000000,0.0000000,0.00,0.0000000,0.0000000,0.0000000,0.0,0.0,0.0,0.0,0.0,914,0,0,858.75,14.97,21.66,0
9:13:10,0,0,0,0,0,0,0,0,0,0,0,513,0,0,0,0,0.0000000,0.0000000,0.0000000,0.0000000,0.00,0.0000000,0.0000000,0.0000000,0.0,0.0,0.0,0.0,0.0,915,0,0,858.77,14.85,21.64,0
9:13:11,0,0,0,0,0,0,0,0,0,0,0,514,0,0,0,0,0.0000000,0.0000000,0.0000000,0.0000000,0.00,0.0000000,0.0000000,0.0000000,0.0,0.0,0.0,0.0,0.0,915,0,0,858.78,15.31,21.65,0
9:13:12,0,0,0,0,0,0,0,0,0,0,0,513,0,0,0,0,0.0000000,0.0000000,0.0000000,0.0000000,0.00,0.0000000,0.0000000,0.0000000,0.0,0.0,0.0,0.0,0.0,915,0,0,858.74,15.55,21.58,0
9:13:13,0,0,0,0,0,0,0,0,0,0,0,514,0,0,0,0,0.0000000,0.0000000,0.0000000,0.0000000,0.00,0.0000000,0.0000000,0.0000000,0.0,0.0,0.0,0.0,0.0,915,0,0,858.76,15.73,21.62,0
9:13:14,0,0,0,0,0,0,0,0,0,0,0,514,0,0,0,0,0.0000000,0.0000000,0.0000000,0.0000000,0.00,0.0000000,0.0000000,0.0000000,0.0,0.0,0.0,0.0,0.0,914,0,0,858.74,16.05,21.63,0
9:13:15,0,0,0,0,0,0,0,0,0,0,0,513,0,0,0,0,0.0000000,0.0000000,0.0000000,0.0000000,0.00,0.0000000,0.0000000,0.0000000,0.0,0.0,0.0,0.0,0.0,915,0,0,858.73,15.75,21.63,0
9:13:16,0,0,0,0,0,0,0,0,0,0,0,514,0,0,0,0,0.0000000,0.0000000,0.0000000,0.0000000,0.00,0.0000000,0.0000000,0.0000000,0.0,0.0,0.0,0.0,0.0,915,0,0,858.76,15.63,21.63,0
9:13:17,0,0,0,0,0,0,0,0,0,0,0,513,0,0,0,0,0.0000000,0.0000000,0.0000000,0.0000000,0.00,0.0000000,0.0000000,0.0000000,0.0,0.0,0.0,0.0,0.0,914,0,0,858.80,15.98,21.72,0
9:13:18,0,0,0,0,0,0,0,0,0,0,0,514,0,0,0,0,0.0000000,0.0000000,0.0000000,0.0000000,0.00,0.0000000,0.0000000,0.0000000,0.0,0.0,0.0,0.0,0.0,915,0,0,858.76,15.99,21.65,0
9:13:19,0,0,0,0,0,0,0,0,0,0,0,513,0,0,0,0,0.0000000,0.0000000,0.0000000,0.0000000,0.00,0.0000000,0.0000000,0.0000000,0.0,0.0,0.0,0.0,0.0,915,0,0,858.73,15.70,21.65,0
9:13:20,0,0,0,0,0,0,0,0,0,0,0,512,0,0,0,0,0.0000000,0.0000000,0.0000000,0.0000000,0.00,0.0000000,0.0000000,0.0000000,0.0,0.0,0.0,0.0,0.0,915,0,0,858.79,15.56,21.65,0
9:13:21,0,0,0,0,0,0,0,0,0,0,0,513,0,0,0,0,0.0000000,0.0000000,0.0000000,0.0000000,0.00,0.0000000,0.0000000,0.0000000,0.0,0.0,0.0,0.0,0.0,915,0,0,858.80,15.24,21.65,0
9:13:22,0,0,0,0,0,0,0,0,0,0,0,513,0,0,0,0,0.0000000,0.0000000,0.0000000,0.0000000,0.00,0.0000000,0.0000000,0.0000000,0.0,0.0,0.0,0.0,0.0,915,0,0,858.77,15.08,21.64,0
9:13:23,0,0,0,0,0,0,0,0,0,0,0,513,0,0,0,0,0.0000000,0.0000000,0.0000000,0.0000000,0.00,0.0000000,0.0000000,0.0000000,0.0,0.0,0.0,0.0,0.0,915,0,0,858.79,15.12,21.72,0
9:13:24,0,0,0,0,0,0,0,0,0,0,0,513,0,0,0,0,0.0000000,0.0000000,0.0000000,0.0000000,0.00,0.0000000,0.0000000,0.0000000,0.0,0.0,0.0,0.0,0.0,914,0,0,858.82,15.06,21.63,0
9:13:25,0,0,0,0,0,0,0,0,0,0,0,513,0,0,0,0,0.0000000,0.0000000,0.0000000,0.0000000,0.00,0.0000000,0.0000000,0.0000000,0.0,0.0,0.0,0.0,0.0,915,0,0,858.77,15.38,21.63,0
9:13:26,0,0,0,0,0,0,0,0,0,0,0,514,0,0,0,0,0.0000000,0.0000000,0.0000000,0.0000000,0.00,0.0000000,0.0000000,0.0000000,0.0,0.0,0.0,0.0,0.0,915,0,0,858.78,15.75,21.63,0
9:13:27,0,0,0,0,0,0,0,0,0,0,0,514,0,0,0,0,0.0000000,0.0000000,0.0000000,0.0000000,0.00,0.0000000,0.0000000,0.0000000,0.0,0.0,0.0,0.0,0.0,915,0,0,858.80,15.82,21.64,0
9:13:28,0,0,0,0,0,0,0,0,0,0,0,513,0,0,0,0,0.0000000,0.0000000,0.0000000,0.0000000,0.00,0.0000000,0.0000000,0.0000000,0.0,0.0,0.0,0.0,0.0,915,0,0,858.79,16.27,21.67,0
9:13:29,0,0,0,0,0,0,0,0,0,0,0,512,0,0,0,0,0.0000000,0.0000000,0.0000000,0.0000000,0.00,0.0000000,0.0000000,0.0000000,0.0,0.0,0.0,0.0,0.0,912,0,0,858.74,16.94,21.70,0
9:13:30,0,0,0,0,0,0,0,0,0,0,0,514,0,0,0,0,0.0000000,0.0000000,0.0000000,0.0000000,0.00,0.0000000,0.0000000,0.0000000,0.0,0.0,0.0,0.0,0.0,916,0,0,858.83,16.59,21.70,0
9:13:31,0,0,0,0,0,0,0,0,0,0,0,517,0,0,0,0,0.0000000,0.0000000,0.0000000,0.0000000,0.00,0.0000000,0.0000000,0.0000000,0.0,0.0,0.0,0.0,0.0,916,0,0,858.81,16.27,21.69,0
9:13:32,0,0,0,0,0,0,0,0,0,0,0,512,0,0,0,0,0.0000000,0.0000000,0.0000000,0.0000000,0.00,0.0000000,0.0000000,0.0000000,0.0,0.0,0.0,0.0,0.0,913,0,0,858.82,16.27,21.69,0
9:13:33,0,0,0,0,0,0,0,0,0,0,0,507,0,0,0,0,0.0000000,0.0000000,0.0000000,0.0000000,0.00,0.0000000,0.0000000,0.0000000,0.0,0.0,0.0,0.0,0.0,915,0,0,858.77,16.25,21.70,0
9:13:34,0,0,0,0,0,0,0,0,0,0,0,507,0,0,0,0,0.0000000,0.0000000,0.0000000,0.0000000,0.00,0.0000000,0.0000000,0.0000000,0.0,0.0,0.0,0.0,0.0,912,0,0,858.81,16.46,21.71,0
9:13:35,0,0,0,0,0,0,0,0,0,0,0,511,0,0,0,0,0.0000000,0.0000000,0.0000000,0.0000000,0.00,0.0000000,0.0000000,0.0000000,0.0,0.0,0.0,0.0,0.0,915,0,0,858.76,17.21,21.72,0
9:13:36,0,0,0,0,0,0,0,0,0,0,0,512,0,0,0,0,0.0000000,0.0000000,0.0000000,0.0000000,0.00,0.0000000,0.0000000,0.0000000,0.0,0.0,0.0,0.0,0.0,914,0,0,858.75,17.11,21.72,0
9:13:37,0,0,0,0,0,0,0,0,0,0,0,514,0,0,0,0,0.0000000,0.0000000,0.0000000,0.0000000,0.00,0.0000000,0.0000000,0.0000000,0.0,0.0,0.0,0.0,0.0,914,0,0,858.79,16.95,21.72,0
9:13:38,0,0,0,0,0,0,0,0,0,0,0,517,0,0,0,0,0.0000000,0.0000000,0.0000000,0.0000000,0.00,0.0000000,0.0000000,0.0000000,0.0,0.0,0.0,0.0,0.0,917,0,0,858.83,17.09,21.72,0
9:13:39,0,0,0,0,0,0,0,0,0,0,0,514,0,0,0,0,0.0000000,0.0000000,0.0000000,0.0000000,0.00,0.0000000,0.0000000,0.0000000,0.0,0.0,0.0,0.0,0.0,912,0,0,858.86,17.43,21.75,0
9:13:40,0,0,0,0,0,0,0,0,0,0,0,514,0,0,0,0,0.0000000,0.0000000,0.0000000,0.0000000,0.00,0.0000000,0.0000000,0.0000000,0.0,0.0,0.0,0.0,0.0,913,0,0,858.86,17.91,21.76,0
9:13:41,0,0,0,0,0,0,0,0,0,0,0,514,0,0,0,0,0.0000000,0.0000000,0.0000000,0.0000000,0.00,0.0000000,0.0000000,0.0000000,0.0,0.0,0.0,0.0,0.0,914,0,0,858.88,17.61,21.82,0
9:13:42,0,0,0,0,0,0,0,0,0,0,0,514,0,0,0,0,0.0000000,0.0000000,0.0000000,0.0000000,0.00,0.0000000,0.0000000,0.0000000,0.0,0.0,0.0,0.0,0.0,914,0,0,858.87,16.98,21.75,0
9:13:43,0,0,0,0,0,0,0,0,0,0,0,514,0,0,0,0,0.0000000,0.0000000,0.0000000,0.0000000,0.00,0.0000000,0.0000000,0.0000000,0.0,0.0,0.0,0.0,0.0,914,0,0,858.95,16.56,21.74,0
9:13:44,0,0,0,0,0,0,0,0,0,0,0,514,0,0,0,0,0.0000000,0.0000000,0.0000000,0.0000000,0.00,0.0000000,0.0000000,0.0000000,0.0,0.0,0.0,0.0,0.0,914,0,0,858.89,16.50,21.74,0
9:13:45,0,0,0,0,0,0,0,0,0,0,0,514,0,0,0,0,0.0000000,0.0000000,0.0000000,0.0000000,0.00,0.0000000,0.0000000,0.0000000,0.0,0.0,0.0,0.0,0.0,914,0,0,858.90,16.30,21.74,0
9:13:46,0,0,0,0,0,0,0,0,0,0,0,514,0,0,0,0,0.0000000,0.0000000,0.0000000,0.0000000,0.00,0.0000000,0.0000000,0.0000000,0.0,0.0,0.0,0.0,0.0,914,0,0,858.94,16.08,21.73,0
9:13:47,0,0,0,0,0,0,0,0,0,0,0,514,0,0,0,0,0.0000000,0.0000000,0.0000000,0.0000000,0.00,0.0000000,0.0000000,0.0000000,0.0,0.0,0.0,0.0,0.0,914,0,0,858.87,16.08,21.82,0
9:13:48,0,0,0,0,0,0,0,0,0,0,0,514,0,0,0,0,0.0000000,0.0000000,0.0000000,0.0000000,0.00,0.0000000,0.0000000,0.0000000,0.0,0.0,0.0,0.0,0.0,914,0,0,858.88,16.10,21.75,0
9:13:49,0,0,0,0,0,0,0,0,0,0,0,515,0,0,0,0,0.0000000,0.0000000,0.0000000,0.0000000,0.00,0.0000000,0.0000000,0.0000000,0.0,0.0,0.0,0.0,0.0,912,0,0,858.87,15.96,21.74,0
9:13:50,0,0,0,0,0,0,0,0,0,0,0,514,0,0,0,0,0.0000000,0.0000000,0.0000000,0.0000000,0.00,0.0000000,0.0000000,0.0000000,0.0,0.0,0.0,0.0,0.0,915,0,0,858.85,15.92,21.74,0
9:13:51,0,0,0,0,0,0,0,0,0,0,0,515,0,0,0,0,0.0000000,0.0000000,0.0000000,0.0000000,0.00,0.0000000,0.0000000,0.0000000,0.0,0.0,0.0,0.0,0.0,916,0,0,858.86,16.02,21.74,0
9:13:52,0,0,0,0,0,0,0,0,0,0,0,514,0,0,0,0,0.0000000,0.0000000,0.0000000,0.0000000,0.00,0.0000000,0.0000000,0.0000000,0.0,0.0,0.0,0.0,0.0,915,0,0,858.87,16.10,21.74,0
9:13:53,0,0,0,0,0,0,0,0,0,0,0,514,0,0,0,0,0.0000000,0.0000000,0.0000000,0.0000000,0.00,0.0000000,0.0000000,0.0000000,0.0,0.0,0.0,0.0,0.0,913,0,0,858.84,15.99,21.82,0
9:13:55,0,0,0,0,0,0,0,0,0,0,0,514,0,0,0,0,0.0000000,0.0000000,0.0000000,0.0000000,0.00,0.0000000,0.0000000,0.0000000,0.0,0.0,0.0,0.0,0.0,914,0,0,858.82,16.71,21.75,0
9:13:56,0,0,0,0,0,0,0,0,0,0,0,514,0,0,0,0,0.0000000,0.0000000,0.0000000,0.0000000,0.00,0.0000000,0.0000000,0.0000000,0.0,0.0,0.0,0.0,0.0,915,0,0,858.85,17.32,21.76,0
9:13:57,0,0,0,0,0,0,0,0,0,0,0,514,0,0,0,0,0.0000000,0.0000000,0.0000000,0.0000000,0.00,0.0000000,0.0000000,0.0000000,0.0,0.0,0.0,0.0,0.0,914,0,0,858.86,17.30,21.76,0
9:13:58,0,0,0,0,0,0,0,0,0,0,0,514,0,0,0,0,0.0000000,0.0000000,0.0000000,0.0000000,0.00,0.0000000,0.0000000,0.0000000,0.0,0.0,0.0,0.0,0.0,914,0,0,858.86,16.91,21.76,0
9:13:59,0,0,0,0,0,0,0,0,0,0,0,513,0,0,0,0,0.0000000,0.0000000,0.0000000,0.0000000,0.00,0.0000000,0.0000000,0.0000000,0.0,0.0,0.0,0.0,0.0,914,0,0,858.82,16.88,21.76,0
9:14:00,0,0,0,0,0,0,0,0,0,0,0,514,0,0,0,0,0.0000000,0.0000000,0.0000000,0.0000000,4.00,0.0000000,0.0000000,0.0000000,0.3,208.3,0.0,0.0,0.0,914,0,0,858.85,16.86,21.76,0
9:14:01,0,0,0,0,0,0,0,0,0,0,0,514,0,0,0,0,0.0000000,0.0000000,0.0000000,0.0000000,4.00,38.4062767,-110.7919769,1388.0000000,1.0,9.5,1.9,0.0,0.0,914,0,0,858.88,16.83,21.77,0
9:14:02,0,0,0,0,0,0,0,0,0,0,0,514,0,0,0,0,0.0000000,0.0000000,0.0000000,0.0000000,4.00,38.4062767,-110.7919769,1388.0000000,1.0,9.5,1.9,0.0,0.0,914,0,0,858.88,16.83,21.77,0
9:14:03,0,0,0,0,0,0,0,0,0,0,0,514,0,0,0,0,0.0000000,0.0000000,0.0000000,0.0000000,4.00,38.4062843,-110.7919769,1386.5000000,0.6,13.1,1.9,0.0,0.0,914,0,0,858.83,16.71,21.76,0
9:14:04,0,0,0,0,0,0,0,0,0,0,0,514,0,0,0,0,0.0000000,0.0000000,0.0000000,0.0000000,4.00,38.4062881,-110.7919846,1385.5000000,0.4,8.0,1.9,0.0,0.0,914,0,0,858.84,16.79,21.77,0
9:14:05,0,0,0,0,0,0,0,0,0,0,0,514,0,0,0,0,0.0000000,0.0000000,0.0000000,0.0000000,4.00,38.4062958,-110.7919846,1383.1999512,0.2,358.0,1.9,0.0,0.0,914,0,0,858.85,16.66,21.77,0
9:14:06,0,0,0,0,0,0,0,0,0,0,0,513,0,0,0,0,0.0000000,0.0000000,0.0000000,0.0000000,4.00,38.4062996,-110.7919846,1382.3000488,0.4,348.8,2.4,0.0,0.0,913,0,0,858.87,16.98,21.77,0
9:14:07,0,0,0,0,0,0,0,0,0,0,0,514,0,0,0,0,0.0000000,0.0000000,0.0000000,0.0000000,4.00,38.4062958,-110.7919998,1380.9000244,0.2,312.0,2.4,0.0,0.0,914,0,0,858.92,17.12,21.78,0
9:14:08,0,0,0,0,0,0,0,0,0,0,0,514,0,0,0,0,0.0000000,0.0000000,0.0000000,0.0000000,4.00,38.4062958,-110.7919998,1380.1999512,0.2,2.0,1.9,0.0,0.0,914,0,0,858.88,16.89,21.78,0
9:14:09,0,0,0,0,0,0,0,0,0,0,0,514,0,0,0,0,0.0000000,0.0000000,0.0000000,0.0000000,4.00,38.4062958,-110.7919998,1379.1999512,0.2,308.3,2.4,0.0,0.0,914,0,0,858.89,16.59,21.78,0
9:14:10,0,0,0,0,0,0,0,0,0,0,0,514,0,0,0,0,0.0000000,0.0000000,0.0000000,0.0000000,4.00,38.4062996,-110.7919998,1378.4000244,0.1,335.1,1.9,0.0,0.0,914,0,0,858.87,16.51,21.77,0
9:14:11,0,0,0,0,0,0,0,0,0,0,0,513,0,0,0,0,0.0000000,0.0000000,0.0000000,0.0000000,4.00,38.4063034,-110.7919998,1378.0000000,0.2,320.3,1.9,0.0,0.0,914,0,0,858.91,16.57,21.78,0
9:14:12,0,0,0,0,0,0,0,0,0,0,0,514,0,0,0,0,0.0000000,0.0000000,0.0000000,0.0000000,4.00,38.4062996,-110.7919998,1377.4000244,0.3,249.2,1.9,0.0,0.0,914,0,0,858.98,16.83,21.78,0
9:14:13,0,0,0,0,0,0,0,0,0,0,0,514,0,0,0,0,0.0000000,0.0000000,0.0000000,0.0000000,4.00,38.4062996,-110.7919998,1377.0000000,0.2,245.4,1.9,0.0,0.0,914,0,0,858.90,16.98,21.79,0
9:14:14,0,0,0,0,0,0,0,0,0,0,0,514,0,0,0,0,0.0000000,0.0000000,0.0000000,0.0000000,4.00,38.4062958,-110.7919998,1376.4000244,0.5,208.2,1.9,0.0,0.0,914,0,0,858.91,17.15,21.79,0
9:14:15,0,0,0,0,0,0,0,0,0,0,0,514,0,0,0,0,0.0000000,0.0000000,0.0000000,0.0000000,4.00,38.4062958,-110.7920151,1375.9000244,0.6,217.6,1.9,0.0,0.0,914,0,0,858.87,17.11,21.69,0
9:14:16,0,0,0,0,0,0,0,0,0,0,0,514,0,0,0,0,0.0000000,0.0000000,0.0000000,0.0000000,4.00,38.4062881,-110.7920151,1375.4000244,0.6,218.5,1.9,0.0,0.0,914,0,0,858.86,17.20,21.70,0
9:14:17,0,0,0,0,0,0,0,0,0,0,0,514,0,0,0,0,0.0000000,0.0000000,0.0000000,0.0000000,4.00,38.4062843,-110.7920227,1375.0000000,0.6,218.5,1.9,0.0,0.0,914,0,0,858.97,17.06,21.75,0
9:14:18,0,0,0,0,0,0,0,0,0,0,0,513,0,0,0,0,0.0000000,0.0000000,0.0000000,0.0000000,5.00,38.4063072,-110.7920151,1371.0999756,0.6,218.5,1.3,0.0,0.0,914,0,0,858.98,16.85,21.74,0
9:14:19,0,0,0,0,0,0,0,0,0,0,0,514,0,0,0,0,0.0000000,0.0000000,0.0000000,0.0000000,5.00,38.4063148,-110.7919998,1369.4000244,0.3,228.8,1.3,0.0,0.0,914,0,0,858.92,16.62,21.75,0
9:14:20,0,0,0,0,0,0,0,0,0,0,0,514,0,0,0,0,0.0000000,0.0000000,0.0000000,0.0000000,5.00,38.4063263,-110.7919998,1367.1999512,0.1,191.8,1.3,0.0,0.0,913,0,0,858.95,16.69,21.79,0
9:14:21,0,0,0,0,0,0,0,0,0,0,0,514,0,0,0,0,0.0000000,0.0000000,0.0000000,0.0000000,5.00,38.4063339,-110.7919998,1366.0000000,0.1,153.7,1.3,0.0,0.0,914,0,0,858.93,16.91,21.80,0
9:14:22,0,0,0,0,0,0,0,0,0,0,0,514,0,0,0,0,0.0000000,0.0000000,0.0000000,0.0000000,5.00,38.4063377,-110.7919998,1365.8000488,0.0,304.1,1.3,0.0,0.0,914,0,0,858.88,16.82,21.80,0
9:14:23,0,0,0,0,0,0,0,0,0,0,0,514,0,0,0,0,0.0000000,0.0000000,0.0000000,0.0000000,5.00,38.4063377,-110.7919846,1365.5000000,0.2,150.8,1.3,0.0,0.0,913,0,0,858.91,16.62,21.79,0
9:14:24,0,0,0,0,0,0,0,0,0,0,0,514,0,0,0,0,0.0000000,0.0000000,0.0000000,0.0000000,5.00,38.4063377,-110.7919846,1365.1999512,0.2,174.0,1.3,0.0,0.0,913,0,0,858.99,16.40,21.80,0
9:14:25,0,0,0,0,0,0,0,0,0,0,0,514,0,0,0,0,0.0000000,0.0000000,0.0000000,0.0000000,5.00,38.4063416,-110.7919846,1365.1999512,0.0,179.7,1.3,0.0,0.0,914,0,0,858.98,16.36,21.80,0
9:14:26,0,0,0,0,0,0,0,0,0,0,0,514,0,0,0,0,0.0000000,0.0000000,0.0000000,0.0000000,5.00,38.4063454,-110.7919846,1365.1999512,0.0,323.2,1.3,0.0,0.0,913,0,0,858.89,16.92,21.80,0
9:14:27,0,0,0,0,0,0,0,0,0,0,0,514,0,0,0,0,0.0000000,0.0000000,0.0000000,0.0000000,5.00,38.4063492,-110.7919846,1365.3000488,0.2,3.3,1.3,0.0,0.0,914,0,0,858.88,17.27,21.81,0
9:14:28,0,0,0,0,0,0,0,0,0,0,0,514,0,0,0,0,0.0000000,0.0000000,0.0000000,0.0000000,5.00,38.4063530,-110.7919846,1365.5000000,0.1,13.6,1.3,0.0,0.0,914,0,0,858.91,17.40,21.81,0
9:14:29,0,0,0,0,0,0,0,0,0,0,0,514,0,0,0,0,0.0000000,0.0000000,0.0000000,0.0000000,5.00,38.4063530,-110.7919846,1365.6999512,0.1,335.5,1.3,0.0,0.0,914,0,0,858.88,17.27,21.81,0
9:14:30,0,0,0,0,0,0,0,0,0,0,0,513,0,0,0,0,0.0000000,0.0000000,0.0000000,0.0000000,5.00,38.4063568,-110.7919846,1366.0000000,0.2,321.5,1.3,0.0,0.0,913,0,0,858.89,17.01,21.81,0
9:14:31,0,0,0,0,0,0,0,0,0,0,0,514,0,0,0,0,0.0000000,0.0000000,0.0000000,0.0000000,5.00,38.4063568,-110.7919846,1366.1999512,0.3,324.6,1.3,0.0,0.0,914,0,0,858.94,16.86,21.81,0
9:14:32,0,0,0,0,0,0,0,0,0,0,0,512,0,0,0,0,0.0000000,0.0000000,0.0000000,0.0000000,5.00,38.4063606,-110.7919846,1366.5999756,0.2,326.7,1.3,0.0,0.0,914,0,0,858.96,16.75,21.81,0
9:14:33,0,0,0,0,0,0,0,0,0,0,0,514,0,0,0,0,0.0000000,0.0000000,0.0000000,0.0000000,5.00,38.4063530,-110.7919846,1367.8000488,0.2,345.7,1.3,0.0,0.0,914,0,0,858.96,16.69,21.81,0
9:14:34,0,0,0,0,0,0,0,0,0,0,0,513,0,0,0,0,0.0000000,0.0000000,0.0000000,0.0000000,5.00,38.4063530,-110.7919846,1368.8000488,0.2,351.1,1.3,0.0,0.0,914,0,0,858.89,16.48,21.81,0
9:14:35,0,0,0,0,0,0,0,0,0,0,0,514,0,0,0,0,0.0000000,0.0000000,0.0000000,0.0000000,5.00,38.4063492,-110.7919846,1369.5999756,0.1,295.7,1.3,0.0,0.0,914,0,0,858.96,16.43,21.81,0
9:14:36,0,0,0,0,0,0,0,0,0,0,0,514,0,0,0,0,0.0000000,0.0000000,0.0000000,0.0000000,5.00,38.4063454,-110.7919846,1370.1999512,0.0,230.5,1.3,0.0,0.0,913,0,0,858.96,16.36,21.81,0
9:14:37,0,0,0,0,0,0,0,0,0,0,0,513,0,0,0,0,0.0000000,0.0000000,0.0000000,0.0000000,5.00,38.4063454,-110.7919846,1370.9000244,0.1,94.5,1.3,0.0,0.0,914,0,0,858.92,16.45,21.81,0
9:14:38,0,0,0,0,0,0,0,0,0,0,0,514,0,0,0,0,0.0000000,0.0000000,0.0000000,0.0000000,5.00,38.4063454,-110.7919846,1371.5000000,0.1,230.1,1.3,0.0,0.0,914,0,0,858.93,16.51,21.81,0
9:14:39,0,0,0,0,0,0,0,0,0,0,0,513,0,0,0,0,0.0000000,0.0000000,0.0000000,0.0000000,5.00,38.4063454,-110.7919846,1371.6999512,0.1,230.0,1.3,0.0,0.0,914,0,0,858.94,16.43,21.81,0
9:14:40,0,0,0,0,0,0,0,0,0,0,0,513,0,0,0,0,0.0000000,0.0000000,0.0000000,0.0000000,5.00,38.4063492,-110.7919846,1372.0999756,0.1,213.1,1.3,0.0,0.0,914,0,0,858.93,16.42,21.81,0
9:14:41,0,0,0,0,0,0,0,0,0,0,0,513,0,0,0,0,0.0000000,0.0000000,0.0000000,0.0000000,5.00,38.4063530,-110.7919846,1372.0999756,0.0,229.4,1.3,0.0,0.0,913,0,0,858.94,16.51,21.80,0
9:14:42,0,0,0,0,0,0,0,0,0,0,0,514,0,0,0,0,0.0000000,0.0000000,0.0000000,0.0000000,5.00,38.4063530,-110.7919846,1372.0999756,0.0,331.3,1.3,0.0,0.0,913,0,0,858.86,16.53,21.80,0
9:14:43,0,0,0,0,0,0,0,0,0,0,0,514,0,0,0,0,0.0000000,0.0000000,0.0000000,0.0000000,5.00,38.4063530,-110.7919846,1372.1999512,0.1,256.8,1.3,0.0,0.0,915,0,0,858.94,16.42,21.80,0
9:14:44,0,0,0,0,0,0,0,0,0,0,0,514,0,0,0,0,0.0000000,0.0000000,0.0000000,0.0000000,5.00,38.4063530,-110.7919846,1372.1999512,0.2,314.8,1.3,0.0,0.0,914,0,0,858.91,16.51,21.81,0
9:14:45,0,0,0,0,0,0,0,0,0,0,0,513,0,0,0,0,0.0000000,0.0000000,0.0000000,0.0000000,5.00,38.4063530,-110.7919846,1372.1999512,0.2,346.7,1.3,0.0,0.0,913,0,0,858.89,16.54,21.81,0
9:14:46,0,0,0,0,0,0,0,0,0,0,0,513,0,0,0,0,0.0000000,0.0000000,0.0000000,0.0000000,5.00,38.4063530,-110.7919846,1372.1999512,0.1,305.8,1.3,0.0,0.0,914,0,0,858.91,16.42,21.81,0
9:14:47,0,0,0,0,0,0,0,0,0,0,0,514,0,0,0,0,0.0000000,0.0000000,0.0000000,0.0000000,5.00,38.4063530,-110.7919846,1372.1999512,0.2,320.4,1.3,0.0,0.0,914,0,0,858.93,16.28,21.81,0
9:14:48,0,0,0,0,0,0,0,0,0,0,0,514,0,0,0,0,0.0000000,0.0000000,0.0000000,0.0000000,6.00,38.4063568,-110.7919998,1372.1999512,0.4,319.8,1.2,0.0,0.0,914,0,0,858.94,16.25,21.80,0
9:14:49,0,0,0,0,0,0,0,0,0,0,0,517,0,0,0,0,0.0000000,0.0000000,0.0000000,0.0000000,6.00,38.4063568,-110.7919998,1372.3000488,0.5,322.0,1.2,0.0,0.0,913,0,0,858.92,16.19,21.80,0
9:14:50,0,0,0,0,0,0,0,0,0,0,0,515,0,0,0,0,0.0000000,0.0000000,0.0000000,0.0000000,6.00,38.4063568,-110.7919998,1372.3000488,0.5,333.6,1.2,0.0,0.0,911,0,0,858.88,16.24,21.80,0
9:14:51,0,0,0,0,0,0,0,0,0,0,0,511,0,0,0,0,0.0000000,0.0000000,0.0000000,0.0000000,6.00,38.4063606,-110.7919998,1372.3000488,0.3,331.8,1.2,0.0,0.0,913,0,0,858.88,16.33,21.80,0
9:14:52,0,0,0,0,0,0,0,0,0,0,0,517,0,0,0,0,0.0000000,0.0000000,0.0000000,0.0000000,6.00,38.4063606,-110.7919998,1372.3000488,0.3,348.0,1.2,0.0,0.0,911,0,0,858.83,16.57,21.80,0
9:14:53,0,0,0,0,0,0,0,0,0,0,0,512,0,0,0,0,0.0000000,0.0000000,0.0000000,0.0000000,6.00,38.4063644,-110.7919998,1372.3000488,0.3,350.4,1.2,0.0,0.0,912,0,0,858.85,16.79,21.80,0
9:14:54,0,0,0,0,0,0,0,0,0,0,0,514,0,0,0,0,0.0000000,0.0000000,0.0000000,0.0000000,7.00,38.4063644,-110.7919998,1372.4000244,0.3,11.3,1.2,0.0,0.0,913,0,0,858.86,16.68,21.80,0
9:14:55,0,0,0,0,0,0,0,0,0,0,0,514,0,0,0,0,0.0000000,0.0000000,0.0000000,0.0000000,7.00,38.4063683,-110.7919998,1372.4000244,0.4,331.0,1.2,0.0,0.0,914,0,0,858.92,16.51,21.80,0
9:14:56,0,0,0,0,0,0,0,0,0,0,0,514,0,0,0,0,0.0000000,0.0000000,0.0000000,0.0000000,7.00,38.4063683,-110.7919998,1372.4000244,0.4,334.6,1.2,0.0,0.0,913,0,0,858.88,16.42,21.79,0
9:14:57,0,0,0,0,0,0,0,0,0,0,0,513,0,0,0,0,0.0000000,0.0000000,0.0000000,0.0000000,7.00,38.4063721,-110.7919998,1372.4000244,0.5,324.3,1.2,0.0,0.0,914,0,0,858.90,16.45,21.79,0
9:14:58,0,0,0,0,0,0,0,0,0,0,0,514,0,0,0,0,0.0000000,0.0000000,0.0000000,0.0000000,7.00,38.4063721,-110.7919998,1372.4000244,0.4,329.5,1.2,0.0,0.0,913,0,0,858.90,16.63,21.80,0
9:14:59,0,0,0,0,0,0,0,0,0,0,0,515,0,0,0,0,0.0000000,0.0000000,0.0000000,0.0000000,7.00,38.4063759,-110.7919998,1372.5000000,0.4,317.6,1.2,0.0,0.0,913,0,0,858.81,16.60,21.80,0
9:15:00,0,0,0,0,0,0,0,0,0,0,0,514,0,0,0,0,0.0000000,0.0000000,0.0000000,0.0000000,7.00,38.4063759,-110.7919998,1372.5000000,0.4,327.6,1.2,0.0,0.0,914,0,0,858.83,16.39,21.80,0
9:15:01,0,0,0,0,0,0,0,0,0,0,0,513,0,0,0,0,0.0000000,0.0000000,0.0000000,0.0000000,7.00,38.4063759,-110.7920151,1372.5000000,0.5,319.7,1.2,0.0,0.0,914,0,0,858.87,16.56,21.80,0
9:15:02,0,0,0,0,0,0,0,0,0,0,0,515,0,0,0,0,0.0000000,0.0000000,0.0000000,0.0000000,7.00,38.4063759,-110.7920151,1372.5000000,0.5,312.0,1.2,0.0,0.0,914,0,0,858.76,16.69,21.81,0
9:15:03,0,0,0,0,0,0,0,0,0,0,0,513,0,0,0,0,0.0000000,0.0000000,0.0000000,0.0000000,7.00,38.4063797,-110.7920151,1372.5000000,0.4,316.1,1.2,0.0,0.0,914,0,0,858.80,16.80,21.81,0
9:15:04,0,0,0,0,0,0,0,0,0,0,0,513,0,0,0,0,0.0000000,0.0000000,0.0000000,0.0000000,7.00,38.4063797,-110.7920151,1372.5000000,0.4,317.3,1.2,0.0,0.0,914,0,0,858.84,16.77,21.81,0
9:15:05,0,0,0,0,0,0,0,0,0,0,0,514,0,0,0,0,0.0000000,0.0000000,0.0000000,0.0000000,7.00,38.4063835,-110.7920151,1372.5999756,0.3,311.3,1.2,0.0,0.0,914,0,0,858.81,16.60,21.81,0
9:15:06,0,0,0,0,0,0,0,0,0,0,0,514,0,0,0,0,0.0000000,0.0000000,0.0000000,0.0000000,7.00,38.4063835,-110.7920151,1372.5999756,0.1,349.5,1.2,0.0,0.0,914,0,0,858.85,16.45,21.82,0
9:15:07,0,0,0,0,0,0,0,0,0,0,0,513,0,0,0,0,0.0000000,0.0000000,0.0000000,0.0000000,7.00,38.4063835,-110.7920151,1372.5999756,0.1,37.3,1.2,0.0,0.0,914,0,0,858.86,16.53,21.82,0
9:15:08,0,0,0,0,0,0,0,0,0,0,0,513,0,0,0,0,0.0000000,0.0000000,0.0000000,0.0000000,7.00,38.4063835,-110.7920151,1372.5999756,0.2,80.2,1.2,0.0,0.0,914,0,0,858.82,16.57,21.82,0
9:15:09,0,0,0,0,0,0,0,0,0,0,0,514,0,0,0,0,0.0000000,0.0000000,0.0000000,0.0000000,7.00,38.4063835,-110.7920151,1372.5999756,0.1,149.7,1.2,0.0,0.0,914,0,0,858.94,16.71,21.82,0
9:15:10,0,0,0,0,0,0,0,0,0,0,0,515,0,0,0,0,0.0000000,0.0000000,0.0000000,0.0000000,7.00,38.4063835,-110.7920151,1372.5999756,0.1,95.3,1.2,0.0,0.0,913,0,0,858.93,16.83,21.82,0
9:15:11,0,0,0,0,0,0,0,0,0,0,0,514,0,0,0,0,0.0000000,0.0000000,0.0000000,0.0000000,7.00,38.4063835,-110.7920151,1372.5999756,0.1,206.3,1.2,0.0,0.0,913,0,0,858.90,16.94,21.82,0
9:15:12,0,0,0,0,0,0,0,0,0,0,0,514,0,0,0,0,0.0000000,0.0000000,0.0000000,0.0000000,7.00,38.4063835,-110.7920151,1372.6999512,0.1,266.0,1.2,0.0,0.0,914,0,0,858.89,16.75,21.82,0
9:15:13,0,0,0,0,0,0,0,0,0,0,0,514,0,0,0,0,0.0000000,0.0000000,0.0000000,0.0000000,7.00,38.4063835,-110.7920151,1372.6999512,0.3,308.1,1.2,0.0,0.0,914,0,0,858.95,16.68,21.82,0
9:15:14,0,0,0,0,0,0,0,0,0,0,0,514,0,0,0,0,0.0000000,0.0000000,0.0000000,0.0000000,7.00,38.4063835,-110.7920151,1372.6999512,0.2,344.0,1.2,0.0,0.0,913,0,0,858.94,16.75,21.82,0
9:15:15,0,0,0,0,0,0,0,0,0,0,0,514,0,0,0,0,0.0000000,0.0000000,0.0000000,0.0000000,7.00,38.4063873,-110.7920151,1372.6999512,0.0,103.9,1.2,0.0,0.0,914,0,0,858.87,16.74,21.81,0
9:15:16,0,0,0,0,0,0,0,0,0,0,0,513,0,0,0,0,0.0000000,0.0000000,0.0000000,0.0000000,7.00,38.4063873,-110.7920151,1372.6999512,0.0,261.0,1.2,0.0,0.0,913,0,0,858.82,16.89,21.81,0
9:15:17,0,0,0,0,0,0,0,0,0,0,0,514,0,0,0,0,0.0000000,0.0000000,0.0000000,0.0000000,7.00,38.4063873,-110.7920151,1372.6999512,0.2,284.5,1.2,0.0,0.0,913,0,0,858.90,17.23,21.82,0
9:15:18,0,0,0,0,0,0,0,0,0,0,0,514,0,0,0,0,0.0000000,0.0000000,0.0000000,0.0000000,7.00,38.4063873,-110.7920151,1372.6999512,0.3,319.9,1.2,0.0,0.0,913,0,0,858.91,16.89,21.82,0
9:15:19,0,0,0,0,0,0,0,0,0,0,0,514,0,0,0,0,0.0000000,0.0000000,0.0000000,0.0000000,7.00,38.4063873,-110.7920151,1372.8000488,0.2,352.8,1.2,0.0,0.0,913,0,0,858.88,16.80,21.82,0
9:15:20,0,0,0,0,0,0,0,0,0,0,0,513,0,0,0,0,0.0000000,0.0000000,0.0000000,0.0000000,7.00,38.4063911,-110.7920151,1372.8000488,0.3,10.4,1.2,0.0,0.0,914,0,0,858.91,17.11,21.82,0
9:15:21,0,0,0,0,0,0,0,0,0,0,0,513,0,0,0,0,0.0000000,0.0000000,0.0000000,0.0000000,7.00,38.4063911,-110.7920151,1372.8000488,0.2,354.7,1.2,0.0,0.0,913,0,0,858.92,17.27,21.83,0
9:15:22,0,0,0,0,0,0,0,0,0,0,0,513,0,0,0,0,0.0000000,0.0000000,0.0000000,0.0000000,7.00,38.4063911,-110.7920151,1372.8000488,0.1,215.4,1.2,0.0,0.0,914,0,0,858.94,17.58,21.83,0
9:15:23,0,0,0,0,0,0,0,0,0,0,0,513,0,0,0,0,0.0000000,0.0000000,0.0000000,0.0000000,7.00,38.4063911,-110.7920151,1372.8000488,0.2,152.9,1.2,0.0,0.0,914,0,0,858.94,17.79,21.83,0
9:15:24,0,0,0,0,0,0,0,0,0,0,0,513,0,0,0,0,0.0000000,0.0000000,0.0000000,0.0000000,7.00,38.4063911,-110.7920151,1372.8000488,0.1,279.9,1.2,0.0,0.0,914,0,0,859.02,17.55,21.83,0
9:15:25,0,0,0,0,0,0,0,0,0,0,0,513,0,0,0,0,0.0000000,0.0000000,0.0000000,0.0000000,7.00,38.4063911,-110.7920151,1372.8000488,0.2,3.8,1.2,0.0,0.0,913,0,0,858.92,17.38,21.83,0
9:15:26,0,0,0,0,0,0,0,0,0,0,0,513,0,0,0,0,0.0000000,0.0000000,0.0000000,0.0000000,7.00,38.4063911,-110.7920151,1372.8000488,0.1,24.6,1.2,0.0,0.0,913,0,0,858.95,17.21,21.83,0
9:15:27,0,0,0,0,0,0,0,0,0,0,0,517,0,0,0,0,0.0000000,0.0000000,0.0000000,0.0000000,7.00,38.4063911,-110.7920151,1372.9000244,0.2,302.9,1.2,0.0,0.0,913,0,0,858.98,17.03,21.83,0
9:15:28,0,0,0,0,0,0,0,0,0,0,0,515,0,0,0,0,0.0000000,0.0000000,0.0000000,0.0000000,7.00,38.4063950,-110.7920227,1372.9000244,0.1,285.0,1.2,0.0,0.0,913,0,0,858.97,17.06,21.83,0
9:15:29,0,0,0,0,0,0,0,0,0,0,0,514,0,0,0,0,0.0000000,0.0000000,0.0000000,0.0000000,7.00,38.4063950,-110.7920227,1372.9000244,0.2,358.2,1.2,0.0,0.0,913,0,0,858.95,17.01,21.83,0
9:15:30,0,0,0,0,0,0,0,0,0,0,0,514,0,0,0,0,0.0000000,0.0000000,0.0000000,0.0000000,7.00,38.4063950,-110.7920227,1372.9000244,0.2,358.5,1.2,0.0,0.0,915,0,0,858.87,17.23,21.83,0
9:15:31,0,0,0,0,0,0,0,0,0,0,0,514,0,0,0,0,0.0000000,0.0000000,0.0000000,0.0000000,7.00,38.4063950,-110.7920227,1372.9000244,0.1,318.1,1.2,0.0,0.0,913,0,0,858.90,17.27,21.83,0
9:15:33,0,0,0,0,0,0,0,0,0,0,0,513,0,0,0,0,0.0000000,0.0000000,0.0000000,0.0000000,7.00,38.4063950,-110.7920227,1372.9000244,0.0,60.0,1.2,0.0,0.0,913,0,0,858.92,17.37,21.82,0
9:15:34,0,0,0,0,0,0,0,0,0,0,0,514,0,0,0,0,0.0000000,0.0000000,0.0000000,0.0000000,7.00,38.4063950,-110.7920227,1372.9000244,0.1,44.0,1.2,0.0,0.0,913,0,0,858.96,17.52,21.83,0
9:15:35,0,0,0,0,0,0,0,0,0,0,0,514,0,0,0,0,0.0000000,0.0000000,0.0000000,0.0000000,7.00,38.4063950,-110.7920227,1372.9000244,0.1,16.9,1.2,0.0,0.0,913,0,0,858.93,17.67,21.83,0
9:15:36,0,0,0,0,0,0,0,0,0,0,0,513,0,0,0,0,0.0000000,0.0000000,0.0000000,0.0000000,7.00,38.4063950,-110.7920227,1372.9000244,0.1,343.7,1.2,0.0,0.0,913,0,0,858.91,17.56,21.83,0
9:15:37,0,0,0,0,0,0,0,0,0,0,0,514,0,0,0,0,0.0000000,0.0000000,0.0000000,0.0000000,7.00,38.4063950,-110.7920227,1372.9000244,0.2,336.8,1.2,0.0,0.0,913,0,0,858.85,17.55,21.84,0
9:15:38,0,0,0,0,0,0,0,0,0,0,0,514,0,0,0,0,0.0000000,0.0000000,0.0000000,0.0000000,7.00,38.4063950,-110.7920227,1373.0000000,0.4,16.4,1.2,0.0,0.0,915,0,0,859.01,17.41,21.84,0
9:15:39,0,0,0,0,0,0,0,0,0,0,0,514,0,0,0,0,0.0000000,0.0000000,0.0000000,0.0000000,7.00,38.4063988,-110.7920227,1373.0000000,0.2,352.7,1.2,0.0,0.0,913,0,0,858.98,17.11,21.84,0
9:15:40,0,0,0,0,0,0,0,0,0,0,0,514,0,0,0,0,0.0000000,0.0000000,0.0000000,0.0000000,7.00,38.4064026,-110.7920227,1373.0000000,0.3,355.4,1.2,0.0,0.0,913,0,0,859.03,16.92,21.83,0
9:15:41,0,0,0,0,0,0,0,0,0,0,0,514,0,0,0,0,0.0000000,0.0000000,0.0000000,0.0000000,7.00,38.4064026,-110.7920227,1373.0000000,0.3,23.9,1.2,0.0,0.0,914,0,0,859.03,16.83,21.83,0
9:15:42,0,0,0,0,0,0,0,0,0,0,0,514,0,0,0,0,0.0000000,0.0000000,0.0000000,0.0000000,7.00,38.4064026,-110.7920151,1373.0000000,0.4,340.6,1.2,0.0,0.0,913,0,0,859.03,17.06,21.83,0
9:15:43,0,0,0,0,0,0,0,0,0,0,0,515,0,0,0,0,0.0000000,0.0000000,0.0000000,0.0000000,7.00,38.4064064,-110.7920227,1373.0000000,0.2,358.9,1.2,0.0,0.0,914,0,0,858.95,17.21,21.83,0
9:15:44,0,0,0,0,0,0,0,0,0,0,0,512,0,0,0,0,0.0000000,0.0000000,0.0000000,0.0000000,7.00,38.4064064,-110.7920227,1373.0000000,0.2,351.6,1.2,0.0,0.0,913,0,0,858.95,17.33,21.83,0
9:15:45,0,0,0,0,0,0,0,0,0,0,0,514,0,0,0,0,0.0000000,0.0000000,0.0000000,0.0000000,7.00,38.4064064,-110.7920227,1373.0000000,0.2,332.5,1.2,0.0,0.0,913,0,0,858.99,17.38,21.84,0
9:15:46,0,0,0,0,0,0,0,0,0,0,0,513,0,0,0,0,0.0000000,0.0000000,0.0000000,0.0000000,7.00,38.4064102,-110.7920227,1373.0000000,0.2,352.7,1.2,0.0,0.0,913,0,0,858.94,17.40,21.84,0
9:15:47,0,0,0,0,0,0,0,0,0,0,0,514,0,0,0,0,0.0000000,0.0000000,0.0000000,0.0000000,7.00,38.4064102,-110.7920227,1373.0000000,0.1,2.8,1.2,0.0,0.0,913,0,0,859.00,17.49,21.84,0
9:15:48,0,0,0,0,0,0,0,0,0,0,0,514,0,0,0,0,0.0000000,0.0000000,0.0000000,0.0000000,7.00,38.4064102,-110.7920227,1373.0000000,0.1,333.1,1.2,0.0,0.0,913,0,0,858.97,17.59,21.83,0
9:15:49,0,0,0,0,0,0,0,0,0,0,0,516,0,0,0,0,0.0000000,0.0000000,0.0000000,0.0000000,7.00,38.4064102,-110.7920227,1373.0000000,0.2,347.2,1.2,0.0,0.0,913,0,0,858.92,17.53,21.83,0
9:15:50,0,0,0,0,0,0,0,0,0,0,0,515,0,0,0,0,0.0000000,0.0000000,0.0000000,0.0000000,7.00,38.4064140,-110.7920227,1373.0000000,0.2,320.7,1.2,0.0,0.0,913,0,0,858.92,17.49,21.83,0
9:15:51,0,0,0,0,0,0,0,0,0,0,0,514,0,0,0,0,0.0000000,0.0000000,0.0000000,0.0000000,7.00,38.4064140,-110.7920227,1373.0000000,0.1,236.6,1.2,0.0,0.0,913,0,0,858.97,17.38,21.83,0
9:15:52,0,0,0,0,0,0,0,0,0,0,0,514,0,0,0,0,0.0000000,0.0000000,0.0000000,0.0000000,7.00,38.4064140,-110.7920227,1373.0000000,0.1,186.7,1.2,0.0,0.0,913,0,0,858.96,17.33,21.83,0
9:15:53,0,0,0,0,0,0,0,0,0,0,0,514,0,0,0,0,0.0000000,0.0000000,0.0000000,0.0000000,7.00,38.4064140,-110.7920227,1373.0000000,0.1,60.2,1.2,0.0,0.0,913,0,0,858.93,17.14,21.84,0
9:15:54,0,0,0,0,0,0,0,0,0,0,0,514,0,0,0,0,0.0000000,0.0000000,0.0000000,0.0000000,7.00,38.4064140,-110.7920227,1373.0000000,0.0,117.1,1.2,0.0,0.0,913,0,0,858.98,16.95,21.83,0
9:15:55,0,0,0,0,0,0,0,0,0,0,0,514,0,0,0,0,0.0000000,0.0000000,0.0000000,0.0000000,8.00,38.4064140,-110.7920227,1373.0000000,0.2,63.7,1.0,0.0,0.0,913,0,0,858.88,16.62,21.75,0
9:15:56,0,0,0,0,0,0,0,0,0,0,0,515,0,0,0,0,0.0000000,0.0000000,0.0000000,0.0000000,8.00,38.4064140,-110.7920227,1373.0000000,0.1,211.3,1.0,0.0,0.0,913,0,0,858.87,16.66,21.73,0
9:15:57,0,0,0,0,0,0,0,0,0,0,0,514,0,0,0,0,0.0000000,0.0000000,0.0000000,0.0000000,8.00,38.4064140,-110.7920227,1373.0999756,0.1,140.8,1.0,0.0,0.0,913,0,0,858.87,16.86,21.74,0
9:15:58,0,0,0,0,0,0,0,0,0,0,0,514,0,0,0,0,0.0000000,0.0000000,0.0000000,0.0000000,8.00,38.4064140,-110.7920227,1373.0999756,0.2,150.5,1.0,0.0,0.0,913,0,0,858.90,16.89,21.75,0
9:15:59,0,0,0,0,0,0,0,0,0,0,0,514,0,0,0,0,0.0000000,0.0000000,0.0000000,0.0000000,8.00,38.4064102,-110.7920227,1373.0999756,0.3,167.3,1.0,0.0,0.0,913,0,0,858.87,16.66,21.80,0
9:16:00,0,0,0,0,0,0,0,0,0,0,0,513,0,0,0,0,0.0000000,0.0000000,0.0000000,0.0000000,8.00,38.4064102,-110.7920151,1373.0999756,0.3,167.3,1.0,0.0,0.0,913,0,0,858.91,16.45,21.79,0
9:16:01,0,0,0,0,0,0,0,0,0,0,0,514,0,0,0,0,0.0000000,0.0000000,0.0000000,0.0000000,8.00,38.4064102,-110.7920227,1373.0999756,0.1,232.3,1.0,0.0,0.0,913,0,0,858.95,16.37,21.84,0
9:16:02,0,0,0,0,0,0,0,0,0,0,0,514,0,0,0,0,0.0000000,0.0000000,0.0000000,0.0000000,8.00,38.4064102,-110.7920227,1373.0999756,0.2,294.7,1.0,0.0,0.0,913,0,0,858.93,16.43,21.83,0
9:16:03,0,0,0,0,0,0,0,0,0,0,0,514,0,0,0,0,0.0000000,0.0000000,0.0000000,0.0000000,8.00,38.4064102,-110.7920227,1373.0999756,0.4,284.4,1.0,0.0,0.0,913,0,0,858.90,16.65,21.83,0
9:16:04,0,0,0,0,0,0,0,0,0,0,0,514,0,0,0,0,0.0000000,0.0000000,0.0000000,0.0000000,8.00,38.4064102,-110.7920227,1373.0999756,0.3,303.4,1.0,0.0,0.0,913,0,0,858.91,17.01,21.84,0
9:16:05,0,0,0,0,0,0,0,0,0,0,0,514,0,0,0,0,0.0000000,0.0000000,0.0000000,0.0000000,8.00,38.4064102,-110.7920227,1373.0999756,0.1,284.2,1.0,0.0,0.0,913,0,0,858.98,17.44,21.84,0
9:16:06,0,0,0,0,0,0,0,0,0,0,0,514,0,0,0,0,0.0000000,0.0000000,0.0000000,0.0000000,8.00,38.4064140,-110.7920227,1373.1999512,0.2,337.5,1.0,0.0,0.0,913,0,0,858.97,17.24,21.85,0
9:16:07,0,0,0,0,0,0,0,0,0,0,0,514,0,0,0,0,0.0000000,0.0000000,0.0000000,0.0000000,8.00,38.4064178,-110.7920151,1373.1999512,0.2,310.7,1.0,0.0,0.0,913,0,0,858.89,17.14,21.85,0
9:16:08,0,0,0,0,0,0,0,0,0,0,0,514,0,0,0,0,0.0000000,0.0000000,0.0000000,0.0000000,8.00,38.4064178,-110.7920151,1373.3000488,0.2,283.9,1.0,0.0,0.0,913,0,0,858.92,17.08,21.86,0
9:16:09,0,0,0,0,0,0,0,0,0,0,0,514,0,0,0,0,0.0000000,0.0000000,0.0000000,0.0000000,8.00,38.4064178,-110.7920151,1373.3000488,0.1,280.3,1.0,0.0,0.0,913,0,0,858.86,17.03,21.85,0
9:16:10,0,0,0,0,0,0,0,0,0,0,0,514,0,0,0,0,0.0000000,0.0000000,0.0000000,0.0000000,8.00,38.4064217,-110.7920151,1373.3000488,0.3,300.0,1.0,0.0,0.0,913,0,0,858.85,17.23,21.85,0
9:16:11,0,0,0,0,0,0,0,0,0,0,0,514,0,0,0,0,0.0000000,0.0000000,0.0000000,0.0000000,8.00,38.4064255,-110.7920151,1373.4000244,0.3,352.4,1.0,0.0,0.0,913,0,0,858.90,17.76,21.86,0
9:16:12,0,0,0,0,0,0,0,0,0,0,0,514,0,0,0,0,0.0000000,0.0000000,0.0000000,0.0000000,8.00,38.4064255,-110.7920151,1373.4000244,0.2,331.3,1.0,0.0,0.0,913,0,0,858.91,17.90,21.87,0
9:16:13,0,0,0,0,0,0,0,0,0,0,0,514,0,0,0,0,0.0000000,0.0000000,0.0000000,0.0000000,8.00,38.4064255,-110.7920151,1373.4000244,0.2,331.3,1.0,0.0,0.0,913,0,0,858.91,17.90,21.87,0
9:16:14,0,0,0,0,0,0,0,0,0,0,0,514,0,0,0,0,0.0000000,0.0000000,0.0000000,0.0000000,8.00,38.4064293,-110.7919998,1373.5000000,0.2,2.6,1.0,0.0,0.0,913,0,0,858.86,17.84,21.78,0
9:16:15,0,0,0,0,0,0,0,0,0,0,0,514,0,0,0,0,0.0000000,0.0000000,0.0000000,0.0000000,8.00,38.4064331,-110.7919998,1373.5000000,0.3,1.5,1.0,0.0,0.0,913,0,0,858.85,17.81,21.78,0
9:16:16,0,0,0,0,0,0,0,0,0,0,0,514,0,0,0,0,0.0000000,0.0000000,0.0000000,0.0000000,8.00,38.4064331,-110.7919998,1373.5999756,0.3,348.9,1.0,0.0,0.0,913,0,0,858.86,17.73,21.84,0
9:16:17,0,0,0,0,0,0,0,0,0,0,0,514,0,0,0,0,0.0000000,0.0000000,0.0000000,0.0000000,8.00,38.4064331,-110.7919998,1373.5999756,0.1,348.2,1.0,0.0,0.0,913,0,0,858.86,17.79,21.84,0
9:16:18,0,0,0,0,0,0,0,0,0,0,0,514,0,0,0,0,0.0000000,0.0000000,0.0000000,0.0000000,8.00,38.4064369,-110.7919998,1373.6999512,0.0,253.6,1.0,0.0,0.0,913,0,0,858.91,17.94,21.85,0
9:16:19,0,0,0,0,0,0,0,0,0,0,0,515,0,0,0,0,0.0000000,0.0000000,0.0000000,0.0000000,8.00,38.4064369,-110.7919998,1373.6999512,0.1,94.6,1.0,0.0,0.0,913,0,0,858.95,18.22,21.90,0
9:16:20,0,0,0,0,0,0,0,0,0,0,0,514,0,0,0,0,0.0000000,0.0000000,0.0000000,0.0000000,8.00,38.4064369,-110.7919998,1373.6999512,0.1,260.5,1.0,0.0,0.0,913,0,0,858.95,18.33,21.90,0
9:16:21,0,0,0,0,0,0,0,0,0,0,0,514,0,0,0,0,0.0000000,0.0000000,0.0000000,0.0000000,8.00,38.4064369,-110.7919998,1373.6999512,0.1,350.6,1.0,0.0,0.0,913,0,0,858.96,18.66,21.90,0
9:16:22,0,0,0,0,0,0,0,0,0,0,0,514,0,0,0,0,0.0000000,0.0000000,0.0000000,0.0000000,8.00,38.4064369,-110.7919998,1373.6999512,0.1,30.4,1.0,0.0,0.0,912,0,0,859.03,18.81,21.91,0
9:16:23,0,0,0,0,0,0,0,0,0,0,0,514,0,0,0,0,0.0000000,0.0000000,0.0000000,0.0000000,8.00,38.4064369,-110.7919998,1373.6999512,0.2,1.1,1.0,0.0,0.0,913,0,0,858.97,18.88,21.91,0
9:16:24,0,0,0,0,0,0,0,0,0,0,0,514,0,0,0,0,0.0000000,0.0000000,0.0000000,0.0000000,8.00,38.4064369,-110.7919998,1373.6999512,0.1,358.3,1.0,0.0,0.0,913,0,0,858.93,18.65,21.92,0
9:16:25,0,0,0,0,0,0,0,0,0,0,0,514,0,0,0,0,0.0000000,0.0000000,0.0000000,0.0000000,8.00,38.4064369,-110.7919998,1373.6999512,0.2,4.9,1.0,0.0,0.0,913,0,0,858.99,18.10,21.92,0
9:16:26,0,0,0,0,0,0,0,0,0,0,0,514,0,0,0,0,0.0000000,0.0000000,0.0000000,0.0000000,8.00,38.4064369,-110.7919998,1373.6999512,0.1,349.9,1.0,0.0,0.0,913,0,0,858.94,17.94,21.92,0
9:16:27,0,0,0,0,0,0,0,0,0,0,0,514,0,0,0,0,0.0000000,0.0000000,0.0000000,0.0000000,8.00,38.4064369,-110.7919998,1373.6999512,0.1,346.8,1.0,0.0,0.0,913,0,0,858.94,17.79,21.93,0
9:16:28,0,0,0,0,0,0,0,0,0,0,0,514,0,0,0,0,0.0000000,0.0000000,0.0000000,0.0000000,8.00,38.4064369,-110.7919998,1373.6999512,0.0,298.1,1.0,0.0,0.0,913,0,0,858.90,17.33,21.93,0
9:16:29,0,0,0,0,0,0,0,0,0,0,0,514,0,0,0,0,0.0000000,0.0000000,0.0000000,0.0000000,8.00,38.4064369,-110.7919998,1373.6999512,0.1,86.8,1.0,0.0,0.0,912,0,0,858.99,17.33,21.94,0
9:16:30,0,0,0,0,0,0,0,0,0,0,0,514,0,0,0,0,0.0000000,0.0000000,0.0000000,0.0000000,8.00,38.4064369,-110.7919998,1373.6999512,0.1,92.5,1.0,0.0,0.0,913,0,0,859.05,17.41,21.94,0
9:16:31,0,0,0,0,0,0,0,0,0,0,0,514,0,0,0,0,0.0000000,0.0000000,0.0000000,0.0000000,8.00,38.4064369,-110.7919998,1373.6999512,0.3,66.2,1.0,0.0,0.0,912,0,0,859.03,16.98,21.93,0
9:16:32,0,0,0,0,0,0,0,0,0,0,0,514,0,0,0,0,0.0000000,0.0000000,0.0000000,0.0000000,8.00,38.4064407,-110.7919846,1373.6999512,0.3,74.9,1.0,0.0,0.0,913,0,0,858.97,16.91,21.93,0
9:16:33,0,0,0,0,0,0,0,0,0,0,0,513,0,0,0,0,0.0000000,0.0000000,0.0000000,0.0000000,8.00,38.4064407,-110.7919846,1373.6999512,0.2,87.3,1.0,0.0,0.0,913,0,0,859.02,16.98,21.94,0
9:16:34,0,0,0,0,0,0,0,0,0,0,0,513,0,0,0,0,0.0000000,0.0000000,0.0000000,0.0000000,8.00,38.4064407,-110.7919846,1373.6999512,0.3,77.9,1.0,0.0,0.0,913,0,0,859.00,16.92,21.93,0
9:16:35,0,0,0,0,0,0,0,0,0,0,0,514,0,0,0,0,0.0000000,0.0000000,0.0000000,0.0000000,8.00,38.4064407,-110.7919846,1373.6999512,0.2,58.3,1.0,0.0,0.0,912,0,0,859.01,16.74,21.93,0
9:16:36,0,0,0,0,0,0,0,0,0,0,0,514,0,0,0,0,0.0000000,0.0000000,0.0000000,0.0000000,8.00,38.4064407,-110.7919846,1373.6999512,0.2,59.1,1.0,0.0,0.0,913,0,0,858.99,16.88,21.92,0
9:16:37,0,0,0,0,0,0,0,0,0,0,0,514,0,0,0,0,0.0000000,0.0000000,0.0000000,0.0000000,8.00,38.4064407,-110.7919846,1373.6999512,0.3,67.1,1.0,0.0,0.0,913,0,0,858.98,16.88,21.93,0
9:16:38,0,0,0,0,0,0,0,0,0,0,0,513,0,0,0,0,0.0000000,0.0000000,0.0000000,0.0000000,8.00,38.4064407,-110.7919846,1373.6999512,0.2,73.7,1.0,0.0,0.0,913,0,0,858.95,16.75,21.93,0
9:16:39,0,0,0,0,0,0,0,0,0,0,0,514,0,0,0,0,0.0000000,0.0000000,0.0000000,0.0000000,8.00,38.4064407,-110.7919846,1373.6999512,0.2,64.8,1.0,0.0,0.0,913,0,0,858.95,16.39,21.93,0
9:16:40,0,0,0,0,0,0,0,0,0,0,0,514,0,0,0,0,0.0000000,0.0000000,0.0000000,0.0000000,8.00,38.4064407,-110.7919846,1373.6999512,0.2,60.8,1.0,0.0,0.0,913,0,0,858.95,16.63,21.92,0
9:16:41,0,0,0,0,0,0,0,0,0,0,0,514,0,0,0,0,0.0000000,0.0000000,0.0000000,0.0000000,8.00,38.4064407,-110.7919846,1373.6999512,0.2,44.8,1.0,0.0,0.0,913,0,0,858.90,17.01,21.92,0
9:16:42,0,0,0,0,0,0,0,0,0,0,0,514,0,0,0,0,0.0000000,0.0000000,0.0000000,0.0000000,8.00,38.4064445,-110.7919846,1373.6999512,0.2,39.0,1.0,0.0,0.0,912,0,0,858.92,17.21,21.92,0
9:16:43,0,0,0,0,0,0,0,0,0,0,0,515,0,0,0,0,0.0000000,0.0000000,0.0000000,0.0000000,8.00,38.4064445,-110.7919846,1373.6999512,0.2,34.0,1.0,0.0,0.0,912,0,0,858.93,17.00,21.92,0
9:16:44,0,0,0,0,0,0,0,0,0,0,0,514,0,0,0,0,0.0000000,0.0000000,0.0000000,0.0000000,8.00,38.4064445,-110.7919769,1373.6999512,0.1,30.9,1.0,0.0,0.0,913,0,0,858.96,16.80,21.92,0
9:16:45,0,0,0,0,0,0,0,0,0,0,0,514,0,0,0,0,0.0000000,0.0000000,0.0000000,0.0000000,8.00,38.4064445,-110.7919769,1373.6999512,0.2,23.3,1.0,0.0,0.0,913,0,0,858.95,16.89,21.92,0
9:16:46,0,0,0,0,0,0,0,0,0,0,0,514,0,0,0,0,0.0000000,0.0000000,0.0000000,0.0000000,8.00,38.4064445,-110.7919769,1373.6999512,0.1,56.9,1.0,0.0,0.0,912,0,0,858.98,17.70,21.93,0
9:16:47,0,0,0,0,0,0,0,0,0,0,0,514,0,0,0,0,0.0000000,0.0000000,0.0000000,0.0000000,8.00,38.4064484,-110.7919769,1373.6999512,0.1,73.7,1.0,0.0,0.0,913,0,0,858.92,19.65,21.95,0
9:16:48,0,0,0,0,0,0,0,0,0,0,0,514,0,0,0,0,0.0000000,0.0000000,0.0000000,0.0000000,8.00,38.4064484,-110.7919769,1373.6999512,0.1,118.4,1.0,0.0,0.0,913,0,0,858.94,20.89,21.97,0
9:16:49,0,0,0,0,0,0,0,0,0,0,0,515,0,0,0,0,0.0000000,0.0000000,0.0000000,0.0000000,8.00,38.4064445,-110.7919769,1373.6999512,0.1,180.2,1.0,0.0,0.0,913,0,0,858.99,20.02,21.97,0
9:16:50,0,0,0,0,0,0,0,0,0,0,0,514,0,0,0,0,0.0000000,0.0000000,0.0000000,0.0000000,8.00,38.4064445,-110.7919769,1373.6999512,0.2,181.5,1.0,0.0,0.0,912,0,0,858.95,19.33,21.97,0
9:16:51,0,0,0,0,0,0,0,0,0,0,0,514,0,0,0,0,0.0000000,0.0000000,0.0000000,0.0000000,8.00,38.4064445,-110.7919769,1373.6999512,0.3,145.4,1.0,0.0,0.0,913,0,0,858.95,18.62,21.96,0
9:16:52,0,0,0,0,0,0,0,0,0,0,0,514,0,0,0,0,0.0000000,0.0000000,0.0000000,0.0000000,8.00,38.4064445,-110.7919769,1373.6999512,0.2,114.8,1.0,0.0,0.0,913,0,0,858.94,18.25,21.97,0
9:16:53,0,0,0,0,0,0,0,0,0,0,0,514,0,0,0,0,0.0000000,0.0000000,0.0000000,0.0000000,8.00,38.4064407,-110.7919769,1373.6999512,0.6,99.7,1.0,0.0,0.0,913,0,0,859.11,18.19,21.95,0
9:16:54,0,0,0,0,0,0,0,0,0,0,0,514,0,0,0,0,0.0000000,0.0000000,0.0000000,0.0000000,8.00,38.4064445,-110.7919769,1373.5999756,0.5,94.8,1.0,0.0,0.0,912,0,0,859.17,18.17,21.89,0
9:16:55,0,0,0,0,0,0,0,0,0,0,0,514,0,0,0,0,0.0000000,0.0000000,0.0000000,0.0000000,8.00,38.4064331,-110.7919769,1373.5000000,0.3,152.7,1.0,0.0,0.0,912,0,0,858.56,17.85,21.75,0
9:16:57,0,0,0,0,0,0,0,0,0,0,0,514,0,0,0,0,0.0000000,0.0000000,0.0000000,0.0000000,8.00,38.4064293,-110.7919769,1373.5000000,0.5,157.4,1.0,0.0,0.0,913,0,0,858.43,17.27,21.67,0
9:16:58,0,0,0,0,0,0,0,0,0,0,0,515,0,0,0,0,0.0000000,0.0000000,0.0000000,0.0000000,8.00,38.4064217,-110.7919769,1373.4000244,0.8,160.5,1.0,0.0,0.0,912,0,0,858.60,16.98,21.62,0
9:16:59,0,0,0,0,0,0,0,0,0,0,0,514,0,0,0,0,0.0000000,0.0000000,0.0000000,0.0000000,8.00,38.4064178,-110.7919769,1373.1999512,0.8,176.6,1.0,0.0,0.0,913,0,0,858.41,16.74,21.62,0
9:17:00,0,0,0,0,0,0,0,0,0,0,0,514,0,0,0,0,0.0000000,0.0000000,0.0000000,0.0000000,8.00,38.4064178,-110.7919617,1372.9000244,0.8,164.7,1.0,0.0,0.0,912,0,0,858.40,16.65,21.63,0
9:17:01,0,0,0,0,0,0,0,0,0,0,0,514,0,0,0,0,0.0000000,0.0000000,0.0000000,0.0000000,8.00,38.4064178,-110.7919617,1372.6999512,0.8,154.7,1.0,0.0,0.0,913,0,0,858.52,16.43,21.61,0
9:17:02,0,0,0,0,0,0,0,0,0,0,0,516,0,0,0,0,0.0000000,0.0000000,0.0000000,0.0000000,8.00,38.4064178,-110.7919617,1372.6999512,0.7,167.7,1.0,0.0,0.0,913,0,0,858.46,16.31,21.57,0
9:17:03,0,0,0,0,0,0,0,0,0,0,0,515,0,0,0,0,0.0000000,0.0000000,0.0000000,0.0000000,8.00,38.4064178,-110.7919617,1372.5000000,0.7,170.1,1.0,0.0,0.0,912,0,0,858.33,16.13,21.51,0
9:17:04,0,0,0,0,0,0,0,0,0,0,0,513,0,0,0,0,0.0000000,0.0000000,0.0000000,0.0000000,8.00,38.4064140,-110.7919617,1372.3000488,0.7,175.6,1.0,0.0,0.0,913,0,0,858.43,16.14,21.49,0
9:17:05,0,0,0,0,0,0,0,0,0,0,0,515,0,0,0,0,0.0000000,0.0000000,0.0000000,0.0000000,8.00,38.4064102,-110.7919464,1372.0999756,0.9,166.1,1.0,0.0,0.0,914,0,0,856.38,17.03,21.33,0
9:17:06,0,0,0,0,0,0,0,0,0,0,0,514,0,0,0,0,0.0000000,0.0000000,0.0000000,0.0000000,8.00,38.4064064,-110.7919464,1371.9000244,0.7,162.0,1.0,0.0,0.0,912,0,0,858.72,36.36,21.35,0
9:17:07,0,0,0,0,0,0,0,0,0,0,0,514,0,0,0,0,0.0000000,0.0000000,0.0000000,0.0000000,8.00,38.4064064,-110.7919617,1371.6999512,0.9,271.8,1.0,0.0,0.0,913,0,0,858.41,22.58,21.63,0
9:17:08,0,0,0,0,0,0,0,0,0,0,0,515,0,0,0,0,0.0000000,0.0000000,0.0000000,0.0000000,8.00,38.4064064,-110.7919617,1371.5000000,0.3,240.3,1.0,0.0,0.0,913,0,0,858.72,18.92,21.69,0
9:17:09,0,0,0,0,0,0,0,0,0,0,0,515,0,0,0,0,0.0000000,0.0000000,0.0000000,0.0000000,8.00,38.4064064,-110.7919769,1371.4000244,0.5,270.8,1.0,0.0,0.0,912,0,0,858.45,38.28,21.72,0
9:17:10,0,0,0,0,0,0,0,0,0,0,0,514,0,0,0,0,0.0000000,0.0000000,0.0000000,0.0000000,8.00,38.4064064,-110.7919769,1371.4000244,0.2,237.1,1.0,0.0,0.0,913,0,0,858.38,39.72,21.91,0
9:17:11,0,0,0,0,0,0,0,0,0,0,0,515,0,0,0,0,0.0000000,0.0000000,0.0000000,0.0000000,8.00,38.4064064,-110.7919769,1371.3000488,0.2,239.4,1.0,0.0,0.0,912,0,0,858.60,36.07,22.10,0
9:17:12,0,0,0,0,0,0,0,0,0,0,0,514,0,0,0,0,0.0000000,0.0000000,0.0000000,0.0000000,8.00,38.4064064,-110.7919769,1371.3000488,0.2,205.9,1.0,0.0,0.0,912,0,0,858.86,25.04,22.21,0
9:17:13,0,0,0,0,0,0,0,0,0,0,0,515,0,0,0,0,0.0000000,0.0000000,0.0000000,0.0000000,8.00,38.4064026,-110.7919769,1371.3000488,0.2,139.9,1.0,0.0,0.0,913,0,0,858.76,25.70,22.32,0
9:17:14,0,0,0,0,0,0,0,0,0,0,0,515,0,0,0,0,0.0000000,0.0000000,0.0000000,0.0000000,8.00,38.4064026,-110.7919769,1371.3000488,0.1,215.3,1.0,0.0,0.0,912,0,0,858.61,33.94,22.46,0
9:17:15,0,0,0,0,0,0,0,0,0,0,0,514,0,0,0,0,0.0000000,0.0000000,0.0000000,0.0000000,8.00,38.4064026,-110.7919769,1371.3000488,0.2,254.7,1.0,0.0,0.0,913,0,0,858.79,27.12,22.60,0
9:17:16,0,0,0,0,0,0,0,0,0,0,0,514,0,0,0,0,0.0000000,0.0000000,0.0000000,0.0000000,8.00,38.4064026,-110.7919769,1371.3000488,0.3,216.9,1.0,0.0,0.0,912,0,0,858.77,22.29,22.71,0
9:17:17,0,0,0,0,0,0,0,0,0,0,0,515,0,0,0,0,0.0000000,0.0000000,0.0000000,0.0000000,8.00,38.4064026,-110.7919769,1371.3000488,0.2,210.3,1.0,0.0,0.0,913,0,0,858.69,22.90,22.80,0
9:17:18,0,0,0,0,0,0,0,0,0,0,0,515,0,0,0,0,0.0000000,0.0000000,0.0000000,0.0000000,8.00,38.4063988,-110.7919769,1371.3000488,0.2,228.1,1.0,0.0,0.0,913,0,0,858.83,23.65,22.93,0
9:17:19,0,0,0,0,0,0,0,0,0,0,0,514,0,0,0,0,0.0000000,0.0000000,0.0000000,0.0000000,8.00,38.4063988,-110.7919769,1371.3000488,0.3,262.6,1.0,0.0,0.0,912,0,0,858.68,20.39,23.12,0
9:17:20,0,0,0,0,0,0,0,0,0,0,0,515,0,0,0,0,0.0000000,0.0000000,0.0000000,0.0000000,8.00,38.4063988,-110.7919769,1371.3000488,0.3,213.9,1.0,0.0,0.0,913,0,0,859.00,25.28,23.13,0
9:17:21,0,0,0,0,0,0,0,0,0,0,0,515,0,0,0,0,0.0000000,0.0000000,0.0000000,0.0000000,8.00,38.4063950,-110.7919769,1371.4000244,0.3,260.6,1.0,0.0,0.0,912,0,0,858.92,23.30,23.22,0
9:17:22,0,0,0,0,0,0,0,0,0,0,0,514,0,0,0,0,0.0000000,0.0000000,0.0000000,0.0000000,8.00,38.4063950,-110.7919846,1371.4000244,0.2,247.4,1.0,0.0,0.0,912,0,0,858.68,22.61,23.36,0
9:17:23,0,0,0,0,0,0,0,0,0,0,0,515,0,0,0,0,0.0000000,0.0000000,0.0000000,0.0000000,8.00,38.4063950,-110.7919846,1371.4000244,0.1,244.1,1.0,0.0,0.0,912,0,0,858.63,22.28,23.50,0
9:17:24,0,0,0,0,0,0,0,0,0,0,0,514,0,0,0,0,0.0000000,0.0000000,0.0000000,0.0000000,8.00,38.4063950,-110.7919846,1371.4000244,0.1,208.4,1.0,0.0,0.0,913,0,0,858.63,23.62,23.63,0
9:17:25,0,0,0,0,0,0,0,0,0,0,0,514,0,0,0,0,0.0000000,0.0000000,0.0000000,0.0000000,8.00,38.4063950,-110.7919846,1371.4000244,0.2,210.0,1.0,0.0,0.0,912,0,0,858.63,25.71,23.66,0
9:17:26,0,0,0,0,0,0,0,0,0,0,0,514,0,0,0,0,0.0000000,0.0000000,0.0000000,0.0000000,8.00,38.4063950,-110.7919846,1371.4000244,0.1,209.4,1.0,0.0,0.0,913,0,0,858.73,31.28,23.72,0
9:17:27,0,0,0,0,0,0,0,0,0,0,0,515,0,0,0,0,0.0000000,0.0000000,0.0000000,0.0000000,8.00,38.4063950,-110.7919846,1371.4000244,0.1,232.6,1.0,0.0,0.0,913,0,0,858.71,23.42,23.81,0
9:17:28,0,0,0,0,0,0,0,0,0,0,0,514,0,0,0,0,0.0000000,0.0000000,0.0000000,0.0000000,8.00,38.4063950,-110.7919846,1371.4000244,0.1,47.1,1.0,0.0,0.0,912,0,0,858.30,20.22,23.92,0
9:17:29,0,0,0,0,0,0,0,0,0,0,0,514,0,0,0,0,0.0000000,0.0000000,0.0000000,0.0000000,8.00,38.4063950,-110.7919846,1371.4000244,0.3,134.6,1.0,0.0,0.0,912,0,0,858.56,22.58,23.84,0
9:17:30,0,0,0,0,0,0,0,0,0,0,0,514,0,0,0,0,0.0000000,0.0000000,0.0000000,0.0000000,8.00,38.4063950,-110.7919846,1371.4000244,0.1,192.4,1.0,0.0,0.0,912,0,0,858.58,22.43,23.93,0
9:17:31,0,0,0,0,0,0,0,0,0,0,0,515,0,0,0,0,0.0000000,0.0000000,0.0000000,0.0000000,8.00,38.4063950,-110.7919846,1371.4000244,0.1,307.0,1.0,0.0,0.0,912,0,0,857.19,15.63,24.04,0
9:17:32,0,0,0,0,0,0,0,0,0,0,0,514,0,0,0,0,0.0000000,0.0000000,0.0000000,0.0000000,8.00,38.4063950,-110.7919846,1371.4000244,0.4,160.7,1.0,0.0,0.0,912,0,0,858.43,14.13,24.01,0
9:17:33,0,0,0,0,0,0,0,0,0,0,0,515,0,0,0,0,0.0000000,0.0000000,0.0000000,0.0000000,8.00,38.4063950,-110.7919846,1371.4000244,0.3,189.4,1.0,0.0,0.0,912,0,0,857.16,14.76,23.82,0
9:17:34,0,0,0,0,0,0,0,0,0,0,0,515,0,0,0,0,0.0000000,0.0000000,0.0000000,0.0000000,8.00,38.4063950,-110.7919846,1371.4000244,0.3,189.3,1.0,0.0,0.0,912,0,0,858.74,20.36,23.63,0
9:17:35,0,0,0,0,0,0,0,0,0,0,0,515,0,0,0,0,0.0000000,0.0000000,0.0000000,0.0000000,8.00,38.4063911,-110.7919846,1371.4000244,0.2,302.4,1.0,0.0,0.0,912,0,0,858.93,19.06,23.44,0
9:17:36,0,0,0,0,0,0,0,0,0,0,0,514,0,0,0,0,0.0000000,0.0000000,0.0000000,0.0000000,8.00,38.4063911,-110.7919846,1371.4000244,0.1,250.6,1.0,0.0,0.0,913,0,0,858.60,20.31,23.36,0
9:17:37,0,0,0,0,0,0,0,0,0,0,0,514,0,0,0,0,0.0000000,0.0000000,0.0000000,0.0000000,8.00,38.4063911,-110.7919846,1371.4000244,0.1,202.6,1.0,0.0,0.0,913,0,0,858.27,20.83,23.54,0
9:17:38,0,0,0,0,0,0,0,0,0,0,0,513,0,0,0,0,0.0000000,0.0000000,0.0000000,0.0000000,8.00,38.4063911,-110.7919846,1371.4000244,0.2,189.3,1.0,0.0,0.0,912,0,0,858.27,14.27,23.68,0
9:17:39,0,0,0,0,0,0,0,0,0,0,0,514,0,0,0,0,0.0000000,0.0000000,0.0000000,0.0000000,8.00,38.4063911,-110.7919846,1371.4000244,0.6,259.4,1.0,0.0,0.0,912,0,0,858.46,14.04,23.46,0
9:17:40,0,0,0,0,0,0,0,0,0,0,0,515,0,0,0,0,0.0000000,0.0000000,0.0000000,0.0000000,8.00,38.4063911,-110.7919846,1371.4000244,0.8,262.6,1.0,0.0,0.0,912,0,0,858.27,13.79,23.32,0
9:17:41,0,0,0,0,0,0,0,0,0,0,0,515,0,0,0,0,0.0000000,0.0000000,0.0000000,0.0000000,8.00,38.4063911,-110.7919998,1371.4000244,1.0,265.0,1.0,0.0,0.0,912,0,0,857.65,18.89,23.13,0
9:17:42,0,0,0,0,0,0,0,0,0,0,0,514,0,0,0,0,0.0000000,0.0000000,0.0000000,0.0000000,8.00,38.4063911,-110.7919998,1371.5000000,0.3,266.4,1.0,0.0,0.0,912,0,0,858.09,37.96,23.35,0
9:17:43,0,0,0,0,0,0,0,0,0,0,0,515,0,0,0,0,0.0000000,0.0000000,0.0000000,0.0000000,8.00,38.4063911,-110.7919998,1371.5000000,0.4,181.2,1.0,0.0,0.0,912,0,0,858.47,24.55,23.50,0
9:17:44,0,0,0,0,0,0,0,0,0,0,0,514,0,0,0,0,0.0000000,0.0000000,0.0000000,0.0000000,8.00,38.4063873,-110.7919998,1371.5000000,0.4,190.9,1.0,0.0,0.0,912,0,0,858.45,22.52,23.64,0
9:17:45,0,0,0,0,0,0,0,0,0,0,0,514,0,0,0,0,0.0000000,0.0000000,0.0000000,0.0000000,8.00,38.4063873,-110.7919998,1371.5000000,0.3,220.7,1.0,0.0,0.0,912,0,0,858.46,24.12,23.79,0
9:17:46,0,0,0,0,0,0,0,0,0,0,0,514,0,0,0,0,0.0000000,0.0000000,0.0000000,0.0000000,8.00,38.4063873,-110.7919998,1371.5000000,0.3,218.0,1.0,0.0,0.0,912,0,0,858.44,22.92,23.98,0
9:17:47,0,0,0,0,0,0,0,0,0,0,0,515,0,0,0,0,0.0000000,0.0000000,0.0000000,0.0000000,8.00,38.4063835,-110.7919998,1371.5000000,0.3,212.6,1.0,0.0,0.0,912,0,0,858.37,21.77,24.13,0
9:17:48,0,0,0,0,0,0,0,0,0,0,0,514,0,0,0,0,0.0000000,0.0000000,0.0000000,0.0000000,8.00,38.4063835,-110.7919998,1371.5000000,0.1,75.1,1.0,0.0,0.0,912,0,0,858.46,21.41,24.01,0
9:17:49,0,0,0,0,0,0,0,0,0,0,0,515,0,0,0,0,0.0000000,0.0000000,0.0000000,0.0000000,8.00,38.4063835,-110.7919998,1371.5000000,0.0,15.4,1.0,0.0,0.0,912,0,0,858.42,21.26,23.93,0
9:17:50,0,0,0,0,0,0,0,0,0,0,0,515,0,0,0,0,0.0000000,0.0000000,0.0000000,0.0000000,8.00,38.4063835,-110.7919998,1371.5000000,0.2,195.8,1.0,0.0,0.0,912,0,0,858.15,21.21,23.94,0
9:17:51,0,0,0,0,0,0,0,0,0,0,0,514,0,0,0,0,0.0000000,0.0000000,0.0000000,0.0000000,8.00,38.4063835,-110.7919998,1371.5000000,0.1,200.8,1.0,0.0,0.0,912,0,0,858.17,21.12,23.65,0
9:17:52,0,0,0,0,0,0,0,0,0,0,0,515,0,0,0,0,0.0000000,0.0000000,0.0000000,0.0000000,8.00,38.4063835,-110.7919998,1371.5000000,0.1,72.2,1.0,0.0,0.0,913,0,0,858.16,21.24,23.60,0
9:17:53,0,0,0,0,0,0,0,0,0,0,0,515,0,0,0,0,0.0000000,0.0000000,0.0000000,0.0000000,8.00,38.4063835,-110.7919998,1371.5999756,0.1,120.2,1.0,0.0,0.0,912,0,0,858.24,21.09,23.64,0
9:17:54,0,0,0,0,0,0,0,0,0,0,0,515,0,0,0,0,0.0000000,0.0000000,0.0000000,0.0000000,8.00,38.4063835,-110.7919998,1371.5999756,0.0,107.4,1.0,0.0,0.0,912,0,0,858.23,21.12,23.72,0
9:17:55,0,0,0,0,0,0,0,0,0,0,0,514,0,0,0,0,0.0000000,0.0000000,0.0000000,0.0000000,7.00,38.4063835,-110.7919998,1371.5999756,0.0,95.5,1.2,0.0,0.0,912,0,0,858.28,20.92,23.75,0
9:17:56,0,0,0,0,0,0,0,0,0,0,0,515,0,0,0,0,0.0000000,0.0000000,0.0000000,0.0000000,7.00,38.4063835,-110.7919998,1371.5999756,0.0,215.9,1.2,0.0,0.0,912,0,0,858.35,21.00,23.72,0
9:17:57,0,0,0,0,0,0,0,0,0,0,0,515,0,0,0,0,0.0000000,0.0000000,0.0000000,0.0000000,7.00,38.4063835,-110.7919998,1371.5999756,0.0,356.7,1.2,0.0,0.0,912,0,0,858.32,20.84,23.74,0
9:17:58,0,0,0,0,0,0,0,0,0,0,0,515,0,0,0,0,0.0000000,0.0000000,0.0000000,0.0000000,7.00,38.4063835,-110.7919998,1371.5999756,0.0,79.2,1.2,0.0,0.0,912,0,0,858.33,20.69,23.73,0
9:17:59,0,0,0,0,0,0,0,0,0,0,0,515,0,0,0,0,0.0000000,0.0000000,0.0000000,0.0000000,7.00,38.4063835,-110.7919998,1371.5999756,0.0,107.9,1.2,0.0,0.0,913,0,0,858.34,20.69,23.72,0
9:18:00,0,0,0,0,0,0,0,0,0,0,0,514,0,0,0,0,0.0000000,0.0000000,0.0000000,0.0000000,7.00,38.4063835,-110.7919998,1371.5999756,0.0,261.8,1.2,0.0,0.0,913,0,0,858.34,20.72,23.82,0
9:18:01,0,0,0,0,0,0,0,0,0,0,0,514,0,0,0,0,0.0000000,0.0000000,0.0000000,0.0000000,7.00,38.4063835,-110.7919998,1371.5999756,0.0,137.1,1.2,0.0,0.0,913,0,0,858.32,20.77,23.91,0
9:18:02,0,0,0,0,0,0,0,0,0,0,0,514,0,0,0,0,0.0000000,0.0000000,0.0000000,0.0000000,7.00,38.4063835,-110.7919998,1371.5999756,0.0,142.0,1.2,0.0,0.0,912,0,0,858.26,20.78,24.07,0
9:18:03,0,0,0,0,0,0,0,0,0,0,0,515,0,0,0,0,0.0000000,0.0000000,0.0000000,0.0000000,7.00,38.4063797,-110.7919998,1371.5999756,0.0,57.2,1.2,0.0,0.0,912,0,0,858.27,20.94,24.23,0
9:18:04,0,0,0,0,0,0,0,0,0,0,0,514,0,0,0,0,0.0000000,0.0000000,0.0000000,0.0000000,8.00,38.4063835,-110.7919998,1371.5999756,0.0,170.2,1.0,0.0,0.0,913,0,0,858.28,20.86,24.37,0
9:18:05,0,0,0,0,0,0,0,0,0,0,0,514,0,0,0,0,0.0000000,0.0000000,0.0000000,0.0000000,7.00,38.4063797,-110.7919998,1371.5999756,0.0,296.9,1.2,0.0,0.0,912,0,0,858.19,20.17,24.37,0
9:18:06,0,0,0,0,0,0,0,0,0,0,0,514,0,0,0,0,0.0000000,0.0000000,0.0000000,0.0000000,8.00,38.4063797,-110.7919998,1371.5999756,0.2,199.3,1.0,0.0,0.0,912,0,0,858.34,13.95,24.34,0
9:18:07,0,0,0,0,0,0,0,0,0,0,0,514,0,0,0,0,0.0000000,0.0000000,0.0000000,0.0000000,8.00,38.4063797,-110.7919998,1371.5999756,0.2,310.7,1.0,0.0,0.0,913,0,0,858.14,13.72,24.23,0
9:18:08,0,0,0,0,0,0,0,0,0,0,0,514,0,0,0,0,0.0000000,0.0000000,0.0000000,0.0000000,8.00,38.4063797,-110.7919998,1371.5999756,0.1,279.8,1.0,0.0,0.0,912,0,0,858.19,13.49,24.16,0
9:18:09,0,0,0,0,0,0,0,0,0,0,0,515,0,0,0,0,0.0000000,0.0000000,0.0000000,0.0000000,8.00,38.4063797,-110.7919998,1371.5999756,0.8,287.3,1.0,0.0,0.0,912,0,0,858.04,13.58,24.12,0
9:18:10,0,0,0,0,0,0,0,0,0,0,0,515,0,0,0,0,0.0000000,0.0000000,0.0000000,0.0000000,8.00,38.4063759,-110.7919998,1371.4000244,0.9,239.0,1.0,0.0,0.0,912,0,0,858.08,13.57,24.11,0
9:18:11,0,0,0,0,0,0,0,0,0,0,0,514,0,0,0,0,0.0000000,0.0000000,0.0000000,0.0000000,8.00,38.4063759,-110.7920151,1371.4000244,1.3,223.1,1.0,0.0,0.0,912,0,0,858.15,13.86,24.13,0
9:18:12,0,0,0,0,0,0,0,0,0,0,0,515,0,0,0,0,0.0000000,0.0000000,0.0000000,0.0000000,8.00,38.4063683,-110.7920227,1371.5999756,1.5,219.7,1.0,0.0,0.0,912,0,0,858.18,13.67,24.12,0
9:18:13,0,0,0,0,0,0,0,0,0,0,0,515,0,0,0,0,0.0000000,0.0000000,0.0000000,0.0000000,8.00,38.4063568,-110.7920227,1372.0000000,1.7,221.7,1.0,0.0,0.0,912,0,0,858.32,13.61,24.13,0
9:18:14,0,0,0,0,0,0,0,0,0,0,0,514,0,0,0,0,0.0000000,0.0000000,0.0000000,0.0000000,8.00,38.4063416,-110.7920380,1372.4000244,1.9,215.4,1.0,0.0,0.0,912,0,0,858.36,13.46,24.13,0
9:18:15,0,0,0,0,0,0,0,0,0,0,0,515,0,0,0,0,0.0000000,0.0000000,0.0000000,0.0000000,8.00,38.4063339,-110.7920380,1373.0000000,1.8,223.2,1.0,0.0,0.0,912,0,0,858.59,13.55,24.17,0
9:18:16,0,0,0,0,0,0,0,0,0,0,0,515,0,0,0,0,0.0000000,0.0000000,0.0000000,0.0000000,8.00,38.4063263,-110.7920609,1373.5999756,1.8,238.5,1.0,0.0,0.0,912,0,0,858.25,13.89,24.17,0
9:18:17,0,0,0,0,0,0,0,0,0,0,0,514,0,0,0,0,0.0000000,0.0000000,0.0000000,0.0000000,8.00,38.4063187,-110.7920761,1374.1999512,1.2,272.0,1.0,0.0,0.0,912,0,0,857.42,39.99,24.09,0
9:18:18,0,0,0,0,0,0,0,0,0,0,0,513,0,0,0,0,0.0000000,0.0000000,0.0000000,0.0000000,8.00,38.4063225,-110.7920761,1374.4000244,0.7,272.4,1.0,0.0,0.0,912,0,0,857.08,34.42,24.27,0
9:18:19,0,0,0,0,0,0,0,0,0,0,0,515,0,0,0,0,0.0000000,0.0000000,0.0000000,0.0000000,8.00,38.4063187,-110.7920761,1374.8000488,0.2,256.0,1.0,0.0,0.0,912,0,0,856.88,32.35,24.46,0
9:18:20,0,0,0,0,0,0,0,0,0,0,0,515,0,0,0,0,0.0000000,0.0000000,0.0000000,0.0000000,8.00,38.4063187,-110.7920761,1375.0000000,0.1,27.7,1.0,0.0,0.0,912,0,0,857.09,34.55,24.56,0
9:18:21,0,0,0,0,0,0,0,0,0,0,0,515,0,0,0,0,0.0000000,0.0000000,0.0000000,0.0000000,8.00,38.4063187,-110.7920761,1375.1999512,0.3,87.0,1.0,0.0,0.0,912,0,0,857.72,39.34,24.75,0
9:18:22,0,0,0,0,0,0,0,0,0,0,0,514,0,0,0,0,0.0000000,0.0000000,0.0000000,0.0000000,8.00,38.4063225,-110.7920761,1375.1999512,0.3,144.2,1.0,0.0,0.0,911,0,0,858.28,29.77,24.86,0
9:18:23,0,0,0,0,0,0,0,0,0,0,0,516,0,0,0,0,0.0000000,0.0000000,0.0000000,0.0000000,8.00,38.4063187,-110.7920761,1375.0999756,0.3,147.7,1.0,0.0,0.0,912,0,0,858.45,21.50,24.92,0
9:18:24,0,0,0,0,0,0,0,0,0,0,0,514,0,0,0,0,0.0000000,0.0000000,0.0000000,0.0000000,8.00,38.4063187,-110.7920761,1375.0999756,1.3,97.5,1.0,0.0,0.0,912,0,0,858.33,19.91,24.75,0
9:18:25,0,0,0,0,0,0,0,0,0,0,0,515,0,0,0,0,0.0000000,0.0000000,0.0000000,0.0000000,8.00,38.4063187,-110.7920609,1375.3000488,1.5,73.8,1.0,0.0,0.0,912,0,0,857.59,39.63,24.71,0
9:18:26,0,0,0,0,0,0,0,0,0,0,0,515,0,0,0,0,0.0000000,0.0000000,0.0000000,0.0000000,8.00,38.4063187,-110.7920609,1375.5000000,1.2,28.5,1.0,0.0,0.0,912,0,0,857.30,42.02,24.89,0
9:18:27,0,0,0,0,0,0,0,0,0,0,0,515,0,0,0,0,0.0000000,0.0000000,0.0000000,0.0000000,8.00,38.4063225,-110.7920532,1375.5999756,0.8,29.4,1.0,0.0,0.0,912,0,0,858.20,25.19,25.07,0
9:18:28,0,0,0,0,0,0,0,0,0,0,0,515,0,0,0,0,0.0000000,0.0000000,0.0000000,0.0000000,8.00,38.4063263,-110.7920532,1375.6999512,1.4,71.2,1.0,0.0,0.0,912,0,0,858.40,20.72,25.06,0
9:18:29,0,0,0,0,0,0,0,0,0,0,0,514,0,0,0,0,0.0000000,0.0000000,0.0000000,0.0000000,8.00,38.4063301,-110.7920380,1375.8000488,1.6,70.4,1.0,0.0,0.0,912,0,0,858.35,20.83,24.92,0
9:18:30,0,0,0,0,0,0,0,0,0,0,0,515,0,0,0,0,0.0000000,0.0000000,0.0000000,0.0000000,8.00,38.4063339,-110.7920227,1375.8000488,1.9,69.4,1.0,0.0,0.0,912,0,0,858.30,21.38,25.02,0
9:18:32,0,0,0,0,0,0,0,0,0,0,0,514,0,0,0,0,0.0000000,0.0000000,0.0000000,0.0000000,8.00,38.4063339,-110.7920227,1375.6999512,2.0,69.8,1.0,0.0,0.0,912,0,0,858.34,20.14,25.08,0
9:18:33,0,0,0,0,0,0,0,0,0,0,0,515,0,0,0,0,0.0000000,0.0000000,0.0000000,0.0000000,8.00,38.4063377,-110.7920151,1375.5999756,2.3,69.1,1.0,0.0,0.0,911,0,0,858.69,19.93,25.11,0
9:18:34,0,0,0,0,0,0,0,0,0,0,0,515,0,0,0,0,0.0000000,0.0000000,0.0000000,0.0000000,8.00,38.4063416,-110.7919998,1375.5999756,2.7,63.7,1.0,0.0,0.0,912,0,0,858.81,19.61,25.11,0
9:18:35,0,0,0,0,0,0,0,0,0,0,0,514,0,0,0,0,0.0000000,0.0000000,0.0000000,0.0000000,8.00,38.4063492,-110.7919846,1375.5000000,3.0,63.4,1.0,0.0,0.0,911,0,0,858.60,19.76,24.91,0
