Time, Motor A Speed, Motor A Dir, Motor B Speed, Motor B Dir, Servo Rail Current Sensor, Servo Pos - Arm L, Servo Pos - Arm R, Servo Pos - End, Servo Pos - Hopper, Servo Pos - Lid, Servo Pos - Extra, Servo Current, LED - Front L, LED - Front R, LED - Back L, LED - Back R, IMU Pitch, IMU Roll, IMU Yaw, Compass Heading, GPS Sats, GPS Latitude, GPS Longitude, GPS Altitude, GPS Speed, GPS Angle, GPS HDOP, GPS VDOP, GPS PDOP, Battery, Comm Xbee Latency, Comm Arduino Latency, Pressure, Humidity, Temperature, uRADMonitor
9:27:52,0,0,0,0,0,0,0,0,0,0,0,516,0,0,0,0,0.0000000,0.0000000,0.0000000,0.0000000,9.00,38.4061775,-110.7882843,1363.5999756,6.5,42.9,1.0,0.0,0.0,908,0,0,859.01,13.63,22.45,0
9:27:53,0,0,0,0,0,0,0,0,0,0,0,515,0,0,0,0,0.0000000,0.0000000,0.0000000,0.0000000,9.00,38.4061966,-110.7882614,1363.8000488,6.7,43.1,1.0,0.0,0.0,909,0,0,859.02,13.61,22.38,0
9:27:54,0,0,0,0,0,0,0,0,0,0,0,515,0,0,0,0,0.0000000,0.0000000,0.0000000,0.0000000,9.00,38.4062195,-110.7882385,1363.9000244,6.7,43.5,1.0,0.0,0.0,909,0,0,859.05,13.73,22.35,0
9:27:55,0,0,0,0,0,0,0,0,0,0,0,515,0,0,0,0,0.0000000,0.0000000,0.0000000,0.0000000,9.00,38.4062424,-110.7882004,1364.0000000,6.4,45.4,1.0,0.0,0.0,908,0,0,859.07,13.67,22.35,0
9:27:56,0,0,0,0,0,0,0,0,0,0,0,515,0,0,0,0,0.0000000,0.0000000,0.0000000,0.0000000,9.00,38.4062614,-110.7881699,1364.0999756,6.3,45.6,1.0,0.0,0.0,909,0,0,859.14,13.81,22.30,0
9:27:57,0,0,0,0,0,0,0,0,0,0,0,515,0,0,0,0,0.0000000,0.0000000,0.0000000,0.0000000,8.00,38.4062843,-110.7881470,1364.0999756,6.7,47.0,1.1,0.0,0.0,908,0,0,859.16,13.75,22.24,0
9:27:58,0,0,0,0,0,0,0,0,0,0,0,515,0,0,0,0,0.0000000,0.0000000,0.0000000,0.0000000,8.00,38.4063034,-110.7881241,1364.1999512,6.7,44.9,1.1,0.0,0.0,909,0,0,859.21,13.81,22.16,0
9:27:59,0,0,0,0,0,0,0,0,0,0,0,515,0,0,0,0,0.0000000,0.0000000,0.0000000,0.0000000,8.00,38.4063263,-110.7880936,1364.4000244,6.5,48.7,1.1,0.0,0.0,908,0,0,859.17,13.92,22.15,0
9:28:00,0,0,0,0,0,0,0,0,0,0,0,515,0,0,0,0,0.0000000,0.0000000,0.0000000,0.0000000,8.00,38.4063454,-110.7880707,1364.5999756,6.1,49.6,1.1,0.0,0.0,908,0,0,859.18,13.95,22.16,0
9:28:01,0,0,0,0,0,0,0,0,0,0,0,515,0,0,0,0,0.0000000,0.0000000,0.0000000,0.0000000,8.00,38.4063606,-110.7880325,1364.5999756,6.2,50.9,1.1,0.0,0.0,908,0,0,859.16,13.96,22.14,0
9:28:02,0,0,0,0,0,0,0,0,0,0,0,515,0,0,0,0,0.0000000,0.0000000,0.0000000,0.0000000,8.00,38.4063797,-110.7880096,1364.6999512,6.4,49.0,1.1,0.0,0.0,908,0,0,859.24,13.98,22.13,0
9:28:03,0,0,0,0,0,0,0,0,0,0,0,515,0,0,0,0,0.0000000,0.0000000,0.0000000,0.0000000,9.00,38.4063950,-110.7879791,1364.8000488,6.2,50.2,1.0,0.0,0.0,908,0,0,859.24,14.02,22.11,0
9:28:04,0,0,0,0,0,0,0,0,0,0,0,515,0,0,0,0,0.0000000,0.0000000,0.0000000,0.0000000,9.00,38.4064178,-110.7879562,1364.9000244,6.2,50.6,1.0,0.0,0.0,908,0,0,859.21,14.04,22.09,0
9:28:05,0,0,0,0,0,0,0,0,0,0,0,515,0,0,0,0,0.0000000,0.0000000,0.0000000,0.0000000,9.00,38.4064331,-110.7879333,1365.0999756,6.0,49.8,1.0,0.0,0.0,908,0,0,859.20,14.08,22.09,0
9:28:06,0,0,0,0,0,0,0,0,0,0,0,514,0,0,0,0,0.0000000,0.0000000,0.0000000,0.0000000,9.00,38.4064522,-110.7879028,1365.0000000,5.9,49.4,1.0,0.0,0.0,908,0,0,859.21,14.04,22.10,0
9:28:07,0,0,0,0,0,0,0,0,0,0,0,515,0,0,0,0,0.0000000,0.0000000,0.0000000,0.0000000,9.00,38.4064636,-110.7878799,1364.9000244,5.9,53.5,1.0,0.0,0.0,908,0,0,859.18,14.04,22.11,0
9:28:08,0,0,0,0,0,0,0,0,0,0,0,514,0,0,0,0,0.0000000,0.0000000,0.0000000,0.0000000,9.00,38.4064827,-110.7878494,1365.5000000,5.7,51.2,1.0,0.0,0.0,908,0,0,859.33,13.87,22.11,0
9:28:09,0,0,0,0,0,0,0,0,0,0,0,515,0,0,0,0,0.0000000,0.0000000,0.0000000,0.0000000,9.00,38.4064941,-110.7878265,1365.3000488,5.5,51.3,1.0,0.0,0.0,908,0,0,859.26,13.67,22.12,0
9:28:10,0,0,0,0,0,0,0,0,0,0,0,515,0,0,0,0,0.0000000,0.0000000,0.0000000,0.0000000,8.00,38.4065094,-110.7878036,1365.4000244,5.5,54.4,1.1,0.0,0.0,908,0,0,859.40,13.63,22.10,0
9:28:11,0,0,0,0,0,0,0,0,0,0,0,514,0,0,0,0,0.0000000,0.0000000,0.0000000,0.0000000,9.00,38.4065247,-110.7877731,1365.5000000,5.3,57.3,1.0,0.0,0.0,909,0,0,859.38,13.52,22.05,0
9:28:12,0,0,0,0,0,0,0,0,0,0,0,516,0,0,0,0,0.0000000,0.0000000,0.0000000,0.0000000,9.00,38.4065361,-110.7877502,1365.1999512,5.0,59.9,1.0,0.0,0.0,908,0,0,859.45,13.58,21.98,0
9:28:13,0,0,0,0,0,0,0,0,0,0,0,516,0,0,0,0,0.0000000,0.0000000,0.0000000,0.0000000,9.00,38.4065437,-110.7877274,1365.0999756,5.2,62.0,1.0,0.0,0.0,908,0,0,859.42,13.60,21.94,0
9:28:14,0,0,0,0,0,0,0,0,0,0,0,514,0,0,0,0,0.0000000,0.0000000,0.0000000,0.0000000,9.00,38.4065514,-110.7876968,1364.9000244,5.0,63.0,1.0,0.0,0.0,908,0,0,859.40,13.69,21.93,0
9:28:15,0,0,0,0,0,0,0,0,0,0,0,514,0,0,0,0,0.0000000,0.0000000,0.0000000,0.0000000,9.00,38.4065590,-110.7876740,1364.5999756,4.8,66.1,1.0,0.0,0.0,908,0,0,859.41,13.82,21.90,0
9:28:16,0,0,0,0,0,0,0,0,0,0,0,515,0,0,0,0,0.0000000,0.0000000,0.0000000,0.0000000,9.00,38.4065704,-110.7876511,1364.5999756,4.8,67.3,1.0,0.0,0.0,908,0,0,859.45,13.86,21.90,0
9:28:17,0,0,0,0,0,0,0,0,0,0,0,515,0,0,0,0,0.0000000,0.0000000,0.0000000,0.0000000,9.00,38.4065742,-110.7876205,1364.5999756,4.6,67.3,1.0,0.0,0.0,908,0,0,859.37,13.92,21.89,0
9:28:18,0,0,0,0,0,0,0,0,0,0,0,517,0,0,0,0,0.0000000,0.0000000,0.0000000,0.0000000,9.00,38.4065819,-110.7875977,1364.5999756,4.4,68.0,1.0,0.0,0.0,908,0,0,859.39,14.04,21.90,0
9:28:19,0,0,0,0,0,0,0,0,0,0,0,516,0,0,0,0,0.0000000,0.0000000,0.0000000,0.0000000,9.00,38.4065857,-110.7875748,1364.4000244,4.5,68.4,1.0,0.0,0.0,908,0,0,859.38,13.92,21.90,0
9:28:20,0,0,0,0,0,0,0,0,0,0,0,516,0,0,0,0,0.0000000,0.0000000,0.0000000,0.0000000,9.00,38.4065933,-110.7875443,1364.4000244,4.9,68.9,1.0,0.0,0.0,909,0,0,859.38,13.89,21.91,0
9:28:21,0,0,0,0,0,0,0,0,0,0,0,514,0,0,0,0,0.0000000,0.0000000,0.0000000,0.0000000,9.00,38.4065971,-110.7875214,1364.3000488,5.3,67.9,1.0,0.0,0.0,909,0,0,859.37,13.86,21.92,0
9:28:22,0,0,0,0,0,0,0,0,0,0,0,513,0,0,0,0,0.0000000,0.0000000,0.0000000,0.0000000,9.00,38.4066086,-110.7874908,1364.1999512,5.3,66.9,1.0,0.0,0.0,910,0,0,859.41,13.84,21.94,0
9:28:23,0,0,0,0,0,0,0,0,0,0,0,514,0,0,0,0,0.0000000,0.0000000,0.0000000,0.0000000,9.00,38.4066162,-110.7874527,1364.1999512,5.5,67.1,1.0,0.0,0.0,910,0,0,859.39,13.87,21.94,0
9:28:24,0,0,0,0,0,0,0,0,0,0,0,515,0,0,0,0,0.0000000,0.0000000,0.0000000,0.0000000,9.00,38.4066277,-110.7874298,1364.0999756,5.6,66.9,1.0,0.0,0.0,908,0,0,859.42,13.87,21.96,0
9:28:25,0,0,0,0,0,0,0,0,0,0,0,515,0,0,0,0,0.0000000,0.0000000,0.0000000,0.0000000,9.00,38.4066353,-110.7874069,1364.1999512,5.6,66.4,1.0,0.0,0.0,908,0,0,859.38,13.84,21.97,0
9:28:26,0,0,0,0,0,0,0,0,0,0,0,515,0,0,0,0,0.0000000,0.0000000,0.0000000,0.0000000,9.00,38.4066467,-110.7873688,1364.0999756,5.5,66.7,1.0,0.0,0.0,908,0,0,859.39,13.87,21.86,0
9:28:27,0,0,0,0,0,0,0,0,0,0,0,515,0,0,0,0,0.0000000,0.0000000,0.0000000,0.0000000,9.00,38.4066544,-110.7873383,1364.0999756,5.3,67.1,1.0,0.0,0.0,909,0,0,859.35,13.87,21.86,0
9:28:28,0,0,0,0,0,0,0,0,0,0,0,515,0,0,0,0,0.0000000,0.0000000,0.0000000,0.0000000,9.00,38.4066658,-110.7873154,1364.0999756,5.2,66.0,1.0,0.0,0.0,908,0,0,859.38,13.89,21.86,0
9:28:29,0,0,0,0,0,0,0,0,0,0,0,515,0,0,0,0,0.0000000,0.0000000,0.0000000,0.0000000,9.00,38.4066849,-110.7872543,1364.0000000,5.1,65.5,1.0,0.0,0.0,908,0,0,859.44,13.84,21.92,0
9:28:30,0,0,0,0,0,0,0,0,0,0,0,515,0,0,0,0,0.0000000,0.0000000,0.0000000,0.0000000,9.00,38.4066925,-110.7872238,1364.0000000,5.1,65.5,1.0,0.0,0.0,908,0,0,859.40,13.86,21.91,0
9:28:31,0,0,0,0,0,0,0,0,0,0,0,515,0,0,0,0,0.0000000,0.0000000,0.0000000,0.0000000,8.00,38.4067001,-110.7872162,1363.9000244,4.5,65.0,1.0,0.0,0.0,908,0,0,859.36,13.79,21.93,0
9:28:32,0,0,0,0,0,0,0,0,0,0,0,516,0,0,0,0,0.0000000,0.0000000,0.0000000,0.0000000,8.00,38.4067116,-110.7871857,1363.9000244,3.9,64.2,1.0,0.0,0.0,908,0,0,859.38,13.82,21.99,0
9:28:33,0,0,0,0,0,0,0,0,0,0,0,515,0,0,0,0,0.0000000,0.0000000,0.0000000,0.0000000,8.00,38.4067154,-110.7871628,1363.8000488,3.7,63.0,1.0,0.0,0.0,908,0,0,859.33,13.79,21.99,0
9:28:34,0,0,0,0,0,0,0,0,0,0,0,515,0,0,0,0,0.0000000,0.0000000,0.0000000,0.0000000,8.00,38.4067230,-110.7871475,1363.6999512,3.3,64.1,1.0,0.0,0.0,907,0,0,859.40,13.72,22.00,0
9:28:35,0,0,0,0,0,0,0,0,0,0,0,515,0,0,0,0,0.0000000,0.0000000,0.0000000,0.0000000,8.00,38.4067307,-110.7871323,1363.6999512,3.2,63.0,1.0,0.0,0.0,908,0,0,859.36,13.73,21.99,0
9:28:36,0,0,0,0,0,0,0,0,0,0,0,514,0,0,0,0,0.0000000,0.0000000,0.0000000,0.0000000,9.00,38.4067345,-110.7871094,1363.6999512,3.1,61.5,1.0,0.0,0.0,908,0,0,859.41,13.70,21.98,0
9:28:37,0,0,0,0,0,0,0,0,0,0,0,515,0,0,0,0,0.0000000,0.0000000,0.0000000,0.0000000,9.00,38.4067459,-110.7870941,1363.6999512,3.1,60.6,1.0,0.0,0.0,908,0,0,859.36,13.69,21.97,0
9:28:38,0,0,0,0,0,0,0,0,0,0,0,515,0,0,0,0,0.0000000,0.0000000,0.0000000,0.0000000,9.00,38.4067535,-110.7870865,1363.6999512,2.9,59.5,1.0,0.0,0.0,908,0,0,859.37,13.73,21.97,0
9:28:39,0,0,0,0,0,0,0,0,0,0,0,515,0,0,0,0,0.0000000,0.0000000,0.0000000,0.0000000,9.00,38.4067574,-110.7870712,1363.5999756,2.6,60.5,1.0,0.0,0.0,908,0,0,859.35,13.69,21.95,0
9:28:40,0,0,0,0,0,0,0,0,0,0,0,515,0,0,0,0,0.0000000,0.0000000,0.0000000,0.0000000,9.00,38.4067650,-110.7870560,1363.5999756,2.3,57.7,1.0,0.0,0.0,908,0,0,859.38,13.72,21.93,0
9:28:41,0,0,0,0,0,0,0,0,0,0,0,515,0,0,0,0,0.0000000,0.0000000,0.0000000,0.0000000,9.00,38.4067688,-110.7870483,1363.5999756,1.8,57.5,1.0,0.0,0.0,908,0,0,859.30,13.73,21.90,0
9:28:42,0,0,0,0,0,0,0,0,0,0,0,515,0,0,0,0,0.0000000,0.0000000,0.0000000,0.0000000,9.00,38.4067726,-110.7870331,1363.5999756,1.0,55.7,1.0,0.0,0.0,908,0,0,859.36,13.72,21.86,0
9:28:43,0,0,0,0,0,0,0,0,0,0,0,515,0,0,0,0,0.0000000,0.0000000,0.0000000,0.0000000,9.00,38.4067726,-110.7870331,1363.5000000,0.5,51.6,1.0,0.0,0.0,907,0,0,859.40,13.67,21.82,0
9:28:44,0,0,0,0,0,0,0,0,0,0,0,515,0,0,0,0,0.0000000,0.0000000,0.0000000,0.0000000,9.00,38.4067726,-110.7870331,1363.4000244,0.1,31.0,1.0,0.0,0.0,908,0,0,859.32,13.73,21.77,0
9:28:45,0,0,0,0,0,0,0,0,0,0,0,516,0,0,0,0,0.0000000,0.0000000,0.0000000,0.0000000,9.00,38.4067726,-110.7870331,1363.4000244,0.0,16.7,1.0,0.0,0.0,908,0,0,859.38,13.81,21.76,0
9:28:46,0,0,0,0,0,0,0,0,0,0,0,515,0,0,0,0,0.0000000,0.0000000,0.0000000,0.0000000,9.00,38.4067726,-110.7870331,1363.4000244,0.0,130.5,1.0,0.0,0.0,908,0,0,859.36,13.84,21.77,0
9:28:47,0,0,0,0,0,0,0,0,0,0,0,514,0,0,0,0,0.0000000,0.0000000,0.0000000,0.0000000,9.00,38.4067726,-110.7870331,1363.4000244,0.0,162.8,1.0,0.0,0.0,908,0,0,859.38,13.86,21.79,0
9:28:48,0,0,0,0,0,0,0,0,0,0,0,515,0,0,0,0,0.0000000,0.0000000,0.0000000,0.0000000,9.00,38.4067726,-110.7870331,1363.4000244,0.0,181.8,1.0,0.0,0.0,908,0,0,859.38,13.86,21.76,0
9:28:49,0,0,0,0,0,0,0,0,0,0,0,515,0,0,0,0,0.0000000,0.0000000,0.0000000,0.0000000,9.00,38.4067726,-110.7870331,1363.4000244,0.1,222.1,1.0,0.0,0.0,907,0,0,859.37,13.89,21.72,0
9:28:50,0,0,0,0,0,0,0,0,0,0,0,515,0,0,0,0,0.0000000,0.0000000,0.0000000,0.0000000,9.00,38.4067726,-110.7870331,1363.4000244,0.1,219.4,1.0,0.0,0.0,908,0,0,859.35,13.90,21.69,0
9:28:51,0,0,0,0,0,0,0,0,0,0,0,514,0,0,0,0,0.0000000,0.0000000,0.0000000,0.0000000,9.00,38.4067726,-110.7870331,1363.4000244,0.1,210.3,1.0,0.0,0.0,908,0,0,859.33,13.87,21.66,0
9:28:52,0,0,0,0,0,0,0,0,0,0,0,515,0,0,0,0,0.0000000,0.0000000,0.0000000,0.0000000,9.00,38.4067726,-110.7870331,1363.4000244,0.1,233.2,1.0,0.0,0.0,908,0,0,859.27,13.92,21.62,0
9:28:53,0,0,0,0,0,0,0,0,0,0,0,515,0,0,0,0,0.0000000,0.0000000,0.0000000,0.0000000,9.00,38.4067726,-110.7870331,1363.4000244,0.0,276.0,1.0,0.0,0.0,908,0,0,859.39,13.89,21.57,0
9:28:54,0,0,0,0,0,0,0,0,0,0,0,515,0,0,0,0,0.0000000,0.0000000,0.0000000,0.0000000,9.00,38.4067726,-110.7870331,1363.4000244,0.0,224.0,1.0,0.0,0.0,909,0,0,859.34,14.21,21.54,0
9:28:55,0,0,0,0,0,0,0,0,0,0,0,515,0,0,0,0,0.0000000,0.0000000,0.0000000,0.0000000,9.00,38.4067726,-110.7870331,1363.4000244,0.1,241.9,1.0,0.0,0.0,908,0,0,859.32,14.40,21.53,0
9:28:56,0,0,0,0,0,0,0,0,0,0,0,515,0,0,0,0,0.0000000,0.0000000,0.0000000,0.0000000,9.00,38.4067726,-110.7870331,1363.4000244,0.0,42.1,1.0,0.0,0.0,908,0,0,859.37,14.62,21.51,0
9:28:57,0,0,0,0,0,0,0,0,0,0,0,515,0,0,0,0,0.0000000,0.0000000,0.0000000,0.0000000,9.00,38.4067726,-110.7870331,1363.4000244,0.0,207.2,1.0,0.0,0.0,909,0,0,859.38,14.63,21.51,0
9:28:58,0,0,0,0,0,0,0,0,0,0,0,515,0,0,0,0,0.0000000,0.0000000,0.0000000,0.0000000,9.00,38.4067726,-110.7870331,1363.4000244,0.0,94.2,1.0,0.0,0.0,908,0,0,859.43,14.62,21.52,0
9:28:59,0,0,0,0,0,0,0,0,0,0,0,515,0,0,0,0,0.0000000,0.0000000,0.0000000,0.0000000,9.00,38.4067726,-110.7870331,1363.4000244,0.0,57.2,1.0,0.0,0.0,908,0,0,859.52,14.57,21.51,0
9:29:00,0,0,0,0,0,0,0,0,0,0,0,515,0,0,0,0,0.0000000,0.0000000,0.0000000,0.0000000,9.00,38.4067726,-110.7870331,1363.4000244,0.0,38.3,1.0,0.0,0.0,908,0,0,859.42,14.65,21.48,0
9:29:01,0,0,0,0,0,0,0,0,0,0,0,515,0,0,0,0,0.0000000,0.0000000,0.0000000,0.0000000,9.00,38.4067726,-110.7870331,1363.4000244,0.1,145.1,1.0,0.0,0.0,908,0,0,858.36,18.56,21.36,0
9:29:02,0,0,0,0,0,0,0,0,0,0,0,514,0,0,0,0,0.0000000,0.0000000,0.0000000,0.0000000,9.00,38.4067726,-110.7870331,1363.4000244,0.0,152.5,1.0,0.0,0.0,908,0,0,858.22,17.73,21.48,0
9:29:03,0,0,0,0,0,0,0,0,0,0,0,515,0,0,0,0,0.0000000,0.0000000,0.0000000,0.0000000,9.00,38.4067726,-110.7870331,1363.4000244,0.0,38.5,1.0,0.0,0.0,908,0,0,858.22,16.72,21.58,0
9:29:04,0,0,0,0,0,0,0,0,0,0,0,514,0,0,0,0,0.0000000,0.0000000,0.0000000,0.0000000,9.00,38.4067726,-110.7870331,1363.4000244,0.0,231.9,1.0,0.0,0.0,908,0,0,858.91,15.63,21.73,0
9:29:06,0,0,0,0,0,0,0,0,0,0,0,514,0,0,0,0,0.0000000,0.0000000,0.0000000,0.0000000,9.00,38.4067726,-110.7870331,1363.4000244,0.1,139.2,1.0,0.0,0.0,908,0,0,858.95,15.72,21.70,0
9:29:07,0,0,0,0,0,0,0,0,0,0,0,514,0,0,0,0,0.0000000,0.0000000,0.0000000,0.0000000,9.00,38.4067726,-110.7870331,1363.4000244,0.0,1.7,1.0,0.0,0.0,908,0,0,858.92,15.53,21.68,0
9:29:08,0,0,0,0,0,0,0,0,0,0,0,515,0,0,0,0,0.0000000,0.0000000,0.0000000,0.0000000,9.00,38.4067726,-110.7870331,1363.4000244,0.0,50.1,1.0,0.0,0.0,908,0,0,859.14,15.47,21.63,0
9:29:09,0,0,0,0,0,0,0,0,0,0,0,514,0,0,0,0,0.0000000,0.0000000,0.0000000,0.0000000,9.00,38.4067726,-110.7870331,1363.4000244,0.0,28.2,1.0,0.0,0.0,908,0,0,858.79,15.56,21.60,0
9:29:10,0,0,0,0,0,0,0,0,0,0,0,515,0,0,0,0,0.0000000,0.0000000,0.0000000,0.0000000,9.00,38.4067726,-110.7870331,1363.4000244,0.0,205.3,1.0,0.0,0.0,908,0,0,859.03,15.52,21.53,0
9:29:11,0,0,0,0,0,0,0,0,0,0,0,515,0,0,0,0,0.0000000,0.0000000,0.0000000,0.0000000,9.00,38.4067726,-110.7870331,1363.4000244,0.0,94.1,1.0,0.0,0.0,908,0,0,859.10,15.50,21.51,0
9:29:12,0,0,0,0,0,0,0,0,0,0,0,514,0,0,0,0,0.0000000,0.0000000,0.0000000,0.0000000,9.00,38.4067726,-110.7870331,1363.4000244,0.0,46.6,1.0,0.0,0.0,908,0,0,859.07,15.52,21.53,0
9:29:13,0,0,0,0,0,0,0,0,0,0,0,515,0,0,0,0,0.0000000,0.0000000,0.0000000,0.0000000,9.00,38.4067726,-110.7870331,1363.4000244,0.0,273.1,1.0,0.0,0.0,908,0,0,859.09,15.52,21.55,0
9:29:14,0,0,0,0,0,0,0,0,0,0,0,515,0,0,0,0,0.0000000,0.0000000,0.0000000,0.0000000,9.00,38.4067726,-110.7870331,1363.4000244,0.0,219.1,1.0,0.0,0.0,908,0,0,858.05,15.85,21.51,0
9:29:15,0,0,0,0,0,0,0,0,0,0,0,515,0,0,0,0,0.0000000,0.0000000,0.0000000,0.0000000,9.00,38.4067726,-110.7870331,1363.4000244,0.1,318.3,1.0,0.0,0.0,908,0,0,858.56,15.84,21.50,0
9:29:16,0,0,0,0,0,0,0,0,0,0,0,515,0,0,0,0,0.0000000,0.0000000,0.0000000,0.0000000,9.00,38.4067726,-110.7870331,1363.4000244,0.5,312.5,1.0,0.0,0.0,908,0,0,859.15,14.79,21.61,0
9:29:17,0,0,0,0,0,0,0,0,0,0,0,516,0,0,0,0,0.0000000,0.0000000,0.0000000,0.0000000,9.00,38.4067726,-110.7870331,1363.4000244,0.2,312.3,1.0,0.0,0.0,908,0,0,859.26,14.74,21.59,0
9:29:18,0,0,0,0,0,0,0,0,0,0,0,516,0,0,0,0,0.0000000,0.0000000,0.0000000,0.0000000,9.00,38.4067726,-110.7870331,1363.4000244,0.3,306.2,1.0,0.0,0.0,908,0,0,859.22,14.68,21.55,0
9:29:19,0,0,0,0,0,0,0,0,0,0,0,516,0,0,0,0,0.0000000,0.0000000,0.0000000,0.0000000,9.00,38.4067726,-110.7870483,1363.4000244,0.3,301.6,1.0,0.0,0.0,908,0,0,859.20,14.66,21.54,0
9:29:20,0,0,0,0,0,0,0,0,0,0,0,516,0,0,0,0,0.0000000,0.0000000,0.0000000,0.0000000,9.00,38.4067726,-110.7870483,1363.4000244,0.2,316.3,1.0,0.0,0.0,908,0,0,859.22,14.62,21.56,0
9:29:21,0,0,0,0,0,0,0,0,0,0,0,516,0,0,0,0,0.0000000,0.0000000,0.0000000,0.0000000,9.00,38.4067764,-110.7870483,1363.4000244,0.2,320.3,1.0,0.0,0.0,908,0,0,859.27,14.63,21.58,0
9:29:22,0,0,0,0,0,0,0,0,0,0,0,516,0,0,0,0,0.0000000,0.0000000,0.0000000,0.0000000,9.00,38.4067764,-110.7870483,1363.4000244,0.2,316.4,1.0,0.0,0.0,908,0,0,859.28,14.66,21.56,0
9:29:23,0,0,0,0,0,0,0,0,0,0,0,515,0,0,0,0,0.0000000,0.0000000,0.0000000,0.0000000,9.00,38.4067764,-110.7870483,1363.4000244,0.2,316.4,1.0,0.0,0.0,908,0,0,858.34,17.40,21.43,0
9:29:24,0,0,0,0,0,0,0,0,0,0,0,515,0,0,0,0,0.0000000,0.0000000,0.0000000,0.0000000,9.00,38.4067764,-110.7870483,1363.4000244,0.2,310.5,1.0,0.0,0.0,907,0,0,857.92,17.15,21.56,0
9:29:25,0,0,0,0,0,0,0,0,0,0,0,515,0,0,0,0,0.0000000,0.0000000,0.0000000,0.0000000,9.00,38.4067764,-110.7870483,1363.4000244,0.2,308.9,1.0,0.0,0.0,908,0,0,859.28,15.26,21.81,0
9:29:26,0,0,0,0,0,0,0,0,0,0,0,514,0,0,0,0,0.0000000,0.0000000,0.0000000,0.0000000,9.00,38.4067802,-110.7870483,1363.4000244,0.2,324.5,1.0,0.0,0.0,908,0,0,859.32,14.97,21.77,0
9:29:27,0,0,0,0,0,0,0,0,0,0,0,514,0,0,0,0,0.0000000,0.0000000,0.0000000,0.0000000,9.00,38.4067802,-110.7870483,1363.4000244,0.2,333.8,1.0,0.0,0.0,908,0,0,858.45,16.59,21.57,0
9:29:28,0,0,0,0,0,0,0,0,0,0,0,515,0,0,0,0,0.0000000,0.0000000,0.0000000,0.0000000,9.00,38.4067802,-110.7870483,1363.4000244,0.1,331.1,1.0,0.0,0.0,908,0,0,858.81,15.58,21.77,0
9:29:29,0,0,0,0,0,0,0,0,0,0,0,515,0,0,0,0,0.0000000,0.0000000,0.0000000,0.0000000,9.00,38.4067802,-110.7870483,1363.5000000,0.1,280.7,1.0,0.0,0.0,908,0,0,857.76,15.63,21.72,0
9:29:30,0,0,0,0,0,0,0,0,0,0,0,515,0,0,0,0,0.0000000,0.0000000,0.0000000,0.0000000,9.00,38.4067802,-110.7870483,1363.5000000,0.0,295.5,1.0,0.0,0.0,908,0,0,857.26,15.84,21.74,0
9:29:31,0,0,0,0,0,0,0,0,0,0,0,515,0,0,0,0,0.0000000,0.0000000,0.0000000,0.0000000,9.00,38.4067802,-110.7870483,1363.5000000,0.0,247.3,1.0,0.0,0.0,907,0,0,857.40,15.67,21.82,0
9:29:32,0,0,0,0,0,0,0,0,0,0,0,515,0,0,0,0,0.0000000,0.0000000,0.0000000,0.0000000,9.00,38.4067802,-110.7870483,1363.5000000,0.0,174.3,1.0,0.0,0.0,908,0,0,857.47,15.58,21.88,0
9:29:33,0,0,0,0,0,0,0,0,0,0,0,515,0,0,0,0,0.0000000,0.0000000,0.0000000,0.0000000,9.00,38.4067802,-110.7870483,1363.5000000,0.0,323.9,1.0,0.0,0.0,908,0,0,858.81,15.15,21.99,0
9:29:34,0,0,0,0,0,0,0,0,0,0,0,514,0,0,0,0,0.0000000,0.0000000,0.0000000,0.0000000,9.00,38.4067802,-110.7870483,1363.5000000,0.2,307.1,1.0,0.0,0.0,908,0,0,858.93,14.62,21.99,0
9:29:35,0,0,0,0,0,0,0,0,0,0,0,514,0,0,0,0,0.0000000,0.0000000,0.0000000,0.0000000,9.00,38.4067802,-110.7870483,1363.5000000,0.1,307.4,1.0,0.0,0.0,908,0,0,858.84,14.65,21.93,0
9:29:36,0,0,0,0,0,0,0,0,0,0,0,514,0,0,0,0,0.0000000,0.0000000,0.0000000,0.0000000,9.00,38.4067802,-110.7870483,1363.5000000,0.1,274.8,1.0,0.0,0.0,908,0,0,858.86,14.60,21.89,0
9:29:37,0,0,0,0,0,0,0,0,0,0,0,514,0,0,0,0,0.0000000,0.0000000,0.0000000,0.0000000,9.00,38.4067802,-110.7870483,1363.5000000,0.1,118.1,1.0,0.0,0.0,908,0,0,858.86,14.59,21.86,0
9:29:38,0,0,0,0,0,0,0,0,0,0,0,514,0,0,0,0,0.0000000,0.0000000,0.0000000,0.0000000,9.00,38.4067802,-110.7870483,1363.5000000,0.0,312.2,1.0,0.0,0.0,908,0,0,858.88,14.60,21.84,0
9:29:39,0,0,0,0,0,0,0,0,0,0,0,521,0,0,0,0,0.0000000,0.0000000,0.0000000,0.0000000,9.00,38.4067802,-110.7870483,1363.4000244,0.1,337.6,1.0,0.0,0.0,911,0,0,858.86,14.60,21.83,0
9:29:40,0,0,0,0,0,0,0,0,0,0,0,506,0,0,0,0,0.0000000,0.0000000,0.0000000,0.0000000,9.00,38.4067802,-110.7870483,1363.4000244,0.1,353.8,1.0,0.0,0.0,914,0,0,858.79,15.20,21.82,0
9:29:41,0,0,0,0,0,0,0,0,0,0,0,509,0,0,0,0,0.0000000,0.0000000,0.0000000,0.0000000,9.00,38.4067841,-110.7870483,1363.4000244,0.2,38.3,1.0,0.0,0.0,913,0,0,858.25,18.08,21.71,0
9:29:42,0,0,0,0,0,0,0,0,0,0,0,515,0,0,0,0,0.0000000,0.0000000,0.0000000,0.0000000,9.00,38.4067841,-110.7870483,1363.4000244,0.2,91.4,1.0,0.0,0.0,906,0,0,857.93,17.29,21.83,0
9:29:43,0,0,0,0,0,0,0,0,0,0,0,516,0,0,0,0,0.0000000,0.0000000,0.0000000,0.0000000,9.00,38.4067841,-110.7870483,1363.4000244,0.3,83.9,1.0,0.0,0.0,908,0,0,858.28,16.75,21.95,0
9:29:44,0,0,0,0,0,0,0,0,0,0,0,515,0,0,0,0,0.0000000,0.0000000,0.0000000,0.0000000,9.00,38.4067841,-110.7870483,1363.4000244,0.6,163.4,1.0,0.0,0.0,908,0,0,858.48,15.44,22.13,0
9:29:45,0,0,0,0,0,0,0,0,0,0,0,514,0,0,0,0,0.0000000,0.0000000,0.0000000,0.0000000,9.00,38.4067802,-110.7870483,1363.4000244,1.0,179.4,1.0,0.0,0.0,908,0,0,858.45,15.40,22.07,0
9:29:46,0,0,0,0,0,0,0,0,0,0,0,514,0,0,0,0,0.0000000,0.0000000,0.0000000,0.0000000,9.00,38.4067764,-110.7870483,1363.4000244,0.9,197.3,1.0,0.0,0.0,908,0,0,858.18,15.46,22.04,0
9:29:47,0,0,0,0,0,0,0,0,0,0,0,515,0,0,0,0,0.0000000,0.0000000,0.0000000,0.0000000,9.00,38.4067726,-110.7870483,1363.4000244,0.9,220.4,1.0,0.0,0.0,907,0,0,858.67,15.44,22.03,0
9:29:48,0,0,0,0,0,0,0,0,0,0,0,515,0,0,0,0,0.0000000,0.0000000,0.0000000,0.0000000,9.00,38.4067726,-110.7870483,1363.4000244,1.1,215.5,1.0,0.0,0.0,907,0,0,858.50,15.38,21.95,0
9:29:49,0,0,0,0,0,0,0,0,0,0,0,514,0,0,0,0,0.0000000,0.0000000,0.0000000,0.0000000,9.00,38.4067650,-110.7870560,1363.4000244,0.8,221.6,1.0,0.0,0.0,908,0,0,858.87,15.56,21.78,0
9:29:50,0,0,0,0,0,0,0,0,0,0,0,514,0,0,0,0,0.0000000,0.0000000,0.0000000,0.0000000,9.00,38.4067612,-110.7870560,1363.4000244,0.7,209.1,1.0,0.0,0.0,908,0,0,858.48,15.53,21.62,0
9:29:51,0,0,0,0,0,0,0,0,0,0,0,515,0,0,0,0,0.0000000,0.0000000,0.0000000,0.0000000,9.00,38.4067574,-110.7870560,1363.5000000,0.4,185.6,1.0,0.0,0.0,907,0,0,859.27,15.79,21.42,0
9:29:52,0,0,0,0,0,0,0,0,0,0,0,515,0,0,0,0,0.0000000,0.0000000,0.0000000,0.0000000,9.00,38.4067535,-110.7870560,1363.5000000,0.4,165.1,1.0,0.0,0.0,908,0,0,858.94,15.84,21.29,0
9:29:53,0,0,0,0,0,0,0,0,0,0,0,514,0,0,0,0,0.0000000,0.0000000,0.0000000,0.0000000,9.00,38.4067535,-110.7870560,1363.5000000,0.2,249.4,1.0,0.0,0.0,907,0,0,858.72,15.98,21.19,0
9:29:54,0,0,0,0,0,0,0,0,0,0,0,514,0,0,0,0,0.0000000,0.0000000,0.0000000,0.0000000,9.00,38.4067535,-110.7870560,1363.5000000,0.6,196.1,1.0,0.0,0.0,908,0,0,859.23,20.62,21.00,0
9:29:55,0,0,0,0,0,0,0,0,0,0,0,514,0,0,0,0,0.0000000,0.0000000,0.0000000,0.0000000,9.00,38.4067535,-110.7870560,1363.5000000,0.3,149.4,1.0,0.0,0.0,907,0,0,859.22,18.13,21.13,0
9:29:56,0,0,0,0,0,0,0,0,0,0,0,514,0,0,0,0,0.0000000,0.0000000,0.0000000,0.0000000,9.00,38.4067535,-110.7870560,1363.5000000,0.4,232.1,1.0,0.0,0.0,908,0,0,857.89,17.35,21.12,0
9:29:57,0,0,0,0,0,0,0,0,0,0,0,514,0,0,0,0,0.0000000,0.0000000,0.0000000,0.0000000,9.00,38.4067497,-110.7870560,1363.5000000,0.5,198.3,1.0,0.0,0.0,907,0,0,858.92,16.63,21.11,0
9:29:58,0,0,0,0,0,0,0,0,0,0,0,515,0,0,0,0,0.0000000,0.0000000,0.0000000,0.0000000,9.00,38.4067497,-110.7870560,1363.5000000,1.1,161.6,1.0,0.0,0.0,908,0,0,859.27,18.33,21.03,0
9:29:59,0,0,0,0,0,0,0,0,0,0,0,515,0,0,0,0,0.0000000,0.0000000,0.0000000,0.0000000,9.00,38.4067421,-110.7870560,1363.5000000,0.9,186.9,1.0,0.0,0.0,908,0,0,858.84,19.73,21.07,0
9:30:00,0,0,0,0,0,0,0,0,0,0,0,516,0,0,0,0,0.0000000,0.0000000,0.0000000,0.0000000,9.00,38.4067383,-110.7870560,1363.5000000,0.9,172.0,1.0,0.0,0.0,907,0,0,859.08,23.24,21.04,0
9:30:01,0,0,0,0,0,0,0,0,0,0,0,515,0,0,0,0,0.0000000,0.0000000,0.0000000,0.0000000,9.00,38.4067345,-110.7870560,1363.5000000,0.9,156.9,1.0,0.0,0.0,907,0,0,858.87,21.99,21.05,0
9:30:02,0,0,0,0,0,0,0,0,0,0,0,515,0,0,0,0,0.0000000,0.0000000,0.0000000,0.0000000,9.00,38.4067345,-110.7870560,1363.5000000,1.1,144.3,1.0,0.0,0.0,908,0,0,859.09,22.37,21.02,0
9:30:03,0,0,0,0,0,0,0,0,0,0,0,514,0,0,0,0,0.0000000,0.0000000,0.0000000,0.0000000,9.00,38.4067268,-110.7870560,1363.5000000,1.2,136.3,1.0,0.0,0.0,908,0,0,859.18,24.51,21.00,0
9:30:04,0,0,0,0,0,0,0,0,0,0,0,514,0,0,0,0,0.0000000,0.0000000,0.0000000,0.0000000,9.00,38.4067230,-110.7870483,1363.5000000,1.5,151.0,1.0,0.0,0.0,908,0,0,858.95,28.69,21.03,0
9:30:05,0,0,0,0,0,0,0,0,0,0,0,515,0,0,0,0,0.0000000,0.0000000,0.0000000,0.0000000,9.00,38.4067116,-110.7870483,1363.5000000,1.5,136.6,1.0,0.0,0.0,908,0,0,859.30,23.35,21.10,0
9:30:06,0,0,0,0,0,0,0,0,0,0,0,515,0,0,0,0,0.0000000,0.0000000,0.0000000,0.0000000,9.00,38.4067078,-110.7870331,1363.5000000,1.5,134.3,1.0,0.0,0.0,908,0,0,858.87,16.37,21.15,0
9:30:07,0,0,0,0,0,0,0,0,0,0,0,515,0,0,0,0,0.0000000,0.0000000,0.0000000,0.0000000,9.00,38.4067001,-110.7870331,1363.5000000,1.3,141.1,1.0,0.0,0.0,907,0,0,858.68,16.02,21.07,0
9:30:08,0,0,0,0,0,0,0,0,0,0,0,515,0,0,0,0,0.0000000,0.0000000,0.0000000,0.0000000,9.00,38.4066963,-110.7870331,1363.5000000,0.9,141.3,1.0,0.0,0.0,908,0,0,858.50,16.07,21.01,0
9:30:09,0,0,0,0,0,0,0,0,0,0,0,515,0,0,0,0,0.0000000,0.0000000,0.0000000,0.0000000,9.00,38.4066925,-110.7870178,1363.5999756,0.7,132.5,1.0,0.0,0.0,908,0,0,858.56,16.14,21.00,0
9:30:10,0,0,0,0,0,0,0,0,0,0,0,515,0,0,0,0,0.0000000,0.0000000,0.0000000,0.0000000,9.00,38.4066925,-110.7870178,1363.5999756,0.8,118.3,1.0,0.0,0.0,907,0,0,858.76,16.11,21.01,0
9:30:11,0,0,0,0,0,0,0,0,0,0,0,515,0,0,0,0,0.0000000,0.0000000,0.0000000,0.0000000,9.00,38.4066925,-110.7870178,1363.5999756,0.5,120.2,1.0,0.0,0.0,908,0,0,858.91,16.34,21.00,0
9:30:12,0,0,0,0,0,0,0,0,0,0,0,515,0,0,0,0,0.0000000,0.0000000,0.0000000,0.0000000,9.00,38.4066925,-110.7870178,1363.5999756,0.5,123.7,1.0,0.0,0.0,908,0,0,859.04,16.37,21.01,0
9:30:13,0,0,0,0,0,0,0,0,0,0,0,515,0,0,0,0,0.0000000,0.0000000,0.0000000,0.0000000,9.00,38.4066887,-110.7870178,1363.5999756,0.2,163.7,1.0,0.0,0.0,908,0,0,858.74,16.25,21.08,0
9:30:14,0,0,0,0,0,0,0,0,0,0,0,515,0,0,0,0,0.0000000,0.0000000,0.0000000,0.0000000,9.00,38.4066887,-110.7870102,1363.5999756,0.3,330.7,1.0,0.0,0.0,908,0,0,858.58,16.24,21.10,0
9:30:15,0,0,0,0,0,0,0,0,0,0,0,515,0,0,0,0,0.0000000,0.0000000,0.0000000,0.0000000,9.00,38.4066887,-110.7870178,1363.5999756,0.2,327.6,1.0,0.0,0.0,908,0,0,858.48,16.27,21.14,0
9:30:16,0,0,0,0,0,0,0,0,0,0,0,514,0,0,0,0,0.0000000,0.0000000,0.0000000,0.0000000,9.00,38.4066925,-110.7870178,1363.5999756,0.2,312.9,1.0,0.0,0.0,908,0,0,858.42,16.27,21.21,0
9:30:17,0,0,0,0,0,0,0,0,0,0,0,515,0,0,0,0,0.0000000,0.0000000,0.0000000,0.0000000,9.00,38.4066925,-110.7870178,1363.5999756,0.1,236.9,1.0,0.0,0.0,908,0,0,858.67,16.16,21.28,0
9:30:18,0,0,0,0,0,0,0,0,0,0,0,515,0,0,0,0,0.0000000,0.0000000,0.0000000,0.0000000,9.00,38.4066925,-110.7870178,1363.5999756,0.3,147.4,1.0,0.0,0.0,907,0,0,858.65,16.05,21.31,0
9:30:19,0,0,0,0,0,0,0,0,0,0,0,515,0,0,0,0,0.0000000,0.0000000,0.0000000,0.0000000,9.00,38.4066887,-110.7870178,1363.5999756,0.3,244.1,1.0,0.0,0.0,908,0,0,858.47,16.01,21.32,0
9:30:20,0,0,0,0,0,0,0,0,0,0,0,515,0,0,0,0,0.0000000,0.0000000,0.0000000,0.0000000,9.00,38.4066887,-110.7870178,1363.5000000,0.6,159.6,1.0,0.0,0.0,908,0,0,858.53,15.90,21.35,0
9:30:21,0,0,0,0,0,0,0,0,0,0,0,514,0,0,0,0,0.0000000,0.0000000,0.0000000,0.0000000,9.00,38.4066849,-110.7870178,1363.5000000,0.9,160.1,1.0,0.0,0.0,908,0,0,858.78,15.93,21.35,0
9:30:22,0,0,0,0,0,0,0,0,0,0,0,515,0,0,0,0,0.0000000,0.0000000,0.0000000,0.0000000,9.00,38.4066811,-110.7870178,1363.5000000,1.5,146.7,1.0,0.0,0.0,907,0,0,859.03,16.46,21.35,0
9:30:23,0,0,0,0,0,0,0,0,0,0,0,514,0,0,0,0,0.0000000,0.0000000,0.0000000,0.0000000,9.00,38.4066734,-110.7870102,1363.5000000,1.7,136.8,1.0,0.0,0.0,908,0,0,858.87,19.33,21.32,0
9:30:24,0,0,0,0,0,0,0,0,0,0,0,514,0,0,0,0,0.0000000,0.0000000,0.0000000,0.0000000,9.00,38.4066696,-110.7870102,1363.5000000,2.0,130.9,1.0,0.0,0.0,908,0,0,859.10,30.03,21.38,0
9:30:25,0,0,0,0,0,0,0,0,0,0,0,515,0,0,0,0,0.0000000,0.0000000,0.0000000,0.0000000,9.00,38.4066620,-110.7869949,1363.4000244,1.9,125.2,1.0,0.0,0.0,908,0,0,859.10,28.89,21.47,0
9:30:26,0,0,0,0,0,0,0,0,0,0,0,515,0,0,0,0,0.0000000,0.0000000,0.0000000,0.0000000,9.00,38.4066544,-110.7869797,1363.3000488,2.1,124.6,1.0,0.0,0.0,908,0,0,859.30,25.56,21.54,0
9:30:27,0,0,0,0,0,0,0,0,0,0,0,514,0,0,0,0,0.0000000,0.0000000,0.0000000,0.0000000,9.00,38.4066505,-110.7869720,1363.1999512,2.3,126.3,1.0,0.0,0.0,908,0,0,859.21,27.28,21.64,0
9:30:28,0,0,0,0,0,0,0,0,0,0,0,514,0,0,0,0,0.0000000,0.0000000,0.0000000,0.0000000,9.00,38.4066429,-110.7869568,1363.1999512,2.1,126.5,1.0,0.0,0.0,908,0,0,859.09,29.62,21.73,0
9:30:29,0,0,0,0,0,0,0,0,0,0,0,515,0,0,0,0,0.0000000,0.0000000,0.0000000,0.0000000,9.00,38.4066353,-110.7869568,1363.0999756,2.0,128.2,1.0,0.0,0.0,908,0,0,859.04,30.98,21.82,0
9:30:30,0,0,0,0,0,0,0,0,0,0,0,514,0,0,0,0,0.0000000,0.0000000,0.0000000,0.0000000,9.00,38.4066353,-110.7869415,1362.9000244,2.2,111.3,1.0,0.0,0.0,908,0,0,858.79,30.37,21.92,0
9:30:31,0,0,0,0,0,0,0,0,0,0,0,515,0,0,0,0,0.0000000,0.0000000,0.0000000,0.0000000,9.00,38.4066315,-110.7869339,1362.8000488,2.0,114.9,1.0,0.0,0.0,908,0,0,859.05,27.82,21.97,0
9:30:32,0,0,0,0,0,0,0,0,0,0,0,515,0,0,0,0,0.0000000,0.0000000,0.0000000,0.0000000,9.00,38.4066277,-110.7869186,1362.6999512,2.0,115.3,1.0,0.0,0.0,908,0,0,859.31,24.89,22.00,0
9:30:33,0,0,0,0,0,0,0,0,0,0,0,515,0,0,0,0,0.0000000,0.0000000,0.0000000,0.0000000,9.00,38.4066200,-110.7869186,1362.6999512,2.0,131.2,1.0,0.0,0.0,908,0,0,859.20,22.84,22.03,0
9:30:34,0,0,0,0,0,0,0,0,0,0,0,515,0,0,0,0,0.0000000,0.0000000,0.0000000,0.0000000,9.00,38.4066162,-110.7869034,1362.6999512,2.1,143.6,1.0,0.0,0.0,908,0,0,859.18,22.81,22.05,0
9:30:35,0,0,0,0,0,0,0,0,0,0,0,515,0,0,0,0,0.0000000,0.0000000,0.0000000,0.0000000,9.00,38.4066086,-110.7868958,1362.5999756,1.8,138.3,1.0,0.0,0.0,908,0,0,859.04,27.88,22.10,0
9:30:36,0,0,0,0,0,0,0,0,0,0,0,514,0,0,0,0,0.0000000,0.0000000,0.0000000,0.0000000,9.00,38.4065971,-110.7868958,1362.5999756,2.1,138.3,1.0,0.0,0.0,907,0,0,859.23,24.48,22.06,0
9:30:37,0,0,0,0,0,0,0,0,0,0,0,514,0,0,0,0,0.0000000,0.0000000,0.0000000,0.0000000,9.00,38.4065933,-110.7868805,1362.6999512,1.9,130.8,1.0,0.0,0.0,908,0,0,859.18,27.25,22.00,0
9:30:38,0,0,0,0,0,0,0,0,0,0,0,515,0,0,0,0,0.0000000,0.0000000,0.0000000,0.0000000,9.00,38.4065857,-110.7868652,1362.6999512,1.9,126.5,1.0,0.0,0.0,907,0,0,859.00,27.71,21.97,0
9:30:39,0,0,0,0,0,0,0,0,0,0,0,514,0,0,0,0,0.0000000,0.0000000,0.0000000,0.0000000,9.00,38.4065781,-110.7868652,1362.6999512,2.0,136.2,1.0,0.0,0.0,907,0,0,858.98,27.71,21.95,0
9:30:40,0,0,0,0,0,0,0,0,0,0,0,516,0,0,0,0,0.0000000,0.0000000,0.0000000,0.0000000,9.00,38.4065742,-110.7868576,1362.6999512,1.9,136.4,1.0,0.0,0.0,908,0,0,858.96,28.23,21.94,0
9:30:41,0,0,0,0,0,0,0,0,0,0,0,515,0,0,0,0,0.0000000,0.0000000,0.0000000,0.0000000,9.00,38.4065704,-110.7868576,1362.8000488,1.9,133.4,1.0,0.0,0.0,907,0,0,859.05,28.41,21.88,0
9:30:42,0,0,0,0,0,0,0,0,0,0,0,515,0,0,0,0,0.0000000,0.0000000,0.0000000,0.0000000,9.00,38.4065590,-110.7868423,1362.8000488,2.0,131.3,1.0,0.0,0.0,907,0,0,859.11,27.16,21.78,0
9:30:43,0,0,0,0,0,0,0,0,0,0,0,515,0,0,0,0,0.0000000,0.0000000,0.0000000,0.0000000,9.00,38.4065552,-110.7868271,1362.8000488,1.7,130.9,1.0,0.0,0.0,908,0,0,858.95,29.76,21.67,0
9:30:44,0,0,0,0,0,0,0,0,0,0,0,515,0,0,0,0,0.0000000,0.0000000,0.0000000,0.0000000,9.00,38.4065514,-110.7868271,1362.8000488,1.1,118.0,1.0,0.0,0.0,907,0,0,859.25,22.26,21.59,0
9:30:46,0,0,0,0,0,0,0,0,0,0,0,514,0,0,0,0,0.0000000,0.0000000,0.0000000,0.0000000,9.00,38.4065437,-110.7868195,1362.6999512,1.7,133.4,1.0,0.0,0.0,908,0,0,858.99,18.28,21.50,0
9:30:47,0,0,0,0,0,0,0,0,0,0,0,514,0,0,0,0,0.0000000,0.0000000,0.0000000,0.0000000,9.00,38.4065361,-110.7868042,1362.5999756,1.8,151.0,1.0,0.0,0.0,907,0,0,859.17,16.17,21.46,0
9:30:48,0,0,0,0,0,0,0,0,0,0,0,514,0,0,0,0,0.0000000,0.0000000,0.0000000,0.0000000,9.00,38.4065323,-110.7868042,1362.5999756,1.5,166.7,1.0,0.0,0.0,908,0,0,858.85,15.61,21.44,0
9:30:49,0,0,0,0,0,0,0,0,0,0,0,515,0,0,0,0,0.0000000,0.0000000,0.0000000,0.0000000,9.00,38.4065285,-110.7868042,1362.6999512,1.1,130.8,1.0,0.0,0.0,907,0,0,859.12,17.43,21.27,0
9:30:50,0,0,0,0,0,0,0,0,0,0,0,515,0,0,0,0,0.0000000,0.0000000,0.0000000,0.0000000,9.00,38.4065208,-110.7867889,1362.6999512,2.0,135.2,1.0,0.0,0.0,907,0,0,859.29,23.25,21.30,0
9:30:51,0,0,0,0,0,0,0,0,0,0,0,514,0,0,0,0,0.0000000,0.0000000,0.0000000,0.0000000,9.00,38.4065132,-110.7867813,1362.8000488,2.4,130.2,1.0,0.0,0.0,907,0,0,859.01,26.41,21.36,0
9:30:52,0,0,0,0,0,0,0,0,0,0,0,514,0,0,0,0,0.0000000,0.0000000,0.0000000,0.0000000,9.00,38.4065018,-110.7867661,1362.8000488,2.4,134.6,1.0,0.0,0.0,907,0,0,859.21,25.44,21.42,0
9:30:53,0,0,0,0,0,0,0,0,0,0,0,514,0,0,0,0,0.0000000,0.0000000,0.0000000,0.0000000,9.00,38.4064941,-110.7867661,1362.8000488,2.4,135.1,1.0,0.0,0.0,908,0,0,859.25,25.02,21.44,0
9:30:54,0,0,0,0,0,0,0,0,0,0,0,514,0,0,0,0,0.0000000,0.0000000,0.0000000,0.0000000,9.00,38.4064865,-110.7867508,1362.9000244,2.0,137.3,1.0,0.0,0.0,907,0,0,859.27,24.72,21.42,0
9:30:55,0,0,0,0,0,0,0,0,0,0,0,514,0,0,0,0,0.0000000,0.0000000,0.0000000,0.0000000,9.00,38.4064789,-110.7867355,1362.6999512,2.0,134.6,1.0,0.0,0.0,908,0,0,859.21,24.46,21.40,0
9:30:56,0,0,0,0,0,0,0,0,0,0,0,515,0,0,0,0,0.0000000,0.0000000,0.0000000,0.0000000,9.00,38.4064751,-110.7867279,1362.5999756,2.1,135.3,1.0,0.0,0.0,907,0,0,859.23,24.84,21.42,0
9:30:57,0,0,0,0,0,0,0,0,0,0,0,515,0,0,0,0,0.0000000,0.0000000,0.0000000,0.0000000,9.00,38.4064674,-110.7867279,1362.5000000,2.2,127.1,1.0,0.0,0.0,907,0,0,859.27,23.77,21.47,0
9:30:58,0,0,0,0,0,0,0,0,0,0,0,514,0,0,0,0,0.0000000,0.0000000,0.0000000,0.0000000,9.00,38.4064598,-110.7867126,1362.5000000,2.2,135.7,1.0,0.0,0.0,908,0,0,859.17,25.04,21.51,0
9:30:59,0,0,0,0,0,0,0,0,0,0,0,514,0,0,0,0,0.0000000,0.0000000,0.0000000,0.0000000,9.00,38.4064522,-110.7866974,1362.4000244,2.0,131.5,1.0,0.0,0.0,908,0,0,859.18,24.75,21.54,0
9:31:00,0,0,0,0,0,0,0,0,0,0,0,515,0,0,0,0,0.0000000,0.0000000,0.0000000,0.0000000,9.00,38.4064445,-110.7866898,1362.5000000,2.1,134.1,1.0,0.0,0.0,908,0,0,859.16,24.75,21.54,0
9:31:01,0,0,0,0,0,0,0,0,0,0,0,514,0,0,0,0,0.0000000,0.0000000,0.0000000,0.0000000,9.00,38.4064369,-110.7866898,1362.4000244,1.8,143.4,1.0,0.0,0.0,908,0,0,859.21,24.75,21.56,0
9:31:02,0,0,0,0,0,0,0,0,0,0,0,515,0,0,0,0,0.0000000,0.0000000,0.0000000,0.0000000,9.00,38.4064331,-110.7866745,1362.1999512,2.1,125.3,1.0,0.0,0.0,907,0,0,859.22,24.77,21.59,0
9:31:03,0,0,0,0,0,0,0,0,0,0,0,515,0,0,0,0,0.0000000,0.0000000,0.0000000,0.0000000,9.00,38.4064255,-110.7866592,1362.3000488,2.3,130.0,1.0,0.0,0.0,908,0,0,859.04,25.22,21.64,0
9:31:04,0,0,0,0,0,0,0,0,0,0,0,514,0,0,0,0,0.0000000,0.0000000,0.0000000,0.0000000,9.00,38.4064178,-110.7866592,1362.3000488,1.5,130.8,1.0,0.0,0.0,907,0,0,859.19,24.52,21.66,0
9:31:05,0,0,0,0,0,0,0,0,0,0,0,515,0,0,0,0,0.0000000,0.0000000,0.0000000,0.0000000,9.00,38.4064140,-110.7866516,1362.3000488,2.4,139.7,1.0,0.0,0.0,907,0,0,859.19,24.49,21.69,0
9:31:06,0,0,0,0,0,0,0,0,0,0,0,514,0,0,0,0,0.0000000,0.0000000,0.0000000,0.0000000,9.00,38.4064026,-110.7866364,1362.1999512,2.0,137.9,1.0,0.0,0.0,907,0,0,859.12,25.19,21.72,0
9:31:07,0,0,0,0,0,0,0,0,0,0,0,515,0,0,0,0,0.0000000,0.0000000,0.0000000,0.0000000,9.00,38.4063950,-110.7866364,1362.0999756,2.5,132.1,1.0,0.0,0.0,907,0,0,859.14,24.92,21.75,0
9:31:08,0,0,0,0,0,0,0,0,0,0,0,514,0,0,0,0,0.0000000,0.0000000,0.0000000,0.0000000,9.00,38.4063911,-110.7866211,1362.0999756,2.3,127.8,1.0,0.0,0.0,907,0,0,859.19,24.38,21.73,0
9:31:09,0,0,0,0,0,0,0,0,0,0,0,515,0,0,0,0,0.0000000,0.0000000,0.0000000,0.0000000,9.00,38.4063835,-110.7866135,1362.0999756,2.2,129.0,1.0,0.0,0.0,907,0,0,859.13,24.37,21.70,0
9:31:10,0,0,0,0,0,0,0,0,0,0,0,514,0,0,0,0,0.0000000,0.0000000,0.0000000,0.0000000,9.00,38.4063759,-110.7865982,1362.1999512,2.2,130.8,1.0,0.0,0.0,907,0,0,859.14,25.28,21.68,0
9:31:11,0,0,0,0,0,0,0,0,0,0,0,514,0,0,0,0,0.0000000,0.0000000,0.0000000,0.0000000,9.00,38.4063721,-110.7865829,1362.1999512,2.1,123.9,1.0,0.0,0.0,907,0,0,858.97,25.30,21.68,0
9:31:12,0,0,0,0,0,0,0,0,0,0,0,515,0,0,0,0,0.0000000,0.0000000,0.0000000,0.0000000,9.00,38.4063644,-110.7865753,1362.3000488,2.1,125.7,1.0,0.0,0.0,907,0,0,859.20,23.48,21.68,0
9:31:13,0,0,0,0,0,0,0,0,0,0,0,515,0,0,0,0,0.0000000,0.0000000,0.0000000,0.0000000,9.00,38.4063568,-110.7865753,1362.4000244,1.9,124.7,1.0,0.0,0.0,907,0,0,859.01,25.39,21.68,0
9:31:14,0,0,0,0,0,0,0,0,0,0,0,516,0,0,0,0,0.0000000,0.0000000,0.0000000,0.0000000,9.00,38.4063530,-110.7865601,1362.3000488,1.8,126.7,1.0,0.0,0.0,907,0,0,859.22,23.45,21.67,0
9:31:15,0,0,0,0,0,0,0,0,0,0,0,514,0,0,0,0,0.0000000,0.0000000,0.0000000,0.0000000,9.00,38.4063492,-110.7865448,1362.4000244,1.8,139.8,1.0,0.0,0.0,907,0,0,859.30,22.34,21.68,0
9:31:16,0,0,0,0,0,0,0,0,0,0,0,514,0,0,0,0,0.0000000,0.0000000,0.0000000,0.0000000,9.00,38.4063416,-110.7865448,1362.4000244,1.9,135.7,1.0,0.0,0.0,907,0,0,859.34,20.08,21.66,0
9:31:17,0,0,0,0,0,0,0,0,0,0,0,515,0,0,0,0,0.0000000,0.0000000,0.0000000,0.0000000,9.00,38.4063377,-110.7865372,1362.5000000,1.8,141.5,1.0,0.0,0.0,907,0,0,859.20,19.46,21.52,0
9:31:18,0,0,0,0,0,0,0,0,0,0,0,515,0,0,0,0,0.0000000,0.0000000,0.0000000,0.0000000,9.00,38.4063301,-110.7865219,1362.5000000,1.2,139.2,1.0,0.0,0.0,907,0,0,859.12,18.22,21.43,0
9:31:19,0,0,0,0,0,0,0,0,0,0,0,515,0,0,0,0,0.0000000,0.0000000,0.0000000,0.0000000,9.00,38.4063263,-110.7865219,1362.5999756,0.7,161.3,1.0,0.0,0.0,907,0,0,859.13,18.65,21.34,0
9:31:20,0,0,0,0,0,0,0,0,0,0,0,515,0,0,0,0,0.0000000,0.0000000,0.0000000,0.0000000,9.00,38.4063225,-110.7865219,1362.6999512,0.5,182.0,1.0,0.0,0.0,907,0,0,859.12,18.95,21.32,0
9:31:21,0,0,0,0,0,0,0,0,0,0,0,515,0,0,0,0,0.0000000,0.0000000,0.0000000,0.0000000,9.00,38.4063225,-110.7865219,1362.6999512,0.1,332.4,1.0,0.0,0.0,907,0,0,859.08,18.94,21.34,0
9:31:22,0,0,0,0,0,0,0,0,0,0,0,515,0,0,0,0,0.0000000,0.0000000,0.0000000,0.0000000,9.00,38.4063263,-110.7865219,1362.8000488,0.5,326.3,1.0,0.0,0.0,907,0,0,858.57,16.33,21.38,0
9:31:23,0,0,0,0,0,0,0,0,0,0,0,514,0,0,0,0,0.0000000,0.0000000,0.0000000,0.0000000,9.00,38.4063263,-110.7865219,1362.6999512,0.4,242.6,1.0,0.0,0.0,907,0,0,859.02,15.73,21.41,0
9:31:24,0,0,0,0,0,0,0,0,0,0,0,515,0,0,0,0,0.0000000,0.0000000,0.0000000,0.0000000,9.00,38.4063263,-110.7865372,1362.6999512,0.7,248.9,1.0,0.0,0.0,908,0,0,858.80,15.73,21.34,0
9:31:25,0,0,0,0,0,0,0,0,0,0,0,514,0,0,0,0,0.0000000,0.0000000,0.0000000,0.0000000,9.00,38.4063263,-110.7865372,1362.6999512,0.9,258.0,1.0,0.0,0.0,907,0,0,858.73,15.81,21.29,0
9:31:26,0,0,0,0,0,0,0,0,0,0,0,515,0,0,0,0,0.0000000,0.0000000,0.0000000,0.0000000,9.00,38.4063225,-110.7865372,1362.6999512,0.5,207.7,1.0,0.0,0.0,908,0,0,858.45,17.15,21.10,0
9:31:27,0,0,0,0,0,0,0,0,0,0,0,515,0,0,0,0,0.0000000,0.0000000,0.0000000,0.0000000,9.00,38.4063187,-110.7865372,1362.5999756,0.5,150.9,1.0,0.0,0.0,907,0,0,858.97,18.80,21.09,0
9:31:28,0,0,0,0,0,0,0,0,0,0,0,515,0,0,0,0,0.0000000,0.0000000,0.0000000,0.0000000,9.00,38.4063187,-110.7865372,1362.5999756,1.1,136.2,1.0,0.0,0.0,907,0,0,858.91,18.51,21.04,0
9:31:29,0,0,0,0,0,0,0,0,0,0,0,515,0,0,0,0,0.0000000,0.0000000,0.0000000,0.0000000,9.00,38.4063148,-110.7865219,1362.5999756,1.4,125.3,1.0,0.0,0.0,907,0,0,858.96,18.60,21.02,0
9:31:30,0,0,0,0,0,0,0,0,0,0,0,515,0,0,0,0,0.0000000,0.0000000,0.0000000,0.0000000,9.00,38.4063110,-110.7865219,1362.5999756,1.6,130.8,1.0,0.0,0.0,907,0,0,859.34,17.98,20.98,0
9:31:31,0,0,0,0,0,0,0,0,0,0,0,515,0,0,0,0,0.0000000,0.0000000,0.0000000,0.0000000,9.00,38.4063034,-110.7865067,1362.5999756,1.4,132.5,1.0,0.0,0.0,907,0,0,858.19,16.69,20.94,0
9:31:32,0,0,0,0,0,0,0,0,0,0,0,515,0,0,0,0,0.0000000,0.0000000,0.0000000,0.0000000,9.00,38.4062996,-110.7865067,1362.6999512,1.4,153.7,1.0,0.0,0.0,907,0,0,859.10,16.53,20.93,0
9:31:33,0,0,0,0,0,0,0,0,0,0,0,514,0,0,0,0,0.0000000,0.0000000,0.0000000,0.0000000,9.00,38.4062958,-110.7865067,1362.8000488,0.7,186.5,1.0,0.0,0.0,907,0,0,858.89,16.66,20.89,0
9:31:34,0,0,0,0,0,0,0,0,0,0,0,514,0,0,0,0,0.0000000,0.0000000,0.0000000,0.0000000,9.00,38.4062958,-110.7865067,1362.9000244,0.1,133.8,1.0,0.0,0.0,908,0,0,859.15,16.30,20.86,0
9:31:35,0,0,0,0,0,0,0,0,0,0,0,514,0,0,0,0,0.0000000,0.0000000,0.0000000,0.0000000,9.00,38.4062958,-110.7865067,1362.9000244,0.3,15.0,1.0,0.0,0.0,908,0,0,859.07,16.28,20.85,0
9:31:36,0,0,0,0,0,0,0,0,0,0,0,515,0,0,0,0,0.0000000,0.0000000,0.0000000,0.0000000,9.00,38.4062996,-110.7865067,1362.9000244,0.4,336.7,1.0,0.0,0.0,907,0,0,859.01,16.24,20.74,0
9:31:37,0,0,0,0,0,0,0,0,0,0,0,515,0,0,0,0,0.0000000,0.0000000,0.0000000,0.0000000,9.00,38.4062996,-110.7865067,1362.9000244,0.4,51.5,1.0,0.0,0.0,907,0,0,859.07,16.33,20.74,0
9:31:38,0,0,0,0,0,0,0,0,0,0,0,514,0,0,0,0,0.0000000,0.0000000,0.0000000,0.0000000,9.00,38.4063034,-110.7865067,1362.9000244,0.4,76.2,1.0,0.0,0.0,907,0,0,858.95,16.30,20.75,0
9:31:39,0,0,0,0,0,0,0,0,0,0,0,514,0,0,0,0,0.0000000,0.0000000,0.0000000,0.0000000,9.00,38.4063034,-110.7865067,1362.9000244,0.0,68.4,1.0,0.0,0.0,907,0,0,858.65,16.16,20.81,0
9:31:40,0,0,0,0,0,0,0,0,0,0,0,514,0,0,0,0,0.0000000,0.0000000,0.0000000,0.0000000,9.00,38.4063034,-110.7865067,1362.9000244,0.8,272.0,1.0,0.0,0.0,907,0,0,858.57,16.24,20.83,0
9:31:41,0,0,0,0,0,0,0,0,0,0,0,515,0,0,0,0,0.0000000,0.0000000,0.0000000,0.0000000,9.00,38.4063034,-110.7865067,1362.9000244,0.7,279.8,1.0,0.0,0.0,907,0,0,858.59,16.21,20.83,0
9:31:42,0,0,0,0,0,0,0,0,0,0,0,515,0,0,0,0,0.0000000,0.0000000,0.0000000,0.0000000,9.00,38.4063072,-110.7865067,1362.9000244,0.7,279.8,1.0,0.0,0.0,908,0,0,858.69,16.21,20.81,0
9:31:43,0,0,0,0,0,0,0,0,0,0,0,515,0,0,0,0,0.0000000,0.0000000,0.0000000,0.0000000,9.00,38.4063072,-110.7865067,1362.9000244,0.4,66.8,1.0,0.0,0.0,907,0,0,858.59,16.19,20.86,0
9:31:44,0,0,0,0,0,0,0,0,0,0,0,515,0,0,0,0,0.0000000,0.0000000,0.0000000,0.0000000,9.00,38.4063072,-110.7865067,1362.9000244,0.4,44.8,1.0,0.0,0.0,907,0,0,858.79,16.24,20.88,0
9:31:45,0,0,0,0,0,0,0,0,0,0,0,514,0,0,0,0,0.0000000,0.0000000,0.0000000,0.0000000,9.00,38.4063110,-110.7865067,1362.9000244,0.3,14.4,1.0,0.0,0.0,907,0,0,858.46,16.28,20.85,0
9:31:46,0,0,0,0,0,0,0,0,0,0,0,515,0,0,0,0,0.0000000,0.0000000,0.0000000,0.0000000,9.00,38.4063110,-110.7865067,1362.9000244,0.5,12.5,1.0,0.0,0.0,907,0,0,858.62,16.21,20.87,0
9:31:47,0,0,0,0,0,0,0,0,0,0,0,514,0,0,0,0,0.0000000,0.0000000,0.0000000,0.0000000,9.00,38.4063148,-110.7865067,1362.9000244,0.1,35.7,1.0,0.0,0.0,907,0,0,858.65,16.17,20.86,0
9:31:48,0,0,0,0,0,0,0,0,0,0,0,514,0,0,0,0,0.0000000,0.0000000,0.0000000,0.0000000,9.00,38.4063148,-110.7865067,1362.9000244,0.5,119.6,1.0,0.0,0.0,908,0,0,858.86,16.24,20.83,0
9:31:49,0,0,0,0,0,0,0,0,0,0,0,514,0,0,0,0,0.0000000,0.0000000,0.0000000,0.0000000,9.00,38.4063110,-110.7864990,1362.9000244,0.3,139.7,1.0,0.0,0.0,907,0,0,858.93,16.16,20.84,0
9:31:50,0,0,0,0,0,0,0,0,0,0,0,514,0,0,0,0,0.0000000,0.0000000,0.0000000,0.0000000,9.00,38.4063110,-110.7864990,1362.9000244,0.4,178.2,1.0,0.0,0.0,907,0,0,858.82,16.14,20.82,0
9:31:51,0,0,0,0,0,0,0,0,0,0,0,515,0,0,0,0,0.0000000,0.0000000,0.0000000,0.0000000,9.00,38.4063110,-110.7864990,1362.9000244,0.3,148.5,1.0,0.0,0.0,907,0,0,858.64,16.27,20.85,0
9:31:52,0,0,0,0,0,0,0,0,0,0,0,515,0,0,0,0,0.0000000,0.0000000,0.0000000,0.0000000,9.00,38.4063072,-110.7864990,1363.0000000,0.1,208.3,1.0,0.0,0.0,907,0,0,858.69,16.27,20.88,0
9:31:53,0,0,0,0,0,0,0,0,0,0,0,514,0,0,0,0,0.0000000,0.0000000,0.0000000,0.0000000,9.00,38.4063072,-110.7864990,1363.0000000,0.3,314.8,1.0,0.0,0.0,907,0,0,858.69,16.27,20.91,0
9:31:54,0,0,0,0,0,0,0,0,0,0,0,515,0,0,0,0,0.0000000,0.0000000,0.0000000,0.0000000,9.00,38.4063072,-110.7864990,1363.0000000,0.2,144.5,1.0,0.0,0.0,907,0,0,858.73,16.25,20.91,0
9:31:55,0,0,0,0,0,0,0,0,0,0,0,514,0,0,0,0,0.0000000,0.0000000,0.0000000,0.0000000,9.00,38.4063072,-110.7864990,1363.0000000,0.4,111.3,1.0,0.0,0.0,908,0,0,858.74,16.27,20.93,0
9:31:56,0,0,0,0,0,0,0,0,0,0,0,515,0,0,0,0,0.0000000,0.0000000,0.0000000,0.0000000,9.00,38.4063072,-110.7864990,1363.0000000,0.3,282.9,1.0,0.0,0.0,908,0,0,858.69,16.31,20.95,0
9:31:57,0,0,0,0,0,0,0,0,0,0,0,515,0,0,0,0,0.0000000,0.0000000,0.0000000,0.0000000,9.00,38.4063072,-110.7864990,1363.0000000,0.3,281.3,1.0,0.0,0.0,907,0,0,858.67,16.24,20.98,0
9:31:58,0,0,0,0,0,0,0,0,0,0,0,515,0,0,0,0,0.0000000,0.0000000,0.0000000,0.0000000,9.00,38.4063072,-110.7864990,1363.0000000,0.2,217.0,1.0,0.0,0.0,907,0,0,858.68,16.27,21.03,0
9:31:59,0,0,0,0,0,0,0,0,0,0,0,514,0,0,0,0,0.0000000,0.0000000,0.0000000,0.0000000,9.00,38.4063072,-110.7865067,1363.0000000,0.2,248.0,1.0,0.0,0.0,907,0,0,858.67,16.22,21.08,0
9:32:00,0,0,0,0,0,0,0,0,0,0,0,515,0,0,0,0,0.0000000,0.0000000,0.0000000,0.0000000,9.00,38.4063072,-110.7865067,1363.0000000,0.3,128.1,1.0,0.0,0.0,908,0,0,858.65,16.17,21.12,0
9:32:01,0,0,0,0,0,0,0,0,0,0,0,514,0,0,0,0,0.0000000,0.0000000,0.0000000,0.0000000,9.00,38.4063034,-110.7864990,1363.0000000,0.4,307.0,1.0,0.0,0.0,907,0,0,858.53,16.27,21.15,0
9:32:02,0,0,0,0,0,0,0,0,0,0,0,514,0,0,0,0,0.0000000,0.0000000,0.0000000,0.0000000,9.00,38.4063072,-110.7865067,1363.0000000,0.6,321.6,1.0,0.0,0.0,907,0,0,856.48,17.37,21.06,0
9:32:03,0,0,0,0,0,0,0,0,0,0,0,515,0,0,0,0,0.0000000,0.0000000,0.0000000,0.0000000,9.00,38.4063072,-110.7865067,1363.0000000,0.8,341.8,1.0,0.0,0.0,907,0,0,857.17,16.85,21.20,0
9:32:04,0,0,0,0,0,0,0,0,0,0,0,515,0,0,0,0,0.0000000,0.0000000,0.0000000,0.0000000,9.00,38.4063148,-110.7865067,1363.0000000,1.0,349.3,1.0,0.0,0.0,906,0,0,857.76,16.50,21.34,0
9:32:05,0,0,0,0,0,0,0,0,0,0,0,515,0,0,0,0,0.0000000,0.0000000,0.0000000,0.0000000,9.00,38.4063225,-110.7865067,1363.0000000,1.5,328.5,1.0,0.0,0.0,907,0,0,858.46,16.21,21.41,0
9:32:06,0,0,0,0,0,0,0,0,0,0,0,514,0,0,0,0,0.0000000,0.0000000,0.0000000,0.0000000,9.00,38.4063263,-110.7865219,1363.0000000,1.5,307.3,1.0,0.0,0.0,907,0,0,858.42,16.08,21.43,0
9:32:07,0,0,0,0,0,0,0,0,0,0,0,515,0,0,0,0,0.0000000,0.0000000,0.0000000,0.0000000,9.00,38.4063339,-110.7865219,1363.0999756,1.4,311.2,1.0,0.0,0.0,907,0,0,858.57,15.84,21.43,0
9:32:08,0,0,0,0,0,0,0,0,0,0,0,514,0,0,0,0,0.0000000,0.0000000,0.0000000,0.0000000,9.00,38.4063339,-110.7865219,1363.1999512,0.6,255.9,1.0,0.0,0.0,907,0,0,858.55,15.82,21.46,0
9:32:09,0,0,0,0,0,0,0,0,0,0,0,514,0,0,0,0,0.0000000,0.0000000,0.0000000,0.0000000,9.00,38.4063339,-110.7865219,1363.1999512,0.2,127.4,1.0,0.0,0.0,907,0,0,858.71,15.88,21.48,0
9:32:10,0,0,0,0,0,0,0,0,0,0,0,514,0,0,0,0,0.0000000,0.0000000,0.0000000,0.0000000,9.00,38.4063301,-110.7865219,1363.3000488,0.5,103.0,1.0,0.0,0.0,906,0,0,858.87,15.85,21.43,0
9:32:11,0,0,0,0,0,0,0,0,0,0,0,515,0,0,0,0,0.0000000,0.0000000,0.0000000,0.0000000,9.00,38.4063301,-110.7865219,1363.3000488,0.3,89.5,1.0,0.0,0.0,907,0,0,859.15,16.02,21.37,0
9:32:12,0,0,0,0,0,0,0,0,0,0,0,514,0,0,0,0,0.0000000,0.0000000,0.0000000,0.0000000,9.00,38.4063301,-110.7865219,1363.3000488,0.3,60.3,1.0,0.0,0.0,906,0,0,859.12,16.07,21.31,0
9:32:13,0,0,0,0,0,0,0,0,0,0,0,515,0,0,0,0,0.0000000,0.0000000,0.0000000,0.0000000,9.00,38.4063339,-110.7865219,1363.3000488,0.3,51.3,1.0,0.0,0.0,907,0,0,859.22,16.07,21.28,0
9:32:14,0,0,0,0,0,0,0,0,0,0,0,514,0,0,0,0,0.0000000,0.0000000,0.0000000,0.0000000,9.00,38.4063339,-110.7865067,1363.3000488,0.0,226.9,1.0,0.0,0.0,907,0,0,859.13,15.95,21.25,0
9:32:16,0,0,0,0,0,0,0,0,0,0,0,514,0,0,0,0,0.0000000,0.0000000,0.0000000,0.0000000,9.00,38.4063339,-110.7865067,1363.3000488,0.1,111.3,1.0,0.0,0.0,907,0,0,859.19,16.05,21.20,0
9:32:17,0,0,0,0,0,0,0,0,0,0,0,513,0,0,0,0,0.0000000,0.0000000,0.0000000,0.0000000,9.00,38.4063339,-110.7865067,1363.3000488,0.1,131.9,1.0,0.0,0.0,907,0,0,859.13,16.08,21.19,0
9:32:18,0,0,0,0,0,0,0,0,0,0,0,515,0,0,0,0,0.0000000,0.0000000,0.0000000,0.0000000,9.00,38.4063339,-110.7865067,1363.3000488,0.1,61.7,1.0,0.0,0.0,907,0,0,859.28,16.24,21.15,0
9:32:19,0,0,0,0,0,0,0,0,0,0,0,515,0,0,0,0,0.0000000,0.0000000,0.0000000,0.0000000,9.00,38.4063339,-110.7865067,1363.3000488,0.4,63.8,1.0,0.0,0.0,907,0,0,858.16,16.68,21.01,0
9:32:20,0,0,0,0,0,0,0,0,0,0,0,515,0,0,0,0,0.0000000,0.0000000,0.0000000,0.0000000,9.00,38.4063339,-110.7865067,1363.3000488,0.8,109.7,1.0,0.0,0.0,907,0,0,859.27,16.43,21.01,0
9:32:21,0,0,0,0,0,0,0,0,0,0,0,515,0,0,0,0,0.0000000,0.0000000,0.0000000,0.0000000,9.00,38.4063301,-110.7865067,1363.1999512,1.5,152.9,1.0,0.0,0.0,907,0,0,859.13,16.33,20.97,0
9:32:22,0,0,0,0,0,0,0,0,0,0,0,514,0,0,0,0,0.0000000,0.0000000,0.0000000,0.0000000,9.00,38.4063225,-110.7865067,1363.1999512,1.7,153.9,1.0,0.0,0.0,907,0,0,859.13,16.17,20.94,0
9:32:23,0,0,0,0,0,0,0,0,0,0,0,515,0,0,0,0,0.0000000,0.0000000,0.0000000,0.0000000,9.00,38.4063148,-110.7865067,1363.1999512,1.6,164.7,1.0,0.0,0.0,907,0,0,859.12,16.37,20.87,0
9:32:24,0,0,0,0,0,0,0,0,0,0,0,515,0,0,0,0,0.0000000,0.0000000,0.0000000,0.0000000,9.00,38.4063072,-110.7864990,1363.0999756,1.6,151.4,1.0,0.0,0.0,907,0,0,859.19,16.65,20.86,0
9:32:25,0,0,0,0,0,0,0,0,0,0,0,515,0,0,0,0,0.0000000,0.0000000,0.0000000,0.0000000,9.00,38.4062996,-110.7864990,1363.0000000,1.8,160.4,1.0,0.0,0.0,907,0,0,858.95,16.19,20.85,0
9:32:26,0,0,0,0,0,0,0,0,0,0,0,514,0,0,0,0,0.0000000,0.0000000,0.0000000,0.0000000,9.00,38.4062958,-110.7864990,1363.0000000,1.6,210.9,1.0,0.0,0.0,907,0,0,858.76,16.10,20.84,0
9:32:27,0,0,0,0,0,0,0,0,0,0,0,514,0,0,0,0,0.0000000,0.0000000,0.0000000,0.0000000,9.00,38.4062881,-110.7865067,1363.0000000,1.3,259.2,1.0,0.0,0.0,906,0,0,858.25,16.51,20.82,0
9:32:28,0,0,0,0,0,0,0,0,0,0,0,514,0,0,0,0,0.0000000,0.0000000,0.0000000,0.0000000,9.00,38.4062881,-110.7865067,1363.0000000,0.9,267.5,1.0,0.0,0.0,907,0,0,858.21,16.54,20.87,0
9:32:29,0,0,0,0,0,0,0,0,0,0,0,514,0,0,0,0,0.0000000,0.0000000,0.0000000,0.0000000,9.00,38.4062881,-110.7865067,1363.0000000,0.4,257.2,1.0,0.0,0.0,907,0,0,858.35,16.46,20.95,0
9:32:30,0,0,0,0,0,0,0,0,0,0,0,513,0,0,0,0,0.0000000,0.0000000,0.0000000,0.0000000,9.00,38.4062881,-110.7865067,1363.0000000,0.0,299.5,1.0,0.0,0.0,907,0,0,857.73,16.59,20.97,0
9:32:31,0,0,0,0,0,0,0,0,0,0,0,514,0,0,0,0,0.0000000,0.0000000,0.0000000,0.0000000,9.00,38.4062920,-110.7865067,1363.0000000,0.1,29.7,1.0,0.0,0.0,906,0,0,858.08,16.45,21.05,0
9:32:32,0,0,0,0,0,0,0,0,0,0,0,515,0,0,0,0,0.0000000,0.0000000,0.0000000,0.0000000,9.00,38.4062881,-110.7865067,1363.0999756,0.1,88.5,1.0,0.0,0.0,906,0,0,858.28,16.37,21.11,0
9:32:33,0,0,0,0,0,0,0,0,0,0,0,514,0,0,0,0,0.0000000,0.0000000,0.0000000,0.0000000,9.00,38.4062881,-110.7865067,1363.0999756,0.2,338.3,1.0,0.0,0.0,907,0,0,858.31,16.37,21.12,0
9:32:34,0,0,0,0,0,0,0,0,0,0,0,515,0,0,0,0,0.0000000,0.0000000,0.0000000,0.0000000,9.00,38.4062920,-110.7865067,1363.0999756,0.0,243.6,1.0,0.0,0.0,907,0,0,858.42,16.37,21.15,0
9:32:35,0,0,0,0,0,0,0,0,0,0,0,514,0,0,0,0,0.0000000,0.0000000,0.0000000,0.0000000,8.00,38.4062920,-110.7865067,1363.0999756,0.2,193.8,1.1,0.0,0.0,907,0,0,858.31,16.36,21.17,0
9:32:36,0,0,0,0,0,0,0,0,0,0,0,515,0,0,0,0,0.0000000,0.0000000,0.0000000,0.0000000,9.00,38.4062881,-110.7865067,1363.0999756,0.2,78.8,1.0,0.0,0.0,907,0,0,858.45,16.31,21.20,0
9:32:37,0,0,0,0,0,0,0,0,0,0,0,515,0,0,0,0,0.0000000,0.0000000,0.0000000,0.0000000,9.00,38.4062881,-110.7865067,1363.0999756,0.2,75.0,1.0,0.0,0.0,907,0,0,858.52,16.21,21.23,0
9:32:38,0,0,0,0,0,0,0,0,0,0,0,514,0,0,0,0,0.0000000,0.0000000,0.0000000,0.0000000,9.00,38.4062881,-110.7865067,1363.0999756,0.1,9.9,1.0,0.0,0.0,907,0,0,858.58,16.05,21.26,0
9:32:39,0,0,0,0,0,0,0,0,0,0,0,513,0,0,0,0,0.0000000,0.0000000,0.0000000,0.0000000,9.00,38.4062920,-110.7865067,1363.0999756,0.3,64.9,1.0,0.0,0.0,906,0,0,858.64,15.96,21.28,0
9:32:40,0,0,0,0,0,0,0,0,0,0,0,519,0,0,0,0,0.0000000,0.0000000,0.0000000,0.0000000,9.00,38.4062920,-110.7865067,1363.0999756,0.3,354.2,1.0,0.0,0.0,907,0,0,858.64,15.84,21.29,0
9:32:41,0,0,0,0,0,0,0,0,0,0,0,512,0,0,0,0,0.0000000,0.0000000,0.0000000,0.0000000,9.00,38.4062920,-110.7865067,1363.0999756,0.5,35.4,1.0,0.0,0.0,906,0,0,858.67,15.79,21.29,0
9:32:42,0,0,0,0,0,0,0,0,0,0,0,514,0,0,0,0,0.0000000,0.0000000,0.0000000,0.0000000,9.00,38.4062958,-110.7865067,1363.0999756,0.3,51.0,1.0,0.0,0.0,907,0,0,858.63,16.02,21.31,0
9:32:43,0,0,0,0,0,0,0,0,0,0,0,515,0,0,0,0,0.0000000,0.0000000,0.0000000,0.0000000,9.00,38.4062958,-110.7864990,1363.0999756,0.2,33.9,1.0,0.0,0.0,907,0,0,858.70,15.87,21.34,0
9:32:44,0,0,0,0,0,0,0,0,0,0,0,515,0,0,0,0,0.0000000,0.0000000,0.0000000,0.0000000,9.00,38.4062958,-110.7864990,1363.0999756,0.1,46.7,1.0,0.0,0.0,907,0,0,858.64,15.73,21.36,0
9:32:45,0,0,0,0,0,0,0,0,0,0,0,515,0,0,0,0,0.0000000,0.0000000,0.0000000,0.0000000,9.00,38.4062958,-110.7864990,1363.0999756,0.1,311.4,1.0,0.0,0.0,907,0,0,858.25,15.84,21.39,0
9:32:46,0,0,0,0,0,0,0,0,0,0,0,515,0,0,0,0,0.0000000,0.0000000,0.0000000,0.0000000,9.00,38.4062958,-110.7864990,1363.0999756,0.2,151.9,1.0,0.0,0.0,907,0,0,858.58,15.84,21.36,0
9:32:47,0,0,0,0,0,0,0,0,0,0,0,515,0,0,0,0,0.0000000,0.0000000,0.0000000,0.0000000,9.00,38.4062958,-110.7864990,1363.0999756,0.1,180.8,1.0,0.0,0.0,907,0,0,858.59,15.84,21.30,0
9:32:48,0,0,0,0,0,0,0,0,0,0,0,514,0,0,0,0,0.0000000,0.0000000,0.0000000,0.0000000,8.00,38.4062958,-110.7864990,1363.0999756,0.2,206.3,1.0,0.0,0.0,907,0,0,858.58,15.84,21.23,0
9:32:49,0,0,0,0,0,0,0,0,0,0,0,514,0,0,0,0,0.0000000,0.0000000,0.0000000,0.0000000,8.00,38.4062958,-110.7864990,1363.0999756,0.2,163.5,1.0,0.0,0.0,907,0,0,858.55,15.96,21.23,0
9:32:50,0,0,0,0,0,0,0,0,0,0,0,514,0,0,0,0,0.0000000,0.0000000,0.0000000,0.0000000,8.00,38.4062958,-110.7864990,1363.0999756,0.1,208.4,1.0,0.0,0.0,906,0,0,858.43,16.14,21.20,0
9:32:51,0,0,0,0,0,0,0,0,0,0,0,515,0,0,0,0,0.0000000,0.0000000,0.0000000,0.0000000,8.00,38.4062920,-110.7864990,1363.0999756,0.0,190.2,1.0,0.0,0.0,907,0,0,858.42,16.17,21.13,0
9:32:52,0,0,0,0,0,0,0,0,0,0,0,515,0,0,0,0,0.0000000,0.0000000,0.0000000,0.0000000,8.00,38.4062920,-110.7864990,1363.0999756,0.2,190.4,1.0,0.0,0.0,907,0,0,858.52,16.13,21.08,0
9:32:53,0,0,0,0,0,0,0,0,0,0,0,515,0,0,0,0,0.0000000,0.0000000,0.0000000,0.0000000,8.00,38.4062920,-110.7864990,1363.0999756,0.2,165.8,1.0,0.0,0.0,907,0,0,858.37,16.16,21.00,0
9:32:54,0,0,0,0,0,0,0,0,0,0,0,515,0,0,0,0,0.0000000,0.0000000,0.0000000,0.0000000,7.00,38.4062920,-110.7864990,1363.0999756,0.3,160.1,1.0,0.0,0.0,907,0,0,858.42,16.07,20.92,0
9:32:55,0,0,0,0,0,0,0,0,0,0,0,514,0,0,0,0,0.0000000,0.0000000,0.0000000,0.0000000,7.00,38.4062881,-110.7864990,1363.0999756,0.1,202.3,1.0,0.0,0.0,907,0,0,858.42,16.28,20.84,0
9:32:56,0,0,0,0,0,0,0,0,0,0,0,494,0,0,0,0,0.0000000,0.0000000,0.0000000,0.0000000,7.00,38.4062881,-110.7864990,1363.0999756,0.1,307.4,1.0,0.0,0.0,912,0,0,858.51,16.25,20.80,0
9:32:57,0,0,0,0,0,0,0,0,0,0,0,482,0,0,0,0,0.0000000,0.0000000,0.0000000,0.0000000,7.00,38.4062881,-110.7864990,1363.0999756,0.1,241.1,1.0,0.0,0.0,913,0,0,858.45,16.39,20.75,0
9:32:58,0,0,0,0,0,0,0,0,0,0,0,514,0,0,0,0,0.0000000,0.0000000,0.0000000,0.0000000,7.00,38.4062881,-110.7864990,1363.0999756,0.2,255.7,1.0,0.0,0.0,907,0,0,858.49,16.62,20.73,0
9:32:59,0,0,0,0,0,0,0,0,0,0,0,514,0,0,0,0,0.0000000,0.0000000,0.0000000,0.0000000,8.00,38.4062881,-110.7865067,1363.0999756,0.1,251.4,1.0,0.0,0.0,907,0,0,858.57,20.65,20.67,0
9:33:00,0,0,0,0,0,0,0,0,0,0,0,515,0,0,0,0,0.0000000,0.0000000,0.0000000,0.0000000,9.00,38.4062881,-110.7865067,1363.0999756,0.3,155.7,1.0,0.0,0.0,907,0,0,858.67,21.47,20.77,0
9:33:01,0,0,0,0,0,0,0,0,0,0,0,515,0,0,0,0,0.0000000,0.0000000,0.0000000,0.0000000,9.00,38.4062881,-110.7864990,1363.0999756,0.8,148.1,1.0,0.0,0.0,907,0,0,858.66,21.44,20.86,0
9:33:02,0,0,0,0,0,0,0,0,0,0,0,514,0,0,0,0,0.0000000,0.0000000,0.0000000,0.0000000,9.00,38.4062805,-110.7864990,1363.1999512,1.2,128.2,1.0,0.0,0.0,906,0,0,859.06,21.26,20.93,0
9:33:03,0,0,0,0,0,0,0,0,0,0,0,514,0,0,0,0,0.0000000,0.0000000,0.0000000,0.0000000,9.00,38.4062691,-110.7864838,1363.4000244,1.7,138.4,1.0,0.0,0.0,907,0,0,858.65,17.78,20.96,0
9:33:04,0,0,0,0,0,0,0,0,0,0,0,514,0,0,0,0,0.0000000,0.0000000,0.0000000,0.0000000,9.00,38.4062576,-110.7864685,1363.5000000,2.0,139.7,1.0,0.0,0.0,907,0,0,859.10,20.10,21.01,0
9:33:05,0,0,0,0,0,0,0,0,0,0,0,514,0,0,0,0,0.0000000,0.0000000,0.0000000,0.0000000,9.00,38.4062538,-110.7864685,1363.5000000,1.8,142.6,1.0,0.0,0.0,907,0,0,858.90,20.05,21.01,0
9:33:06,0,0,0,0,0,0,0,0,0,0,0,514,0,0,0,0,0.0000000,0.0000000,0.0000000,0.0000000,9.00,38.4062462,-110.7864685,1363.5000000,1.7,156.2,1.0,0.0,0.0,907,0,0,859.11,20.13,21.00,0
9:33:07,0,0,0,0,0,0,0,0,0,0,0,514,0,0,0,0,0.0000000,0.0000000,0.0000000,0.0000000,9.00,38.4062386,-110.7864685,1363.5000000,1.7,162.0,1.0,0.0,0.0,907,0,0,858.83,19.90,20.79,0
9:33:08,0,0,0,0,0,0,0,0,0,0,0,515,0,0,0,0,0.0000000,0.0000000,0.0000000,0.0000000,9.00,38.4062271,-110.7864685,1363.5000000,1.8,162.2,1.0,0.0,0.0,907,0,0,858.88,19.64,20.67,0
9:33:09,0,0,0,0,0,0,0,0,0,0,0,515,0,0,0,0,0.0000000,0.0000000,0.0000000,0.0000000,9.00,38.4062195,-110.7864609,1363.5000000,2.0,171.2,1.0,0.0,0.0,906,0,0,858.36,17.50,20.57,0
9:33:10,0,0,0,0,0,0,0,0,0,0,0,515,0,0,0,0,0.0000000,0.0000000,0.0000000,0.0000000,9.00,38.4062004,-110.7864685,1363.5000000,1.8,177.1,1.0,0.0,0.0,907,0,0,859.10,16.37,20.64,0
9:33:11,0,0,0,0,0,0,0,0,0,0,0,515,0,0,0,0,0.0000000,0.0000000,0.0000000,0.0000000,9.00,38.4061966,-110.7864685,1363.5000000,2.3,203.7,1.0,0.0,0.0,906,0,0,858.37,16.40,20.59,0
9:33:12,0,0,0,0,0,0,0,0,0,0,0,514,0,0,0,0,0.0000000,0.0000000,0.0000000,0.0000000,9.00,38.4061966,-110.7864685,1363.5000000,1.1,258.9,1.0,0.0,0.0,906,0,0,858.75,16.50,20.59,0
9:33:13,0,0,0,0,0,0,0,0,0,0,0,515,0,0,0,0,0.0000000,0.0000000,0.0000000,0.0000000,9.00,38.4061966,-110.7864685,1363.5999756,0.1,226.2,1.0,0.0,0.0,906,0,0,858.94,16.60,20.60,0
9:33:14,0,0,0,0,0,0,0,0,0,0,0,515,0,0,0,0,0.0000000,0.0000000,0.0000000,0.0000000,9.00,38.4061966,-110.7864685,1363.5999756,0.1,283.0,1.0,0.0,0.0,907,0,0,858.98,16.68,20.52,0
9:33:15,0,0,0,0,0,0,0,0,0,0,0,514,0,0,0,0,0.0000000,0.0000000,0.0000000,0.0000000,9.00,38.4061966,-110.7864685,1363.6999512,0.1,215.3,1.0,0.0,0.0,908,0,0,858.99,16.71,20.47,0
9:33:16,0,0,0,0,0,0,0,0,0,0,0,515,0,0,0,0,0.0000000,0.0000000,0.0000000,0.0000000,9.00,38.4061966,-110.7864685,1363.6999512,0.1,252.1,1.0,0.0,0.0,907,0,0,858.84,16.66,20.45,0
9:33:17,0,0,0,0,0,0,0,0,0,0,0,514,0,0,0,0,0.0000000,0.0000000,0.0000000,0.0000000,9.00,38.4061966,-110.7864685,1363.6999512,0.2,270.2,1.0,0.0,0.0,908,0,0,859.04,16.79,20.41,0
9:33:18,0,0,0,0,0,0,0,0,0,0,0,514,0,0,0,0,0.0000000,0.0000000,0.0000000,0.0000000,9.00,38.4061966,-110.7864685,1363.6999512,0.2,264.0,1.0,0.0,0.0,907,0,0,858.80,16.77,20.39,0
9:33:19,0,0,0,0,0,0,0,0,0,0,0,515,0,0,0,0,0.0000000,0.0000000,0.0000000,0.0000000,9.00,38.4061966,-110.7864685,1363.6999512,0.2,225.4,1.0,0.0,0.0,913,0,0,858.76,16.85,20.36,0
9:33:20,0,0,0,0,0,0,0,0,0,0,0,523,0,0,0,0,0.0000000,0.0000000,0.0000000,0.0000000,9.00,38.4061928,-110.7864685,1363.6999512,0.2,127.8,1.0,0.0,0.0,903,0,0,859.02,16.83,20.35,0
9:33:21,0,0,0,0,0,0,0,0,0,0,0,523,0,0,0,0,0.0000000,0.0000000,0.0000000,0.0000000,9.00,38.4061928,-110.7864685,1363.6999512,0.2,236.9,1.0,0.0,0.0,892,0,0,859.02,16.80,20.32,0
9:33:22,0,0,0,0,0,0,0,0,0,0,0,506,0,0,0,0,0.0000000,0.0000000,0.0000000,0.0000000,9.00,38.4061928,-110.7864685,1363.6999512,0.2,234.3,1.0,0.0,0.0,902,0,0,859.01,16.86,20.29,0
9:33:23,0,0,0,0,0,0,0,0,0,0,0,500,0,0,0,0,0.0000000,0.0000000,0.0000000,0.0000000,9.00,38.4061928,-110.7864685,1363.6999512,0.2,204.2,1.0,0.0,0.0,903,0,0,859.06,16.91,20.31,0
9:33:24,0,0,0,0,0,0,0,0,0,0,0,525,0,0,0,0,0.0000000,0.0000000,0.0000000,0.0000000,9.00,38.4061928,-110.7864685,1363.6999512,0.1,242.3,1.0,0.0,0.0,906,0,0,858.99,16.91,20.31,0
9:33:25,0,0,0,0,0,0,0,0,0,0,0,501,0,0,0,0,0.0000000,0.0000000,0.0000000,0.0000000,9.00,38.4061928,-110.7864685,1363.6999512,0.2,290.6,1.0,0.0,0.0,902,0,0,858.96,16.94,20.31,0
9:33:26,0,0,0,0,0,0,0,0,0,0,0,525,0,0,0,0,0.0000000,0.0000000,0.0000000,0.0000000,9.00,38.4061928,-110.7864685,1363.6999512,0.2,301.0,1.0,0.0,0.0,918,0,0,858.94,16.94,20.31,0
9:33:27,0,0,0,0,0,0,0,0,0,0,0,507,0,0,0,0,0.0000000,0.0000000,0.0000000,0.0000000,9.00,38.4061928,-110.7864838,1363.6999512,0.2,305.3,1.0,0.0,0.0,912,0,0,858.95,17.00,20.34,0
9:33:28,0,0,0,0,0,0,0,0,0,0,0,506,0,0,0,0,0.0000000,0.0000000,0.0000000,0.0000000,9.00,38.4061928,-110.7864838,1363.6999512,0.1,344.7,1.0,0.0,0.0,912,0,0,859.02,17.01,20.36,0
9:33:29,0,0,0,0,0,0,0,0,0,0,0,512,0,0,0,0,0.0000000,0.0000000,0.0000000,0.0000000,9.00,38.4061928,-110.7864838,1363.6999512,0.2,113.6,1.0,0.0,0.0,911,0,0,858.99,17.04,20.38,0
9:33:30,0,0,0,0,0,0,0,0,0,0,0,514,0,0,0,0,0.0000000,0.0000000,0.0000000,0.0000000,9.00,38.4061928,-110.7864838,1363.6999512,0.1,7.7,1.0,0.0,0.0,907,0,0,858.98,17.01,20.38,0
9:33:31,0,0,0,0,0,0,0,0,0,0,0,514,0,0,0,0,0.0000000,0.0000000,0.0000000,0.0000000,9.00,38.4061928,-110.7864838,1363.6999512,0.3,86.1,1.0,0.0,0.0,907,0,0,859.06,17.64,20.32,0
9:33:32,0,0,0,0,0,0,0,0,0,0,0,514,0,0,0,0,0.0000000,0.0000000,0.0000000,0.0000000,9.00,38.4061928,-110.7864685,1363.6999512,0.5,151.0,1.0,0.0,0.0,907,0,0,859.04,19.81,20.34,0
