Time, Motor A Speed, Motor A Dir, Motor B Speed, Motor B Dir, Servo Rail Current Sensor, Servo Pos - Arm L, Servo Pos - Arm R, Servo Pos - End, Servo Pos - Hopper, Servo Pos - Lid, Servo Pos - Extra, Servo Current, LED - Front L, LED - Front R, LED - Back L, LED - Back R, IMU Pitch, IMU Roll, IMU Yaw, Compass Heading, GPS Sats, GPS Latitude, GPS Longitude, GPS Altitude, GPS Speed, GPS Angle, GPS HDOP, GPS VDOP, GPS PDOP, Battery, Comm Xbee Latency, Comm Arduino Latency, Pressure, Humidity, Temperature, uRADMonitor
10:12:51,0,0,0,0,0,0,0,0,0,0,0,514,0,0,0,0,0.0000000,0.0000000,0.0000000,0.0000000,11.00,38.4064445,-110.7919617,1369.3000488,0.2,202.0,0.8,0.0,0.0,900,0,0,859.20,17.62,22.49,0
10:12:52,0,0,0,0,0,0,0,0,0,0,0,514,0,0,0,0,0.0000000,0.0000000,0.0000000,0.0000000,11.00,38.4064445,-110.7919617,1369.3000488,0.2,169.1,0.8,0.0,0.0,900,0,0,859.21,17.75,22.49,0
10:12:53,0,0,0,0,0,0,0,0,0,0,0,514,0,0,0,0,0.0000000,0.0000000,0.0000000,0.0000000,11.00,38.4064445,-110.7919617,1369.3000488,0.2,195.5,0.8,0.0,0.0,899,0,0,859.28,17.88,22.50,0
10:12:54,0,0,0,0,0,0,0,0,0,0,0,514,0,0,0,0,0.0000000,0.0000000,0.0000000,0.0000000,11.00,38.4064407,-110.7919617,1369.3000488,0.1,201.7,0.8,0.0,0.0,900,0,0,859.23,17.90,22.50,0
10:12:55,0,0,0,0,0,0,0,0,0,0,0,514,0,0,0,0,0.0000000,0.0000000,0.0000000,0.0000000,11.00,38.4064407,-110.7919617,1369.3000488,0.1,141.9,0.8,0.0,0.0,900,0,0,859.23,17.91,22.50,0
10:12:56,0,0,0,0,0,0,0,0,0,0,0,513,0,0,0,0,0.0000000,0.0000000,0.0000000,0.0000000,11.00,38.4064407,-110.7919617,1369.3000488,0.2,157.7,0.8,0.0,0.0,900,0,0,859.25,17.98,22.50,0
10:12:57,0,0,0,0,0,0,0,0,0,0,0,514,0,0,0,0,0.0000000,0.0000000,0.0000000,0.0000000,11.00,38.4064407,-110.7919617,1369.3000488,0.2,136.0,0.8,0.0,0.0,900,0,0,859.22,17.94,22.50,0
10:12:58,0,0,0,0,0,0,0,0,0,0,0,514,0,0,0,0,0.0000000,0.0000000,0.0000000,0.0000000,11.00,38.4064407,-110.7919617,1369.3000488,0.1,161.8,0.8,0.0,0.0,900,0,0,859.20,17.94,22.51,0
10:12:59,0,0,0,0,0,0,0,0,0,0,0,514,0,0,0,0,0.0000000,0.0000000,0.0000000,0.0000000,11.00,38.4064369,-110.7919617,1369.3000488,0.0,307.0,0.8,0.0,0.0,900,0,0,859.20,17.72,22.51,0
10:13:00,0,0,0,0,0,0,0,0,0,0,0,514,0,0,0,0,0.0000000,0.0000000,0.0000000,0.0000000,11.00,38.4064369,-110.7919617,1369.3000488,0.1,288.2,0.8,0.0,0.0,900,0,0,859.22,17.55,22.51,0
10:13:01,0,0,0,0,0,0,0,0,0,0,0,514,0,0,0,0,0.0000000,0.0000000,0.0000000,0.0000000,11.00,38.4064369,-110.7919617,1369.3000488,0.1,245.7,0.8,0.0,0.0,900,0,0,859.23,17.44,22.51,0
10:13:02,0,0,0,0,0,0,0,0,0,0,0,515,0,0,0,0,0.0000000,0.0000000,0.0000000,0.0000000,11.00,38.4064369,-110.7919617,1369.3000488,0.1,155.1,0.8,0.0,0.0,900,0,0,859.22,17.37,22.51,0
10:13:03,0,0,0,0,0,0,0,0,0,0,0,514,0,0,0,0,0.0000000,0.0000000,0.0000000,0.0000000,11.00,38.4064369,-110.7919617,1369.3000488,0.1,164.5,0.8,0.0,0.0,900,0,0,859.19,17.47,22.51,0
10:13:04,0,0,0,0,0,0,0,0,0,0,0,514,0,0,0,0,0.0000000,0.0000000,0.0000000,0.0000000,11.00,38.4064369,-110.7919617,1369.3000488,0.2,222.8,0.8,0.0,0.0,900,0,0,859.23,17.76,22.51,0
10:13:05,0,0,0,0,0,0,0,0,0,0,0,514,0,0,0,0,0.0000000,0.0000000,0.0000000,0.0000000,11.00,38.4064369,-110.7919617,1369.3000488,0.1,174.3,0.8,0.0,0.0,900,0,0,859.27,17.73,22.52,0
10:13:06,0,0,0,0,0,0,0,0,0,0,0,514,0,0,0,0,0.0000000,0.0000000,0.0000000,0.0000000,11.00,38.4064369,-110.7919617,1369.3000488,0.1,187.4,0.8,0.0,0.0,900,0,0,859.28,17.59,22.51,0
10:13:07,0,0,0,0,0,0,0,0,0,0,0,515,0,0,0,0,0.0000000,0.0000000,0.0000000,0.0000000,11.00,38.4064369,-110.7919617,1369.3000488,0.1,204.1,0.8,0.0,0.0,900,0,0,859.28,17.50,22.51,0
10:13:08,0,0,0,0,0,0,0,0,0,0,0,514,0,0,0,0,0.0000000,0.0000000,0.0000000,0.0000000,11.00,38.4064369,-110.7919617,1369.3000488,0.0,320.8,0.8,0.0,0.0,900,0,0,859.25,17.26,22.51,0
10:13:09,0,0,0,0,0,0,0,0,0,0,0,515,0,0,0,0,0.0000000,0.0000000,0.0000000,0.0000000,11.00,38.4064369,-110.7919617,1369.3000488,0.1,157.7,0.8,0.0,0.0,899,0,0,859.24,17.01,22.51,0
10:13:11,0,0,0,0,0,0,0,0,0,0,0,515,0,0,0,0,0.0000000,0.0000000,0.0000000,0.0000000,11.00,38.4064369,-110.7919617,1369.3000488,0.1,165.4,0.8,0.0,0.0,900,0,0,859.30,16.91,22.51,0
10:13:12,0,0,0,0,0,0,0,0,0,0,0,514,0,0,0,0,0.0000000,0.0000000,0.0000000,0.0000000,11.00,38.4064369,-110.7919617,1369.3000488,0.2,159.3,0.8,0.0,0.0,900,0,0,859.28,16.91,22.51,0
10:13:13,0,0,0,0,0,0,0,0,0,0,0,514,0,0,0,0,0.0000000,0.0000000,0.0000000,0.0000000,11.00,38.4064331,-110.7919617,1369.3000488,0.2,151.9,0.8,0.0,0.0,900,0,0,859.30,16.89,22.52,0
10:13:14,0,0,0,0,0,0,0,0,0,0,0,514,0,0,0,0,0.0000000,0.0000000,0.0000000,0.0000000,11.00,38.4064331,-110.7919617,1369.3000488,0.2,161.7,0.8,0.0,0.0,899,0,0,859.25,16.71,22.51,0
10:13:15,0,0,0,0,0,0,0,0,0,0,0,515,0,0,0,0,0.0000000,0.0000000,0.0000000,0.0000000,11.00,38.4064331,-110.7919617,1369.3000488,0.3,161.8,0.8,0.0,0.0,899,0,0,859.31,16.57,22.51,0
10:13:16,0,0,0,0,0,0,0,0,0,0,0,514,0,0,0,0,0.0000000,0.0000000,0.0000000,0.0000000,11.00,38.4064331,-110.7919617,1369.3000488,0.2,158.0,0.8,0.0,0.0,899,0,0,859.33,16.42,22.51,0
10:13:17,0,0,0,0,0,0,0,0,0,0,0,515,0,0,0,0,0.0000000,0.0000000,0.0000000,0.0000000,11.00,38.4064293,-110.7919617,1369.3000488,0.3,156.2,0.8,0.0,0.0,900,0,0,859.32,16.34,22.52,0
10:13:18,0,0,0,0,0,0,0,0,0,0,0,515,0,0,0,0,0.0000000,0.0000000,0.0000000,0.0000000,11.00,38.4064293,-110.7919464,1369.1999512,0.3,154.9,0.8,0.0,0.0,900,0,0,859.27,16.36,22.52,0
10:13:19,0,0,0,0,0,0,0,0,0,0,0,514,0,0,0,0,0.0000000,0.0000000,0.0000000,0.0000000,11.00,38.4064293,-110.7919464,1369.1999512,0.2,153.5,0.8,0.0,0.0,899,0,0,859.21,16.42,22.51,0
10:13:20,0,0,0,0,0,0,0,0,0,0,0,514,0,0,0,0,0.0000000,0.0000000,0.0000000,0.0000000,11.00,38.4064293,-110.7919464,1369.1999512,0.2,155.1,0.8,0.0,0.0,900,0,0,859.28,16.66,22.50,0
10:13:21,0,0,0,0,0,0,0,0,0,0,0,515,0,0,0,0,0.0000000,0.0000000,0.0000000,0.0000000,11.00,38.4064255,-110.7919464,1369.1999512,0.2,154.4,0.8,0.0,0.0,900,0,0,859.29,17.30,22.50,0
10:13:22,0,0,0,0,0,0,0,0,0,0,0,514,0,0,0,0,0.0000000,0.0000000,0.0000000,0.0000000,11.00,38.4064255,-110.7919464,1369.1999512,0.2,152.5,0.8,0.0,0.0,900,0,0,859.24,18.01,22.51,0
10:13:23,0,0,0,0,0,0,0,0,0,0,0,514,0,0,0,0,0.0000000,0.0000000,0.0000000,0.0000000,11.00,38.4064255,-110.7919464,1369.1999512,0.2,150.3,0.8,0.0,0.0,899,0,0,859.26,18.39,22.51,0
10:13:24,0,0,0,0,0,0,0,0,0,0,0,514,0,0,0,0,0.0000000,0.0000000,0.0000000,0.0000000,11.00,38.4064255,-110.7919464,1369.0999756,0.2,151.8,0.8,0.0,0.0,898,0,0,859.24,18.45,22.51,0
10:13:25,0,0,0,0,0,0,0,0,0,0,0,514,0,0,0,0,0.0000000,0.0000000,0.0000000,0.0000000,11.00,38.4064255,-110.7919464,1369.0999756,0.2,154.2,0.8,0.0,0.0,898,0,0,859.24,18.42,22.51,0
10:13:26,0,0,0,0,0,0,0,0,0,0,0,514,0,0,0,0,0.0000000,0.0000000,0.0000000,0.0000000,11.00,38.4064217,-110.7919464,1369.0999756,0.2,156.6,0.8,0.0,0.0,900,0,0,859.23,17.98,22.51,0
10:13:27,0,0,0,0,0,0,0,0,0,0,0,514,0,0,0,0,0.0000000,0.0000000,0.0000000,0.0000000,11.00,38.4064217,-110.7919464,1369.0000000,0.2,159.4,0.8,0.0,0.0,899,0,0,859.33,17.56,22.51,0
10:13:28,0,0,0,0,0,0,0,0,0,0,0,514,0,0,0,0,0.0000000,0.0000000,0.0000000,0.0000000,11.00,38.4064217,-110.7919464,1369.0000000,0.2,160.9,0.8,0.0,0.0,900,0,0,859.32,17.37,22.51,0
10:13:29,0,0,0,0,0,0,0,0,0,0,0,514,0,0,0,0,0.0000000,0.0000000,0.0000000,0.0000000,11.00,38.4064217,-110.7919464,1368.9000244,0.2,162.1,0.8,0.0,0.0,900,0,0,859.26,17.49,22.51,0
10:13:30,0,0,0,0,0,0,0,0,0,0,0,514,0,0,0,0,0.0000000,0.0000000,0.0000000,0.0000000,11.00,38.4064178,-110.7919464,1368.8000488,0.2,162.6,0.8,0.0,0.0,900,0,0,859.23,17.53,22.52,0
10:13:31,0,0,0,0,0,0,0,0,0,0,0,515,0,0,0,0,0.0000000,0.0000000,0.0000000,0.0000000,11.00,38.4064178,-110.7919464,1368.8000488,0.2,161.1,0.8,0.0,0.0,899,0,0,859.25,17.72,22.52,0
10:13:32,0,0,0,0,0,0,0,0,0,0,0,514,0,0,0,0,0.0000000,0.0000000,0.0000000,0.0000000,11.00,38.4064178,-110.7919464,1368.6999512,0.3,158.7,0.8,0.0,0.0,900,0,0,859.24,17.79,22.53,0
10:13:33,0,0,0,0,0,0,0,0,0,0,0,515,0,0,0,0,0.0000000,0.0000000,0.0000000,0.0000000,11.00,38.4064178,-110.7919464,1368.6999512,0.3,155.9,0.8,0.0,0.0,900,0,0,859.26,17.59,22.52,0
10:13:34,0,0,0,0,0,0,0,0,0,0,0,515,0,0,0,0,0.0000000,0.0000000,0.0000000,0.0000000,11.00,38.4064178,-110.7919464,1368.5999756,0.3,155.4,0.8,0.0,0.0,899,0,0,859.22,17.37,22.53,0
10:13:35,0,0,0,0,0,0,0,0,0,0,0,514,0,0,0,0,0.0000000,0.0000000,0.0000000,0.0000000,11.00,38.4064178,-110.7919464,1368.5000000,0.3,156.1,0.8,0.0,0.0,900,0,0,859.19,17.20,22.53,0
10:13:36,0,0,0,0,0,0,0,0,0,0,0,515,0,0,0,0,0.0000000,0.0000000,0.0000000,0.0000000,11.00,38.4064140,-110.7919464,1368.4000244,0.3,156.8,0.8,0.0,0.0,899,0,0,859.19,17.20,22.53,0
10:13:37,0,0,0,0,0,0,0,0,0,0,0,515,0,0,0,0,0.0000000,0.0000000,0.0000000,0.0000000,11.00,38.4064140,-110.7919464,1368.4000244,0.4,160.7,0.8,0.0,0.0,900,0,0,859.23,17.76,22.53,0
10:13:38,0,0,0,0,0,0,0,0,0,0,0,514,0,0,0,0,0.0000000,0.0000000,0.0000000,0.0000000,11.00,38.4064102,-110.7919464,1368.3000488,0.4,162.9,0.8,0.0,0.0,899,0,0,859.20,17.70,22.54,0
10:13:39,0,0,0,0,0,0,0,0,0,0,0,513,0,0,0,0,0.0000000,0.0000000,0.0000000,0.0000000,11.00,38.4064102,-110.7919464,1368.1999512,0.4,163.2,0.8,0.0,0.0,900,0,0,859.21,17.40,22.53,0
10:13:40,0,0,0,0,0,0,0,0,0,0,0,514,0,0,0,0,0.0000000,0.0000000,0.0000000,0.0000000,11.00,38.4064064,-110.7919464,1368.1999512,0.3,167.3,0.8,0.0,0.0,900,0,0,859.24,17.47,22.54,0
10:13:41,0,0,0,0,0,0,0,0,0,0,0,514,0,0,0,0,0.0000000,0.0000000,0.0000000,0.0000000,11.00,38.4064064,-110.7919464,1368.0999756,0.3,172.4,0.8,0.0,0.0,900,0,0,859.26,17.46,22.53,0
10:13:42,0,0,0,0,0,0,0,0,0,0,0,516,0,0,0,0,0.0000000,0.0000000,0.0000000,0.0000000,11.00,38.4064064,-110.7919464,1368.0000000,0.3,177.5,0.8,0.0,0.0,901,0,0,859.23,17.49,22.53,0
10:13:43,0,0,0,0,0,0,0,0,0,0,0,516,0,0,0,0,0.0000000,0.0000000,0.0000000,0.0000000,11.00,38.4064026,-110.7919464,1367.9000244,0.3,181.8,0.8,0.0,0.0,893,0,0,859.25,17.50,22.53,0
10:13:44,0,0,0,0,0,0,0,0,0,0,0,514,0,0,0,0,0.0000000,0.0000000,0.0000000,0.0000000,11.00,38.4064026,-110.7919464,1367.8000488,0.3,185.4,0.8,0.0,0.0,898,0,0,859.26,17.53,22.53,0
10:13:45,0,0,0,0,0,0,0,0,0,0,0,515,0,0,0,0,0.0000000,0.0000000,0.0000000,0.0000000,11.00,38.4063988,-110.7919464,1367.6999512,0.3,187.8,0.8,0.0,0.0,900,0,0,859.23,17.72,22.53,0
10:13:46,0,0,0,0,0,0,0,0,0,0,0,515,0,0,0,0,0.0000000,0.0000000,0.0000000,0.0000000,11.00,38.4063950,-110.7919464,1367.5999756,0.3,188.1,0.8,0.0,0.0,900,0,0,859.20,17.76,22.54,0
10:13:47,0,0,0,0,0,0,0,0,0,0,0,514,0,0,0,0,0.0000000,0.0000000,0.0000000,0.0000000,11.00,38.4063950,-110.7919464,1367.5000000,0.3,188.8,0.8,0.0,0.0,900,0,0,859.18,17.78,22.53,0
10:13:48,0,0,0,0,0,0,0,0,0,0,0,514,0,0,0,0,0.0000000,0.0000000,0.0000000,0.0000000,11.00,38.4063950,-110.7919464,1367.4000244,0.3,188.8,0.8,0.0,0.0,899,0,0,859.21,17.88,22.54,0
10:13:49,0,0,0,0,0,0,0,0,0,0,0,514,0,0,0,0,0.0000000,0.0000000,0.0000000,0.0000000,11.00,38.4063950,-110.7919464,1367.3000488,0.3,189.8,0.8,0.0,0.0,899,0,0,859.22,17.78,22.53,0
10:13:50,0,0,0,0,0,0,0,0,0,0,0,517,0,0,0,0,0.0000000,0.0000000,0.0000000,0.0000000,11.00,38.4063950,-110.7919464,1367.0999756,0.2,191.1,0.8,0.0,0.0,898,0,0,859.23,17.84,22.53,0
10:13:51,0,0,0,0,0,0,0,0,0,0,0,514,0,0,0,0,0.0000000,0.0000000,0.0000000,0.0000000,11.00,38.4063950,-110.7919464,1367.0000000,0.2,190.6,0.8,0.0,0.0,900,0,0,859.25,17.94,22.54,0
10:13:52,0,0,0,0,0,0,0,0,0,0,0,513,0,0,0,0,0.0000000,0.0000000,0.0000000,0.0000000,11.00,38.4063911,-110.7919464,1366.9000244,0.3,189.9,0.8,0.0,0.0,899,0,0,859.19,18.02,22.54,0
10:13:53,0,0,0,0,0,0,0,0,0,0,0,534,0,0,0,0,0.0000000,0.0000000,0.0000000,0.0000000,11.00,38.4063911,-110.7919464,1366.8000488,0.2,191.7,0.8,0.0,0.0,889,0,0,859.24,17.98,22.55,0
10:13:54,0,0,0,0,0,0,0,0,0,0,0,515,0,0,0,0,0.0000000,0.0000000,0.0000000,0.0000000,11.00,38.4063911,-110.7919464,1366.6999512,0.2,193.6,0.8,0.0,0.0,899,0,0,859.22,17.98,22.55,0
10:13:55,0,0,0,0,0,0,0,0,0,0,0,514,0,0,0,0,0.0000000,0.0000000,0.0000000,0.0000000,11.00,38.4063873,-110.7919464,1366.5000000,0.2,196.3,0.8,0.0,0.0,899,0,0,859.22,18.04,22.55,0
10:13:56,0,0,0,0,0,0,0,0,0,0,0,516,0,0,0,0,0.0000000,0.0000000,0.0000000,0.0000000,11.00,38.4063873,-110.7919464,1366.4000244,0.2,197.7,0.8,0.0,0.0,900,0,0,859.18,18.27,22.55,0
10:13:57,0,0,0,0,0,0,0,0,0,0,0,514,0,0,0,0,0.0000000,0.0000000,0.0000000,0.0000000,11.00,38.4063873,-110.7919464,1366.3000488,0.2,198.3,0.8,0.0,0.0,900,0,0,859.22,18.33,22.56,0
10:13:58,0,0,0,0,0,0,0,0,0,0,0,515,0,0,0,0,0.0000000,0.0000000,0.0000000,0.0000000,11.00,38.4063873,-110.7919464,1366.1999512,0.2,193.8,0.8,0.0,0.0,899,0,0,859.28,18.40,22.57,0
10:13:59,0,0,0,0,0,0,0,0,0,0,0,514,0,0,0,0,0.0000000,0.0000000,0.0000000,0.0000000,11.00,38.4063835,-110.7919464,1366.0999756,0.2,187.8,0.8,0.0,0.0,899,0,0,859.17,18.14,22.57,0
10:14:00,0,0,0,0,0,0,0,0,0,0,0,515,0,0,0,0,0.0000000,0.0000000,0.0000000,0.0000000,11.00,38.4063835,-110.7919464,1365.9000244,0.2,184.3,0.8,0.0,0.0,900,0,0,859.20,17.76,22.57,0
10:14:01,0,0,0,0,0,0,0,0,0,0,0,514,0,0,0,0,0.0000000,0.0000000,0.0000000,0.0000000,11.00,38.4063835,-110.7919464,1365.8000488,0.2,179.8,0.8,0.0,0.0,900,0,0,859.23,17.46,22.57,0
10:14:02,0,0,0,0,0,0,0,0,0,0,0,514,0,0,0,0,0.0000000,0.0000000,0.0000000,0.0000000,11.00,38.4063835,-110.7919464,1365.6999512,0.2,179.2,0.8,0.0,0.0,899,0,0,859.27,17.26,22.57,0
10:14:03,0,0,0,0,0,0,0,0,0,0,0,513,0,0,0,0,0.0000000,0.0000000,0.0000000,0.0000000,11.00,38.4063797,-110.7919464,1365.5999756,0.2,181.1,0.8,0.0,0.0,900,0,0,859.29,17.27,22.58,0
10:14:04,0,0,0,0,0,0,0,0,0,0,0,515,0,0,0,0,0.0000000,0.0000000,0.0000000,0.0000000,11.00,38.4063797,-110.7919464,1365.5000000,0.2,186.8,0.8,0.0,0.0,899,0,0,859.24,17.27,22.58,0
10:14:05,0,0,0,0,0,0,0,0,0,0,0,514,0,0,0,0,0.0000000,0.0000000,0.0000000,0.0000000,11.00,38.4063797,-110.7919464,1365.3000488,0.2,193.4,0.8,0.0,0.0,900,0,0,859.25,17.09,22.58,0
10:14:06,0,0,0,0,0,0,0,0,0,0,0,514,0,0,0,0,0.0000000,0.0000000,0.0000000,0.0000000,11.00,38.4063797,-110.7919464,1365.1999512,0.2,199.0,0.8,0.0,0.0,900,0,0,859.26,17.15,22.58,0
10:14:07,0,0,0,0,0,0,0,0,0,0,0,515,0,0,0,0,0.0000000,0.0000000,0.0000000,0.0000000,11.00,38.4063759,-110.7919464,1365.0999756,0.2,198.8,0.8,0.0,0.0,900,0,0,859.27,17.33,22.58,0
10:14:08,0,0,0,0,0,0,0,0,0,0,0,514,0,0,0,0,0.0000000,0.0000000,0.0000000,0.0000000,11.00,38.4063759,-110.7919464,1364.9000244,0.1,190.1,0.8,0.0,0.0,899,0,0,859.32,17.26,22.58,0
10:14:09,0,0,0,0,0,0,0,0,0,0,0,514,0,0,0,0,0.0000000,0.0000000,0.0000000,0.0000000,11.00,38.4063759,-110.7919464,1364.8000488,0.1,176.9,0.8,0.0,0.0,900,0,0,859.24,17.08,22.58,0
10:14:10,0,0,0,0,0,0,0,0,0,0,0,514,0,0,0,0,0.0000000,0.0000000,0.0000000,0.0000000,11.00,38.4063759,-110.7919464,1364.5999756,0.2,156.0,0.8,0.0,0.0,900,0,0,859.23,16.98,22.58,0
10:14:11,0,0,0,0,0,0,0,0,0,0,0,514,0,0,0,0,0.0000000,0.0000000,0.0000000,0.0000000,11.00,38.4063759,-110.7919464,1364.5000000,0.2,154.5,0.8,0.0,0.0,900,0,0,859.25,17.18,22.48,0
10:14:12,0,0,0,0,0,0,0,0,0,0,0,514,0,0,0,0,0.0000000,0.0000000,0.0000000,0.0000000,11.00,38.4063759,-110.7919464,1364.3000488,0.2,148.0,0.8,0.0,0.0,896,0,0,859.13,17.09,22.48,0
10:14:13,0,0,0,0,0,0,0,0,0,0,0,514,0,0,0,0,0.0000000,0.0000000,0.0000000,0.0000000,11.00,38.4063759,-110.7919464,1364.0000000,0.2,134.1,0.8,0.0,0.0,900,0,0,859.23,17.38,22.53,0
10:14:14,0,0,0,0,0,0,0,0,0,0,0,514,0,0,0,0,0.0000000,0.0000000,0.0000000,0.0000000,11.00,38.4063759,-110.7919464,1363.8000488,0.2,134.2,0.8,0.0,0.0,900,0,0,859.20,17.50,22.53,0
10:14:15,0,0,0,0,0,0,0,0,0,0,0,514,0,0,0,0,0.0000000,0.0000000,0.0000000,0.0000000,11.00,38.4063759,-110.7919464,1363.5999756,0.1,138.6,0.8,0.0,0.0,900,0,0,859.19,17.73,22.58,0
10:14:16,0,0,0,0,0,0,0,0,0,0,0,514,0,0,0,0,0.0000000,0.0000000,0.0000000,0.0000000,11.00,38.4063759,-110.7919464,1363.4000244,0.1,119.1,0.8,0.0,0.0,899,0,0,859.25,17.91,22.58,0
10:14:17,0,0,0,0,0,0,0,0,0,0,0,515,0,0,0,0,0.0000000,0.0000000,0.0000000,0.0000000,11.00,38.4063759,-110.7919464,1363.1999512,0.1,108.4,0.8,0.0,0.0,900,0,0,859.27,18.16,22.59,0
10:14:18,0,0,0,0,0,0,0,0,0,0,0,515,0,0,0,0,0.0000000,0.0000000,0.0000000,0.0000000,11.00,38.4063721,-110.7919464,1363.0000000,0.1,90.2,0.8,0.0,0.0,899,0,0,859.21,18.16,22.59,0
10:14:19,0,0,0,0,0,0,0,0,0,0,0,514,0,0,0,0,0.0000000,0.0000000,0.0000000,0.0000000,11.00,38.4063759,-110.7919464,1362.8000488,0.1,79.9,0.8,0.0,0.0,899,0,0,859.17,18.30,22.59,0
10:14:20,0,0,0,0,0,0,0,0,0,0,0,514,0,0,0,0,0.0000000,0.0000000,0.0000000,0.0000000,11.00,38.4063759,-110.7919464,1362.6999512,0.1,92.4,0.8,0.0,0.0,899,0,0,859.26,18.30,22.60,0
10:14:21,0,0,0,0,0,0,0,0,0,0,0,514,0,0,0,0,0.0000000,0.0000000,0.0000000,0.0000000,11.00,38.4063759,-110.7919464,1362.5000000,0.1,97.2,0.8,0.0,0.0,900,0,0,859.26,18.68,22.60,0
10:14:22,0,0,0,0,0,0,0,0,0,0,0,514,0,0,0,0,0.0000000,0.0000000,0.0000000,0.0000000,11.00,38.4063721,-110.7919464,1362.3000488,0.1,120.2,0.8,0.0,0.0,899,0,0,859.22,20.62,22.63,0
10:14:23,0,0,0,0,0,0,0,0,0,0,0,514,0,0,0,0,0.0000000,0.0000000,0.0000000,0.0000000,11.00,38.4063721,-110.7919464,1362.0000000,0.1,121.4,0.8,0.0,0.0,898,0,0,859.20,19.81,22.63,0
10:14:24,0,0,0,0,0,0,0,0,0,0,0,514,0,0,0,0,0.0000000,0.0000000,0.0000000,0.0000000,11.00,38.4063721,-110.7919464,1361.8000488,0.1,127.0,0.8,0.0,0.0,899,0,0,859.23,19.29,22.62,0
10:14:25,0,0,0,0,0,0,0,0,0,0,0,514,0,0,0,0,0.0000000,0.0000000,0.0000000,0.0000000,11.00,38.4063721,-110.7919464,1361.5999756,0.1,116.3,0.8,0.0,0.0,900,0,0,859.24,19.03,22.61,0
10:14:26,0,0,0,0,0,0,0,0,0,0,0,514,0,0,0,0,0.0000000,0.0000000,0.0000000,0.0000000,11.00,38.4063721,-110.7919388,1361.4000244,0.1,102.2,0.8,0.0,0.0,899,0,0,859.15,18.36,22.60,0
10:14:27,0,0,0,0,0,0,0,0,0,0,0,514,0,0,0,0,0.0000000,0.0000000,0.0000000,0.0000000,11.00,38.4063721,-110.7919388,1361.1999512,0.1,107.7,0.8,0.0,0.0,900,0,0,859.16,17.90,22.60,0
10:14:28,0,0,0,0,0,0,0,0,0,0,0,515,0,0,0,0,0.0000000,0.0000000,0.0000000,0.0000000,11.00,38.4063721,-110.7919388,1361.0000000,0.1,107.4,0.8,0.0,0.0,900,0,0,859.19,18.01,22.61,0
10:14:29,0,0,0,0,0,0,0,0,0,0,0,514,0,0,0,0,0.0000000,0.0000000,0.0000000,0.0000000,11.00,38.4063721,-110.7919388,1360.6999512,0.1,106.0,0.8,0.0,0.0,899,0,0,859.23,18.62,22.62,0
10:14:30,0,0,0,0,0,0,0,0,0,0,0,515,0,0,0,0,0.0000000,0.0000000,0.0000000,0.0000000,11.00,38.4063721,-110.7919388,1360.5000000,0.1,96.6,0.8,0.0,0.0,899,0,0,859.23,18.81,22.62,0
10:14:31,0,0,0,0,0,0,0,0,0,0,0,514,0,0,0,0,0.0000000,0.0000000,0.0000000,0.0000000,11.00,38.4063721,-110.7919388,1360.3000488,0.1,139.1,0.8,0.0,0.0,899,0,0,859.23,17.91,22.63,0
10:14:32,0,0,0,0,0,0,0,0,0,0,0,515,0,0,0,0,0.0000000,0.0000000,0.0000000,0.0000000,11.00,38.4063721,-110.7919388,1360.0999756,0.1,120.0,0.8,0.0,0.0,899,0,0,859.26,16.97,22.62,0
10:14:33,0,0,0,0,0,0,0,0,0,0,0,514,0,0,0,0,0.0000000,0.0000000,0.0000000,0.0000000,11.00,38.4063721,-110.7919388,1359.8000488,0.0,164.1,0.8,0.0,0.0,899,0,0,859.12,16.56,22.62,0
10:14:34,0,0,0,0,0,0,0,0,0,0,0,514,0,0,0,0,0.0000000,0.0000000,0.0000000,0.0000000,11.00,38.4063721,-110.7919388,1359.5999756,0.1,210.7,0.8,0.0,0.0,899,0,0,859.25,15.90,22.61,0
10:14:35,0,0,0,0,0,0,0,0,0,0,0,515,0,0,0,0,0.0000000,0.0000000,0.0000000,0.0000000,10.00,38.4063721,-110.7919388,1359.4000244,0.1,188.1,0.8,0.0,0.0,899,0,0,859.28,15.56,22.61,0
10:14:36,0,0,0,0,0,0,0,0,0,0,0,512,0,0,0,0,0.0000000,0.0000000,0.0000000,0.0000000,11.00,38.4063683,-110.7919388,1359.0999756,0.1,197.4,0.8,0.0,0.0,899,0,0,859.22,15.18,22.62,0
10:14:37,0,0,0,0,0,0,0,0,0,0,0,514,0,0,0,0,0.0000000,0.0000000,0.0000000,0.0000000,11.00,38.4063683,-110.7919388,1358.9000244,0.1,202.4,0.8,0.0,0.0,899,0,0,859.23,14.91,22.62,0
10:14:38,0,0,0,0,0,0,0,0,0,0,0,514,0,0,0,0,0.0000000,0.0000000,0.0000000,0.0000000,10.00,38.4063683,-110.7919388,1358.5999756,0.1,225.2,0.8,0.0,0.0,899,0,0,859.20,14.74,22.62,0
10:14:39,0,0,0,0,0,0,0,0,0,0,0,514,0,0,0,0,0.0000000,0.0000000,0.0000000,0.0000000,11.00,38.4063683,-110.7919388,1358.3000488,0.1,294.1,0.8,0.0,0.0,899,0,0,859.23,14.79,22.61,0
10:14:40,0,0,0,0,0,0,0,0,0,0,0,515,0,0,0,0,0.0000000,0.0000000,0.0000000,0.0000000,11.00,38.4063683,-110.7919388,1358.0000000,0.1,311.6,0.8,0.0,0.0,900,0,0,859.26,14.74,22.60,0
10:14:41,0,0,0,0,0,0,0,0,0,0,0,515,0,0,0,0,0.0000000,0.0000000,0.0000000,0.0000000,11.00,38.4063721,-110.7919388,1357.8000488,0.1,317.5,0.8,0.0,0.0,900,0,0,859.20,14.60,22.58,0
10:14:42,0,0,0,0,0,0,0,0,0,0,0,514,0,0,0,0,0.0000000,0.0000000,0.0000000,0.0000000,11.00,38.4063721,-110.7919388,1357.5000000,0.2,330.6,0.8,0.0,0.0,899,0,0,859.25,14.51,22.57,0
10:14:43,0,0,0,0,0,0,0,0,0,0,0,513,0,0,0,0,0.0000000,0.0000000,0.0000000,0.0000000,11.00,38.4063721,-110.7919464,1357.1999512,0.2,336.6,0.8,0.0,0.0,899,0,0,859.19,14.44,22.57,0
10:14:44,0,0,0,0,0,0,0,0,0,0,0,514,0,0,0,0,0.0000000,0.0000000,0.0000000,0.0000000,11.00,38.4063721,-110.7919464,1356.8000488,0.2,326.8,0.8,0.0,0.0,899,0,0,859.22,14.39,22.57,0
10:14:45,0,0,0,0,0,0,0,0,0,0,0,514,0,0,0,0,0.0000000,0.0000000,0.0000000,0.0000000,11.00,38.4063721,-110.7919464,1356.5000000,0.2,333.1,0.8,0.0,0.0,899,0,0,859.20,14.30,22.56,0
10:14:46,0,0,0,0,0,0,0,0,0,0,0,514,0,0,0,0,0.0000000,0.0000000,0.0000000,0.0000000,10.00,38.4063759,-110.7919464,1356.1999512,0.2,334.6,0.8,0.0,0.0,899,0,0,859.22,14.25,22.55,0
10:14:48,0,0,0,0,0,0,0,0,0,0,0,514,0,0,0,0,0.0000000,0.0000000,0.0000000,0.0000000,10.00,38.4063759,-110.7919464,1355.9000244,0.2,337.2,0.8,0.0,0.0,899,0,0,859.22,14.18,22.56,0
10:14:49,0,0,0,0,0,0,0,0,0,0,0,514,0,0,0,0,0.0000000,0.0000000,0.0000000,0.0000000,11.00,38.4063759,-110.7919464,1355.5999756,0.2,346.2,0.8,0.0,0.0,899,0,0,859.16,14.16,22.56,0
10:14:50,0,0,0,0,0,0,0,0,0,0,0,514,0,0,0,0,0.0000000,0.0000000,0.0000000,0.0000000,11.00,38.4063759,-110.7919464,1355.1999512,0.2,339.1,0.8,0.0,0.0,899,0,0,859.24,14.18,22.57,0
10:14:51,0,0,0,0,0,0,0,0,0,0,0,514,0,0,0,0,0.0000000,0.0000000,0.0000000,0.0000000,11.00,38.4063759,-110.7919464,1354.9000244,0.2,341.2,0.8,0.0,0.0,899,0,0,859.19,14.30,22.57,0
10:14:52,0,0,0,0,0,0,0,0,0,0,0,514,0,0,0,0,0.0000000,0.0000000,0.0000000,0.0000000,11.00,38.4063759,-110.7919464,1354.5999756,0.2,341.7,0.8,0.0,0.0,899,0,0,859.22,14.45,22.56,0
10:14:53,0,0,0,0,0,0,0,0,0,0,0,514,0,0,0,0,0.0000000,0.0000000,0.0000000,0.0000000,10.00,38.4063797,-110.7919464,1354.3000488,0.2,341.9,0.8,0.0,0.0,899,0,0,859.22,14.48,22.56,0
10:14:54,0,0,0,0,0,0,0,0,0,0,0,514,0,0,0,0,0.0000000,0.0000000,0.0000000,0.0000000,11.00,38.4063797,-110.7919464,1353.9000244,0.2,340.3,0.8,0.0,0.0,899,0,0,859.22,14.66,22.54,0
10:14:55,0,0,0,0,0,0,0,0,0,0,0,514,0,0,0,0,0.0000000,0.0000000,0.0000000,0.0000000,11.00,38.4063797,-110.7919464,1353.5999756,0.2,338.4,0.8,0.0,0.0,899,0,0,859.20,14.76,22.54,0
10:14:56,0,0,0,0,0,0,0,0,0,0,0,514,0,0,0,0,0.0000000,0.0000000,0.0000000,0.0000000,11.00,38.4063835,-110.7919464,1353.3000488,0.2,337.1,0.8,0.0,0.0,899,0,0,859.16,14.82,22.54,0
10:14:57,0,0,0,0,0,0,0,0,0,0,0,514,0,0,0,0,0.0000000,0.0000000,0.0000000,0.0000000,11.00,38.4063835,-110.7919464,1352.9000244,0.2,337.3,0.8,0.0,0.0,899,0,0,859.17,14.77,22.54,0
10:14:58,0,0,0,0,0,0,0,0,0,0,0,514,0,0,0,0,0.0000000,0.0000000,0.0000000,0.0000000,11.00,38.4063835,-110.7919464,1352.5999756,0.2,339.1,0.8,0.0,0.0,899,0,0,859.18,14.71,22.54,0
10:14:59,0,0,0,0,0,0,0,0,0,0,0,513,0,0,0,0,0.0000000,0.0000000,0.0000000,0.0000000,11.00,38.4063835,-110.7919464,1352.3000488,0.1,339.7,0.8,0.0,0.0,899,0,0,859.17,14.62,22.54,0
10:15:00,0,0,0,0,0,0,0,0,0,0,0,514,0,0,0,0,0.0000000,0.0000000,0.0000000,0.0000000,11.00,38.4063873,-110.7919464,1352.0000000,0.1,342.7,0.8,0.0,0.0,899,0,0,859.21,14.54,22.53,0
10:15:01,0,0,0,0,0,0,0,0,0,0,0,514,0,0,0,0,0.0000000,0.0000000,0.0000000,0.0000000,11.00,38.4063873,-110.7919464,1351.5999756,0.1,343.3,0.8,0.0,0.0,899,0,0,859.24,14.47,22.53,0
10:15:02,0,0,0,0,0,0,0,0,0,0,0,513,0,0,0,0,0.0000000,0.0000000,0.0000000,0.0000000,11.00,38.4063873,-110.7919464,1351.3000488,0.1,331.3,0.8,0.0,0.0,899,0,0,859.20,14.36,22.53,0
10:15:03,0,0,0,0,0,0,0,0,0,0,0,514,0,0,0,0,0.0000000,0.0000000,0.0000000,0.0000000,11.00,38.4063873,-110.7919464,1351.0000000,0.1,337.5,0.8,0.0,0.0,899,0,0,859.19,14.36,22.53,0
10:15:04,0,0,0,0,0,0,0,0,0,0,0,514,0,0,0,0,0.0000000,0.0000000,0.0000000,0.0000000,11.00,38.4063873,-110.7919464,1350.6999512,0.2,336.2,0.8,0.0,0.0,899,0,0,859.18,14.33,22.53,0
10:15:05,0,0,0,0,0,0,0,0,0,0,0,514,0,0,0,0,0.0000000,0.0000000,0.0000000,0.0000000,11.00,38.4063873,-110.7919464,1350.4000244,0.2,326.8,0.8,0.0,0.0,899,0,0,859.14,14.25,22.52,0
10:15:06,0,0,0,0,0,0,0,0,0,0,0,514,0,0,0,0,0.0000000,0.0000000,0.0000000,0.0000000,11.00,38.4063911,-110.7919464,1350.0999756,0.1,320.7,0.8,0.0,0.0,900,0,0,859.19,14.21,22.53,0
10:15:07,0,0,0,0,0,0,0,0,0,0,0,514,0,0,0,0,0.0000000,0.0000000,0.0000000,0.0000000,11.00,38.4063911,-110.7919464,1349.8000488,0.1,324.7,0.8,0.0,0.0,899,0,0,859.13,14.22,22.52,0
10:15:08,0,0,0,0,0,0,0,0,0,0,0,514,0,0,0,0,0.0000000,0.0000000,0.0000000,0.0000000,11.00,38.4063911,-110.7919464,1349.5000000,0.1,325.8,0.8,0.0,0.0,898,0,0,859.19,14.19,22.52,0
10:15:09,0,0,0,0,0,0,0,0,0,0,0,515,0,0,0,0,0.0000000,0.0000000,0.0000000,0.0000000,11.00,38.4063911,-110.7919464,1349.0999756,0.2,322.4,0.8,0.0,0.0,899,0,0,859.21,14.22,22.53,0
10:15:10,0,0,0,0,0,0,0,0,0,0,0,514,0,0,0,0,0.0000000,0.0000000,0.0000000,0.0000000,11.00,38.4063911,-110.7919464,1348.8000488,0.3,320.6,0.8,0.0,0.0,899,0,0,859.16,14.27,22.53,0
10:15:11,0,0,0,0,0,0,0,0,0,0,0,514,0,0,0,0,0.0000000,0.0000000,0.0000000,0.0000000,11.00,38.4063950,-110.7919617,1348.5000000,0.4,319.9,0.8,0.0,0.0,899,0,0,859.15,14.25,22.53,0
10:15:12,0,0,0,0,0,0,0,0,0,0,0,514,0,0,0,0,0.0000000,0.0000000,0.0000000,0.0000000,11.00,38.4063950,-110.7919617,1348.3000488,0.4,319.7,0.8,0.0,0.0,899,0,0,859.15,14.27,22.54,0
10:15:13,0,0,0,0,0,0,0,0,0,0,0,513,0,0,0,0,0.0000000,0.0000000,0.0000000,0.0000000,11.00,38.4063950,-110.7919617,1348.0000000,0.3,315.8,0.8,0.0,0.0,899,0,0,859.17,14.27,22.54,0
10:15:14,0,0,0,0,0,0,0,0,0,0,0,514,0,0,0,0,0.0000000,0.0000000,0.0000000,0.0000000,11.00,38.4063950,-110.7919617,1347.8000488,0.3,313.4,0.8,0.0,0.0,899,0,0,859.21,14.31,22.54,0
10:15:15,0,0,0,0,0,0,0,0,0,0,0,514,0,0,0,0,0.0000000,0.0000000,0.0000000,0.0000000,11.00,38.4063950,-110.7919617,1347.5999756,0.3,313.4,0.8,0.0,0.0,899,0,0,859.16,14.31,22.55,0
10:15:16,0,0,0,0,0,0,0,0,0,0,0,514,0,0,0,0,0.0000000,0.0000000,0.0000000,0.0000000,11.00,38.4063950,-110.7919617,1347.3000488,0.3,314.4,0.8,0.0,0.0,899,0,0,859.19,14.34,22.54,0
10:15:17,0,0,0,0,0,0,0,0,0,0,0,515,0,0,0,0,0.0000000,0.0000000,0.0000000,0.0000000,11.00,38.4063988,-110.7919617,1347.0999756,0.3,315.7,0.8,0.0,0.0,899,0,0,859.20,14.31,22.54,0
10:15:18,0,0,0,0,0,0,0,0,0,0,0,514,0,0,0,0,0.0000000,0.0000000,0.0000000,0.0000000,11.00,38.4064026,-110.7919617,1346.9000244,0.3,316.9,0.8,0.0,0.0,899,0,0,859.19,14.33,22.55,0
10:15:19,0,0,0,0,0,0,0,0,0,0,0,514,0,0,0,0,0.0000000,0.0000000,0.0000000,0.0000000,11.00,38.4064026,-110.7919617,1346.6999512,0.3,317.7,0.8,0.0,0.0,899,0,0,859.24,14.31,22.55,0
10:15:20,0,0,0,0,0,0,0,0,0,0,0,514,0,0,0,0,0.0000000,0.0000000,0.0000000,0.0000000,11.00,38.4064026,-110.7919617,1346.5000000,0.3,318.5,0.8,0.0,0.0,899,0,0,859.23,14.30,22.55,0
10:15:21,0,0,0,0,0,0,0,0,0,0,0,514,0,0,0,0,0.0000000,0.0000000,0.0000000,0.0000000,11.00,38.4064064,-110.7919769,1346.3000488,0.3,319.4,0.8,0.0,0.0,899,0,0,859.22,14.31,22.55,0
10:15:22,0,0,0,0,0,0,0,0,0,0,0,514,0,0,0,0,0.0000000,0.0000000,0.0000000,0.0000000,11.00,38.4064064,-110.7919769,1346.0999756,0.3,320.3,0.8,0.0,0.0,899,0,0,859.25,14.31,22.55,0
10:15:23,0,0,0,0,0,0,0,0,0,0,0,514,0,0,0,0,0.0000000,0.0000000,0.0000000,0.0000000,11.00,38.4064064,-110.7919769,1345.9000244,0.3,320.4,0.8,0.0,0.0,899,0,0,859.23,14.30,22.55,0
10:15:24,0,0,0,0,0,0,0,0,0,0,0,514,0,0,0,0,0.0000000,0.0000000,0.0000000,0.0000000,11.00,38.4064102,-110.7919769,1345.6999512,0.3,320.7,0.8,0.0,0.0,899,0,0,859.18,14.27,22.55,0
10:15:25,0,0,0,0,0,0,0,0,0,0,0,514,0,0,0,0,0.0000000,0.0000000,0.0000000,0.0000000,11.00,38.4064102,-110.7919769,1345.5000000,0.3,320.8,0.8,0.0,0.0,899,0,0,859.23,14.25,22.55,0
10:15:26,0,0,0,0,0,0,0,0,0,0,0,514,0,0,0,0,0.0000000,0.0000000,0.0000000,0.0000000,11.00,38.4064102,-110.7919769,1345.4000244,0.3,321.3,0.8,0.0,0.0,899,0,0,859.23,14.25,22.55,0
10:15:27,0,0,0,0,0,0,0,0,0,0,0,514,0,0,0,0,0.0000000,0.0000000,0.0000000,0.0000000,11.00,38.4064102,-110.7919769,1345.1999512,0.3,321.4,0.8,0.0,0.0,899,0,0,859.21,14.24,22.56,0
10:15:28,0,0,0,0,0,0,0,0,0,0,0,514,0,0,0,0,0.0000000,0.0000000,0.0000000,0.0000000,11.00,38.4064140,-110.7919769,1345.0999756,0.2,321.3,0.8,0.0,0.0,899,0,0,859.19,14.19,22.55,0
10:15:29,0,0,0,0,0,0,0,0,0,0,0,513,0,0,0,0,0.0000000,0.0000000,0.0000000,0.0000000,11.00,38.4064140,-110.7919769,1344.9000244,0.2,320.6,0.8,0.0,0.0,899,0,0,859.23,14.21,22.56,0
10:15:30,0,0,0,0,0,0,0,0,0,0,0,514,0,0,0,0,0.0000000,0.0000000,0.0000000,0.0000000,11.00,38.4064140,-110.7919769,1344.8000488,0.2,319.3,0.8,0.0,0.0,899,0,0,859.17,14.22,22.56,0
10:15:31,0,0,0,0,0,0,0,0,0,0,0,514,0,0,0,0,0.0000000,0.0000000,0.0000000,0.0000000,11.00,38.4064140,-110.7919769,1344.6999512,0.2,316.5,0.8,0.0,0.0,899,0,0,859.18,14.27,22.56,0
10:15:32,0,0,0,0,0,0,0,0,0,0,0,514,0,0,0,0,0.0000000,0.0000000,0.0000000,0.0000000,11.00,38.4064178,-110.7919846,1344.5000000,0.2,314.8,0.8,0.0,0.0,899,0,0,859.21,14.33,22.56,0
10:15:33,0,0,0,0,0,0,0,0,0,0,0,514,0,0,0,0,0.0000000,0.0000000,0.0000000,0.0000000,11.00,38.4064178,-110.7919846,1344.4000244,0.2,313.2,0.8,0.0,0.0,899,0,0,859.19,14.25,22.56,0
10:15:34,0,0,0,0,0,0,0,0,0,0,0,514,0,0,0,0,0.0000000,0.0000000,0.0000000,0.0000000,11.00,38.4064178,-110.7919846,1344.3000488,0.2,311.6,0.8,0.0,0.0,899,0,0,859.17,14.21,22.56,0
10:15:35,0,0,0,0,0,0,0,0,0,0,0,514,0,0,0,0,0.0000000,0.0000000,0.0000000,0.0000000,11.00,38.4064178,-110.7919846,1344.1999512,0.2,311.4,0.8,0.0,0.0,899,0,0,859.21,14.18,22.57,0
10:15:36,0,0,0,0,0,0,0,0,0,0,0,515,0,0,0,0,0.0000000,0.0000000,0.0000000,0.0000000,11.00,38.4064178,-110.7919846,1344.0999756,0.2,312.4,0.8,0.0,0.0,899,0,0,859.15,14.13,22.57,0
10:15:37,0,0,0,0,0,0,0,0,0,0,0,514,0,0,0,0,0.0000000,0.0000000,0.0000000,0.0000000,11.00,38.4064178,-110.7919846,1344.0000000,0.1,319.8,0.8,0.0,0.0,899,0,0,859.11,14.10,22.57,0
10:15:38,0,0,0,0,0,0,0,0,0,0,0,514,0,0,0,0,0.0000000,0.0000000,0.0000000,0.0000000,11.00,38.4064178,-110.7919846,1343.9000244,0.1,327.0,0.8,0.0,0.0,899,0,0,859.19,14.10,22.57,0
10:15:39,0,0,0,0,0,0,0,0,0,0,0,513,0,0,0,0,0.0000000,0.0000000,0.0000000,0.0000000,11.00,38.4064178,-110.7919846,1343.8000488,0.2,330.0,0.8,0.0,0.0,899,0,0,859.21,14.08,22.57,0
10:15:40,0,0,0,0,0,0,0,0,0,0,0,514,0,0,0,0,0.0000000,0.0000000,0.0000000,0.0000000,10.00,38.4064178,-110.7919846,1343.6999512,0.2,329.3,0.8,0.0,0.0,899,0,0,859.21,14.07,22.58,0
10:15:41,0,0,0,0,0,0,0,0,0,0,0,513,0,0,0,0,0.0000000,0.0000000,0.0000000,0.0000000,11.00,38.4064178,-110.7919846,1343.5999756,0.2,327.5,0.8,0.0,0.0,899,0,0,859.17,14.11,22.58,0
10:15:42,0,0,0,0,0,0,0,0,0,0,0,514,0,0,0,0,0.0000000,0.0000000,0.0000000,0.0000000,11.00,38.4064178,-110.7919846,1343.5000000,0.2,329.2,0.8,0.0,0.0,900,0,0,859.23,14.07,22.58,0
10:15:43,0,0,0,0,0,0,0,0,0,0,0,515,0,0,0,0,0.0000000,0.0000000,0.0000000,0.0000000,11.00,38.4064217,-110.7919846,1343.4000244,0.2,330.3,0.8,0.0,0.0,899,0,0,859.24,14.04,22.58,0
10:15:44,0,0,0,0,0,0,0,0,0,0,0,515,0,0,0,0,0.0000000,0.0000000,0.0000000,0.0000000,11.00,38.4064217,-110.7919846,1343.3000488,0.2,331.2,0.8,0.0,0.0,898,0,0,859.21,14.01,22.58,0
10:15:45,0,0,0,0,0,0,0,0,0,0,0,514,0,0,0,0,0.0000000,0.0000000,0.0000000,0.0000000,11.00,38.4064217,-110.7919846,1343.1999512,0.2,334.5,0.8,0.0,0.0,899,0,0,859.15,14.01,22.58,0
10:15:46,0,0,0,0,0,0,0,0,0,0,0,514,0,0,0,0,0.0000000,0.0000000,0.0000000,0.0000000,11.00,38.4064217,-110.7919846,1343.0999756,0.2,335.1,0.8,0.0,0.0,899,0,0,859.18,14.04,22.58,0
10:15:47,0,0,0,0,0,0,0,0,0,0,0,514,0,0,0,0,0.0000000,0.0000000,0.0000000,0.0000000,11.00,38.4064255,-110.7919846,1343.0000000,0.2,337.6,0.8,0.0,0.0,899,0,0,859.15,14.10,22.49,0
10:15:48,0,0,0,0,0,0,0,0,0,0,0,514,0,0,0,0,0.0000000,0.0000000,0.0000000,0.0000000,11.00,38.4064255,-110.7919846,1342.9000244,0.2,345.1,0.8,0.0,0.0,899,0,0,859.15,14.10,22.58,0
10:15:49,0,0,0,0,0,0,0,0,0,0,0,513,0,0,0,0,0.0000000,0.0000000,0.0000000,0.0000000,11.00,38.4064255,-110.7919846,1342.8000488,0.2,350.6,0.8,0.0,0.0,899,0,0,859.17,14.10,22.49,0
10:15:50,0,0,0,0,0,0,0,0,0,0,0,514,0,0,0,0,0.0000000,0.0000000,0.0000000,0.0000000,11.00,38.4064255,-110.7919846,1342.6999512,0.2,356.7,0.8,0.0,0.0,899,0,0,859.15,14.08,22.49,0
10:15:51,0,0,0,0,0,0,0,0,0,0,0,514,0,0,0,0,0.0000000,0.0000000,0.0000000,0.0000000,11.00,38.4064293,-110.7919846,1342.5000000,0.2,359.7,0.8,0.0,0.0,899,0,0,859.19,14.08,22.54,0
10:15:52,0,0,0,0,0,0,0,0,0,0,0,514,0,0,0,0,0.0000000,0.0000000,0.0000000,0.0000000,11.00,38.4064293,-110.7919846,1342.5000000,0.2,356.3,0.8,0.0,0.0,899,0,0,859.23,14.11,22.54,0
10:15:53,0,0,0,0,0,0,0,0,0,0,0,514,0,0,0,0,0.0000000,0.0000000,0.0000000,0.0000000,11.00,38.4064293,-110.7919846,1342.4000244,0.1,3.4,0.8,0.0,0.0,898,0,0,859.21,14.07,22.58,0
10:15:54,0,0,0,0,0,0,0,0,0,0,0,514,0,0,0,0,0.0000000,0.0000000,0.0000000,0.0000000,11.00,38.4064293,-110.7919846,1342.3000488,0.1,3.4,0.8,0.0,0.0,899,0,0,859.23,14.08,22.54,0
10:15:55,0,0,0,0,0,0,0,0,0,0,0,514,0,0,0,0,0.0000000,0.0000000,0.0000000,0.0000000,11.00,38.4064331,-110.7919846,1342.1999512,0.1,20.8,0.8,0.0,0.0,899,0,0,859.19,14.04,22.59,0
10:15:56,0,0,0,0,0,0,0,0,0,0,0,514,0,0,0,0,0.0000000,0.0000000,0.0000000,0.0000000,11.00,38.4064331,-110.7919846,1342.0999756,0.1,34.9,0.8,0.0,0.0,899,0,0,859.20,14.01,22.58,0
10:15:57,0,0,0,0,0,0,0,0,0,0,0,514,0,0,0,0,0.0000000,0.0000000,0.0000000,0.0000000,11.00,38.4064331,-110.7919846,1342.0999756,0.1,43.0,0.8,0.0,0.0,899,0,0,859.21,13.99,22.58,0
10:15:58,0,0,0,0,0,0,0,0,0,0,0,514,0,0,0,0,0.0000000,0.0000000,0.0000000,0.0000000,11.00,38.4064331,-110.7919846,1342.0000000,0.1,46.8,0.8,0.0,0.0,899,0,0,859.20,14.01,22.59,0
10:15:59,0,0,0,0,0,0,0,0,0,0,0,514,0,0,0,0,0.0000000,0.0000000,0.0000000,0.0000000,11.00,38.4064331,-110.7919846,1341.9000244,0.2,38.8,0.8,0.0,0.0,899,0,0,859.18,13.98,22.59,0
10:16:00,0,0,0,0,0,0,0,0,0,0,0,514,0,0,0,0,0.0000000,0.0000000,0.0000000,0.0000000,11.00,38.4064331,-110.7919846,1341.9000244,0.2,39.5,0.8,0.0,0.0,899,0,0,859.16,14.01,22.59,0
10:16:01,0,0,0,0,0,0,0,0,0,0,0,514,0,0,0,0,0.0000000,0.0000000,0.0000000,0.0000000,11.00,38.4064331,-110.7919846,1341.8000488,0.2,49.1,0.8,0.0,0.0,899,0,0,859.20,14.02,22.59,0
10:16:02,0,0,0,0,0,0,0,0,0,0,0,514,0,0,0,0,0.0000000,0.0000000,0.0000000,0.0000000,11.00,38.4064369,-110.7919846,1341.8000488,0.1,48.7,0.8,0.0,0.0,899,0,0,859.20,14.04,22.60,0
10:16:03,0,0,0,0,0,0,0,0,0,0,0,514,0,0,0,0,0.0000000,0.0000000,0.0000000,0.0000000,11.00,38.4064369,-110.7919846,1341.6999512,0.1,45.1,0.8,0.0,0.0,899,0,0,859.13,14.01,22.60,0
10:16:04,0,0,0,0,0,0,0,0,0,0,0,514,0,0,0,0,0.0000000,0.0000000,0.0000000,0.0000000,11.00,38.4064369,-110.7919846,1341.6999512,0.1,40.3,0.8,0.0,0.0,899,0,0,859.20,13.95,22.60,0
10:16:05,0,0,0,0,0,0,0,0,0,0,0,515,0,0,0,0,0.0000000,0.0000000,0.0000000,0.0000000,11.00,38.4064369,-110.7919846,1341.5999756,0.1,52.2,0.8,0.0,0.0,899,0,0,859.20,13.95,22.60,0
10:16:06,0,0,0,0,0,0,0,0,0,0,0,514,0,0,0,0,0.0000000,0.0000000,0.0000000,0.0000000,11.00,38.4064369,-110.7919846,1341.5999756,0.2,60.4,0.8,0.0,0.0,899,0,0,859.19,13.93,22.60,0
10:16:07,0,0,0,0,0,0,0,0,0,0,0,514,0,0,0,0,0.0000000,0.0000000,0.0000000,0.0000000,11.00,38.4064369,-110.7919846,1341.5999756,0.2,66.8,0.8,0.0,0.0,899,0,0,859.19,13.89,22.60,0
10:16:08,0,0,0,0,0,0,0,0,0,0,0,514,0,0,0,0,0.0000000,0.0000000,0.0000000,0.0000000,11.00,38.4064369,-110.7919769,1341.5000000,0.2,67.6,0.8,0.0,0.0,899,0,0,859.15,13.89,22.60,0
10:16:09,0,0,0,0,0,0,0,0,0,0,0,513,0,0,0,0,0.0000000,0.0000000,0.0000000,0.0000000,11.00,38.4064369,-110.7919769,1341.5000000,0.2,59.5,0.8,0.0,0.0,899,0,0,859.21,13.89,22.60,0
10:16:10,0,0,0,0,0,0,0,0,0,0,0,514,0,0,0,0,0.0000000,0.0000000,0.0000000,0.0000000,11.00,38.4064369,-110.7919769,1341.4000244,0.2,60.8,0.8,0.0,0.0,899,0,0,859.19,13.87,22.61,0
10:16:11,0,0,0,0,0,0,0,0,0,0,0,514,0,0,0,0,0.0000000,0.0000000,0.0000000,0.0000000,11.00,38.4064369,-110.7919769,1341.4000244,0.2,63.9,0.8,0.0,0.0,899,0,0,859.23,13.89,22.61,0
10:16:12,0,0,0,0,0,0,0,0,0,0,0,514,0,0,0,0,0.0000000,0.0000000,0.0000000,0.0000000,11.00,38.4064369,-110.7919769,1341.4000244,0.2,62.9,0.8,0.0,0.0,899,0,0,859.17,13.87,22.61,0
10:16:13,0,0,0,0,0,0,0,0,0,0,0,514,0,0,0,0,0.0000000,0.0000000,0.0000000,0.0000000,11.00,38.4064369,-110.7919769,1341.4000244,0.2,66.0,0.8,0.0,0.0,899,0,0,859.17,13.84,22.61,0
10:16:14,0,0,0,0,0,0,0,0,0,0,0,514,0,0,0,0,0.0000000,0.0000000,0.0000000,0.0000000,11.00,38.4064369,-110.7919769,1341.3000488,0.2,67.8,0.8,0.0,0.0,899,0,0,859.18,13.84,22.62,0
10:16:15,0,0,0,0,0,0,0,0,0,0,0,514,0,0,0,0,0.0000000,0.0000000,0.0000000,0.0000000,11.00,38.4064369,-110.7919769,1341.3000488,0.2,68.4,0.8,0.0,0.0,899,0,0,859.18,13.84,22.61,0
10:16:16,0,0,0,0,0,0,0,0,0,0,0,514,0,0,0,0,0.0000000,0.0000000,0.0000000,0.0000000,10.00,38.4064407,-110.7919769,1341.3000488,0.2,70.8,0.8,0.0,0.0,899,0,0,859.13,13.78,22.62,0
10:16:17,0,0,0,0,0,0,0,0,0,0,0,514,0,0,0,0,0.0000000,0.0000000,0.0000000,0.0000000,11.00,38.4064407,-110.7919769,1341.3000488,0.2,72.9,0.8,0.0,0.0,899,0,0,859.21,13.79,22.62,0
10:16:18,0,0,0,0,0,0,0,0,0,0,0,513,0,0,0,0,0.0000000,0.0000000,0.0000000,0.0000000,10.00,38.4064407,-110.7919769,1341.1999512,0.2,74.7,0.8,0.0,0.0,899,0,0,859.23,13.78,22.62,0
10:16:19,0,0,0,0,0,0,0,0,0,0,0,514,0,0,0,0,0.0000000,0.0000000,0.0000000,0.0000000,11.00,38.4064407,-110.7919617,1341.1999512,0.2,77.4,0.8,0.0,0.0,898,0,0,859.22,13.75,22.62,0
10:16:20,0,0,0,0,0,0,0,0,0,0,0,514,0,0,0,0,0.0000000,0.0000000,0.0000000,0.0000000,11.00,38.4064407,-110.7919617,1341.1999512,0.2,78.8,0.8,0.0,0.0,899,0,0,859.23,13.70,22.62,0
10:16:21,0,0,0,0,0,0,0,0,0,0,0,514,0,0,0,0,0.0000000,0.0000000,0.0000000,0.0000000,11.00,38.4064407,-110.7919617,1341.1999512,0.2,79.7,0.8,0.0,0.0,899,0,0,859.21,13.69,22.63,0
10:16:22,0,0,0,0,0,0,0,0,0,0,0,514,0,0,0,0,0.0000000,0.0000000,0.0000000,0.0000000,11.00,38.4064407,-110.7919617,1341.1999512,0.2,79.4,0.8,0.0,0.0,899,0,0,859.22,13.63,22.62,0
10:16:23,0,0,0,0,0,0,0,0,0,0,0,513,0,0,0,0,0.0000000,0.0000000,0.0000000,0.0000000,11.00,38.4064407,-110.7919617,1341.1999512,0.2,78.1,0.8,0.0,0.0,899,0,0,859.19,13.61,22.62,0
10:16:24,0,0,0,0,0,0,0,0,0,0,0,514,0,0,0,0,0.0000000,0.0000000,0.0000000,0.0000000,11.00,38.4064407,-110.7919617,1341.0999756,0.1,67.7,0.8,0.0,0.0,899,0,0,859.23,13.60,22.62,0
10:16:25,0,0,0,0,0,0,0,0,0,0,0,514,0,0,0,0,0.0000000,0.0000000,0.0000000,0.0000000,11.00,38.4064407,-110.7919617,1341.0999756,0.1,74.5,0.8,0.0,0.0,899,0,0,859.22,13.57,22.63,0
10:16:27,0,0,0,0,0,0,0,0,0,0,0,514,0,0,0,0,0.0000000,0.0000000,0.0000000,0.0000000,11.00,38.4064407,-110.7919617,1341.0999756,0.1,73.6,0.8,0.0,0.0,899,0,0,859.26,13.55,22.63,0
10:16:28,0,0,0,0,0,0,0,0,0,0,0,514,0,0,0,0,0.0000000,0.0000000,0.0000000,0.0000000,11.00,38.4064407,-110.7919617,1341.0999756,0.1,66.9,0.8,0.0,0.0,899,0,0,859.26,13.58,22.63,0
10:16:29,0,0,0,0,0,0,0,0,0,0,0,514,0,0,0,0,0.0000000,0.0000000,0.0000000,0.0000000,11.00,38.4064407,-110.7919617,1341.0999756,0.1,56.1,0.8,0.0,0.0,899,0,0,859.22,13.55,22.63,0
10:16:30,0,0,0,0,0,0,0,0,0,0,0,514,0,0,0,0,0.0000000,0.0000000,0.0000000,0.0000000,11.00,38.4064407,-110.7919617,1341.0999756,0.0,60.4,0.8,0.0,0.0,899,0,0,859.23,13.57,22.63,0
10:16:31,0,0,0,0,0,0,0,0,0,0,0,514,0,0,0,0,0.0000000,0.0000000,0.0000000,0.0000000,11.00,38.4064407,-110.7919617,1341.0999756,0.0,78.2,0.8,0.0,0.0,900,0,0,859.22,13.57,22.63,0
10:16:32,0,0,0,0,0,0,0,0,0,0,0,514,0,0,0,0,0.0000000,0.0000000,0.0000000,0.0000000,11.00,38.4064407,-110.7919617,1341.0999756,0.0,46.5,0.8,0.0,0.0,898,0,0,859.19,13.60,22.64,0
10:16:33,0,0,0,0,0,0,0,0,0,0,0,514,0,0,0,0,0.0000000,0.0000000,0.0000000,0.0000000,11.00,38.4064407,-110.7919617,1341.0999756,0.0,310.3,0.8,0.0,0.0,899,0,0,859.21,13.66,22.64,0
10:16:34,0,0,0,0,0,0,0,0,0,0,0,514,0,0,0,0,0.0000000,0.0000000,0.0000000,0.0000000,11.00,38.4064407,-110.7919617,1341.0999756,0.1,274.1,0.8,0.0,0.0,899,0,0,859.21,13.67,22.64,0
10:16:35,0,0,0,0,0,0,0,0,0,0,0,514,0,0,0,0,0.0000000,0.0000000,0.0000000,0.0000000,11.00,38.4064407,-110.7919617,1341.0000000,0.1,264.3,0.8,0.0,0.0,899,0,0,859.22,13.72,22.65,0
10:16:36,0,0,0,0,0,0,0,0,0,0,0,515,0,0,0,0,0.0000000,0.0000000,0.0000000,0.0000000,11.00,38.4064407,-110.7919617,1341.0000000,0.1,257.8,0.8,0.0,0.0,899,0,0,859.22,13.72,22.65,0
10:16:37,0,0,0,0,0,0,0,0,0,0,0,514,0,0,0,0,0.0000000,0.0000000,0.0000000,0.0000000,11.00,38.4064407,-110.7919617,1341.0000000,0.1,249.4,0.8,0.0,0.0,899,0,0,859.19,13.73,22.64,0
10:16:38,0,0,0,0,0,0,0,0,0,0,0,514,0,0,0,0,0.0000000,0.0000000,0.0000000,0.0000000,11.00,38.4064407,-110.7919617,1341.0000000,0.0,344.2,0.8,0.0,0.0,899,0,0,859.23,13.70,22.65,0
10:16:39,0,0,0,0,0,0,0,0,0,0,0,514,0,0,0,0,0.0000000,0.0000000,0.0000000,0.0000000,11.00,38.4064407,-110.7919617,1341.0000000,0.0,200.2,0.8,0.0,0.0,899,0,0,859.17,13.69,22.65,0
10:16:40,0,0,0,0,0,0,0,0,0,0,0,514,0,0,0,0,0.0000000,0.0000000,0.0000000,0.0000000,11.00,38.4064407,-110.7919617,1341.0000000,0.0,91.6,0.8,0.0,0.0,899,0,0,859.18,13.69,22.65,0
10:16:41,0,0,0,0,0,0,0,0,0,0,0,514,0,0,0,0,0.0000000,0.0000000,0.0000000,0.0000000,11.00,38.4064407,-110.7919617,1341.0000000,0.0,173.3,0.8,0.0,0.0,899,0,0,859.19,13.63,22.65,0
10:16:42,0,0,0,0,0,0,0,0,0,0,0,514,0,0,0,0,0.0000000,0.0000000,0.0000000,0.0000000,11.00,38.4064407,-110.7919617,1341.0000000,0.0,56.8,0.8,0.0,0.0,898,0,0,859.20,13.63,22.65,0
10:16:43,0,0,0,0,0,0,0,0,0,0,0,514,0,0,0,0,0.0000000,0.0000000,0.0000000,0.0000000,11.00,38.4064407,-110.7919617,1341.0999756,0.0,169.4,0.8,0.0,0.0,899,0,0,859.18,13.64,22.65,0
10:16:44,0,0,0,0,0,0,0,0,0,0,0,514,0,0,0,0,0.0000000,0.0000000,0.0000000,0.0000000,11.00,38.4064407,-110.7919617,1341.0999756,0.0,150.1,0.8,0.0,0.0,899,0,0,859.16,13.64,22.65,0
10:16:45,0,0,0,0,0,0,0,0,0,0,0,514,0,0,0,0,0.0000000,0.0000000,0.0000000,0.0000000,11.00,38.4064407,-110.7919617,1341.0999756,0.0,96.8,0.8,0.0,0.0,899,0,0,859.19,13.79,22.65,0
10:16:46,0,0,0,0,0,0,0,0,0,0,0,515,0,0,0,0,0.0000000,0.0000000,0.0000000,0.0000000,11.00,38.4064407,-110.7919617,1341.0999756,0.0,169.9,0.8,0.0,0.0,898,0,0,859.20,14.04,22.64,0
10:16:47,0,0,0,0,0,0,0,0,0,0,0,514,0,0,0,0,0.0000000,0.0000000,0.0000000,0.0000000,11.00,38.4064407,-110.7919617,1341.0999756,0.0,76.2,0.8,0.0,0.0,898,0,0,859.18,14.21,22.64,0
10:16:48,0,0,0,0,0,0,0,0,0,0,0,514,0,0,0,0,0.0000000,0.0000000,0.0000000,0.0000000,11.00,38.4064407,-110.7919617,1341.0999756,0.0,246.8,0.8,0.0,0.0,899,0,0,859.20,14.31,22.63,0
10:16:49,0,0,0,0,0,0,0,0,0,0,0,514,0,0,0,0,0.0000000,0.0000000,0.0000000,0.0000000,11.00,38.4064407,-110.7919617,1341.0999756,0.0,258.4,0.8,0.0,0.0,898,0,0,859.19,14.40,22.64,0
10:16:50,0,0,0,0,0,0,0,0,0,0,0,514,0,0,0,0,0.0000000,0.0000000,0.0000000,0.0000000,11.00,38.4064407,-110.7919617,1341.0999756,0.0,59.4,0.8,0.0,0.0,899,0,0,859.19,14.37,22.63,0
10:16:51,0,0,0,0,0,0,0,0,0,0,0,514,0,0,0,0,0.0000000,0.0000000,0.0000000,0.0000000,11.00,38.4064407,-110.7919617,1341.0999756,0.0,83.0,0.8,0.0,0.0,899,0,0,859.19,14.42,22.63,0
10:16:52,0,0,0,0,0,0,0,0,0,0,0,514,0,0,0,0,0.0000000,0.0000000,0.0000000,0.0000000,11.00,38.4064407,-110.7919617,1341.0999756,0.0,72.5,0.8,0.0,0.0,899,0,0,859.26,14.40,22.64,0
10:16:53,0,0,0,0,0,0,0,0,0,0,0,514,0,0,0,0,0.0000000,0.0000000,0.0000000,0.0000000,11.00,38.4064407,-110.7919617,1341.0999756,0.0,46.6,0.8,0.0,0.0,899,0,0,859.24,14.44,22.65,0
10:16:54,0,0,0,0,0,0,0,0,0,0,0,514,0,0,0,0,0.0000000,0.0000000,0.0000000,0.0000000,11.00,38.4064407,-110.7919617,1341.1999512,0.0,117.4,0.8,0.0,0.0,899,0,0,859.17,14.45,22.64,0
10:16:55,0,0,0,0,0,0,0,0,0,0,0,514,0,0,0,0,0.0000000,0.0000000,0.0000000,0.0000000,11.00,38.4064407,-110.7919617,1341.1999512,0.1,157.4,0.8,0.0,0.0,899,0,0,859.22,14.42,22.64,0
10:16:56,0,0,0,0,0,0,0,0,0,0,0,514,0,0,0,0,0.0000000,0.0000000,0.0000000,0.0000000,11.00,38.4064407,-110.7919617,1341.1999512,0.0,213.0,0.8,0.0,0.0,899,0,0,859.22,14.39,22.64,0
10:16:57,0,0,0,0,0,0,0,0,0,0,0,514,0,0,0,0,0.0000000,0.0000000,0.0000000,0.0000000,11.00,38.4064407,-110.7919617,1341.1999512,0.0,158.2,0.8,0.0,0.0,898,0,0,859.22,14.37,22.64,0
10:16:58,0,0,0,0,0,0,0,0,0,0,0,514,0,0,0,0,0.0000000,0.0000000,0.0000000,0.0000000,11.00,38.4064407,-110.7919617,1341.1999512,0.0,97.4,0.8,0.0,0.0,899,0,0,859.20,14.42,22.65,0
10:16:59,0,0,0,0,0,0,0,0,0,0,0,514,0,0,0,0,0.0000000,0.0000000,0.0000000,0.0000000,11.00,38.4064407,-110.7919617,1341.1999512,0.0,108.7,0.8,0.0,0.0,899,0,0,859.19,14.40,22.65,0
10:17:00,0,0,0,0,0,0,0,0,0,0,0,514,0,0,0,0,0.0000000,0.0000000,0.0000000,0.0000000,11.00,38.4064407,-110.7919617,1341.1999512,0.0,172.4,0.8,0.0,0.0,899,0,0,859.23,14.40,22.65,0
10:17:01,0,0,0,0,0,0,0,0,0,0,0,514,0,0,0,0,0.0000000,0.0000000,0.0000000,0.0000000,11.00,38.4064407,-110.7919617,1341.1999512,0.0,148.0,0.8,0.0,0.0,899,0,0,859.19,14.34,22.65,0
10:17:02,0,0,0,0,0,0,0,0,0,0,0,513,0,0,0,0,0.0000000,0.0000000,0.0000000,0.0000000,11.00,38.4064407,-110.7919617,1341.1999512,0.0,138.3,0.8,0.0,0.0,899,0,0,859.18,14.30,22.65,0
10:17:03,0,0,0,0,0,0,0,0,0,0,0,514,0,0,0,0,0.0000000,0.0000000,0.0000000,0.0000000,11.00,38.4064407,-110.7919617,1341.1999512,0.0,113.9,0.8,0.0,0.0,899,0,0,859.17,14.27,22.65,0
10:17:04,0,0,0,0,0,0,0,0,0,0,0,514,0,0,0,0,0.0000000,0.0000000,0.0000000,0.0000000,11.00,38.4064407,-110.7919617,1341.1999512,0.0,115.2,0.8,0.0,0.0,899,0,0,859.22,14.21,22.66,0
10:17:05,0,0,0,0,0,0,0,0,0,0,0,514,0,0,0,0,0.0000000,0.0000000,0.0000000,0.0000000,11.00,38.4064407,-110.7919617,1341.3000488,0.0,96.7,0.8,0.0,0.0,899,0,0,859.23,14.18,22.66,0
10:17:06,0,0,0,0,0,0,0,0,0,0,0,514,0,0,0,0,0.0000000,0.0000000,0.0000000,0.0000000,11.00,38.4064407,-110.7919617,1341.3000488,0.0,114.1,0.8,0.0,0.0,899,0,0,859.20,14.16,22.66,0
10:17:07,0,0,0,0,0,0,0,0,0,0,0,514,0,0,0,0,0.0000000,0.0000000,0.0000000,0.0000000,11.00,38.4064407,-110.7919617,1341.3000488,0.0,141.4,0.8,0.0,0.0,898,0,0,859.18,14.13,22.66,0
10:17:08,0,0,0,0,0,0,0,0,0,0,0,514,0,0,0,0,0.0000000,0.0000000,0.0000000,0.0000000,11.00,38.4064407,-110.7919617,1341.3000488,0.0,97.3,0.8,0.0,0.0,899,0,0,859.18,14.13,22.66,0
10:17:09,0,0,0,0,0,0,0,0,0,0,0,515,0,0,0,0,0.0000000,0.0000000,0.0000000,0.0000000,11.00,38.4064407,-110.7919617,1341.3000488,0.0,122.3,0.8,0.0,0.0,899,0,0,859.23,14.08,22.66,0
10:17:10,0,0,0,0,0,0,0,0,0,0,0,514,0,0,0,0,0.0000000,0.0000000,0.0000000,0.0000000,11.00,38.4064407,-110.7919617,1341.3000488,0.0,137.0,0.8,0.0,0.0,900,0,0,859.19,14.08,22.66,0
10:17:11,0,0,0,0,0,0,0,0,0,0,0,514,0,0,0,0,0.0000000,0.0000000,0.0000000,0.0000000,11.00,38.4064407,-110.7919617,1341.3000488,0.0,81.6,0.8,0.0,0.0,899,0,0,859.15,14.08,22.66,0
10:17:12,0,0,0,0,0,0,0,0,0,0,0,514,0,0,0,0,0.0000000,0.0000000,0.0000000,0.0000000,11.00,38.4064407,-110.7919617,1341.3000488,0.0,104.6,0.8,0.0,0.0,898,0,0,859.19,14.08,22.66,0
10:17:13,0,0,0,0,0,0,0,0,0,0,0,514,0,0,0,0,0.0000000,0.0000000,0.0000000,0.0000000,11.00,38.4064407,-110.7919617,1341.3000488,0.0,117.7,0.8,0.0,0.0,899,0,0,859.18,14.07,22.67,0
10:17:14,0,0,0,0,0,0,0,0,0,0,0,514,0,0,0,0,0.0000000,0.0000000,0.0000000,0.0000000,11.00,38.4064407,-110.7919617,1341.3000488,0.0,101.8,0.8,0.0,0.0,899,0,0,859.25,14.11,22.67,0
10:17:15,0,0,0,0,0,0,0,0,0,0,0,514,0,0,0,0,0.0000000,0.0000000,0.0000000,0.0000000,11.00,38.4064407,-110.7919617,1341.3000488,0.0,87.2,0.8,0.0,0.0,899,0,0,859.16,14.11,22.67,0
10:17:16,0,0,0,0,0,0,0,0,0,0,0,514,0,0,0,0,0.0000000,0.0000000,0.0000000,0.0000000,11.00,38.4064407,-110.7919617,1341.3000488,0.0,120.2,0.8,0.0,0.0,899,0,0,859.17,14.13,22.66,0
10:17:17,0,0,0,0,0,0,0,0,0,0,0,514,0,0,0,0,0.0000000,0.0000000,0.0000000,0.0000000,11.00,38.4064407,-110.7919617,1341.3000488,0.0,158.2,0.8,0.0,0.0,899,0,0,859.17,14.13,22.67,0
10:17:18,0,0,0,0,0,0,0,0,0,0,0,514,0,0,0,0,0.0000000,0.0000000,0.0000000,0.0000000,11.00,38.4064407,-110.7919617,1341.3000488,0.0,350.8,0.8,0.0,0.0,899,0,0,859.16,14.11,22.67,0
10:17:19,0,0,0,0,0,0,0,0,0,0,0,514,0,0,0,0,0.0000000,0.0000000,0.0000000,0.0000000,11.00,38.4064407,-110.7919617,1341.3000488,0.0,93.1,0.8,0.0,0.0,899,0,0,859.20,14.08,22.67,0
10:17:20,0,0,0,0,0,0,0,0,0,0,0,514,0,0,0,0,0.0000000,0.0000000,0.0000000,0.0000000,11.00,38.4064407,-110.7919617,1341.3000488,0.0,194.3,0.8,0.0,0.0,899,0,0,859.19,14.11,22.67,0
10:17:21,0,0,0,0,0,0,0,0,0,0,0,515,0,0,0,0,0.0000000,0.0000000,0.0000000,0.0000000,11.00,38.4064407,-110.7919617,1341.3000488,0.0,332.2,0.8,0.0,0.0,899,0,0,859.21,14.13,22.67,0
10:17:22,0,0,0,0,0,0,0,0,0,0,0,514,0,0,0,0,0.0000000,0.0000000,0.0000000,0.0000000,11.00,38.4064407,-110.7919617,1341.4000244,0.0,283.7,0.8,0.0,0.0,899,0,0,859.18,14.18,22.67,0
10:17:23,0,0,0,0,0,0,0,0,0,0,0,514,0,0,0,0,0.0000000,0.0000000,0.0000000,0.0000000,11.00,38.4064407,-110.7919617,1341.4000244,0.0,149.7,0.8,0.0,0.0,899,0,0,859.14,14.18,22.67,0
10:17:24,0,0,0,0,0,0,0,0,0,0,0,513,0,0,0,0,0.0000000,0.0000000,0.0000000,0.0000000,11.00,38.4064407,-110.7919617,1341.4000244,0.0,123.4,0.8,0.0,0.0,899,0,0,859.14,14.19,22.67,0
10:17:25,0,0,0,0,0,0,0,0,0,0,0,514,0,0,0,0,0.0000000,0.0000000,0.0000000,0.0000000,11.00,38.4064407,-110.7919617,1341.4000244,0.0,78.6,0.8,0.0,0.0,899,0,0,859.15,14.18,22.59,0
10:17:26,0,0,0,0,0,0,0,0,0,0,0,515,0,0,0,0,0.0000000,0.0000000,0.0000000,0.0000000,11.00,38.4064407,-110.7919617,1341.4000244,0.0,107.0,0.8,0.0,0.0,899,0,0,859.11,14.16,22.59,0
10:17:27,0,0,0,0,0,0,0,0,0,0,0,514,0,0,0,0,0.0000000,0.0000000,0.0000000,0.0000000,11.00,38.4064407,-110.7919617,1341.4000244,0.0,12.4,0.8,0.0,0.0,899,0,0,859.17,14.16,22.58,0
10:17:28,0,0,0,0,0,0,0,0,0,0,0,514,0,0,0,0,0.0000000,0.0000000,0.0000000,0.0000000,11.00,38.4064407,-110.7919617,1341.4000244,0.0,61.8,0.8,0.0,0.0,899,0,0,859.16,14.16,22.64,0
10:17:29,0,0,0,0,0,0,0,0,0,0,0,514,0,0,0,0,0.0000000,0.0000000,0.0000000,0.0000000,10.00,38.4064407,-110.7919617,1341.4000244,0.0,96.7,0.8,0.0,0.0,899,0,0,859.18,14.16,22.64,0
10:17:30,0,0,0,0,0,0,0,0,0,0,0,514,0,0,0,0,0.0000000,0.0000000,0.0000000,0.0000000,10.00,38.4064407,-110.7919617,1341.4000244,0.0,266.7,0.8,0.0,0.0,899,0,0,859.14,14.16,22.64,0
10:17:31,0,0,0,0,0,0,0,0,0,0,0,514,0,0,0,0,0.0000000,0.0000000,0.0000000,0.0000000,10.00,38.4064407,-110.7919617,1341.4000244,0.0,112.6,0.8,0.0,0.0,899,0,0,859.17,14.15,22.68,0
10:17:32,0,0,0,0,0,0,0,0,0,0,0,514,0,0,0,0,0.0000000,0.0000000,0.0000000,0.0000000,10.00,38.4064407,-110.7919617,1341.4000244,0.0,55.1,0.8,0.0,0.0,899,0,0,859.16,14.13,22.69,0
10:17:33,0,0,0,0,0,0,0,0,0,0,0,514,0,0,0,0,0.0000000,0.0000000,0.0000000,0.0000000,10.00,38.4064407,-110.7919617,1341.4000244,0.0,47.2,0.8,0.0,0.0,899,0,0,859.14,14.15,22.69,0
10:17:34,0,0,0,0,0,0,0,0,0,0,0,514,0,0,0,0,0.0000000,0.0000000,0.0000000,0.0000000,11.00,38.4064407,-110.7919617,1341.4000244,0.0,75.4,0.8,0.0,0.0,899,0,0,859.18,14.16,22.69,0
10:17:35,0,0,0,0,0,0,0,0,0,0,0,514,0,0,0,0,0.0000000,0.0000000,0.0000000,0.0000000,10.00,38.4064407,-110.7919617,1341.4000244,0.0,65.2,0.8,0.0,0.0,899,0,0,859.19,14.13,22.69,0
10:17:36,0,0,0,0,0,0,0,0,0,0,0,514,0,0,0,0,0.0000000,0.0000000,0.0000000,0.0000000,10.00,38.4064407,-110.7919617,1341.5000000,0.0,101.1,0.8,0.0,0.0,898,0,0,859.22,14.15,22.69,0
10:17:37,0,0,0,0,0,0,0,0,0,0,0,514,0,0,0,0,0.0000000,0.0000000,0.0000000,0.0000000,11.00,38.4064407,-110.7919617,1341.5000000,0.0,308.9,0.8,0.0,0.0,899,0,0,859.15,14.15,22.69,0
10:17:38,0,0,0,0,0,0,0,0,0,0,0,514,0,0,0,0,0.0000000,0.0000000,0.0000000,0.0000000,11.00,38.4064407,-110.7919617,1341.5000000,0.0,194.0,0.8,0.0,0.0,899,0,0,859.17,14.18,22.69,0
10:17:39,0,0,0,0,0,0,0,0,0,0,0,513,0,0,0,0,0.0000000,0.0000000,0.0000000,0.0000000,11.00,38.4064407,-110.7919617,1341.5000000,0.0,331.4,0.8,0.0,0.0,899,0,0,859.21,14.16,22.70,0
10:17:40,0,0,0,0,0,0,0,0,0,0,0,514,0,0,0,0,0.0000000,0.0000000,0.0000000,0.0000000,11.00,38.4064407,-110.7919617,1341.5000000,0.0,278.4,0.8,0.0,0.0,899,0,0,859.16,14.16,22.70,0
10:17:41,0,0,0,0,0,0,0,0,0,0,0,514,0,0,0,0,0.0000000,0.0000000,0.0000000,0.0000000,10.00,38.4064407,-110.7919617,1341.5000000,0.0,183.2,0.8,0.0,0.0,899,0,0,859.19,14.18,22.69,0
10:17:42,0,0,0,0,0,0,0,0,0,0,0,514,0,0,0,0,0.0000000,0.0000000,0.0000000,0.0000000,11.00,38.4064407,-110.7919617,1341.5000000,0.0,120.4,0.8,0.0,0.0,898,0,0,859.22,14.19,22.69,0
10:17:43,0,0,0,0,0,0,0,0,0,0,0,514,0,0,0,0,0.0000000,0.0000000,0.0000000,0.0000000,11.00,38.4064407,-110.7919617,1341.5000000,0.0,210.3,0.8,0.0,0.0,898,0,0,859.20,14.16,22.70,0
10:17:44,0,0,0,0,0,0,0,0,0,0,0,514,0,0,0,0,0.0000000,0.0000000,0.0000000,0.0000000,11.00,38.4064407,-110.7919617,1341.5000000,0.0,153.3,0.8,0.0,0.0,899,0,0,859.21,14.21,22.70,0
10:17:45,0,0,0,0,0,0,0,0,0,0,0,515,0,0,0,0,0.0000000,0.0000000,0.0000000,0.0000000,10.00,38.4064407,-110.7919617,1341.5000000,0.0,122.6,0.8,0.0,0.0,899,0,0,859.18,14.21,22.70,0
10:17:46,0,0,0,0,0,0,0,0,0,0,0,514,0,0,0,0,0.0000000,0.0000000,0.0000000,0.0000000,10.00,38.4064407,-110.7919617,1341.5000000,0.0,316.4,0.8,0.0,0.0,899,0,0,859.18,14.21,22.70,0
10:17:47,0,0,0,0,0,0,0,0,0,0,0,514,0,0,0,0,0.0000000,0.0000000,0.0000000,0.0000000,11.00,38.4064407,-110.7919617,1341.5000000,0.1,128.8,0.8,0.0,0.0,898,0,0,859.16,14.24,22.70,0
10:17:48,0,0,0,0,0,0,0,0,0,0,0,513,0,0,0,0,0.0000000,0.0000000,0.0000000,0.0000000,11.00,38.4064407,-110.7919617,1341.5000000,0.0,59.5,0.8,0.0,0.0,898,0,0,859.22,14.24,22.70,0
10:17:49,0,0,0,0,0,0,0,0,0,0,0,514,0,0,0,0,0.0000000,0.0000000,0.0000000,0.0000000,11.00,38.4064407,-110.7919617,1341.5000000,0.0,250.3,0.8,0.0,0.0,899,0,0,859.16,14.22,22.71,0
10:17:50,0,0,0,0,0,0,0,0,0,0,0,514,0,0,0,0,0.0000000,0.0000000,0.0000000,0.0000000,11.00,38.4064407,-110.7919617,1341.5000000,0.0,332.5,0.8,0.0,0.0,899,0,0,859.17,14.27,22.70,0
10:17:51,0,0,0,0,0,0,0,0,0,0,0,514,0,0,0,0,0.0000000,0.0000000,0.0000000,0.0000000,11.00,38.4064407,-110.7919617,1341.5000000,0.0,331.7,0.8,0.0,0.0,899,0,0,859.18,14.27,22.71,0
10:17:52,0,0,0,0,0,0,0,0,0,0,0,514,0,0,0,0,0.0000000,0.0000000,0.0000000,0.0000000,11.00,38.4064407,-110.7919617,1341.5000000,0.0,210.9,0.8,0.0,0.0,898,0,0,859.17,14.27,22.71,0
10:17:53,0,0,0,0,0,0,0,0,0,0,0,514,0,0,0,0,0.0000000,0.0000000,0.0000000,0.0000000,11.00,38.4064407,-110.7919617,1341.5000000,0.0,304.4,0.8,0.0,0.0,899,0,0,859.20,14.22,22.71,0
10:17:54,0,0,0,0,0,0,0,0,0,0,0,514,0,0,0,0,0.0000000,0.0000000,0.0000000,0.0000000,11.00,38.4064407,-110.7919617,1341.5000000,0.0,267.1,0.8,0.0,0.0,898,0,0,859.22,14.24,22.71,0
10:17:55,0,0,0,0,0,0,0,0,0,0,0,514,0,0,0,0,0.0000000,0.0000000,0.0000000,0.0000000,11.00,38.4064407,-110.7919617,1341.5000000,0.0,266.7,0.8,0.0,0.0,899,0,0,859.16,14.24,22.71,0
10:17:56,0,0,0,0,0,0,0,0,0,0,0,514,0,0,0,0,0.0000000,0.0000000,0.0000000,0.0000000,11.00,38.4064407,-110.7919617,1341.5000000,0.0,304.4,0.8,0.0,0.0,898,0,0,859.19,14.22,22.71,0
10:17:57,0,0,0,0,0,0,0,0,0,0,0,514,0,0,0,0,0.0000000,0.0000000,0.0000000,0.0000000,11.00,38.4064407,-110.7919617,1341.5000000,0.0,330.9,0.8,0.0,0.0,899,0,0,859.23,14.24,22.72,0
10:17:58,0,0,0,0,0,0,0,0,0,0,0,514,0,0,0,0,0.0000000,0.0000000,0.0000000,0.0000000,11.00,38.4064407,-110.7919617,1341.5000000,0.0,104.6,0.8,0.0,0.0,898,0,0,859.25,14.25,22.72,0
10:17:59,0,0,0,0,0,0,0,0,0,0,0,514,0,0,0,0,0.0000000,0.0000000,0.0000000,0.0000000,11.00,38.4064407,-110.7919617,1341.5000000,0.0,22.3,0.8,0.0,0.0,898,0,0,859.21,14.24,22.72,0
10:18:01,0,0,0,0,0,0,0,0,0,0,0,515,0,0,0,0,0.0000000,0.0000000,0.0000000,0.0000000,11.00,38.4064407,-110.7919617,1341.5999756,0.0,105.5,0.8,0.0,0.0,899,0,0,859.24,14.24,22.72,0
10:18:02,0,0,0,0,0,0,0,0,0,0,0,514,0,0,0,0,0.0000000,0.0000000,0.0000000,0.0000000,11.00,38.4064407,-110.7919617,1341.5999756,0.0,186.2,0.8,0.0,0.0,899,0,0,859.21,14.28,22.72,0
10:18:03,0,0,0,0,0,0,0,0,0,0,0,514,0,0,0,0,0.0000000,0.0000000,0.0000000,0.0000000,11.00,38.4064407,-110.7919617,1341.5999756,0.0,233.2,0.8,0.0,0.0,899,0,0,859.20,14.28,22.73,0
10:18:04,0,0,0,0,0,0,0,0,0,0,0,514,0,0,0,0,0.0000000,0.0000000,0.0000000,0.0000000,11.00,38.4064407,-110.7919617,1341.5999756,0.0,196.8,0.8,0.0,0.0,899,0,0,859.22,14.27,22.73,0
10:18:05,0,0,0,0,0,0,0,0,0,0,0,514,0,0,0,0,0.0000000,0.0000000,0.0000000,0.0000000,11.00,38.4064407,-110.7919617,1341.5999756,0.0,180.7,0.8,0.0,0.0,898,0,0,859.18,14.27,22.73,0
10:18:06,0,0,0,0,0,0,0,0,0,0,0,514,0,0,0,0,0.0000000,0.0000000,0.0000000,0.0000000,11.00,38.4064407,-110.7919617,1341.5999756,0.0,307.4,0.8,0.0,0.0,899,0,0,859.23,14.25,22.73,0
10:18:07,0,0,0,0,0,0,0,0,0,0,0,514,0,0,0,0,0.0000000,0.0000000,0.0000000,0.0000000,11.00,38.4064407,-110.7919617,1341.5999756,0.0,276.7,0.8,0.0,0.0,898,0,0,859.22,14.24,22.73,0
10:18:08,0,0,0,0,0,0,0,0,0,0,0,514,0,0,0,0,0.0000000,0.0000000,0.0000000,0.0000000,11.00,38.4064407,-110.7919617,1341.5999756,0.0,94.9,0.8,0.0,0.0,899,0,0,859.18,14.27,22.73,0
10:18:09,0,0,0,0,0,0,0,0,0,0,0,513,0,0,0,0,0.0000000,0.0000000,0.0000000,0.0000000,11.00,38.4064407,-110.7919617,1341.5999756,0.0,79.5,0.8,0.0,0.0,899,0,0,859.23,14.27,22.73,0
10:18:10,0,0,0,0,0,0,0,0,0,0,0,514,0,0,0,0,0.0000000,0.0000000,0.0000000,0.0000000,11.00,38.4064407,-110.7919617,1341.5999756,0.0,129.6,0.8,0.0,0.0,899,0,0,859.22,14.27,22.73,0
10:18:11,0,0,0,0,0,0,0,0,0,0,0,514,0,0,0,0,0.0000000,0.0000000,0.0000000,0.0000000,11.00,38.4064407,-110.7919617,1341.5999756,0.0,90.4,0.8,0.0,0.0,899,0,0,859.22,14.22,22.73,0
10:18:12,0,0,0,0,0,0,0,0,0,0,0,514,0,0,0,0,0.0000000,0.0000000,0.0000000,0.0000000,11.00,38.4064407,-110.7919617,1341.5999756,0.0,136.9,0.8,0.0,0.0,899,0,0,859.20,14.21,22.73,0
10:18:13,0,0,0,0,0,0,0,0,0,0,0,514,0,0,0,0,0.0000000,0.0000000,0.0000000,0.0000000,11.00,38.4064407,-110.7919617,1341.5999756,0.0,209.5,0.8,0.0,0.0,899,0,0,859.22,14.18,22.73,0
10:18:14,0,0,0,0,0,0,0,0,0,0,0,514,0,0,0,0,0.0000000,0.0000000,0.0000000,0.0000000,11.00,38.4064407,-110.7919617,1341.5999756,0.0,359.7,0.8,0.0,0.0,899,0,0,859.21,14.16,22.73,0
10:18:15,0,0,0,0,0,0,0,0,0,0,0,513,0,0,0,0,0.0000000,0.0000000,0.0000000,0.0000000,11.00,38.4064407,-110.7919617,1341.5999756,0.0,96.9,0.8,0.0,0.0,898,0,0,859.21,14.19,22.73,0
10:18:16,0,0,0,0,0,0,0,0,0,0,0,514,0,0,0,0,0.0000000,0.0000000,0.0000000,0.0000000,11.00,38.4064407,-110.7919617,1341.5999756,0.0,148.3,0.8,0.0,0.0,899,0,0,859.27,14.21,22.74,0
10:18:17,0,0,0,0,0,0,0,0,0,0,0,514,0,0,0,0,0.0000000,0.0000000,0.0000000,0.0000000,11.00,38.4064407,-110.7919617,1341.5999756,0.0,128.3,0.8,0.0,0.0,899,0,0,859.25,14.22,22.74,0
10:18:18,0,0,0,0,0,0,0,0,0,0,0,514,0,0,0,0,0.0000000,0.0000000,0.0000000,0.0000000,11.00,38.4064407,-110.7919617,1341.5999756,0.0,141.0,0.8,0.0,0.0,899,0,0,859.23,14.22,22.74,0
10:18:19,0,0,0,0,0,0,0,0,0,0,0,514,0,0,0,0,0.0000000,0.0000000,0.0000000,0.0000000,11.00,38.4064407,-110.7919617,1341.5999756,0.0,5.2,0.8,0.0,0.0,899,0,0,859.19,14.24,22.73,0
10:18:20,0,0,0,0,0,0,0,0,0,0,0,514,0,0,0,0,0.0000000,0.0000000,0.0000000,0.0000000,11.00,38.4064407,-110.7919617,1341.5999756,0.0,158.0,0.8,0.0,0.0,899,0,0,859.23,14.34,22.72,0
10:18:21,0,0,0,0,0,0,0,0,0,0,0,514,0,0,0,0,0.0000000,0.0000000,0.0000000,0.0000000,11.00,38.4064407,-110.7919617,1341.5999756,0.0,91.7,0.8,0.0,0.0,898,0,0,859.24,14.59,22.72,0
10:18:22,0,0,0,0,0,0,0,0,0,0,0,514,0,0,0,0,0.0000000,0.0000000,0.0000000,0.0000000,11.00,38.4064407,-110.7919617,1341.5999756,0.0,53.9,0.8,0.0,0.0,899,0,0,859.22,14.74,22.71,0
10:18:23,0,0,0,0,0,0,0,0,0,0,0,514,0,0,0,0,0.0000000,0.0000000,0.0000000,0.0000000,11.00,38.4064407,-110.7919617,1341.5999756,0.0,76.8,0.8,0.0,0.0,899,0,0,859.20,14.91,22.71,0
10:18:24,0,0,0,0,0,0,0,0,0,0,0,514,0,0,0,0,0.0000000,0.0000000,0.0000000,0.0000000,11.00,38.4064407,-110.7919617,1341.5999756,0.0,106.0,0.8,0.0,0.0,899,0,0,859.26,15.03,22.70,0
10:18:25,0,0,0,0,0,0,0,0,0,0,0,513,0,0,0,0,0.0000000,0.0000000,0.0000000,0.0000000,11.00,38.4064407,-110.7919617,1341.5999756,0.0,102.2,0.8,0.0,0.0,899,0,0,859.20,15.15,22.70,0
10:18:26,0,0,0,0,0,0,0,0,0,0,0,514,0,0,0,0,0.0000000,0.0000000,0.0000000,0.0000000,11.00,38.4064407,-110.7919617,1341.5999756,0.0,112.8,0.8,0.0,0.0,898,0,0,859.28,15.11,22.70,0
10:18:27,0,0,0,0,0,0,0,0,0,0,0,513,0,0,0,0,0.0000000,0.0000000,0.0000000,0.0000000,11.00,38.4064407,-110.7919617,1341.5999756,0.0,109.6,0.8,0.0,0.0,899,0,0,859.24,14.95,22.69,0
10:18:28,0,0,0,0,0,0,0,0,0,0,0,514,0,0,0,0,0.0000000,0.0000000,0.0000000,0.0000000,11.00,38.4064407,-110.7919617,1341.5999756,0.0,64.5,0.8,0.0,0.0,898,0,0,859.24,14.82,22.69,0
