Time, Motor A Speed, Motor A Dir, Motor B Speed, Motor B Dir, Servo Rail Current Sensor, Servo Pos - Arm L, Servo Pos - Arm R, Servo Pos - End, Servo Pos - Hopper, Servo Pos - Lid, Servo Pos - Extra, Servo Current, LED - Front L, LED - Front R, LED - Back L, LED - Back R, IMU Pitch, IMU Roll, IMU Yaw, Compass Heading, GPS Sats, GPS Latitude, GPS Longitude, GPS Altitude, GPS Speed, GPS Angle, GPS HDOP, GPS VDOP, GPS PDOP, Battery, Comm Xbee Latency, Comm Arduino Latency, Pressure, Humidity, Temperature, uRADMonitor
9:42:52,0,0,0,0,0,0,0,0,0,0,0,515,0,0,0,0,0.0000000,0.0000000,0.0000000,0.0000000,9.00,38.4057083,-110.7858429,1366.8000488,0.0,115.7,1.0,0.0,0.0,904,0,0,857.36,15.95,28.74,0
9:42:53,0,0,0,0,0,0,0,0,0,0,0,514,0,0,0,0,0.0000000,0.0000000,0.0000000,0.0000000,9.00,38.4057083,-110.7858429,1366.8000488,0.0,118.6,1.0,0.0,0.0,905,0,0,857.44,15.84,28.75,0
9:42:54,0,0,0,0,0,0,0,0,0,0,0,515,0,0,0,0,0.0000000,0.0000000,0.0000000,0.0000000,9.00,38.4057083,-110.7858429,1366.8000488,0.0,128.5,1.0,0.0,0.0,905,0,0,857.48,15.82,28.75,0
9:42:55,0,0,0,0,0,0,0,0,0,0,0,515,0,0,0,0,0.0000000,0.0000000,0.0000000,0.0000000,9.00,38.4057083,-110.7858429,1366.8000488,0.0,167.9,1.0,0.0,0.0,904,0,0,857.44,15.84,28.78,0
9:42:56,0,0,0,0,0,0,0,0,0,0,0,514,0,0,0,0,0.0000000,0.0000000,0.0000000,0.0000000,9.00,38.4057083,-110.7858429,1366.8000488,0.0,156.7,1.0,0.0,0.0,905,0,0,857.42,15.79,28.77,0
9:42:57,0,0,0,0,0,0,0,0,0,0,0,515,0,0,0,0,0.0000000,0.0000000,0.0000000,0.0000000,9.00,38.4057083,-110.7858429,1366.8000488,0.0,145.3,1.0,0.0,0.0,905,0,0,857.46,15.73,28.78,0
9:42:58,0,0,0,0,0,0,0,0,0,0,0,515,0,0,0,0,0.0000000,0.0000000,0.0000000,0.0000000,9.00,38.4057083,-110.7858429,1366.8000488,0.0,271.5,1.0,0.0,0.0,905,0,0,857.51,15.63,28.78,0
9:42:59,0,0,0,0,0,0,0,0,0,0,0,515,0,0,0,0,0.0000000,0.0000000,0.0000000,0.0000000,9.00,38.4057083,-110.7858429,1366.8000488,0.0,297.7,1.0,0.0,0.0,905,0,0,857.48,15.73,28.79,0
9:43:00,0,0,0,0,0,0,0,0,0,0,0,514,0,0,0,0,0.0000000,0.0000000,0.0000000,0.0000000,9.00,38.4057083,-110.7858429,1366.8000488,0.0,306.1,1.0,0.0,0.0,905,0,0,857.48,15.76,28.87,0
9:43:01,0,0,0,0,0,0,0,0,0,0,0,515,0,0,0,0,0.0000000,0.0000000,0.0000000,0.0000000,9.00,38.4057083,-110.7858429,1366.8000488,0.0,301.5,1.0,0.0,0.0,904,0,0,857.48,15.75,28.92,0
9:43:02,0,0,0,0,0,0,0,0,0,0,0,515,0,0,0,0,0.0000000,0.0000000,0.0000000,0.0000000,9.00,38.4057083,-110.7858429,1366.8000488,0.0,320.0,1.0,0.0,0.0,904,0,0,857.46,15.75,28.99,0
9:43:03,0,0,0,0,0,0,0,0,0,0,0,515,0,0,0,0,0.0000000,0.0000000,0.0000000,0.0000000,9.00,38.4057083,-110.7858429,1366.8000488,0.0,58.7,1.0,0.0,0.0,904,0,0,857.45,15.67,28.97,0
9:43:04,0,0,0,0,0,0,0,0,0,0,0,515,0,0,0,0,0.0000000,0.0000000,0.0000000,0.0000000,9.00,38.4057083,-110.7858429,1366.8000488,0.0,70.4,1.0,0.0,0.0,905,0,0,857.47,15.64,28.96,0
9:43:05,0,0,0,0,0,0,0,0,0,0,0,514,0,0,0,0,0.0000000,0.0000000,0.0000000,0.0000000,9.00,38.4057083,-110.7858429,1366.8000488,0.0,66.2,1.0,0.0,0.0,904,0,0,857.48,15.58,28.97,0
9:43:06,0,0,0,0,0,0,0,0,0,0,0,515,0,0,0,0,0.0000000,0.0000000,0.0000000,0.0000000,9.00,38.4057083,-110.7858429,1366.8000488,0.0,202.1,1.0,0.0,0.0,905,0,0,857.51,15.53,29.01,0
9:43:07,0,0,0,0,0,0,0,0,0,0,0,514,0,0,0,0,0.0000000,0.0000000,0.0000000,0.0000000,9.00,38.4057083,-110.7858429,1366.8000488,0.0,159.6,1.0,0.0,0.0,905,0,0,857.45,15.53,29.05,0
9:43:08,0,0,0,0,0,0,0,0,0,0,0,515,0,0,0,0,0.0000000,0.0000000,0.0000000,0.0000000,9.00,38.4057083,-110.7858429,1366.8000488,0.0,156.5,1.0,0.0,0.0,904,0,0,857.44,15.47,29.05,0
9:43:09,0,0,0,0,0,0,0,0,0,0,0,515,0,0,0,0,0.0000000,0.0000000,0.0000000,0.0000000,9.00,38.4057083,-110.7858429,1366.8000488,0.0,179.2,1.0,0.0,0.0,905,0,0,857.51,15.41,29.01,0
9:43:10,0,0,0,0,0,0,0,0,0,0,0,514,0,0,0,0,0.0000000,0.0000000,0.0000000,0.0000000,9.00,38.4057083,-110.7858429,1366.8000488,0.0,273.0,1.0,0.0,0.0,905,0,0,857.54,15.32,29.01,0
9:43:11,0,0,0,0,0,0,0,0,0,0,0,515,0,0,0,0,0.0000000,0.0000000,0.0000000,0.0000000,9.00,38.4057083,-110.7858429,1366.8000488,0.0,282.8,1.0,0.0,0.0,904,0,0,857.57,15.23,29.00,0
9:43:12,0,0,0,0,0,0,0,0,0,0,0,515,0,0,0,0,0.0000000,0.0000000,0.0000000,0.0000000,9.00,38.4057083,-110.7858429,1366.8000488,0.0,271.1,1.0,0.0,0.0,904,0,0,857.63,15.09,28.98,0
9:43:13,0,0,0,0,0,0,0,0,0,0,0,515,0,0,0,0,0.0000000,0.0000000,0.0000000,0.0000000,9.00,38.4057083,-110.7858429,1366.8000488,0.0,270.9,1.0,0.0,0.0,905,0,0,857.58,15.26,28.98,0
9:43:14,0,0,0,0,0,0,0,0,0,0,0,514,0,0,0,0,0.0000000,0.0000000,0.0000000,0.0000000,9.00,38.4057083,-110.7858429,1366.8000488,0.0,317.1,1.0,0.0,0.0,905,0,0,857.54,15.21,28.97,0
9:43:15,0,0,0,0,0,0,0,0,0,0,0,514,0,0,0,0,0.0000000,0.0000000,0.0000000,0.0000000,9.00,38.4057083,-110.7858429,1366.8000488,0.0,337.4,1.0,0.0,0.0,905,0,0,857.48,15.20,28.94,0
9:43:16,0,0,0,0,0,0,0,0,0,0,0,515,0,0,0,0,0.0000000,0.0000000,0.0000000,0.0000000,9.00,38.4057083,-110.7858429,1366.8000488,0.0,13.6,1.0,0.0,0.0,904,0,0,857.53,14.85,28.90,0
9:43:18,0,0,0,0,0,0,0,0,0,0,0,515,0,0,0,0,0.0000000,0.0000000,0.0000000,0.0000000,9.00,38.4057083,-110.7858429,1366.8000488,0.0,147.2,1.0,0.0,0.0,905,0,0,857.55,14.13,28.84,0
9:43:19,0,0,0,0,0,0,0,0,0,0,0,514,0,0,0,0,0.0000000,0.0000000,0.0000000,0.0000000,9.00,38.4057083,-110.7858429,1366.8000488,0.0,352.4,1.0,0.0,0.0,904,0,0,857.74,14.40,28.83,0
9:43:20,0,0,0,0,0,0,0,0,0,0,0,515,0,0,0,0,0.0000000,0.0000000,0.0000000,0.0000000,9.00,38.4057083,-110.7858429,1366.8000488,0.0,320.6,1.0,0.0,0.0,904,0,0,857.91,15.11,28.89,0
9:43:21,0,0,0,0,0,0,0,0,0,0,0,515,0,0,0,0,0.0000000,0.0000000,0.0000000,0.0000000,9.00,38.4057083,-110.7858429,1366.8000488,0.0,9.5,1.0,0.0,0.0,906,0,0,857.51,15.49,28.92,0
9:43:22,0,0,0,0,0,0,0,0,0,0,0,515,0,0,0,0,0.0000000,0.0000000,0.0000000,0.0000000,9.00,38.4057083,-110.7858429,1366.8000488,0.0,35.1,1.0,0.0,0.0,905,0,0,857.49,15.49,28.95,0
9:43:23,0,0,0,0,0,0,0,0,0,0,0,515,0,0,0,0,0.0000000,0.0000000,0.0000000,0.0000000,9.00,38.4057083,-110.7858429,1366.8000488,0.0,249.8,1.0,0.0,0.0,904,0,0,857.45,15.50,28.90,0
9:43:24,0,0,0,0,0,0,0,0,0,0,0,515,0,0,0,0,0.0000000,0.0000000,0.0000000,0.0000000,9.00,38.4057083,-110.7858429,1366.8000488,0.0,60.4,1.0,0.0,0.0,905,0,0,857.52,15.49,28.84,0
9:43:25,0,0,0,0,0,0,0,0,0,0,0,515,0,0,0,0,0.0000000,0.0000000,0.0000000,0.0000000,9.00,38.4057083,-110.7858429,1366.8000488,0.0,104.1,1.0,0.0,0.0,905,0,0,857.45,15.41,28.81,0
9:43:26,0,0,0,0,0,0,0,0,0,0,0,515,0,0,0,0,0.0000000,0.0000000,0.0000000,0.0000000,9.00,38.4057083,-110.7858429,1366.8000488,0.0,62.7,1.0,0.0,0.0,905,0,0,857.47,15.43,28.82,0
9:43:27,0,0,0,0,0,0,0,0,0,0,0,514,0,0,0,0,0.0000000,0.0000000,0.0000000,0.0000000,9.00,38.4057083,-110.7858429,1366.8000488,0.0,332.3,1.0,0.0,0.0,905,0,0,857.48,15.34,28.82,0
9:43:28,0,0,0,0,0,0,0,0,0,0,0,515,0,0,0,0,0.0000000,0.0000000,0.0000000,0.0000000,9.00,38.4057083,-110.7858429,1366.8000488,0.0,258.6,1.0,0.0,0.0,905,0,0,857.48,15.40,28.83,0
9:43:29,0,0,0,0,0,0,0,0,0,0,0,516,0,0,0,0,0.0000000,0.0000000,0.0000000,0.0000000,9.00,38.4057083,-110.7858429,1366.8000488,0.0,262.3,1.0,0.0,0.0,906,0,0,857.53,15.47,28.85,0
9:43:30,0,0,0,0,0,0,0,0,0,0,0,520,0,0,0,0,0.0000000,0.0000000,0.0000000,0.0000000,9.00,38.4057083,-110.7858429,1366.8000488,0.0,53.5,1.0,0.0,0.0,904,0,0,857.44,15.50,28.90,0
9:43:31,0,0,0,0,0,0,0,0,0,0,0,521,0,0,0,0,0.0000000,0.0000000,0.0000000,0.0000000,9.00,38.4057083,-110.7858429,1366.8000488,0.0,342.7,1.0,0.0,0.0,906,0,0,857.40,15.52,28.92,0
9:43:32,0,0,0,0,0,0,0,0,0,0,0,515,0,0,0,0,0.0000000,0.0000000,0.0000000,0.0000000,9.00,38.4057083,-110.7858429,1366.8000488,0.0,17.2,1.0,0.0,0.0,904,0,0,857.44,15.58,28.94,0
9:43:33,0,0,0,0,0,0,0,0,0,0,0,515,0,0,0,0,0.0000000,0.0000000,0.0000000,0.0000000,9.00,38.4057083,-110.7858429,1366.8000488,0.0,12.6,1.0,0.0,0.0,904,0,0,857.21,15.76,28.99,0
9:43:34,0,0,0,0,0,0,0,0,0,0,0,515,0,0,0,0,0.0000000,0.0000000,0.0000000,0.0000000,9.00,38.4057083,-110.7858429,1366.8000488,0.0,322.5,1.0,0.0,0.0,904,0,0,856.41,24.34,29.06,0
9:43:35,0,0,0,0,0,0,0,0,0,0,0,514,0,0,0,0,0.0000000,0.0000000,0.0000000,0.0000000,9.00,38.4057083,-110.7858429,1366.8000488,0.1,111.9,1.0,0.0,0.0,904,0,0,856.54,28.69,28.97,0
9:43:36,0,0,0,0,0,0,0,0,0,0,0,514,0,0,0,0,0.0000000,0.0000000,0.0000000,0.0000000,9.00,38.4057083,-110.7858429,1366.8000488,0.0,139.6,1.0,0.0,0.0,904,0,0,857.62,41.93,28.76,0
9:43:37,0,0,0,0,0,0,0,0,0,0,0,514,0,0,0,0,0.0000000,0.0000000,0.0000000,0.0000000,9.00,38.4057083,-110.7858429,1366.9000244,0.1,130.1,1.0,0.0,0.0,905,0,0,858.24,35.02,28.66,0
9:43:38,0,0,0,0,0,0,0,0,0,0,0,515,0,0,0,0,0.0000000,0.0000000,0.0000000,0.0000000,9.00,38.4057083,-110.7858429,1366.9000244,0.1,89.7,1.0,0.0,0.0,904,0,0,858.69,27.73,28.52,0
9:43:39,0,0,0,0,0,0,0,0,0,0,0,514,0,0,0,0,0.0000000,0.0000000,0.0000000,0.0000000,9.00,38.4057083,-110.7858429,1366.9000244,0.1,97.0,1.0,0.0,0.0,905,0,0,860.22,37.90,28.39,0
9:43:40,0,0,0,0,0,0,0,0,0,0,0,514,0,0,0,0,0.0000000,0.0000000,0.0000000,0.0000000,9.00,38.4057083,-110.7858429,1366.9000244,0.1,76.4,1.0,0.0,0.0,904,0,0,857.85,36.42,28.39,0
9:43:41,0,0,0,0,0,0,0,0,0,0,0,515,0,0,0,0,0.0000000,0.0000000,0.0000000,0.0000000,9.00,38.4057083,-110.7858429,1366.9000244,0.1,50.9,1.0,0.0,0.0,905,0,0,859.91,38.07,28.29,0
9:43:42,0,0,0,0,0,0,0,0,0,0,0,515,0,0,0,0,0.0000000,0.0000000,0.0000000,0.0000000,9.00,38.4057083,-110.7858276,1366.9000244,0.1,87.9,1.0,0.0,0.0,905,0,0,858.22,17.08,28.21,0
9:43:43,0,0,0,0,0,0,0,0,0,0,0,515,0,0,0,0,0.0000000,0.0000000,0.0000000,0.0000000,8.00,38.4057083,-110.7858276,1366.9000244,0.1,134.6,1.2,0.0,0.0,904,0,0,858.27,17.52,27.78,0
9:43:44,0,0,0,0,0,0,0,0,0,0,0,515,0,0,0,0,0.0000000,0.0000000,0.0000000,0.0000000,9.00,38.4057083,-110.7858276,1366.9000244,0.1,121.2,1.0,0.0,0.0,904,0,0,859.53,36.65,27.40,0
9:43:45,0,0,0,0,0,0,0,0,0,0,0,515,0,0,0,0,0.0000000,0.0000000,0.0000000,0.0000000,9.00,38.4057083,-110.7858276,1366.9000244,0.3,98.3,1.0,0.0,0.0,904,0,0,860.10,41.40,27.34,0
9:43:46,0,0,0,0,0,0,0,0,0,0,0,514,0,0,0,0,0.0000000,0.0000000,0.0000000,0.0000000,9.00,38.4057083,-110.7858276,1366.9000244,0.9,87.9,0.9,0.0,0.0,904,0,0,859.92,41.73,27.40,0
9:43:47,0,0,0,0,0,0,0,0,0,0,0,515,0,0,0,0,0.0000000,0.0000000,0.0000000,0.0000000,9.00,38.4057083,-110.7858276,1366.9000244,0.8,94.2,0.9,0.0,0.0,905,0,0,858.37,21.90,27.34,0
9:43:48,0,0,0,0,0,0,0,0,0,0,0,514,0,0,0,0,0.0000000,0.0000000,0.0000000,0.0000000,9.00,38.4057007,-110.7858200,1366.6999512,1.3,112.3,0.9,0.0,0.0,905,0,0,858.36,17.78,26.94,0
9:43:49,0,0,0,0,0,0,0,0,0,0,0,515,0,0,0,0,0.0000000,0.0000000,0.0000000,0.0000000,9.00,38.4056969,-110.7858047,1367.0999756,1.5,111.6,0.9,0.0,0.0,904,0,0,858.23,17.46,26.68,0
9:43:50,0,0,0,0,0,0,0,0,0,0,0,515,0,0,0,0,0.0000000,0.0000000,0.0000000,0.0000000,9.00,38.4056931,-110.7857895,1367.5999756,1.6,117.1,0.9,0.0,0.0,904,0,0,857.85,17.08,26.52,0
9:43:51,0,0,0,0,0,0,0,0,0,0,0,515,0,0,0,0,0.0000000,0.0000000,0.0000000,0.0000000,8.00,38.4056816,-110.7857819,1367.8000488,1.8,122.6,1.1,0.0,0.0,905,0,0,858.56,19.82,26.21,0
9:43:52,0,0,0,0,0,0,0,0,0,0,0,515,0,0,0,0,0.0000000,0.0000000,0.0000000,0.0000000,9.00,38.4056740,-110.7857666,1368.1999512,1.9,122.9,0.9,0.0,0.0,904,0,0,858.86,23.21,25.86,0
9:43:53,0,0,0,0,0,0,0,0,0,0,0,514,0,0,0,0,0.0000000,0.0000000,0.0000000,0.0000000,9.00,38.4056740,-110.7857513,1368.4000244,1.8,119.1,0.9,0.0,0.0,904,0,0,858.68,21.53,25.71,0
9:43:54,0,0,0,0,0,0,0,0,0,0,0,515,0,0,0,0,0.0000000,0.0000000,0.0000000,0.0000000,9.00,38.4056664,-110.7857437,1368.5999756,1.8,121.5,0.9,0.0,0.0,905,0,0,858.65,27.73,25.63,0
9:43:55,0,0,0,0,0,0,0,0,0,0,0,516,0,0,0,0,0.0000000,0.0000000,0.0000000,0.0000000,9.00,38.4056625,-110.7857285,1368.6999512,1.9,115.4,0.9,0.0,0.0,904,0,0,858.58,21.10,25.60,0
9:43:56,0,0,0,0,0,0,0,0,0,0,0,515,0,0,0,0,0.0000000,0.0000000,0.0000000,0.0000000,9.00,38.4056625,-110.7857132,1368.8000488,2.0,121.5,0.9,0.0,0.0,905,0,0,858.53,30.15,25.56,0
9:43:57,0,0,0,0,0,0,0,0,0,0,0,515,0,0,0,0,0.0000000,0.0000000,0.0000000,0.0000000,9.00,38.4056549,-110.7857056,1368.9000244,2.0,119.0,0.9,0.0,0.0,904,0,0,859.99,38.35,25.67,0
9:43:58,0,0,0,0,0,0,0,0,0,0,0,514,0,0,0,0,0.0000000,0.0000000,0.0000000,0.0000000,9.00,38.4056549,-110.7856903,1369.0000000,1.8,106.8,0.9,0.0,0.0,904,0,0,857.93,35.95,25.85,0
9:43:59,0,0,0,0,0,0,0,0,0,0,0,515,0,0,0,0,0.0000000,0.0000000,0.0000000,0.0000000,9.00,38.4056511,-110.7856750,1369.0000000,2.1,113.6,0.9,0.0,0.0,904,0,0,857.03,21.13,25.97,0
9:44:00,0,0,0,0,0,0,0,0,0,0,0,515,0,0,0,0,0.0000000,0.0000000,0.0000000,0.0000000,9.00,38.4056473,-110.7856674,1369.0000000,2.0,113.0,0.9,0.0,0.0,904,0,0,857.54,17.59,26.04,0
9:44:01,0,0,0,0,0,0,0,0,0,0,0,515,0,0,0,0,0.0000000,0.0000000,0.0000000,0.0000000,9.00,38.4056473,-110.7856674,1369.0999756,1.6,123.0,0.9,0.0,0.0,904,0,0,857.63,17.49,26.14,0
9:44:02,0,0,0,0,0,0,0,0,0,0,0,514,0,0,0,0,0.0000000,0.0000000,0.0000000,0.0000000,9.00,38.4056473,-110.7856522,1369.0999756,0.9,114.8,0.9,0.0,0.0,905,0,0,857.58,17.53,26.19,0
9:44:03,0,0,0,0,0,0,0,0,0,0,0,516,0,0,0,0,0.0000000,0.0000000,0.0000000,0.0000000,9.00,38.4056511,-110.7856522,1369.0999756,0.5,120.0,0.9,0.0,0.0,903,0,0,857.61,17.40,26.20,0
9:44:04,0,0,0,0,0,0,0,0,0,0,0,519,0,0,0,0,0.0000000,0.0000000,0.0000000,0.0000000,9.00,38.4056511,-110.7856522,1369.1999512,0.3,100.7,0.9,0.0,0.0,905,0,0,857.59,17.06,26.21,0
9:44:05,0,0,0,0,0,0,0,0,0,0,0,519,0,0,0,0,0.0000000,0.0000000,0.0000000,0.0000000,9.00,38.4056549,-110.7856522,1369.1999512,0.2,91.7,0.9,0.0,0.0,904,0,0,857.49,15.99,26.25,0
9:44:06,0,0,0,0,0,0,0,0,0,0,0,514,0,0,0,0,0.0000000,0.0000000,0.0000000,0.0000000,9.00,38.4056549,-110.7856522,1369.1999512,0.2,104.2,0.9,0.0,0.0,905,0,0,857.46,15.98,26.31,0
9:44:07,0,0,0,0,0,0,0,0,0,0,0,514,0,0,0,0,0.0000000,0.0000000,0.0000000,0.0000000,9.00,38.4056549,-110.7856522,1369.1999512,0.1,65.6,0.9,0.0,0.0,904,0,0,857.54,15.90,26.39,0
9:44:08,0,0,0,0,0,0,0,0,0,0,0,515,0,0,0,0,0.0000000,0.0000000,0.0000000,0.0000000,9.00,38.4056549,-110.7856522,1369.1999512,0.1,143.0,0.9,0.0,0.0,904,0,0,857.51,15.82,26.45,0
9:44:09,0,0,0,0,0,0,0,0,0,0,0,515,0,0,0,0,0.0000000,0.0000000,0.0000000,0.0000000,9.00,38.4056549,-110.7856522,1369.1999512,0.1,87.9,0.9,0.0,0.0,904,0,0,857.36,15.78,26.55,0
9:44:10,0,0,0,0,0,0,0,0,0,0,0,515,0,0,0,0,0.0000000,0.0000000,0.0000000,0.0000000,9.00,38.4056549,-110.7856522,1369.1999512,0.1,221.8,0.9,0.0,0.0,904,0,0,857.26,15.69,26.61,0
9:44:11,0,0,0,0,0,0,0,0,0,0,0,515,0,0,0,0,0.0000000,0.0000000,0.0000000,0.0000000,9.00,38.4056549,-110.7856522,1369.1999512,0.0,349.6,0.9,0.0,0.0,904,0,0,857.11,15.60,26.66,0
9:44:12,0,0,0,0,0,0,0,0,0,0,0,515,0,0,0,0,0.0000000,0.0000000,0.0000000,0.0000000,9.00,38.4056549,-110.7856522,1369.1999512,0.1,180.6,1.0,0.0,0.0,905,0,0,857.12,15.66,26.70,0
9:44:13,0,0,0,0,0,0,0,0,0,0,0,515,0,0,0,0,0.0000000,0.0000000,0.0000000,0.0000000,9.00,38.4056549,-110.7856522,1369.0999756,0.1,92.7,0.9,0.0,0.0,904,0,0,857.14,15.75,26.71,0
9:44:14,0,0,0,0,0,0,0,0,0,0,0,515,0,0,0,0,0.0000000,0.0000000,0.0000000,0.0000000,9.00,38.4056549,-110.7856522,1369.0999756,0.1,148.3,0.9,0.0,0.0,904,0,0,857.06,15.92,26.71,0
9:44:15,0,0,0,0,0,0,0,0,0,0,0,515,0,0,0,0,0.0000000,0.0000000,0.0000000,0.0000000,9.00,38.4056511,-110.7856522,1369.0999756,0.1,166.3,0.9,0.0,0.0,905,0,0,857.04,15.76,26.67,0
9:44:16,0,0,0,0,0,0,0,0,0,0,0,515,0,0,0,0,0.0000000,0.0000000,0.0000000,0.0000000,9.00,38.4056511,-110.7856522,1369.0999756,0.1,196.9,0.9,0.0,0.0,904,0,0,857.08,15.75,26.59,0
9:44:17,0,0,0,0,0,0,0,0,0,0,0,515,0,0,0,0,0.0000000,0.0000000,0.0000000,0.0000000,9.00,38.4056511,-110.7856522,1369.0999756,0.1,94.2,0.9,0.0,0.0,904,0,0,856.98,15.67,26.54,0
9:44:18,0,0,0,0,0,0,0,0,0,0,0,515,0,0,0,0,0.0000000,0.0000000,0.0000000,0.0000000,9.00,38.4056511,-110.7856522,1369.0999756,0.1,340.1,0.9,0.0,0.0,905,0,0,857.06,15.67,26.47,0
9:44:19,0,0,0,0,0,0,0,0,0,0,0,515,0,0,0,0,0.0000000,0.0000000,0.0000000,0.0000000,9.00,38.4056511,-110.7856522,1369.0999756,0.1,344.3,0.9,0.0,0.0,904,0,0,857.09,15.58,26.42,0
9:44:20,0,0,0,0,0,0,0,0,0,0,0,515,0,0,0,0,0.0000000,0.0000000,0.0000000,0.0000000,9.00,38.4056511,-110.7856522,1369.0999756,0.1,13.5,0.9,0.0,0.0,904,0,0,857.09,15.78,26.38,0
9:44:21,0,0,0,0,0,0,0,0,0,0,0,514,0,0,0,0,0.0000000,0.0000000,0.0000000,0.0000000,9.00,38.4056549,-110.7856522,1369.0999756,0.1,12.8,1.0,0.0,0.0,905,0,0,857.07,15.70,26.44,0
9:44:22,0,0,0,0,0,0,0,0,0,0,0,516,0,0,0,0,0.0000000,0.0000000,0.0000000,0.0000000,9.00,38.4056549,-110.7856522,1369.0999756,0.1,29.8,0.9,0.0,0.0,904,0,0,857.10,15.64,26.53,0
9:44:23,0,0,0,0,0,0,0,0,0,0,0,515,0,0,0,0,0.0000000,0.0000000,0.0000000,0.0000000,9.00,38.4056549,-110.7856522,1369.0999756,0.0,253.0,0.9,0.0,0.0,904,0,0,857.26,15.93,26.52,0
9:44:24,0,0,0,0,0,0,0,0,0,0,0,515,0,0,0,0,0.0000000,0.0000000,0.0000000,0.0000000,9.00,38.4056549,-110.7856522,1369.0999756,0.0,253.0,0.9,0.0,0.0,904,0,0,857.18,15.76,26.59,0
9:44:25,0,0,0,0,0,0,0,0,0,0,0,517,0,0,0,0,0.0000000,0.0000000,0.0000000,0.0000000,9.00,38.4056549,-110.7856522,1369.0999756,0.1,225.1,0.9,0.0,0.0,904,0,0,857.20,15.64,26.66,0
9:44:26,0,0,0,0,0,0,0,0,0,0,0,517,0,0,0,0,0.0000000,0.0000000,0.0000000,0.0000000,9.00,38.4056549,-110.7856522,1369.0999756,0.0,65.2,0.9,0.0,0.0,902,0,0,857.23,15.49,26.80,0
9:44:27,0,0,0,0,0,0,0,0,0,0,0,515,0,0,0,0,0.0000000,0.0000000,0.0000000,0.0000000,9.00,38.4056549,-110.7856522,1369.0999756,0.0,319.9,1.0,0.0,0.0,904,0,0,857.24,15.37,26.86,0
9:44:28,0,0,0,0,0,0,0,0,0,0,0,515,0,0,0,0,0.0000000,0.0000000,0.0000000,0.0000000,8.00,38.4056549,-110.7856522,1369.0999756,0.0,5.2,1.1,0.0,0.0,904,0,0,857.32,15.20,26.92,0
9:44:29,0,0,0,0,0,0,0,0,0,0,0,515,0,0,0,0,0.0000000,0.0000000,0.0000000,0.0000000,8.00,38.4056549,-110.7856522,1369.0999756,0.0,351.1,1.1,0.0,0.0,904,0,0,857.45,14.86,27.00,0
9:44:30,0,0,0,0,0,0,0,0,0,0,0,515,0,0,0,0,0.0000000,0.0000000,0.0000000,0.0000000,9.00,38.4056549,-110.7856522,1369.0999756,0.0,307.9,1.0,0.0,0.0,904,0,0,857.52,14.82,27.05,0
9:44:31,0,0,0,0,0,0,0,0,0,0,0,514,0,0,0,0,0.0000000,0.0000000,0.0000000,0.0000000,9.00,38.4056549,-110.7856522,1369.0999756,0.0,297.0,1.0,0.0,0.0,904,0,0,857.43,14.65,27.11,0
9:44:32,0,0,0,0,0,0,0,0,0,0,0,514,0,0,0,0,0.0000000,0.0000000,0.0000000,0.0000000,9.00,38.4056549,-110.7856522,1369.0999756,0.0,71.0,1.0,0.0,0.0,904,0,0,857.39,14.66,27.20,0
9:44:33,0,0,0,0,0,0,0,0,0,0,0,515,0,0,0,0,0.0000000,0.0000000,0.0000000,0.0000000,9.00,38.4056549,-110.7856522,1369.0999756,0.0,89.9,1.0,0.0,0.0,904,0,0,857.62,14.60,27.24,0
9:44:34,0,0,0,0,0,0,0,0,0,0,0,514,0,0,0,0,0.0000000,0.0000000,0.0000000,0.0000000,9.00,38.4056549,-110.7856522,1369.0999756,0.0,192.7,1.0,0.0,0.0,904,0,0,857.59,14.50,27.27,0
9:44:35,0,0,0,0,0,0,0,0,0,0,0,514,0,0,0,0,0.0000000,0.0000000,0.0000000,0.0000000,9.00,38.4056549,-110.7856522,1369.0999756,0.0,198.1,1.0,0.0,0.0,904,0,0,857.48,14.44,27.31,0
9:44:36,0,0,0,0,0,0,0,0,0,0,0,515,0,0,0,0,0.0000000,0.0000000,0.0000000,0.0000000,9.00,38.4056549,-110.7856522,1369.0999756,0.0,67.4,1.0,0.0,0.0,904,0,0,857.99,15.73,27.21,0
9:44:37,0,0,0,0,0,0,0,0,0,0,0,515,0,0,0,0,0.0000000,0.0000000,0.0000000,0.0000000,9.00,38.4056549,-110.7856522,1369.0999756,0.1,358.2,1.0,0.0,0.0,904,0,0,858.05,15.12,27.16,0
9:44:38,0,0,0,0,0,0,0,0,0,0,0,515,0,0,0,0,0.0000000,0.0000000,0.0000000,0.0000000,9.00,38.4056549,-110.7856522,1369.0999756,0.0,350.7,1.0,0.0,0.0,904,0,0,858.12,13.54,27.14,0
9:44:39,0,0,0,0,0,0,0,0,0,0,0,515,0,0,0,0,0.0000000,0.0000000,0.0000000,0.0000000,9.00,38.4056549,-110.7856522,1369.0999756,0.0,272.1,1.0,0.0,0.0,904,0,0,857.99,13.58,26.99,0
9:44:40,0,0,0,0,0,0,0,0,0,0,0,515,0,0,0,0,0.0000000,0.0000000,0.0000000,0.0000000,9.00,38.4056549,-110.7856522,1369.0999756,0.0,331.2,1.0,0.0,0.0,904,0,0,858.09,13.46,26.82,0
9:44:41,0,0,0,0,0,0,0,0,0,0,0,514,0,0,0,0,0.0000000,0.0000000,0.0000000,0.0000000,9.00,38.4056549,-110.7856522,1369.0999756,0.1,20.9,1.0,0.0,0.0,905,0,0,858.10,14.71,26.72,0
9:44:42,0,0,0,0,0,0,0,0,0,0,0,515,0,0,0,0,0.0000000,0.0000000,0.0000000,0.0000000,9.00,38.4056549,-110.7856522,1369.0999756,0.8,42.2,0.9,0.0,0.0,904,0,0,858.09,13.90,26.66,0
9:44:43,0,0,0,0,0,0,0,0,0,0,0,514,0,0,0,0,0.0000000,0.0000000,0.0000000,0.0000000,9.00,38.4056625,-110.7856369,1369.1999512,1.1,41.1,0.9,0.0,0.0,905,0,0,857.98,12.76,26.63,0
9:44:44,0,0,0,0,0,0,0,0,0,0,0,515,0,0,0,0,0.0000000,0.0000000,0.0000000,0.0000000,9.00,38.4056664,-110.7856369,1369.1999512,1.2,13.0,0.9,0.0,0.0,904,0,0,858.62,12.39,26.56,0
9:44:45,0,0,0,0,0,0,0,0,0,0,0,515,0,0,0,0,0.0000000,0.0000000,0.0000000,0.0000000,9.00,38.4056740,-110.7856369,1369.1999512,1.2,359.6,1.0,0.0,0.0,904,0,0,858.58,12.34,26.42,0
9:44:46,0,0,0,0,0,0,0,0,0,0,0,515,0,0,0,0,0.0000000,0.0000000,0.0000000,0.0000000,9.00,38.4056816,-110.7856369,1369.1999512,1.5,350.2,1.0,0.0,0.0,904,0,0,858.60,12.21,26.24,0
9:44:47,0,0,0,0,0,0,0,0,0,0,0,515,0,0,0,0,0.0000000,0.0000000,0.0000000,0.0000000,9.00,38.4056931,-110.7856522,1369.3000488,1.9,334.9,1.0,0.0,0.0,904,0,0,858.68,12.28,25.88,0
9:44:48,0,0,0,0,0,0,0,0,0,0,0,515,0,0,0,0,0.0000000,0.0000000,0.0000000,0.0000000,9.00,38.4057007,-110.7856522,1369.3000488,2.1,325.2,0.9,0.0,0.0,904,0,0,858.56,12.51,25.63,0
9:44:49,0,0,0,0,0,0,0,0,0,0,0,515,0,0,0,0,0.0000000,0.0000000,0.0000000,0.0000000,9.00,38.4057083,-110.7856674,1369.3000488,2.4,314.6,0.9,0.0,0.0,904,0,0,858.54,12.65,25.37,0
9:44:50,0,0,0,0,0,0,0,0,0,0,0,515,0,0,0,0,0.0000000,0.0000000,0.0000000,0.0000000,9.00,38.4057198,-110.7856750,1369.3000488,2.5,322.8,0.9,0.0,0.0,904,0,0,858.50,12.83,25.20,0
9:44:51,0,0,0,0,0,0,0,0,0,0,0,515,0,0,0,0,0.0000000,0.0000000,0.0000000,0.0000000,9.00,38.4057312,-110.7856750,1369.3000488,2.3,322.9,0.9,0.0,0.0,904,0,0,858.61,12.88,25.13,0
9:44:52,0,0,0,0,0,0,0,0,0,0,0,515,0,0,0,0,0.0000000,0.0000000,0.0000000,0.0000000,9.00,38.4057388,-110.7856903,1369.3000488,2.3,321.8,0.9,0.0,0.0,904,0,0,858.66,12.94,25.08,0
9:44:53,0,0,0,0,0,0,0,0,0,0,0,514,0,0,0,0,0.0000000,0.0000000,0.0000000,0.0000000,9.00,38.4057465,-110.7857056,1369.3000488,2.3,319.7,0.9,0.0,0.0,904,0,0,858.63,12.97,24.90,0
9:44:54,0,0,0,0,0,0,0,0,0,0,0,514,0,0,0,0,0.0000000,0.0000000,0.0000000,0.0000000,9.00,38.4057579,-110.7857056,1369.0999756,2.3,318.7,0.9,0.0,0.0,903,0,0,858.71,13.05,24.71,0
9:44:55,0,0,0,0,0,0,0,0,0,0,0,515,0,0,0,0,0.0000000,0.0000000,0.0000000,0.0000000,9.00,38.4057617,-110.7857132,1369.0999756,0.5,315.6,0.9,0.0,0.0,904,0,0,858.67,13.18,24.57,0
9:44:57,0,0,0,0,0,0,0,0,0,0,0,514,0,0,0,0,0.0000000,0.0000000,0.0000000,0.0000000,9.00,38.4057617,-110.7857132,1369.0000000,0.6,320.4,0.9,0.0,0.0,904,0,0,858.63,13.29,24.58,0
9:44:58,0,0,0,0,0,0,0,0,0,0,0,515,0,0,0,0,0.0000000,0.0000000,0.0000000,0.0000000,9.00,38.4057617,-110.7857132,1368.9000244,0.6,310.0,0.9,0.0,0.0,904,0,0,858.64,13.23,24.63,0
9:44:59,0,0,0,0,0,0,0,0,0,0,0,515,0,0,0,0,0.0000000,0.0000000,0.0000000,0.0000000,9.00,38.4057655,-110.7857132,1368.9000244,0.6,326.8,0.9,0.0,0.0,904,0,0,859.02,13.21,24.66,0
9:45:00,0,0,0,0,0,0,0,0,0,0,0,515,0,0,0,0,0.0000000,0.0000000,0.0000000,0.0000000,9.00,38.4057693,-110.7857132,1368.6999512,0.5,333.6,0.9,0.0,0.0,904,0,0,859.00,13.35,24.68,0
9:45:01,0,0,0,0,0,0,0,0,0,0,0,515,0,0,0,0,0.0000000,0.0000000,0.0000000,0.0000000,9.00,38.4057732,-110.7857132,1368.5999756,0.3,341.8,0.9,0.0,0.0,904,0,0,858.98,13.44,24.74,0
9:45:02,0,0,0,0,0,0,0,0,0,0,0,515,0,0,0,0,0.0000000,0.0000000,0.0000000,0.0000000,9.00,38.4057732,-110.7857285,1368.4000244,0.2,325.8,0.9,0.0,0.0,904,0,0,858.95,13.43,24.79,0
9:45:03,0,0,0,0,0,0,0,0,0,0,0,514,0,0,0,0,0.0000000,0.0000000,0.0000000,0.0000000,9.00,38.4057732,-110.7857285,1368.3000488,0.0,347.2,0.9,0.0,0.0,904,0,0,858.96,13.44,24.79,0
9:45:04,0,0,0,0,0,0,0,0,0,0,0,515,0,0,0,0,0.0000000,0.0000000,0.0000000,0.0000000,9.00,38.4057732,-110.7857285,1368.3000488,0.0,26.5,1.0,0.0,0.0,904,0,0,858.96,13.38,24.78,0
9:45:05,0,0,0,0,0,0,0,0,0,0,0,514,0,0,0,0,0.0000000,0.0000000,0.0000000,0.0000000,9.00,38.4057732,-110.7857285,1368.3000488,0.0,97.1,0.9,0.0,0.0,904,0,0,858.92,13.40,24.76,0
9:45:06,0,0,0,0,0,0,0,0,0,0,0,514,0,0,0,0,0.0000000,0.0000000,0.0000000,0.0000000,9.00,38.4057732,-110.7857285,1368.3000488,0.0,140.4,0.9,0.0,0.0,904,0,0,858.90,13.37,24.78,0
9:45:07,0,0,0,0,0,0,0,0,0,0,0,514,0,0,0,0,0.0000000,0.0000000,0.0000000,0.0000000,9.00,38.4057732,-110.7857285,1368.1999512,0.0,186.4,0.9,0.0,0.0,904,0,0,858.88,13.35,24.79,0
9:45:08,0,0,0,0,0,0,0,0,0,0,0,515,0,0,0,0,0.0000000,0.0000000,0.0000000,0.0000000,9.00,38.4057732,-110.7857285,1368.1999512,0.0,187.9,0.9,0.0,0.0,904,0,0,858.84,13.32,24.78,0
9:45:09,0,0,0,0,0,0,0,0,0,0,0,515,0,0,0,0,0.0000000,0.0000000,0.0000000,0.0000000,9.00,38.4057732,-110.7857285,1368.1999512,0.0,164.1,0.9,0.0,0.0,905,0,0,858.88,13.29,24.76,0
9:45:10,0,0,0,0,0,0,0,0,0,0,0,515,0,0,0,0,0.0000000,0.0000000,0.0000000,0.0000000,9.00,38.4057732,-110.7857285,1368.1999512,0.0,145.3,0.9,0.0,0.0,904,0,0,858.86,13.28,24.76,0
9:45:11,0,0,0,0,0,0,0,0,0,0,0,515,0,0,0,0,0.0000000,0.0000000,0.0000000,0.0000000,9.00,38.4057732,-110.7857285,1368.1999512,0.0,240.8,0.9,0.0,0.0,904,0,0,858.84,13.31,24.72,0
9:45:12,0,0,0,0,0,0,0,0,0,0,0,515,0,0,0,0,0.0000000,0.0000000,0.0000000,0.0000000,9.00,38.4057732,-110.7857285,1368.1999512,0.0,4.0,0.9,0.0,0.0,904,0,0,858.96,13.37,24.68,0
9:45:13,0,0,0,0,0,0,0,0,0,0,0,515,0,0,0,0,0.0000000,0.0000000,0.0000000,0.0000000,9.00,38.4057732,-110.7857285,1368.1999512,0.0,220.1,1.0,0.0,0.0,904,0,0,858.90,13.38,24.63,0
9:45:14,0,0,0,0,0,0,0,0,0,0,0,516,0,0,0,0,0.0000000,0.0000000,0.0000000,0.0000000,9.00,38.4057732,-110.7857285,1368.1999512,0.0,249.3,0.9,0.0,0.0,904,0,0,858.91,13.43,24.57,0
9:45:15,0,0,0,0,0,0,0,0,0,0,0,514,0,0,0,0,0.0000000,0.0000000,0.0000000,0.0000000,9.00,38.4057732,-110.7857285,1368.1999512,0.0,304.0,0.9,0.0,0.0,904,0,0,858.88,13.43,24.48,0
9:45:16,0,0,0,0,0,0,0,0,0,0,0,515,0,0,0,0,0.0000000,0.0000000,0.0000000,0.0000000,9.00,38.4057732,-110.7857285,1368.1999512,0.0,206.4,0.9,0.0,0.0,905,0,0,858.93,13.50,24.34,0
9:45:17,0,0,0,0,0,0,0,0,0,0,0,515,0,0,0,0,0.0000000,0.0000000,0.0000000,0.0000000,9.00,38.4057732,-110.7857285,1368.1999512,0.0,79.3,1.0,0.0,0.0,904,0,0,858.98,13.57,24.16,0
9:45:18,0,0,0,0,0,0,0,0,0,0,0,515,0,0,0,0,0.0000000,0.0000000,0.0000000,0.0000000,9.00,38.4057732,-110.7857285,1368.1999512,0.0,159.6,1.0,0.0,0.0,904,0,0,859.00,13.66,23.98,0
9:45:19,0,0,0,0,0,0,0,0,0,0,0,515,0,0,0,0,0.0000000,0.0000000,0.0000000,0.0000000,9.00,38.4057732,-110.7857285,1368.1999512,0.0,103.7,1.0,0.0,0.0,904,0,0,858.94,13.79,23.83,0
9:45:20,0,0,0,0,0,0,0,0,0,0,0,515,0,0,0,0,0.0000000,0.0000000,0.0000000,0.0000000,9.00,38.4057732,-110.7857285,1368.1999512,0.0,127.7,1.0,0.0,0.0,904,0,0,858.96,13.95,23.77,0
9:45:21,0,0,0,0,0,0,0,0,0,0,0,514,0,0,0,0,0.0000000,0.0000000,0.0000000,0.0000000,9.00,38.4057732,-110.7857285,1368.1999512,0.0,133.4,1.0,0.0,0.0,904,0,0,858.92,14.04,23.65,0
9:45:22,0,0,0,0,0,0,0,0,0,0,0,514,0,0,0,0,0.0000000,0.0000000,0.0000000,0.0000000,9.00,38.4057732,-110.7857285,1368.1999512,0.0,143.8,1.0,0.0,0.0,904,0,0,858.91,14.11,23.53,0
9:45:23,0,0,0,0,0,0,0,0,0,0,0,515,0,0,0,0,0.0000000,0.0000000,0.0000000,0.0000000,9.00,38.4057732,-110.7857285,1368.1999512,0.0,201.9,1.0,0.0,0.0,904,0,0,858.87,14.15,23.39,0
9:45:24,0,0,0,0,0,0,0,0,0,0,0,515,0,0,0,0,0.0000000,0.0000000,0.0000000,0.0000000,9.00,38.4057732,-110.7857285,1368.1999512,0.0,153.2,1.0,0.0,0.0,904,0,0,858.94,14.27,23.28,0
9:45:25,0,0,0,0,0,0,0,0,0,0,0,515,0,0,0,0,0.0000000,0.0000000,0.0000000,0.0000000,9.00,38.4057732,-110.7857285,1368.1999512,0.1,209.7,1.0,0.0,0.0,904,0,0,858.85,14.42,23.17,0
9:45:26,0,0,0,0,0,0,0,0,0,0,0,514,0,0,0,0,0.0000000,0.0000000,0.0000000,0.0000000,9.00,38.4057732,-110.7857285,1368.1999512,0.0,237.6,1.0,0.0,0.0,904,0,0,858.54,14.71,23.11,0
9:45:27,0,0,0,0,0,0,0,0,0,0,0,515,0,0,0,0,0.0000000,0.0000000,0.0000000,0.0000000,9.00,38.4057732,-110.7857285,1368.1999512,0.0,134.2,1.0,0.0,0.0,904,0,0,858.43,14.74,23.03,0
9:45:28,0,0,0,0,0,0,0,0,0,0,0,514,0,0,0,0,0.0000000,0.0000000,0.0000000,0.0000000,9.00,38.4057732,-110.7857285,1368.1999512,0.0,329.9,1.0,0.0,0.0,904,0,0,858.42,14.97,23.00,0
9:45:29,0,0,0,0,0,0,0,0,0,0,0,515,0,0,0,0,0.0000000,0.0000000,0.0000000,0.0000000,9.00,38.4057732,-110.7857285,1368.1999512,0.0,318.6,1.0,0.0,0.0,904,0,0,858.51,14.89,22.94,0
9:45:30,0,0,0,0,0,0,0,0,0,0,0,515,0,0,0,0,0.0000000,0.0000000,0.0000000,0.0000000,9.00,38.4057732,-110.7857285,1368.0999756,0.4,290.4,1.0,0.0,0.0,904,0,0,858.62,14.97,22.85,0
9:45:31,0,0,0,0,0,0,0,0,0,0,0,516,0,0,0,0,0.0000000,0.0000000,0.0000000,0.0000000,10.00,38.4057732,-110.7857285,1368.0999756,1.6,302.9,0.9,0.0,0.0,904,0,0,858.56,15.11,22.76,0
9:45:32,0,0,0,0,0,0,0,0,0,0,0,515,0,0,0,0,0.0000000,0.0000000,0.0000000,0.0000000,10.00,38.4057808,-110.7857437,1368.1999512,1.7,295.4,0.9,0.0,0.0,904,0,0,858.46,15.20,22.69,0
9:45:33,0,0,0,0,0,0,0,0,0,0,0,515,0,0,0,0,0.0000000,0.0000000,0.0000000,0.0000000,10.00,38.4057808,-110.7857437,1368.3000488,1.9,304.8,0.9,0.0,0.0,904,0,0,858.56,15.23,22.64,0
9:45:34,0,0,0,0,0,0,0,0,0,0,0,514,0,0,0,0,0.0000000,0.0000000,0.0000000,0.0000000,10.00,38.4057884,-110.7857513,1368.1999512,2.3,306.5,0.9,0.0,0.0,904,0,0,858.52,15.23,22.55,0
9:45:35,0,0,0,0,0,0,0,0,0,0,0,515,0,0,0,0,0.0000000,0.0000000,0.0000000,0.0000000,9.00,38.4057961,-110.7857666,1368.1999512,2.4,305.1,0.9,0.0,0.0,904,0,0,858.45,15.31,22.44,0
9:45:36,0,0,0,0,0,0,0,0,0,0,0,515,0,0,0,0,0.0000000,0.0000000,0.0000000,0.0000000,10.00,38.4058037,-110.7857819,1368.1999512,2.3,302.5,0.9,0.0,0.0,904,0,0,858.32,15.40,22.33,0
9:45:37,0,0,0,0,0,0,0,0,0,0,0,516,0,0,0,0,0.0000000,0.0000000,0.0000000,0.0000000,10.00,38.4058113,-110.7857895,1368.1999512,2.1,307.8,0.9,0.0,0.0,904,0,0,858.28,15.46,22.25,0
9:45:38,0,0,0,0,0,0,0,0,0,0,0,515,0,0,0,0,0.0000000,0.0000000,0.0000000,0.0000000,10.00,38.4058189,-110.7857895,1368.1999512,1.8,315.9,0.9,0.0,0.0,904,0,0,858.15,15.58,22.21,0
9:45:39,0,0,0,0,0,0,0,0,0,0,0,514,0,0,0,0,0.0000000,0.0000000,0.0000000,0.0000000,10.00,38.4058228,-110.7858047,1368.3000488,1.7,331.1,0.9,0.0,0.0,904,0,0,857.16,16.36,22.14,0
9:45:40,0,0,0,0,0,0,0,0,0,0,0,514,0,0,0,0,0.0000000,0.0000000,0.0000000,0.0000000,10.00,38.4058304,-110.7858047,1368.3000488,1.5,20.9,0.9,0.0,0.0,904,0,0,857.79,23.67,22.21,0
9:45:41,0,0,0,0,0,0,0,0,0,0,0,515,0,0,0,0,0.0000000,0.0000000,0.0000000,0.0000000,10.00,38.4058304,-110.7857895,1368.3000488,1.0,89.9,0.9,0.0,0.0,904,0,0,858.21,30.03,22.36,0
9:45:42,0,0,0,0,0,0,0,0,0,0,0,515,0,0,0,0,0.0000000,0.0000000,0.0000000,0.0000000,10.00,38.4058304,-110.7857819,1368.3000488,1.6,92.9,0.9,0.0,0.0,904,0,0,857.96,26.99,22.50,0
9:45:43,0,0,0,0,0,0,0,0,0,0,0,515,0,0,0,0,0.0000000,0.0000000,0.0000000,0.0000000,10.00,38.4058304,-110.7857666,1368.4000244,1.7,85.8,0.9,0.0,0.0,904,0,0,857.87,20.05,22.62,0
9:45:44,0,0,0,0,0,0,0,0,0,0,0,515,0,0,0,0,0.0000000,0.0000000,0.0000000,0.0000000,10.00,38.4058342,-110.7857666,1368.3000488,2.0,76.6,0.9,0.0,0.0,904,0,0,858.06,19.03,22.70,0
9:45:45,0,0,0,0,0,0,0,0,0,0,0,515,0,0,0,0,0.0000000,0.0000000,0.0000000,0.0000000,10.00,38.4058380,-110.7857437,1368.3000488,2.2,79.3,0.9,0.0,0.0,904,0,0,858.11,23.68,22.79,0
9:45:46,0,0,0,0,0,0,0,0,0,0,0,515,0,0,0,0,0.0000000,0.0000000,0.0000000,0.0000000,10.00,38.4058380,-110.7857285,1368.3000488,2.3,86.2,0.9,0.0,0.0,904,0,0,858.28,25.60,22.86,0
9:45:47,0,0,0,0,0,0,0,0,0,0,0,515,0,0,0,0,0.0000000,0.0000000,0.0000000,0.0000000,10.00,38.4058418,-110.7857132,1368.3000488,2.0,75.0,0.9,0.0,0.0,904,0,0,858.15,23.50,22.92,0
9:45:48,0,0,0,0,0,0,0,0,0,0,0,515,0,0,0,0,0.0000000,0.0000000,0.0000000,0.0000000,10.00,38.4058418,-110.7857056,1368.4000244,2.2,80.2,0.9,0.0,0.0,905,0,0,858.23,23.33,22.97,0
9:45:49,0,0,0,0,0,0,0,0,0,0,0,515,0,0,0,0,0.0000000,0.0000000,0.0000000,0.0000000,10.00,38.4058418,-110.7857056,1368.4000244,2.2,78.7,0.9,0.0,0.0,904,0,0,858.29,24.98,23.03,0
9:45:50,0,0,0,0,0,0,0,0,0,0,0,515,0,0,0,0,0.0000000,0.0000000,0.0000000,0.0000000,10.00,38.4058456,-110.7856750,1368.4000244,2.1,81.3,0.9,0.0,0.0,904,0,0,858.39,26.08,23.12,0
9:45:51,0,0,0,0,0,0,0,0,0,0,0,515,0,0,0,0,0.0000000,0.0000000,0.0000000,0.0000000,10.00,38.4058495,-110.7856750,1368.3000488,2.1,80.9,0.9,0.0,0.0,905,0,0,858.20,22.02,23.20,0
9:45:52,0,0,0,0,0,0,0,0,0,0,0,515,0,0,0,0,0.0000000,0.0000000,0.0000000,0.0000000,10.00,38.4058533,-110.7856674,1368.4000244,2.2,75.4,0.9,0.0,0.0,904,0,0,858.11,18.59,23.23,0
9:45:53,0,0,0,0,0,0,0,0,0,0,0,514,0,0,0,0,0.0000000,0.0000000,0.0000000,0.0000000,10.00,38.4058571,-110.7856522,1368.4000244,2.2,75.9,0.9,0.0,0.0,904,0,0,858.23,23.68,23.31,0
9:45:54,0,0,0,0,0,0,0,0,0,0,0,516,0,0,0,0,0.0000000,0.0000000,0.0000000,0.0000000,10.00,38.4058609,-110.7856369,1368.5000000,2.0,76.1,0.9,0.0,0.0,904,0,0,858.17,24.57,23.37,0
9:45:55,0,0,0,0,0,0,0,0,0,0,0,514,0,0,0,0,0.0000000,0.0000000,0.0000000,0.0000000,10.00,38.4058647,-110.7856140,1368.5999756,2.3,80.2,0.9,0.0,0.0,904,0,0,857.92,23.87,23.51,0
9:45:56,0,0,0,0,0,0,0,0,0,0,0,515,0,0,0,0,0.0000000,0.0000000,0.0000000,0.0000000,10.00,38.4058685,-110.7855988,1368.5999756,2.2,78.7,0.9,0.0,0.0,904,0,0,858.20,25.94,23.66,0
9:45:57,0,0,0,0,0,0,0,0,0,0,0,514,0,0,0,0,0.0000000,0.0000000,0.0000000,0.0000000,10.00,38.4058723,-110.7855835,1368.5000000,2.2,76.5,0.9,0.0,0.0,903,0,0,858.13,26.22,23.74,0
9:45:58,0,0,0,0,0,0,0,0,0,0,0,513,0,0,0,0,0.0000000,0.0000000,0.0000000,0.0000000,10.00,38.4058762,-110.7855759,1368.5999756,2.3,78.7,0.9,0.0,0.0,904,0,0,858.41,27.30,23.83,0
9:45:59,0,0,0,0,0,0,0,0,0,0,0,514,0,0,0,0,0.0000000,0.0000000,0.0000000,0.0000000,10.00,38.4058762,-110.7855606,1368.5999756,2.3,79.3,0.9,0.0,0.0,905,0,0,858.18,27.53,23.94,0
9:46:00,0,0,0,0,0,0,0,0,0,0,0,515,0,0,0,0,0.0000000,0.0000000,0.0000000,0.0000000,10.00,38.4058800,-110.7855453,1368.5999756,2.2,74.8,0.9,0.0,0.0,904,0,0,857.84,25.16,24.01,0
9:46:01,0,0,0,0,0,0,0,0,0,0,0,515,0,0,0,0,0.0000000,0.0000000,0.0000000,0.0000000,10.00,38.4058800,-110.7855377,1368.6999512,2.1,67.9,0.9,0.0,0.0,904,0,0,857.86,22.08,24.10,0
9:46:02,0,0,0,0,0,0,0,0,0,0,0,515,0,0,0,0,0.0000000,0.0000000,0.0000000,0.0000000,10.00,38.4058838,-110.7855225,1368.6999512,2.1,67.9,0.9,0.0,0.0,904,0,0,858.12,26.06,24.19,0
9:46:03,0,0,0,0,0,0,0,0,0,0,0,515,0,0,0,0,0.0000000,0.0000000,0.0000000,0.0000000,10.00,38.4058876,-110.7855072,1368.6999512,2.3,75.3,0.9,0.0,0.0,904,0,0,858.34,28.47,24.30,0
9:46:04,0,0,0,0,0,0,0,0,0,0,0,515,0,0,0,0,0.0000000,0.0000000,0.0000000,0.0000000,10.00,38.4058914,-110.7854996,1368.8000488,2.2,79.7,0.9,0.0,0.0,904,0,0,858.00,23.12,24.36,0
9:46:05,0,0,0,0,0,0,0,0,0,0,0,515,0,0,0,0,0.0000000,0.0000000,0.0000000,0.0000000,10.00,38.4058952,-110.7854843,1368.9000244,2.2,79.0,0.9,0.0,0.0,904,0,0,858.04,21.87,24.40,0
9:46:06,0,0,0,0,0,0,0,0,0,0,0,514,0,0,0,0,0.0000000,0.0000000,0.0000000,0.0000000,10.00,38.4058952,-110.7854691,1368.9000244,2.5,81.0,0.9,0.0,0.0,904,0,0,858.05,24.58,24.43,0
9:46:07,0,0,0,0,0,0,0,0,0,0,0,514,0,0,0,0,0.0000000,0.0000000,0.0000000,0.0000000,10.00,38.4058990,-110.7854462,1369.0000000,2.5,75.7,0.9,0.0,0.0,904,0,0,857.91,24.14,24.46,0
9:46:08,0,0,0,0,0,0,0,0,0,0,0,515,0,0,0,0,0.0000000,0.0000000,0.0000000,0.0000000,10.00,38.4058990,-110.7854309,1369.0999756,2.5,78.2,0.9,0.0,0.0,904,0,0,858.32,33.80,24.53,0
9:46:09,0,0,0,0,0,0,0,0,0,0,0,515,0,0,0,0,0.0000000,0.0000000,0.0000000,0.0000000,10.00,38.4058990,-110.7854233,1369.0999756,2.4,87.5,0.9,0.0,0.0,904,0,0,858.69,36.68,24.59,0
9:46:10,0,0,0,0,0,0,0,0,0,0,0,515,0,0,0,0,0.0000000,0.0000000,0.0000000,0.0000000,10.00,38.4058990,-110.7854080,1369.0999756,2.1,83.8,0.9,0.0,0.0,904,0,0,858.50,31.17,24.64,0
9:46:11,0,0,0,0,0,0,0,0,0,0,0,516,0,0,0,0,0.0000000,0.0000000,0.0000000,0.0000000,10.00,38.4059029,-110.7853928,1369.1999512,2.2,66.7,0.9,0.0,0.0,904,0,0,857.85,19.71,24.71,0
9:46:12,0,0,0,0,0,0,0,0,0,0,0,515,0,0,0,0,0.0000000,0.0000000,0.0000000,0.0000000,10.00,38.4059067,-110.7853851,1369.3000488,2.2,69.3,0.9,0.0,0.0,904,0,0,857.84,18.42,24.75,0
9:46:13,0,0,0,0,0,0,0,0,0,0,0,515,0,0,0,0,0.0000000,0.0000000,0.0000000,0.0000000,10.00,38.4059143,-110.7853699,1369.5000000,2.5,67.1,0.9,0.0,0.0,904,0,0,857.89,18.98,24.80,0
9:46:14,0,0,0,0,0,0,0,0,0,0,0,514,0,0,0,0,0.0000000,0.0000000,0.0000000,0.0000000,10.00,38.4059181,-110.7853546,1369.6999512,2.6,72.2,0.9,0.0,0.0,904,0,0,857.84,18.69,24.80,0
9:46:15,0,0,0,0,0,0,0,0,0,0,0,515,0,0,0,0,0.0000000,0.0000000,0.0000000,0.0000000,10.00,38.4059219,-110.7853470,1369.9000244,2.5,70.2,0.9,0.0,0.0,904,0,0,857.79,18.88,24.78,0
9:46:16,0,0,0,0,0,0,0,0,0,0,0,514,0,0,0,0,0.0000000,0.0000000,0.0000000,0.0000000,10.00,38.4059258,-110.7853317,1370.0999756,2.4,75.1,0.9,0.0,0.0,904,0,0,857.77,19.78,24.76,0
9:46:17,0,0,0,0,0,0,0,0,0,0,0,514,0,0,0,0,0.0000000,0.0000000,0.0000000,0.0000000,10.00,38.4059296,-110.7853165,1370.3000488,2.3,75.6,0.9,0.0,0.0,904,0,0,857.82,20.65,24.79,0
9:46:18,0,0,0,0,0,0,0,0,0,0,0,515,0,0,0,0,0.0000000,0.0000000,0.0000000,0.0000000,10.00,38.4059334,-110.7853088,1370.4000244,2.4,71.9,0.9,0.0,0.0,904,0,0,857.81,18.42,24.82,0
9:46:19,0,0,0,0,0,0,0,0,0,0,0,515,0,0,0,0,0.0000000,0.0000000,0.0000000,0.0000000,10.00,38.4059410,-110.7852936,1370.5000000,2.3,70.5,0.9,0.0,0.0,904,0,0,857.79,18.11,24.87,0
9:46:20,0,0,0,0,0,0,0,0,0,0,0,515,0,0,0,0,0.0000000,0.0000000,0.0000000,0.0000000,10.00,38.4059410,-110.7852783,1370.5999756,2.3,75.2,0.9,0.0,0.0,904,0,0,857.78,22.13,24.87,0
9:46:21,0,0,0,0,0,0,0,0,0,0,0,515,0,0,0,0,0.0000000,0.0000000,0.0000000,0.0000000,10.00,38.4059410,-110.7852707,1370.5999756,2.3,73.0,0.9,0.0,0.0,904,0,0,857.86,18.83,24.85,0
9:46:22,0,0,0,0,0,0,0,0,0,0,0,515,0,0,0,0,0.0000000,0.0000000,0.0000000,0.0000000,10.00,38.4059486,-110.7852554,1370.5000000,2.2,64.8,0.9,0.0,0.0,904,0,0,857.10,14.42,24.85,0
9:46:23,0,0,0,0,0,0,0,0,0,0,0,515,0,0,0,0,0.0000000,0.0000000,0.0000000,0.0000000,10.00,38.4059525,-110.7852402,1370.5000000,1.1,16.7,0.9,0.0,0.0,904,0,0,858.52,13.49,24.87,0
9:46:24,0,0,0,0,0,0,0,0,0,0,0,515,0,0,0,0,0.0000000,0.0000000,0.0000000,0.0000000,10.00,38.4059525,-110.7852402,1370.4000244,0.4,56.3,0.9,0.0,0.0,904,0,0,858.48,13.57,24.58,0
9:46:25,0,0,0,0,0,0,0,0,0,0,0,514,0,0,0,0,0.0000000,0.0000000,0.0000000,0.0000000,10.00,38.4059525,-110.7852402,1370.3000488,0.4,37.5,0.9,0.0,0.0,904,0,0,858.26,13.89,24.35,0
9:46:27,0,0,0,0,0,0,0,0,0,0,0,515,0,0,0,0,0.0000000,0.0000000,0.0000000,0.0000000,10.00,38.4059563,-110.7852402,1370.1999512,0.9,50.1,0.9,0.0,0.0,905,0,0,857.70,16.08,24.13,0
9:46:28,0,0,0,0,0,0,0,0,0,0,0,514,0,0,0,0,0.0000000,0.0000000,0.0000000,0.0000000,10.00,38.4059563,-110.7852325,1370.1999512,1.7,79.3,0.9,0.0,0.0,904,0,0,858.02,15.76,24.18,0
9:46:29,0,0,0,0,0,0,0,0,0,0,0,515,0,0,0,0,0.0000000,0.0000000,0.0000000,0.0000000,10.00,38.4059601,-110.7852173,1370.1999512,1.4,46.3,0.9,0.0,0.0,904,0,0,857.54,16.21,24.22,0
9:46:30,0,0,0,0,0,0,0,0,0,0,0,514,0,0,0,0,0.0000000,0.0000000,0.0000000,0.0000000,10.00,38.4059639,-110.7852020,1370.0999756,1.7,52.2,0.9,0.0,0.0,904,0,0,858.45,35.55,24.28,0
9:46:31,0,0,0,0,0,0,0,0,0,0,0,514,0,0,0,0,0.0000000,0.0000000,0.0000000,0.0000000,10.00,38.4059639,-110.7851868,1369.9000244,2.0,80.3,0.9,0.0,0.0,904,0,0,859.11,28.96,24.39,0
9:46:32,0,0,0,0,0,0,0,0,0,0,0,515,0,0,0,0,0.0000000,0.0000000,0.0000000,0.0000000,10.00,38.4059601,-110.7851868,1369.8000488,1.9,137.9,0.9,0.0,0.0,904,0,0,859.08,20.40,24.33,0
9:46:33,0,0,0,0,0,0,0,0,0,0,0,515,0,0,0,0,0.0000000,0.0000000,0.0000000,0.0000000,10.00,38.4059525,-110.7851791,1369.8000488,2.3,152.2,0.9,0.0,0.0,904,0,0,859.05,19.15,24.16,0
9:46:34,0,0,0,0,0,0,0,0,0,0,0,516,0,0,0,0,0.0000000,0.0000000,0.0000000,0.0000000,10.00,38.4059410,-110.7851791,1369.6999512,2.3,160.4,0.9,0.0,0.0,904,0,0,859.00,19.73,24.06,0
9:46:35,0,0,0,0,0,0,0,0,0,0,0,514,0,0,0,0,0.0000000,0.0000000,0.0000000,0.0000000,10.00,38.4059334,-110.7851791,1369.6999512,2.0,150.8,0.9,0.0,0.0,904,0,0,859.30,38.28,24.00,0
9:46:36,0,0,0,0,0,0,0,0,0,0,0,515,0,0,0,0,0.0000000,0.0000000,0.0000000,0.0000000,10.00,38.4059258,-110.7851639,1369.5000000,2.0,107.0,0.9,0.0,0.0,904,0,0,858.54,35.45,24.02,0
9:46:37,0,0,0,0,0,0,0,0,0,0,0,515,0,0,0,0,0.0000000,0.0000000,0.0000000,0.0000000,10.00,38.4059219,-110.7851486,1369.4000244,2.2,98.7,0.9,0.0,0.0,904,0,0,858.50,38.99,24.14,0
9:46:38,0,0,0,0,0,0,0,0,0,0,0,515,0,0,0,0,0.0000000,0.0000000,0.0000000,0.0000000,10.00,38.4059181,-110.7851410,1369.3000488,2.1,113.5,0.9,0.0,0.0,904,0,0,857.94,15.61,24.21,0
9:46:39,0,0,0,0,0,0,0,0,0,0,0,516,0,0,0,0,0.0000000,0.0000000,0.0000000,0.0000000,10.00,38.4059143,-110.7851410,1369.3000488,2.1,208.6,0.9,0.0,0.0,903,0,0,858.95,14.59,24.14,0
9:46:40,0,0,0,0,0,0,0,0,0,0,0,515,0,0,0,0,0.0000000,0.0000000,0.0000000,0.0000000,10.00,38.4059067,-110.7851486,1369.1999512,2.2,214.2,0.9,0.0,0.0,904,0,0,857.03,15.44,23.94,0
9:46:41,0,0,0,0,0,0,0,0,0,0,0,515,0,0,0,0,0.0000000,0.0000000,0.0000000,0.0000000,10.00,38.4058990,-110.7851486,1369.1999512,2.2,187.9,0.9,0.0,0.0,904,0,0,858.98,18.48,23.86,0
9:46:42,0,0,0,0,0,0,0,0,0,0,0,515,0,0,0,0,0.0000000,0.0000000,0.0000000,0.0000000,10.00,38.4058876,-110.7851486,1369.3000488,2.0,162.4,0.9,0.0,0.0,904,0,0,859.03,32.97,23.75,0
9:46:43,0,0,0,0,0,0,0,0,0,0,0,514,0,0,0,0,0.0000000,0.0000000,0.0000000,0.0000000,10.00,38.4058800,-110.7851486,1369.1999512,1.9,132.9,0.9,0.0,0.0,903,0,0,858.71,34.65,23.69,0
9:46:44,0,0,0,0,0,0,0,0,0,0,0,515,0,0,0,0,0.0000000,0.0000000,0.0000000,0.0000000,10.00,38.4058762,-110.7851410,1369.0999756,2.2,109.3,0.9,0.0,0.0,904,0,0,858.50,28.17,23.76,0
9:46:45,0,0,0,0,0,0,0,0,0,0,0,515,0,0,0,0,0.0000000,0.0000000,0.0000000,0.0000000,10.00,38.4058723,-110.7851257,1369.0999756,2.2,89.7,0.9,0.0,0.0,904,0,0,858.09,18.19,23.87,0
9:46:46,0,0,0,0,0,0,0,0,0,0,0,515,0,0,0,0,0.0000000,0.0000000,0.0000000,0.0000000,10.00,38.4058762,-110.7851105,1369.0000000,2.3,70.3,0.9,0.0,0.0,904,0,0,858.08,16.88,23.98,0
9:46:47,0,0,0,0,0,0,0,0,0,0,0,514,0,0,0,0,0.0000000,0.0000000,0.0000000,0.0000000,10.00,38.4058800,-110.7851028,1369.0000000,2.4,61.1,0.9,0.0,0.0,904,0,0,857.92,16.39,24.05,0
9:46:48,0,0,0,0,0,0,0,0,0,0,0,515,0,0,0,0,0.0000000,0.0000000,0.0000000,0.0000000,10.00,38.4058876,-110.7850876,1369.0000000,2.2,56.0,0.9,0.0,0.0,904,0,0,858.25,15.70,24.13,0
9:46:49,0,0,0,0,0,0,0,0,0,0,0,514,0,0,0,0,0.0000000,0.0000000,0.0000000,0.0000000,10.00,38.4058914,-110.7850723,1369.0000000,1.9,40.2,0.9,0.0,0.0,904,0,0,858.58,14.21,24.31,0
9:46:50,0,0,0,0,0,0,0,0,0,0,0,515,0,0,0,0,0.0000000,0.0000000,0.0000000,0.0000000,10.00,38.4058990,-110.7850723,1369.0000000,1.6,347.5,0.9,0.0,0.0,903,0,0,858.57,14.10,24.24,0
9:46:51,0,0,0,0,0,0,0,0,0,0,0,514,0,0,0,0,0.0000000,0.0000000,0.0000000,0.0000000,10.00,38.4059067,-110.7850723,1369.0000000,2.1,322.9,0.9,0.0,0.0,904,0,0,858.56,14.13,24.15,0
9:46:52,0,0,0,0,0,0,0,0,0,0,0,516,0,0,0,0,0.0000000,0.0000000,0.0000000,0.0000000,10.00,38.4059143,-110.7850876,1368.9000244,2.3,323.2,0.9,0.0,0.0,904,0,0,858.54,14.10,24.13,0
9:46:53,0,0,0,0,0,0,0,0,0,0,0,514,0,0,0,0,0.0000000,0.0000000,0.0000000,0.0000000,10.00,38.4059219,-110.7851028,1368.9000244,2.2,321.7,0.9,0.0,0.0,904,0,0,858.46,14.01,24.11,0
9:46:54,0,0,0,0,0,0,0,0,0,0,0,515,0,0,0,0,0.0000000,0.0000000,0.0000000,0.0000000,10.00,38.4059296,-110.7851028,1368.9000244,2.2,312.3,0.9,0.0,0.0,903,0,0,858.53,13.96,24.03,0
9:46:55,0,0,0,0,0,0,0,0,0,0,0,514,0,0,0,0,0.0000000,0.0000000,0.0000000,0.0000000,10.00,38.4059372,-110.7851105,1368.9000244,2.2,303.1,0.9,0.0,0.0,904,0,0,858.55,14.08,23.94,0
9:46:56,0,0,0,0,0,0,0,0,0,0,0,515,0,0,0,0,0.0000000,0.0000000,0.0000000,0.0000000,10.00,38.4059410,-110.7851257,1368.9000244,2.1,289.3,0.9,0.0,0.0,903,0,0,858.70,14.33,23.82,0
9:46:57,0,0,0,0,0,0,0,0,0,0,0,514,0,0,0,0,0.0000000,0.0000000,0.0000000,0.0000000,10.00,38.4059410,-110.7851410,1369.0000000,2.0,259.6,0.9,0.0,0.0,904,0,0,858.99,14.65,23.51,0
9:46:58,0,0,0,0,0,0,0,0,0,0,0,514,0,0,0,0,0.0000000,0.0000000,0.0000000,0.0000000,10.00,38.4059410,-110.7851486,1369.0999756,2.4,234.1,0.9,0.0,0.0,904,0,0,859.29,15.18,23.26,0
9:46:59,0,0,0,0,0,0,0,0,0,0,0,516,0,0,0,0,0.0000000,0.0000000,0.0000000,0.0000000,10.00,38.4059296,-110.7851639,1369.1999512,2.3,208.6,0.9,0.0,0.0,904,0,0,857.09,15.90,23.02,0
9:47:00,0,0,0,0,0,0,0,0,0,0,0,515,0,0,0,0,0.0000000,0.0000000,0.0000000,0.0000000,10.00,38.4059219,-110.7851639,1369.1999512,2.2,200.8,0.9,0.0,0.0,903,0,0,859.02,17.32,22.97,0
9:47:01,0,0,0,0,0,0,0,0,0,0,0,514,0,0,0,0,0.0000000,0.0000000,0.0000000,0.0000000,10.00,38.4059105,-110.7851639,1369.3000488,2.0,194.9,0.9,0.0,0.0,903,0,0,858.46,16.85,22.91,0
9:47:02,0,0,0,0,0,0,0,0,0,0,0,514,0,0,0,0,0.0000000,0.0000000,0.0000000,0.0000000,10.00,38.4059029,-110.7851791,1369.3000488,1.7,213.1,0.9,0.0,0.0,904,0,0,858.76,15.05,22.91,0
9:47:03,0,0,0,0,0,0,0,0,0,0,0,515,0,0,0,0,0.0000000,0.0000000,0.0000000,0.0000000,10.00,38.4058990,-110.7851791,1369.3000488,2.0,275.9,0.9,0.0,0.0,904,0,0,858.28,15.17,22.72,0
9:47:04,0,0,0,0,0,0,0,0,0,0,0,515,0,0,0,0,0.0000000,0.0000000,0.0000000,0.0000000,10.00,38.4059029,-110.7851868,1369.3000488,2.1,342.6,0.9,0.0,0.0,903,0,0,857.05,15.70,22.63,0
9:47:05,0,0,0,0,0,0,0,0,0,0,0,515,0,0,0,0,0.0000000,0.0000000,0.0000000,0.0000000,10.00,38.4059143,-110.7851868,1369.3000488,1.9,351.2,0.9,0.0,0.0,904,0,0,855.93,16.98,22.57,0
9:47:06,0,0,0,0,0,0,0,0,0,0,0,515,0,0,0,0,0.0000000,0.0000000,0.0000000,0.0000000,10.00,38.4059219,-110.7851868,1369.3000488,1.9,16.3,0.9,0.0,0.0,904,0,0,857.37,17.59,22.73,0
9:47:07,0,0,0,0,0,0,0,0,0,0,0,516,0,0,0,0,0.0000000,0.0000000,0.0000000,0.0000000,10.00,38.4059334,-110.7851868,1369.4000244,2.0,28.7,0.9,0.0,0.0,904,0,0,854.72,16.62,22.84,0
9:47:08,0,0,0,0,0,0,0,0,0,0,0,515,0,0,0,0,0.0000000,0.0000000,0.0000000,0.0000000,10.00,38.4059410,-110.7851868,1369.4000244,1.2,351.5,0.9,0.0,0.0,904,0,0,858.36,15.12,23.10,0
9:47:09,0,0,0,0,0,0,0,0,0,0,0,515,0,0,0,0,0.0000000,0.0000000,0.0000000,0.0000000,10.00,38.4059410,-110.7851791,1369.5000000,0.4,15.7,0.9,0.0,0.0,904,0,0,858.32,15.09,23.02,0
9:47:10,0,0,0,0,0,0,0,0,0,0,0,515,0,0,0,0,0.0000000,0.0000000,0.0000000,0.0000000,10.00,38.4059410,-110.7851791,1369.5000000,0.5,330.2,0.9,0.0,0.0,904,0,0,858.32,15.09,22.96,0
9:47:11,0,0,0,0,0,0,0,0,0,0,0,514,0,0,0,0,0.0000000,0.0000000,0.0000000,0.0000000,10.00,38.4059448,-110.7851868,1369.5000000,1.3,318.0,0.9,0.0,0.0,904,0,0,858.25,15.08,22.86,0
9:47:12,0,0,0,0,0,0,0,0,0,0,0,515,0,0,0,0,0.0000000,0.0000000,0.0000000,0.0000000,10.00,38.4059525,-110.7851868,1369.4000244,1.9,307.5,0.9,0.0,0.0,904,0,0,858.33,15.12,22.79,0
9:47:13,0,0,0,0,0,0,0,0,0,0,0,515,0,0,0,0,0.0000000,0.0000000,0.0000000,0.0000000,10.00,38.4059601,-110.7852020,1369.4000244,2.1,306.6,0.9,0.0,0.0,904,0,0,858.28,15.29,22.75,0
9:47:14,0,0,0,0,0,0,0,0,0,0,0,515,0,0,0,0,0.0000000,0.0000000,0.0000000,0.0000000,10.00,38.4059639,-110.7852173,1369.3000488,2.2,300.7,0.9,0.0,0.0,904,0,0,858.30,15.38,22.69,0
9:47:15,0,0,0,0,0,0,0,0,0,0,0,514,0,0,0,0,0.0000000,0.0000000,0.0000000,0.0000000,10.00,38.4059677,-110.7852325,1369.1999512,2.2,295.3,0.9,0.0,0.0,904,0,0,858.33,15.47,22.60,0
9:47:16,0,0,0,0,0,0,0,0,0,0,0,515,0,0,0,0,0.0000000,0.0000000,0.0000000,0.0000000,10.00,38.4059753,-110.7852402,1369.0000000,2.2,296.1,0.9,0.0,0.0,904,0,0,858.36,15.64,22.39,0
9:47:17,0,0,0,0,0,0,0,0,0,0,0,514,0,0,0,0,0.0000000,0.0000000,0.0000000,0.0000000,10.00,38.4059792,-110.7852402,1368.9000244,2.4,298.9,0.9,0.0,0.0,904,0,0,858.33,15.66,22.48,0
9:47:18,0,0,0,0,0,0,0,0,0,0,0,515,0,0,0,0,0.0000000,0.0000000,0.0000000,0.0000000,10.00,38.4059830,-110.7852707,1368.8000488,2.6,293.0,0.9,0.0,0.0,904,0,0,858.33,15.72,22.41,0
9:47:19,0,0,0,0,0,0,0,0,0,0,0,514,0,0,0,0,0.0000000,0.0000000,0.0000000,0.0000000,10.00,38.4059906,-110.7852783,1368.9000244,2.5,292.7,0.9,0.0,0.0,904,0,0,858.34,15.79,22.10,0
9:47:20,0,0,0,0,0,0,0,0,0,0,0,515,0,0,0,0,0.0000000,0.0000000,0.0000000,0.0000000,10.00,38.4059944,-110.7852936,1369.0000000,2.7,291.4,0.9,0.0,0.0,904,0,0,858.31,15.88,21.98,0
9:47:21,0,0,0,0,0,0,0,0,0,0,0,514,0,0,0,0,0.0000000,0.0000000,0.0000000,0.0000000,10.00,38.4059982,-110.7853165,1369.1999512,2.4,280.1,0.9,0.0,0.0,904,0,0,858.28,16.02,21.95,0
9:47:22,0,0,0,0,0,0,0,0,0,0,0,515,0,0,0,0,0.0000000,0.0000000,0.0000000,0.0000000,10.00,38.4060020,-110.7853317,1369.3000488,2.3,281.1,0.9,0.0,0.0,904,0,0,858.34,16.14,21.86,0
9:47:23,0,0,0,0,0,0,0,0,0,0,0,514,0,0,0,0,0.0000000,0.0000000,0.0000000,0.0000000,10.00,38.4060020,-110.7853470,1369.3000488,2.3,281.1,0.9,0.0,0.0,904,0,0,858.47,16.28,21.82,0
9:47:24,0,0,0,0,0,0,0,0,0,0,0,515,0,0,0,0,0.0000000,0.0000000,0.0000000,0.0000000,10.00,38.4060059,-110.7853546,1369.1999512,2.1,275.4,0.9,0.0,0.0,904,0,0,858.40,16.33,21.84,0
9:47:25,0,0,0,0,0,0,0,0,0,0,0,514,0,0,0,0,0.0000000,0.0000000,0.0000000,0.0000000,10.00,38.4060059,-110.7853699,1369.1999512,2.2,274.4,0.9,0.0,0.0,904,0,0,858.33,16.37,21.83,0
9:47:26,0,0,0,0,0,0,0,0,0,0,0,515,0,0,0,0,0.0000000,0.0000000,0.0000000,0.0000000,10.00,38.4060097,-110.7853851,1369.0999756,2.2,275.6,0.9,0.0,0.0,903,0,0,858.38,16.34,21.79,0
9:47:27,0,0,0,0,0,0,0,0,0,0,0,514,0,0,0,0,0.0000000,0.0000000,0.0000000,0.0000000,10.00,38.4060097,-110.7853928,1369.0999756,2.3,273.9,0.9,0.0,0.0,904,0,0,858.43,16.39,21.75,0
9:47:28,0,0,0,0,0,0,0,0,0,0,0,515,0,0,0,0,0.0000000,0.0000000,0.0000000,0.0000000,10.00,38.4060097,-110.7854080,1369.1999512,2.2,272.4,0.9,0.0,0.0,904,0,0,858.38,16.48,21.76,0
9:47:29,0,0,0,0,0,0,0,0,0,0,0,514,0,0,0,0,0.0000000,0.0000000,0.0000000,0.0000000,10.00,38.4060135,-110.7854233,1369.1999512,2.3,284.4,0.9,0.0,0.0,904,0,0,858.37,16.33,21.79,0
9:47:30,0,0,0,0,0,0,0,0,0,0,0,515,0,0,0,0,0.0000000,0.0000000,0.0000000,0.0000000,10.00,38.4060135,-110.7854309,1369.3000488,2.3,284.0,0.9,0.0,0.0,904,0,0,858.42,16.30,21.67,0
9:47:31,0,0,0,0,0,0,0,0,0,0,0,515,0,0,0,0,0.0000000,0.0000000,0.0000000,0.0000000,10.00,38.4060173,-110.7854462,1369.3000488,2.1,288.1,0.9,0.0,0.0,904,0,0,858.66,16.42,21.56,0
9:47:32,0,0,0,0,0,0,0,0,0,0,0,514,0,0,0,0,0.0000000,0.0000000,0.0000000,0.0000000,10.00,38.4060173,-110.7854614,1369.3000488,1.9,273.4,0.9,0.0,0.0,904,0,0,858.77,16.63,21.50,0
9:47:33,0,0,0,0,0,0,0,0,0,0,0,516,0,0,0,0,0.0000000,0.0000000,0.0000000,0.0000000,10.00,38.4060173,-110.7854691,1369.4000244,1.8,256.7,0.9,0.0,0.0,905,0,0,858.88,16.56,21.46,0
9:47:34,0,0,0,0,0,0,0,0,0,0,0,516,0,0,0,0,0.0000000,0.0000000,0.0000000,0.0000000,10.00,38.4060173,-110.7854843,1369.5000000,1.6,246.2,0.9,0.0,0.0,905,0,0,858.82,16.33,21.38,0
9:47:35,0,0,0,0,0,0,0,0,0,0,0,515,0,0,0,0,0.0000000,0.0000000,0.0000000,0.0000000,10.00,38.4060173,-110.7854843,1369.5999756,0.9,264.2,0.9,0.0,0.0,902,0,0,858.52,16.39,21.39,0
9:47:36,0,0,0,0,0,0,0,0,0,0,0,514,0,0,0,0,0.0000000,0.0000000,0.0000000,0.0000000,10.00,38.4060173,-110.7854843,1369.6999512,0.6,261.7,0.9,0.0,0.0,904,0,0,858.73,16.27,21.42,0
9:47:37,0,0,0,0,0,0,0,0,0,0,0,516,0,0,0,0,0.0000000,0.0000000,0.0000000,0.0000000,10.00,38.4060173,-110.7854843,1369.8000488,0.4,25.3,0.9,0.0,0.0,904,0,0,858.52,16.86,21.47,0
9:47:38,0,0,0,0,0,0,0,0,0,0,0,514,0,0,0,0,0.0000000,0.0000000,0.0000000,0.0000000,10.00,38.4060249,-110.7854843,1369.6999512,1.0,46.7,0.9,0.0,0.0,903,0,0,858.83,16.94,21.47,0
9:47:39,0,0,0,0,0,0,0,0,0,0,0,515,0,0,0,0,0.0000000,0.0000000,0.0000000,0.0000000,10.00,38.4060287,-110.7854691,1369.6999512,1.4,44.5,0.9,0.0,0.0,904,0,0,858.76,16.71,21.49,0
9:47:40,0,0,0,0,0,0,0,0,0,0,0,515,0,0,0,0,0.0000000,0.0000000,0.0000000,0.0000000,10.00,38.4060364,-110.7854691,1369.8000488,1.3,29.0,0.9,0.0,0.0,903,0,0,858.40,16.36,21.50,0
9:47:41,0,0,0,0,0,0,0,0,0,0,0,515,0,0,0,0,0.0000000,0.0000000,0.0000000,0.0000000,10.00,38.4060440,-110.7854843,1369.6999512,1.8,349.4,0.9,0.0,0.0,904,0,0,858.14,16.42,21.49,0
9:47:42,0,0,0,0,0,0,0,0,0,0,0,516,0,0,0,0,0.0000000,0.0000000,0.0000000,0.0000000,10.00,38.4060555,-110.7854843,1369.6999512,2.0,324.0,0.9,0.0,0.0,904,0,0,858.32,16.39,21.54,0
9:47:43,0,0,0,0,0,0,0,0,0,0,0,515,0,0,0,0,0.0000000,0.0000000,0.0000000,0.0000000,10.00,38.4060593,-110.7854996,1369.6999512,2.3,294.2,0.9,0.0,0.0,903,0,0,858.29,16.36,21.50,0
9:47:44,0,0,0,0,0,0,0,0,0,0,0,515,0,0,0,0,0.0000000,0.0000000,0.0000000,0.0000000,10.00,38.4060593,-110.7855072,1369.6999512,2.5,287.4,0.9,0.0,0.0,903,0,0,858.52,16.45,21.35,0
9:47:45,0,0,0,0,0,0,0,0,0,0,0,515,0,0,0,0,0.0000000,0.0000000,0.0000000,0.0000000,10.00,38.4060631,-110.7855225,1369.6999512,2.4,277.0,0.9,0.0,0.0,904,0,0,858.59,16.57,21.23,0
9:47:46,0,0,0,0,0,0,0,0,0,0,0,514,0,0,0,0,0.0000000,0.0000000,0.0000000,0.0000000,10.00,38.4060631,-110.7855377,1369.8000488,2.5,258.6,0.9,0.0,0.0,904,0,0,858.84,16.75,21.12,0
9:47:47,0,0,0,0,0,0,0,0,0,0,0,515,0,0,0,0,0.0000000,0.0000000,0.0000000,0.0000000,10.00,38.4060593,-110.7855606,1369.8000488,2.7,250.9,0.9,0.0,0.0,904,0,0,858.77,16.92,21.11,0
9:47:48,0,0,0,0,0,0,0,0,0,0,0,514,0,0,0,0,0.0000000,0.0000000,0.0000000,0.0000000,10.00,38.4060555,-110.7855759,1369.9000244,2.9,234.5,0.9,0.0,0.0,904,0,0,858.70,17.03,21.12,0
9:47:49,0,0,0,0,0,0,0,0,0,0,0,514,0,0,0,0,0.0000000,0.0000000,0.0000000,0.0000000,10.00,38.4060478,-110.7855835,1369.8000488,2.7,237.6,0.9,0.0,0.0,904,0,0,858.81,17.14,21.14,0
9:47:50,0,0,0,0,0,0,0,0,0,0,0,515,0,0,0,0,0.0000000,0.0000000,0.0000000,0.0000000,10.00,38.4060402,-110.7855988,1369.9000244,2.5,221.8,0.9,0.0,0.0,904,0,0,859.07,17.14,21.16,0
9:47:51,0,0,0,0,0,0,0,0,0,0,0,514,0,0,0,0,0.0000000,0.0000000,0.0000000,0.0000000,10.00,38.4060326,-110.7855988,1370.0999756,2.8,222.6,0.9,0.0,0.0,904,0,0,859.20,17.29,21.20,0
9:47:52,0,0,0,0,0,0,0,0,0,0,0,514,0,0,0,0,0.0000000,0.0000000,0.0000000,0.0000000,10.00,38.4060249,-110.7856140,1370.1999512,2.5,224.7,0.9,0.0,0.0,904,0,0,859.21,17.17,21.25,0
9:47:54,0,0,0,0,0,0,0,0,0,0,0,514,0,0,0,0,0.0000000,0.0000000,0.0000000,0.0000000,10.00,38.4060173,-110.7856293,1370.3000488,2.3,231.2,0.9,0.0,0.0,904,0,0,859.17,17.15,21.28,0
9:47:55,0,0,0,0,0,0,0,0,0,0,0,514,0,0,0,0,0.0000000,0.0000000,0.0000000,0.0000000,10.00,38.4060097,-110.7856369,1370.3000488,2.5,228.1,0.9,0.0,0.0,903,0,0,859.08,17.09,21.27,0
9:47:56,0,0,0,0,0,0,0,0,0,0,0,516,0,0,0,0,0.0000000,0.0000000,0.0000000,0.0000000,10.00,38.4060020,-110.7856522,1370.3000488,2.3,223.7,0.9,0.0,0.0,904,0,0,859.04,17.14,21.29,0
9:47:57,0,0,0,0,0,0,0,0,0,0,0,515,0,0,0,0,0.0000000,0.0000000,0.0000000,0.0000000,10.00,38.4059944,-110.7856674,1370.3000488,2.3,222.5,0.9,0.0,0.0,904,0,0,858.94,16.92,21.32,0
9:47:58,0,0,0,0,0,0,0,0,0,0,0,515,0,0,0,0,0.0000000,0.0000000,0.0000000,0.0000000,10.00,38.4059868,-110.7856674,1370.4000244,2.4,229.2,0.9,0.0,0.0,904,0,0,858.97,16.97,21.33,0
9:47:59,0,0,0,0,0,0,0,0,0,0,0,515,0,0,0,0,0.0000000,0.0000000,0.0000000,0.0000000,10.00,38.4059792,-110.7856750,1370.5000000,2.5,234.7,0.9,0.0,0.0,904,0,0,858.79,16.85,21.36,0
9:48:00,0,0,0,0,0,0,0,0,0,0,0,515,0,0,0,0,0.0000000,0.0000000,0.0000000,0.0000000,10.00,38.4059753,-110.7856903,1370.5000000,2.6,242.5,0.9,0.0,0.0,904,0,0,858.65,16.71,21.36,0
9:48:01,0,0,0,0,0,0,0,0,0,0,0,514,0,0,0,0,0.0000000,0.0000000,0.0000000,0.0000000,10.00,38.4059677,-110.7857056,1370.5000000,2.5,244.3,0.9,0.0,0.0,904,0,0,858.70,16.72,21.36,0
9:48:02,0,0,0,0,0,0,0,0,0,0,0,515,0,0,0,0,0.0000000,0.0000000,0.0000000,0.0000000,10.00,38.4059639,-110.7857132,1370.5000000,2.4,252.4,0.9,0.0,0.0,904,0,0,858.66,16.66,21.39,0
9:48:03,0,0,0,0,0,0,0,0,0,0,0,515,0,0,0,0,0.0000000,0.0000000,0.0000000,0.0000000,10.00,38.4059601,-110.7857285,1370.5000000,2.2,266.1,0.9,0.0,0.0,904,0,0,858.54,16.66,21.42,0
9:48:04,0,0,0,0,0,0,0,0,0,0,0,515,0,0,0,0,0.0000000,0.0000000,0.0000000,0.0000000,10.00,38.4059601,-110.7857437,1370.5000000,2.0,270.2,0.9,0.0,0.0,904,0,0,858.50,16.63,21.48,0
9:48:05,0,0,0,0,0,0,0,0,0,0,0,515,0,0,0,0,0.0000000,0.0000000,0.0000000,0.0000000,10.00,38.4059601,-110.7857513,1370.5000000,2.1,265.1,0.9,0.0,0.0,904,0,0,858.51,16.59,21.60,0
9:48:06,0,0,0,0,0,0,0,0,0,0,0,516,0,0,0,0,0.0000000,0.0000000,0.0000000,0.0000000,10.00,38.4059601,-110.7857666,1370.5999756,2.0,253.0,0.9,0.0,0.0,904,0,0,858.59,16.60,21.68,0
9:48:07,0,0,0,0,0,0,0,0,0,0,0,514,0,0,0,0,0.0000000,0.0000000,0.0000000,0.0000000,10.00,38.4059563,-110.7857819,1370.8000488,1.9,238.9,0.9,0.0,0.0,904,0,0,858.62,16.59,21.75,0
9:48:08,0,0,0,0,0,0,0,0,0,0,0,515,0,0,0,0,0.0000000,0.0000000,0.0000000,0.0000000,10.00,38.4059563,-110.7857895,1370.9000244,1.7,237.4,0.9,0.0,0.0,904,0,0,858.28,16.43,21.83,0
9:48:09,0,0,0,0,0,0,0,0,0,0,0,514,0,0,0,0,0.0000000,0.0000000,0.0000000,0.0000000,10.00,38.4059525,-110.7857895,1371.0000000,1.8,265.7,0.9,0.0,0.0,904,0,0,858.34,16.19,21.93,0
9:48:10,0,0,0,0,0,0,0,0,0,0,0,515,0,0,0,0,0.0000000,0.0000000,0.0000000,0.0000000,10.00,38.4059563,-110.7858047,1371.0000000,1.6,275.9,0.9,0.0,0.0,903,0,0,858.04,16.42,21.98,0
9:48:11,0,0,0,0,0,0,0,0,0,0,0,514,0,0,0,0,0.0000000,0.0000000,0.0000000,0.0000000,10.00,38.4059601,-110.7858047,1371.0000000,1.6,350.3,0.9,0.0,0.0,904,0,0,857.39,16.60,22.02,0
9:48:12,0,0,0,0,0,0,0,0,0,0,0,515,0,0,0,0,0.0000000,0.0000000,0.0000000,0.0000000,10.00,38.4059677,-110.7858047,1371.0000000,1.8,10.8,0.9,0.0,0.0,903,0,0,857.34,16.50,22.14,0
9:48:13,0,0,0,0,0,0,0,0,0,0,0,515,0,0,0,0,0.0000000,0.0000000,0.0000000,0.0000000,10.00,38.4059792,-110.7858047,1371.0000000,2.1,13.8,0.9,0.0,0.0,904,0,0,857.83,16.28,22.27,0
9:48:14,0,0,0,0,0,0,0,0,0,0,0,514,0,0,0,0,0.0000000,0.0000000,0.0000000,0.0000000,10.00,38.4059830,-110.7858047,1371.0000000,2.1,18.1,0.9,0.0,0.0,904,0,0,858.07,16.02,22.36,0
9:48:15,0,0,0,0,0,0,0,0,0,0,0,515,0,0,0,0,0.0000000,0.0000000,0.0000000,0.0000000,10.00,38.4059944,-110.7858047,1370.9000244,2.0,8.6,0.9,0.0,0.0,904,0,0,858.14,15.85,22.40,0
9:48:16,0,0,0,0,0,0,0,0,0,0,0,514,0,0,0,0,0.0000000,0.0000000,0.0000000,0.0000000,10.00,38.4060059,-110.7858047,1371.0000000,2.3,351.5,0.9,0.0,0.0,904,0,0,858.19,15.61,22.45,0
9:48:17,0,0,0,0,0,0,0,0,0,0,0,515,0,0,0,0,0.0000000,0.0000000,0.0000000,0.0000000,10.00,38.4060173,-110.7858047,1371.0999756,2.3,337.8,0.9,0.0,0.0,903,0,0,858.25,15.47,22.51,0
9:48:18,0,0,0,0,0,0,0,0,0,0,0,515,0,0,0,0,0.0000000,0.0000000,0.0000000,0.0000000,10.00,38.4060211,-110.7858047,1371.3000488,1.8,325.0,0.9,0.0,0.0,904,0,0,858.30,15.41,22.53,0
9:48:19,0,0,0,0,0,0,0,0,0,0,0,515,0,0,0,0,0.0000000,0.0000000,0.0000000,0.0000000,10.00,38.4060287,-110.7858200,1371.1999512,1.8,346.0,0.9,0.0,0.0,903,0,0,857.23,15.79,22.55,0
9:48:20,0,0,0,0,0,0,0,0,0,0,0,515,0,0,0,0,0.0000000,0.0000000,0.0000000,0.0000000,10.00,38.4060402,-110.7858200,1371.3000488,2.2,28.5,0.9,0.0,0.0,904,0,0,857.58,17.85,22.63,0
9:48:21,0,0,0,0,0,0,0,0,0,0,0,515,0,0,0,0,0.0000000,0.0000000,0.0000000,0.0000000,10.00,38.4060440,-110.7858047,1371.3000488,2.3,52.5,0.9,0.0,0.0,905,0,0,857.85,18.34,22.81,0
9:48:22,0,0,0,0,0,0,0,0,0,0,0,515,0,0,0,0,0.0000000,0.0000000,0.0000000,0.0000000,10.00,38.4060516,-110.7857895,1371.3000488,2.1,56.7,0.9,0.0,0.0,904,0,0,857.83,18.10,22.96,0
9:48:23,0,0,0,0,0,0,0,0,0,0,0,514,0,0,0,0,0.0000000,0.0000000,0.0000000,0.0000000,10.00,38.4060593,-110.7857819,1371.4000244,2.1,65.2,0.9,0.0,0.0,904,0,0,857.51,16.89,23.11,0
9:48:24,0,0,0,0,0,0,0,0,0,0,0,515,0,0,0,0,0.0000000,0.0000000,0.0000000,0.0000000,10.00,38.4060593,-110.7857666,1371.4000244,2.0,60.9,0.9,0.0,0.0,904,0,0,857.92,16.45,23.22,0
9:48:25,0,0,0,0,0,0,0,0,0,0,0,515,0,0,0,0,0.0000000,0.0000000,0.0000000,0.0000000,10.00,38.4060631,-110.7857666,1371.3000488,1.9,51.6,0.9,0.0,0.0,904,0,0,856.54,16.01,23.32,0
9:48:26,0,0,0,0,0,0,0,0,0,0,0,514,0,0,0,0,0.0000000,0.0000000,0.0000000,0.0000000,10.00,38.4060707,-110.7857513,1371.3000488,1.7,34.9,0.9,0.0,0.0,904,0,0,856.44,15.92,23.40,0
9:48:27,0,0,0,0,0,0,0,0,0,0,0,515,0,0,0,0,0.0000000,0.0000000,0.0000000,0.0000000,9.00,38.4060783,-110.7857513,1371.1999512,2.1,23.7,1.0,0.0,0.0,903,0,0,856.96,15.90,23.46,0
9:48:28,0,0,0,0,0,0,0,0,0,0,0,515,0,0,0,0,0.0000000,0.0000000,0.0000000,0.0000000,9.00,38.4060860,-110.7857437,1371.0999756,2.2,31.0,1.0,0.0,0.0,904,0,0,856.37,15.52,23.54,0
9:48:29,0,0,0,0,0,0,0,0,0,0,0,514,0,0,0,0,0.0000000,0.0000000,0.0000000,0.0000000,9.00,38.4060974,-110.7857437,1371.0000000,2.1,25.3,1.0,0.0,0.0,904,0,0,857.05,15.47,23.57,0
9:48:30,0,0,0,0,0,0,0,0,0,0,0,515,0,0,0,0,0.0000000,0.0000000,0.0000000,0.0000000,9.00,38.4061012,-110.7857285,1370.9000244,2.2,28.6,1.0,0.0,0.0,903,0,0,856.65,15.64,23.57,0
9:48:31,0,0,0,0,0,0,0,0,0,0,0,515,0,0,0,0,0.0000000,0.0000000,0.0000000,0.0000000,9.00,38.4061127,-110.7857285,1370.8000488,2.1,28.8,1.0,0.0,0.0,903,0,0,856.85,15.56,23.58,0
9:48:32,0,0,0,0,0,0,0,0,0,0,0,514,0,0,0,0,0.0000000,0.0000000,0.0000000,0.0000000,9.00,38.4061203,-110.7857132,1370.8000488,1.9,25.9,1.0,0.0,0.0,904,0,0,856.48,15.56,23.61,0
