Time, Motor A Speed, Motor A Dir, Motor B Speed, Motor B Dir, Servo Rail Current Sensor, Servo Pos - Arm L, Servo Pos - Arm R, Servo Pos - End, Servo Pos - Hopper, Servo Pos - Lid, Servo Pos - Extra, Servo Current, LED - Front L, LED - Front R, LED - Back L, LED - Back R, IMU Pitch, IMU Roll, IMU Yaw, Compass Heading, GPS Sats, GPS Latitude, GPS Longitude, GPS Altitude, GPS Speed, GPS Angle, GPS HDOP, GPS VDOP, GPS PDOP, Battery, Comm Xbee Latency, Comm Arduino Latency, Pressure, Humidity, Temperature, uRADMonitor
9:57:52,0,0,0,0,0,0,0,0,0,0,0,515,0,0,0,0,0.0000000,0.0000000,0.0000000,0.0000000,11.00,38.4065628,-110.7857513,1371.9000244,2.8,138.6,0.8,0.0,0.0,902,0,0,859.17,31.17,22.89,0
9:57:53,0,0,0,0,0,0,0,0,0,0,0,515,0,0,0,0,0.0000000,0.0000000,0.0000000,0.0000000,11.00,38.4065514,-110.7857437,1371.9000244,3.5,140.5,0.8,0.0,0.0,902,0,0,859.13,25.82,23.00,0
9:57:54,0,0,0,0,0,0,0,0,0,0,0,515,0,0,0,0,0.0000000,0.0000000,0.0000000,0.0000000,11.00,38.4065399,-110.7857285,1371.9000244,2.4,142.2,0.8,0.0,0.0,902,0,0,859.01,28.08,23.01,0
9:57:55,0,0,0,0,0,0,0,0,0,0,0,514,0,0,0,0,0.0000000,0.0000000,0.0000000,0.0000000,10.00,38.4065285,-110.7857132,1371.8000488,2.9,145.2,0.8,0.0,0.0,902,0,0,858.89,24.08,23.07,0
9:57:56,0,0,0,0,0,0,0,0,0,0,0,514,0,0,0,0,0.0000000,0.0000000,0.0000000,0.0000000,11.00,38.4065170,-110.7857056,1371.6999512,2.7,145.4,0.8,0.0,0.0,902,0,0,858.99,20.28,23.13,0
9:57:57,0,0,0,0,0,0,0,0,0,0,0,514,0,0,0,0,0.0000000,0.0000000,0.0000000,0.0000000,11.00,38.4065056,-110.7857056,1371.5999756,2.4,154.1,0.8,0.0,0.0,901,0,0,858.69,19.78,23.14,0
9:57:58,0,0,0,0,0,0,0,0,0,0,0,515,0,0,0,0,0.0000000,0.0000000,0.0000000,0.0000000,10.00,38.4064941,-110.7856903,1371.5000000,2.6,164.6,0.8,0.0,0.0,901,0,0,859.65,17.69,23.05,0
9:57:59,0,0,0,0,0,0,0,0,0,0,0,515,0,0,0,0,0.0000000,0.0000000,0.0000000,0.0000000,11.00,38.4064827,-110.7856903,1371.4000244,2.5,181.5,0.8,0.0,0.0,902,0,0,857.39,16.02,22.96,0
9:58:00,0,0,0,0,0,0,0,0,0,0,0,515,0,0,0,0,0.0000000,0.0000000,0.0000000,0.0000000,10.00,38.4064713,-110.7856903,1371.3000488,2.6,193.8,0.9,0.0,0.0,902,0,0,857.48,15.46,22.87,0
9:58:01,0,0,0,0,0,0,0,0,0,0,0,514,0,0,0,0,0.0000000,0.0000000,0.0000000,0.0000000,10.00,38.4064560,-110.7857056,1371.3000488,2.4,210.5,0.9,0.0,0.0,902,0,0,858.14,15.27,22.80,0
9:58:02,0,0,0,0,0,0,0,0,0,0,0,514,0,0,0,0,0.0000000,0.0000000,0.0000000,0.0000000,10.00,38.4064484,-110.7857056,1371.3000488,2.5,205.6,0.9,0.0,0.0,902,0,0,857.00,15.37,22.71,0
9:58:03,0,0,0,0,0,0,0,0,0,0,0,515,0,0,0,0,0.0000000,0.0000000,0.0000000,0.0000000,11.00,38.4064369,-110.7857132,1371.3000488,2.5,213.7,0.8,0.0,0.0,902,0,0,858.83,15.12,22.78,0
9:58:04,0,0,0,0,0,0,0,0,0,0,0,514,0,0,0,0,0.0000000,0.0000000,0.0000000,0.0000000,10.00,38.4064331,-110.7857285,1371.3000488,2.1,227.5,0.9,0.0,0.0,902,0,0,858.62,15.27,22.77,0
9:58:05,0,0,0,0,0,0,0,0,0,0,0,514,0,0,0,0,0.0000000,0.0000000,0.0000000,0.0000000,10.00,38.4064293,-110.7857285,1371.4000244,0.4,241.6,0.9,0.0,0.0,902,0,0,858.40,15.32,22.68,0
9:58:06,0,0,0,0,0,0,0,0,0,0,0,497,0,0,0,0,0.0000000,0.0000000,0.0000000,0.0000000,10.00,38.4064293,-110.7857285,1371.4000244,0.3,250.4,0.9,0.0,0.0,893,0,0,858.39,15.43,22.56,0
9:58:07,0,0,0,0,0,0,0,0,0,0,0,515,0,0,0,0,0.0000000,0.0000000,0.0000000,0.0000000,10.00,38.4064255,-110.7857285,1371.4000244,0.2,202.6,0.9,0.0,0.0,902,0,0,858.51,15.50,22.51,0
9:58:08,0,0,0,0,0,0,0,0,0,0,0,515,0,0,0,0,0.0000000,0.0000000,0.0000000,0.0000000,10.00,38.4064255,-110.7857437,1371.5000000,0.6,243.9,0.9,0.0,0.0,902,0,0,858.82,15.49,22.45,0
9:58:09,0,0,0,0,0,0,0,0,0,0,0,515,0,0,0,0,0.0000000,0.0000000,0.0000000,0.0000000,10.00,38.4064217,-110.7857437,1371.5999756,1.1,250.9,0.9,0.0,0.0,902,0,0,859.01,15.53,22.37,0
9:58:10,0,0,0,0,0,0,0,0,0,0,0,515,0,0,0,0,0.0000000,0.0000000,0.0000000,0.0000000,10.00,38.4064178,-110.7857513,1371.6999512,1.7,241.3,0.9,0.0,0.0,902,0,0,858.96,15.76,22.28,0
9:58:11,0,0,0,0,0,0,0,0,0,0,0,514,0,0,0,0,0.0000000,0.0000000,0.0000000,0.0000000,10.00,38.4064102,-110.7857666,1371.6999512,1.8,225.3,0.9,0.0,0.0,902,0,0,859.08,15.82,22.28,0
9:58:12,0,0,0,0,0,0,0,0,0,0,0,515,0,0,0,0,0.0000000,0.0000000,0.0000000,0.0000000,10.00,38.4063988,-110.7857819,1371.6999512,2.3,225.6,0.9,0.0,0.0,902,0,0,858.94,15.84,22.31,0
9:58:13,0,0,0,0,0,0,0,0,0,0,0,515,0,0,0,0,0.0000000,0.0000000,0.0000000,0.0000000,10.00,38.4063911,-110.7857895,1371.6999512,2.3,221.5,0.9,0.0,0.0,901,0,0,859.08,15.82,22.33,0
9:58:14,0,0,0,0,0,0,0,0,0,0,0,515,0,0,0,0,0.0000000,0.0000000,0.0000000,0.0000000,10.00,38.4063873,-110.7858047,1371.6999512,2.2,225.6,0.9,0.0,0.0,901,0,0,858.69,15.82,22.38,0
9:58:16,0,0,0,0,0,0,0,0,0,0,0,514,0,0,0,0,0.0000000,0.0000000,0.0000000,0.0000000,10.00,38.4063797,-110.7858200,1371.8000488,2.3,237.6,0.9,0.0,0.0,902,0,0,858.57,15.75,22.46,0
9:58:17,0,0,0,0,0,0,0,0,0,0,0,515,0,0,0,0,0.0000000,0.0000000,0.0000000,0.0000000,10.00,38.4063835,-110.7858276,1371.6999512,2.5,268.9,0.9,0.0,0.0,902,0,0,858.34,15.67,22.54,0
9:58:18,0,0,0,0,0,0,0,0,0,0,0,515,0,0,0,0,0.0000000,0.0000000,0.0000000,0.0000000,10.00,38.4063835,-110.7858429,1371.6999512,2.2,315.3,0.9,0.0,0.0,902,0,0,858.07,15.58,22.62,0
9:58:19,0,0,0,0,0,0,0,0,0,0,0,515,0,0,0,0,0.0000000,0.0000000,0.0000000,0.0000000,10.00,38.4063911,-110.7858429,1371.6999512,2.4,325.5,0.9,0.0,0.0,902,0,0,858.27,15.70,22.68,0
9:58:20,0,0,0,0,0,0,0,0,0,0,0,514,0,0,0,0,0.0000000,0.0000000,0.0000000,0.0000000,10.00,38.4063950,-110.7858582,1371.5999756,2.4,306.5,0.9,0.0,0.0,902,0,0,858.48,15.72,22.73,0
9:58:21,0,0,0,0,0,0,0,0,0,0,0,515,0,0,0,0,0.0000000,0.0000000,0.0000000,0.0000000,10.00,38.4064026,-110.7858658,1371.5000000,2.5,291.0,0.9,0.0,0.0,902,0,0,858.59,15.67,22.75,0
9:58:22,0,0,0,0,0,0,0,0,0,0,0,515,0,0,0,0,0.0000000,0.0000000,0.0000000,0.0000000,10.00,38.4064102,-110.7858810,1371.4000244,2.4,303.1,0.9,0.0,0.0,902,0,0,858.56,15.60,22.76,0
9:58:23,0,0,0,0,0,0,0,0,0,0,0,515,0,0,0,0,0.0000000,0.0000000,0.0000000,0.0000000,10.00,38.4064102,-110.7858963,1371.4000244,2.2,277.2,0.9,0.0,0.0,902,0,0,858.67,15.61,22.83,0
9:58:24,0,0,0,0,0,0,0,0,0,0,0,514,0,0,0,0,0.0000000,0.0000000,0.0000000,0.0000000,10.00,38.4064140,-110.7859039,1371.3000488,2.7,273.5,0.9,0.0,0.0,902,0,0,858.71,15.52,22.90,0
9:58:25,0,0,0,0,0,0,0,0,0,0,0,515,0,0,0,0,0.0000000,0.0000000,0.0000000,0.0000000,10.00,38.4064178,-110.7859192,1371.3000488,2.2,291.0,0.9,0.0,0.0,902,0,0,859.05,15.43,22.87,0
9:58:26,0,0,0,0,0,0,0,0,0,0,0,514,0,0,0,0,0.0000000,0.0000000,0.0000000,0.0000000,10.00,38.4064178,-110.7859344,1371.3000488,1.9,272.3,0.9,0.0,0.0,902,0,0,858.99,15.29,22.80,0
9:58:27,0,0,0,0,0,0,0,0,0,0,0,515,0,0,0,0,0.0000000,0.0000000,0.0000000,0.0000000,10.00,38.4064178,-110.7859421,1371.4000244,2.8,258.4,0.9,0.0,0.0,902,0,0,859.20,15.26,22.73,0
9:58:28,0,0,0,0,0,0,0,0,0,0,0,515,0,0,0,0,0.0000000,0.0000000,0.0000000,0.0000000,10.00,38.4064178,-110.7859573,1371.4000244,2.7,249.3,0.9,0.0,0.0,902,0,0,859.20,15.23,22.64,0
9:58:29,0,0,0,0,0,0,0,0,0,0,0,515,0,0,0,0,0.0000000,0.0000000,0.0000000,0.0000000,10.00,38.4064102,-110.7859802,1371.5000000,2.5,240.6,0.9,0.0,0.0,901,0,0,859.26,15.21,22.48,0
9:58:30,0,0,0,0,0,0,0,0,0,0,0,514,0,0,0,0,0.0000000,0.0000000,0.0000000,0.0000000,10.00,38.4064064,-110.7859802,1371.5000000,2.2,238.1,0.9,0.0,0.0,902,0,0,857.71,15.73,22.29,0
9:58:31,0,0,0,0,0,0,0,0,0,0,0,515,0,0,0,0,0.0000000,0.0000000,0.0000000,0.0000000,10.00,38.4063988,-110.7859955,1371.5000000,2.2,226.7,0.9,0.0,0.0,902,0,0,856.78,16.43,22.13,0
9:58:32,0,0,0,0,0,0,0,0,0,0,0,515,0,0,0,0,0.0000000,0.0000000,0.0000000,0.0000000,10.00,38.4063911,-110.7860107,1371.4000244,2.3,224.1,0.9,0.0,0.0,903,0,0,858.65,16.95,22.19,0
9:58:33,0,0,0,0,0,0,0,0,0,0,0,515,0,0,0,0,0.0000000,0.0000000,0.0000000,0.0000000,10.00,38.4063797,-110.7860260,1371.3000488,2.3,193.2,0.9,0.0,0.0,902,0,0,856.85,15.98,22.23,0
9:58:34,0,0,0,0,0,0,0,0,0,0,0,515,0,0,0,0,0.0000000,0.0000000,0.0000000,0.0000000,10.00,38.4063721,-110.7860260,1371.1999512,2.1,206.2,0.9,0.0,0.0,902,0,0,858.96,15.67,22.25,0
9:58:35,0,0,0,0,0,0,0,0,0,0,0,514,0,0,0,0,0.0000000,0.0000000,0.0000000,0.0000000,10.00,38.4063644,-110.7860336,1371.0999756,1.5,249.4,0.9,0.0,0.0,902,0,0,858.33,15.52,22.16,0
9:58:36,0,0,0,0,0,0,0,0,0,0,0,514,0,0,0,0,0.0000000,0.0000000,0.0000000,0.0000000,10.00,38.4063644,-110.7860336,1371.0000000,0.9,11.9,0.9,0.0,0.0,902,0,0,858.37,15.64,22.12,0
9:58:37,0,0,0,0,0,0,0,0,0,0,0,514,0,0,0,0,0.0000000,0.0000000,0.0000000,0.0000000,10.00,38.4063644,-110.7860336,1370.9000244,0.1,322.6,0.9,0.0,0.0,902,0,0,858.63,15.78,22.11,0
9:58:38,0,0,0,0,0,0,0,0,0,0,0,515,0,0,0,0,0.0000000,0.0000000,0.0000000,0.0000000,10.00,38.4063644,-110.7860336,1370.8000488,0.1,158.9,0.9,0.0,0.0,903,0,0,858.69,15.85,22.09,0
9:58:39,0,0,0,0,0,0,0,0,0,0,0,514,0,0,0,0,0.0000000,0.0000000,0.0000000,0.0000000,10.00,38.4063644,-110.7860336,1370.8000488,0.1,90.3,0.9,0.0,0.0,902,0,0,859.06,15.85,22.08,0
9:58:40,0,0,0,0,0,0,0,0,0,0,0,515,0,0,0,0,0.0000000,0.0000000,0.0000000,0.0000000,11.00,38.4063606,-110.7860336,1370.8000488,0.5,200.3,0.8,0.0,0.0,902,0,0,858.89,15.99,22.09,0
9:58:41,0,0,0,0,0,0,0,0,0,0,0,515,0,0,0,0,0.0000000,0.0000000,0.0000000,0.0000000,11.00,38.4063568,-110.7860336,1370.6999512,1.2,213.5,0.8,0.0,0.0,902,0,0,858.68,15.96,22.08,0
9:58:42,0,0,0,0,0,0,0,0,0,0,0,515,0,0,0,0,0.0000000,0.0000000,0.0000000,0.0000000,11.00,38.4063568,-110.7860336,1370.8000488,1.4,235.1,0.8,0.0,0.0,902,0,0,858.56,15.76,22.03,0
9:58:43,0,0,0,0,0,0,0,0,0,0,0,515,0,0,0,0,0.0000000,0.0000000,0.0000000,0.0000000,11.00,38.4063606,-110.7860489,1370.9000244,1.8,283.7,0.8,0.0,0.0,902,0,0,858.33,15.69,21.81,0
9:58:44,0,0,0,0,0,0,0,0,0,0,0,514,0,0,0,0,0.0000000,0.0000000,0.0000000,0.0000000,11.00,38.4063721,-110.7860641,1370.8000488,2.0,314.8,0.8,0.0,0.0,902,0,0,858.39,15.92,21.75,0
9:58:45,0,0,0,0,0,0,0,0,0,0,0,515,0,0,0,0,0.0000000,0.0000000,0.0000000,0.0000000,11.00,38.4063835,-110.7860641,1370.8000488,2.1,338.8,0.8,0.0,0.0,902,0,0,858.41,16.02,21.84,0
9:58:46,0,0,0,0,0,0,0,0,0,0,0,514,0,0,0,0,0.0000000,0.0000000,0.0000000,0.0000000,11.00,38.4063950,-110.7860641,1370.8000488,2.6,358.4,0.8,0.0,0.0,902,0,0,858.39,16.05,21.92,0
9:58:47,0,0,0,0,0,0,0,0,0,0,0,515,0,0,0,0,0.0000000,0.0000000,0.0000000,0.0000000,11.00,38.4064102,-110.7860641,1370.6999512,2.7,356.1,0.8,0.0,0.0,901,0,0,858.33,15.96,21.98,0
9:58:48,0,0,0,0,0,0,0,0,0,0,0,515,0,0,0,0,0.0000000,0.0000000,0.0000000,0.0000000,11.00,38.4064178,-110.7860718,1370.6999512,2.6,351.5,0.8,0.0,0.0,902,0,0,858.35,15.92,22.01,0
9:58:49,0,0,0,0,0,0,0,0,0,0,0,515,0,0,0,0,0.0000000,0.0000000,0.0000000,0.0000000,11.00,38.4064331,-110.7860718,1370.6999512,2.6,354.9,0.8,0.0,0.0,902,0,0,858.35,15.79,22.08,0
9:58:50,0,0,0,0,0,0,0,0,0,0,0,515,0,0,0,0,0.0000000,0.0000000,0.0000000,0.0000000,11.00,38.4064445,-110.7860718,1370.8000488,2.8,346.8,0.8,0.0,0.0,902,0,0,858.31,15.73,22.16,0
9:58:51,0,0,0,0,0,0,0,0,0,0,0,515,0,0,0,0,0.0000000,0.0000000,0.0000000,0.0000000,11.00,38.4064560,-110.7860718,1371.0000000,2.9,343.4,0.8,0.0,0.0,901,0,0,858.38,15.67,22.17,0
9:58:52,0,0,0,0,0,0,0,0,0,0,0,515,0,0,0,0,0.0000000,0.0000000,0.0000000,0.0000000,11.00,38.4064713,-110.7860870,1371.1999512,2.8,337.5,0.8,0.0,0.0,901,0,0,858.39,15.61,22.14,0
9:58:53,0,0,0,0,0,0,0,0,0,0,0,514,0,0,0,0,0.0000000,0.0000000,0.0000000,0.0000000,11.00,38.4064865,-110.7860870,1371.5000000,2.9,333.0,0.8,0.0,0.0,902,0,0,858.45,15.63,22.08,0
9:58:54,0,0,0,0,0,0,0,0,0,0,0,515,0,0,0,0,0.0000000,0.0000000,0.0000000,0.0000000,11.00,38.4064980,-110.7861023,1371.8000488,3.0,332.9,0.8,0.0,0.0,902,0,0,858.37,15.67,22.02,0
9:58:55,0,0,0,0,0,0,0,0,0,0,0,515,0,0,0,0,0.0000000,0.0000000,0.0000000,0.0000000,11.00,38.4065132,-110.7861099,1371.9000244,2.9,336.9,0.8,0.0,0.0,901,0,0,858.33,15.69,22.02,0
9:58:56,0,0,0,0,0,0,0,0,0,0,0,514,0,0,0,0,0.0000000,0.0000000,0.0000000,0.0000000,11.00,38.4065247,-110.7861099,1372.0000000,3.0,338.3,0.8,0.0,0.0,902,0,0,858.40,15.69,22.09,0
9:58:57,0,0,0,0,0,0,0,0,0,0,0,514,0,0,0,0,0.0000000,0.0000000,0.0000000,0.0000000,11.00,38.4065361,-110.7861099,1371.9000244,3.0,339.5,0.8,0.0,0.0,901,0,0,858.46,15.60,22.12,0
9:58:58,0,0,0,0,0,0,0,0,0,0,0,515,0,0,0,0,0.0000000,0.0000000,0.0000000,0.0000000,11.00,38.4065514,-110.7861252,1371.9000244,3.0,331.7,0.8,0.0,0.0,901,0,0,858.40,15.63,22.19,0
9:58:59,0,0,0,0,0,0,0,0,0,0,0,515,0,0,0,0,0.0000000,0.0000000,0.0000000,0.0000000,11.00,38.4065628,-110.7861404,1372.0000000,3.0,335.3,0.8,0.0,0.0,902,0,0,858.43,15.64,22.24,0
9:59:00,0,0,0,0,0,0,0,0,0,0,0,514,0,0,0,0,0.0000000,0.0000000,0.0000000,0.0000000,11.00,38.4065742,-110.7861404,1372.0999756,2.8,326.9,0.8,0.0,0.0,902,0,0,858.43,15.63,22.26,0
9:59:01,0,0,0,0,0,0,0,0,0,0,0,515,0,0,0,0,0.0000000,0.0000000,0.0000000,0.0000000,11.00,38.4065819,-110.7861481,1372.0999756,3.0,329.0,0.8,0.0,0.0,901,0,0,858.48,15.55,22.31,0
9:59:02,0,0,0,0,0,0,0,0,0,0,0,514,0,0,0,0,0.0000000,0.0000000,0.0000000,0.0000000,11.00,38.4065933,-110.7861633,1372.0999756,3.2,332.5,0.8,0.0,0.0,901,0,0,858.49,15.53,22.36,0
9:59:03,0,0,0,0,0,0,0,0,0,0,0,515,0,0,0,0,0.0000000,0.0000000,0.0000000,0.0000000,11.00,38.4066086,-110.7861786,1371.9000244,3.2,328.0,0.8,0.0,0.0,902,0,0,858.53,15.46,22.42,0
9:59:04,0,0,0,0,0,0,0,0,0,0,0,515,0,0,0,0,0.0000000,0.0000000,0.0000000,0.0000000,11.00,38.4066200,-110.7861786,1371.9000244,3.1,330.7,0.8,0.0,0.0,902,0,0,858.63,15.35,22.48,0
9:59:05,0,0,0,0,0,0,0,0,0,0,0,515,0,0,0,0,0.0000000,0.0000000,0.0000000,0.0000000,11.00,38.4066353,-110.7861862,1371.8000488,3.0,330.3,0.8,0.0,0.0,902,0,0,858.60,15.32,22.51,0
9:59:06,0,0,0,0,0,0,0,0,0,0,0,515,0,0,0,0,0.0000000,0.0000000,0.0000000,0.0000000,11.00,38.4066429,-110.7862015,1371.6999512,2.9,324.0,0.8,0.0,0.0,902,0,0,858.63,15.26,22.53,0
9:59:07,0,0,0,0,0,0,0,0,0,0,0,514,0,0,0,0,0.0000000,0.0000000,0.0000000,0.0000000,11.00,38.4066544,-110.7862167,1371.5999756,3.2,312.6,0.8,0.0,0.0,902,0,0,858.57,15.23,22.58,0
9:59:08,0,0,0,0,0,0,0,0,0,0,0,514,0,0,0,0,0.0000000,0.0000000,0.0000000,0.0000000,11.00,38.4066620,-110.7862244,1371.5000000,3.5,316.5,0.8,0.0,0.0,902,0,0,858.64,15.21,22.59,0
9:59:09,0,0,0,0,0,0,0,0,0,0,0,514,0,0,0,0,0.0000000,0.0000000,0.0000000,0.0000000,11.00,38.4066734,-110.7862396,1371.4000244,3.0,320.7,0.8,0.0,0.0,902,0,0,858.65,15.17,22.64,0
9:59:10,0,0,0,0,0,0,0,0,0,0,0,514,0,0,0,0,0.0000000,0.0000000,0.0000000,0.0000000,11.00,38.4066849,-110.7862549,1371.3000488,3.2,325.0,0.8,0.0,0.0,902,0,0,858.65,15.20,22.68,0
9:59:11,0,0,0,0,0,0,0,0,0,0,0,514,0,0,0,0,0.0000000,0.0000000,0.0000000,0.0000000,11.00,38.4066963,-110.7862625,1371.0999756,3.2,331.8,0.8,0.0,0.0,902,0,0,858.61,15.23,22.70,0
9:59:12,0,0,0,0,0,0,0,0,0,0,0,515,0,0,0,0,0.0000000,0.0000000,0.0000000,0.0000000,11.00,38.4067078,-110.7862778,1371.3000488,2.6,328.2,0.8,0.0,0.0,901,0,0,858.67,15.14,22.63,0
9:59:13,0,0,0,0,0,0,0,0,0,0,0,514,0,0,0,0,0.0000000,0.0000000,0.0000000,0.0000000,11.00,38.4067192,-110.7862930,1371.3000488,2.9,321.5,0.8,0.0,0.0,902,0,0,858.70,15.12,22.66,0
9:59:14,0,0,0,0,0,0,0,0,0,0,0,515,0,0,0,0,0.0000000,0.0000000,0.0000000,0.0000000,11.00,38.4067421,-110.7863007,1371.5000000,3.0,321.7,0.8,0.0,0.0,902,0,0,858.81,15.12,22.75,0
9:59:15,0,0,0,0,0,0,0,0,0,0,0,515,0,0,0,0,0.0000000,0.0000000,0.0000000,0.0000000,11.00,38.4067535,-110.7863159,1371.5999756,2.8,319.5,0.8,0.0,0.0,901,0,0,858.80,15.02,22.72,0
9:59:16,0,0,0,0,0,0,0,0,0,0,0,515,0,0,0,0,0.0000000,0.0000000,0.0000000,0.0000000,11.00,38.4067612,-110.7863312,1371.5999756,3.0,317.3,0.8,0.0,0.0,902,0,0,858.90,15.09,22.63,0
9:59:17,0,0,0,0,0,0,0,0,0,0,0,516,0,0,0,0,0.0000000,0.0000000,0.0000000,0.0000000,11.00,38.4067726,-110.7863388,1371.5999756,2.9,305.5,0.8,0.0,0.0,901,0,0,858.88,15.14,22.63,0
9:59:18,0,0,0,0,0,0,0,0,0,0,0,514,0,0,0,0,0.0000000,0.0000000,0.0000000,0.0000000,11.00,38.4067802,-110.7863541,1371.6999512,3.1,321.5,0.8,0.0,0.0,902,0,0,858.78,15.08,22.67,0
9:59:19,0,0,0,0,0,0,0,0,0,0,0,515,0,0,0,0,0.0000000,0.0000000,0.0000000,0.0000000,11.00,38.4067955,-110.7863693,1371.6999512,2.8,333.8,0.8,0.0,0.0,902,0,0,858.64,15.15,22.74,0
9:59:20,0,0,0,0,0,0,0,0,0,0,0,515,0,0,0,0,0.0000000,0.0000000,0.0000000,0.0000000,11.00,38.4068069,-110.7863693,1371.6999512,2.9,342.0,0.8,0.0,0.0,902,0,0,858.76,15.20,22.83,0
9:59:21,0,0,0,0,0,0,0,0,0,0,0,515,0,0,0,0,0.0000000,0.0000000,0.0000000,0.0000000,11.00,38.4068146,-110.7863846,1371.9000244,2.0,312.3,0.8,0.0,0.0,902,0,0,859.05,15.21,22.81,0
9:59:22,0,0,0,0,0,0,0,0,0,0,0,515,0,0,0,0,0.0000000,0.0000000,0.0000000,0.0000000,11.00,38.4068146,-110.7863922,1372.0000000,2.7,262.4,0.8,0.0,0.0,902,0,0,859.25,15.34,22.60,0
9:59:23,0,0,0,0,0,0,0,0,0,0,0,514,0,0,0,0,0.0000000,0.0000000,0.0000000,0.0000000,11.00,38.4068146,-110.7864075,1372.0000000,2.9,235.0,0.8,0.0,0.0,901,0,0,859.39,17.11,22.37,0
9:59:24,0,0,0,0,0,0,0,0,0,0,0,515,0,0,0,0,0.0000000,0.0000000,0.0000000,0.0000000,11.00,38.4068031,-110.7864227,1372.0000000,2.6,195.4,0.8,0.0,0.0,902,0,0,859.70,28.76,22.43,0
9:59:25,0,0,0,0,0,0,0,0,0,0,0,514,0,0,0,0,0.0000000,0.0000000,0.0000000,0.0000000,11.00,38.4067955,-110.7864227,1371.9000244,1.5,144.9,0.8,0.0,0.0,902,0,0,858.37,16.74,22.55,0
9:59:26,0,0,0,0,0,0,0,0,0,0,0,515,0,0,0,0,0.0000000,0.0000000,0.0000000,0.0000000,11.00,38.4067955,-110.7864075,1371.8000488,1.6,31.5,0.8,0.0,0.0,902,0,0,858.70,15.31,22.71,0
9:59:27,0,0,0,0,0,0,0,0,0,0,0,514,0,0,0,0,0.0000000,0.0000000,0.0000000,0.0000000,11.00,38.4068031,-110.7864075,1371.6999512,2.8,333.7,0.8,0.0,0.0,902,0,0,858.80,15.24,22.73,0
9:59:28,0,0,0,0,0,0,0,0,0,0,0,515,0,0,0,0,0.0000000,0.0000000,0.0000000,0.0000000,11.00,38.4068146,-110.7864227,1371.6999512,3.3,334.6,0.8,0.0,0.0,902,0,0,858.78,15.23,22.75,0
9:59:29,0,0,0,0,0,0,0,0,0,0,0,515,0,0,0,0,0.0000000,0.0000000,0.0000000,0.0000000,11.00,38.4068336,-110.7864227,1371.5999756,3.4,342.3,0.8,0.0,0.0,902,0,0,858.87,15.21,22.79,0
9:59:30,0,0,0,0,0,0,0,0,0,0,0,514,0,0,0,0,0.0000000,0.0000000,0.0000000,0.0000000,11.00,38.4068451,-110.7864304,1371.5999756,3.0,331.7,0.8,0.0,0.0,902,0,0,858.85,15.24,22.83,0
9:59:31,0,0,0,0,0,0,0,0,0,0,0,515,0,0,0,0,0.0000000,0.0000000,0.0000000,0.0000000,11.00,38.4068527,-110.7864456,1371.5000000,2.9,311.7,0.8,0.0,0.0,902,0,0,859.00,15.26,22.83,0
9:59:32,0,0,0,0,0,0,0,0,0,0,0,515,0,0,0,0,0.0000000,0.0000000,0.0000000,0.0000000,11.00,38.4068604,-110.7864609,1371.3000488,2.8,298.2,0.8,0.0,0.0,902,0,0,859.15,15.37,22.77,0
9:59:33,0,0,0,0,0,0,0,0,0,0,0,515,0,0,0,0,0.0000000,0.0000000,0.0000000,0.0000000,11.00,38.4068642,-110.7864685,1371.1999512,2.5,266.2,0.8,0.0,0.0,902,0,0,859.35,15.41,22.72,0
9:59:34,0,0,0,0,0,0,0,0,0,0,0,514,0,0,0,0,0.0000000,0.0000000,0.0000000,0.0000000,11.00,38.4068565,-110.7864838,1371.0000000,2.5,235.5,0.8,0.0,0.0,902,0,0,859.31,15.61,22.62,0
9:59:35,0,0,0,0,0,0,0,0,0,0,0,515,0,0,0,0,0.0000000,0.0000000,0.0000000,0.0000000,11.00,38.4068489,-110.7864990,1370.8000488,2.9,212.4,0.8,0.0,0.0,902,0,0,859.32,16.82,22.41,0
9:59:36,0,0,0,0,0,0,0,0,0,0,0,515,0,0,0,0,0.0000000,0.0000000,0.0000000,0.0000000,11.00,38.4068336,-110.7864990,1370.5999756,2.7,193.3,0.8,0.0,0.0,901,0,0,859.50,19.49,22.33,0
9:59:37,0,0,0,0,0,0,0,0,0,0,0,515,0,0,0,0,0.0000000,0.0000000,0.0000000,0.0000000,11.00,38.4068222,-110.7864990,1370.5999756,2.8,162.1,0.8,0.0,0.0,902,0,0,859.21,29.60,22.33,0
9:59:38,0,0,0,0,0,0,0,0,0,0,0,515,0,0,0,0,0.0000000,0.0000000,0.0000000,0.0000000,11.00,38.4068146,-110.7864990,1370.5000000,1.5,158.1,0.8,0.0,0.0,902,0,0,858.26,19.85,22.42,0
9:59:39,0,0,0,0,0,0,0,0,0,0,0,515,0,0,0,0,0.0000000,0.0000000,0.0000000,0.0000000,11.00,38.4068146,-110.7864838,1370.5000000,1.9,72.3,0.8,0.0,0.0,902,0,0,857.23,16.14,22.50,0
9:59:40,0,0,0,0,0,0,0,0,0,0,0,515,0,0,0,0,0.0000000,0.0000000,0.0000000,0.0000000,11.00,38.4068184,-110.7864838,1370.5000000,2.3,16.1,0.8,0.0,0.0,902,0,0,858.75,15.23,22.65,0
9:59:41,0,0,0,0,0,0,0,0,0,0,0,515,0,0,0,0,0.0000000,0.0000000,0.0000000,0.0000000,11.00,38.4068260,-110.7864838,1370.5000000,2.7,327.1,0.8,0.0,0.0,901,0,0,858.78,15.34,22.65,0
9:59:42,0,0,0,0,0,0,0,0,0,0,0,515,0,0,0,0,0.0000000,0.0000000,0.0000000,0.0000000,11.00,38.4068336,-110.7864990,1370.5000000,2.5,302.9,0.8,0.0,0.0,901,0,0,859.06,15.40,22.56,0
9:59:44,0,0,0,0,0,0,0,0,0,0,0,515,0,0,0,0,0.0000000,0.0000000,0.0000000,0.0000000,11.00,38.4068413,-110.7865067,1370.5999756,3.0,267.5,0.8,0.0,0.0,901,0,0,859.19,15.50,22.43,0
9:59:45,0,0,0,0,0,0,0,0,0,0,0,514,0,0,0,0,0.0000000,0.0000000,0.0000000,0.0000000,11.00,38.4068336,-110.7865219,1370.6999512,3.2,236.8,0.8,0.0,0.0,902,0,0,859.22,15.66,22.33,0
9:59:46,0,0,0,0,0,0,0,0,0,0,0,515,0,0,0,0,0.0000000,0.0000000,0.0000000,0.0000000,11.00,38.4068260,-110.7865372,1370.8000488,3.1,225.6,0.8,0.0,0.0,902,0,0,859.30,15.90,22.27,0
9:59:47,0,0,0,0,0,0,0,0,0,0,0,515,0,0,0,0,0.0000000,0.0000000,0.0000000,0.0000000,11.00,38.4068146,-110.7865448,1370.9000244,3.2,206.8,0.8,0.0,0.0,901,0,0,859.18,15.81,22.28,0
9:59:48,0,0,0,0,0,0,0,0,0,0,0,514,0,0,0,0,0.0000000,0.0000000,0.0000000,0.0000000,11.00,38.4068069,-110.7865601,1371.0000000,3.5,221.5,0.8,0.0,0.0,902,0,0,859.09,15.72,22.19,0
9:59:49,0,0,0,0,0,0,0,0,0,0,0,515,0,0,0,0,0.0000000,0.0000000,0.0000000,0.0000000,11.00,38.4067955,-110.7865753,1371.0999756,3.0,239.6,0.8,0.0,0.0,901,0,0,858.88,15.78,22.01,0
9:59:50,0,0,0,0,0,0,0,0,0,0,0,515,0,0,0,0,0.0000000,0.0000000,0.0000000,0.0000000,11.00,38.4067917,-110.7865829,1371.3000488,2.7,260.8,0.8,0.0,0.0,902,0,0,858.70,15.76,21.84,0
9:59:51,0,0,0,0,0,0,0,0,0,0,0,515,0,0,0,0,0.0000000,0.0000000,0.0000000,0.0000000,11.00,38.4067955,-110.7865982,1371.4000244,2.6,295.0,0.8,0.0,0.0,901,0,0,858.12,16.33,21.82,0
9:59:52,0,0,0,0,0,0,0,0,0,0,0,515,0,0,0,0,0.0000000,0.0000000,0.0000000,0.0000000,11.00,38.4068031,-110.7865982,1371.5999756,2.5,344.9,0.8,0.0,0.0,901,0,0,857.95,20.80,21.82,0
9:59:53,0,0,0,0,0,0,0,0,0,0,0,515,0,0,0,0,0.0000000,0.0000000,0.0000000,0.0000000,11.00,38.4068146,-110.7865982,1371.8000488,2.6,43.7,0.8,0.0,0.0,901,0,0,859.25,30.88,22.06,0
9:59:54,0,0,0,0,0,0,0,0,0,0,0,514,0,0,0,0,0.0000000,0.0000000,0.0000000,0.0000000,11.00,38.4068146,-110.7865829,1371.9000244,2.4,118.5,0.8,0.0,0.0,901,0,0,856.80,16.86,22.11,0
9:59:55,0,0,0,0,0,0,0,0,0,0,0,515,0,0,0,0,0.0000000,0.0000000,0.0000000,0.0000000,11.00,38.4068031,-110.7865829,1372.0000000,2.8,182.4,0.8,0.0,0.0,901,0,0,858.89,15.98,22.15,0
9:59:56,0,0,0,0,0,0,0,0,0,0,0,514,0,0,0,0,0.0000000,0.0000000,0.0000000,0.0000000,11.00,38.4067917,-110.7865829,1372.0999756,3.2,224.5,0.8,0.0,0.0,902,0,0,858.87,15.96,22.08,0
9:59:57,0,0,0,0,0,0,0,0,0,0,0,514,0,0,0,0,0.0000000,0.0000000,0.0000000,0.0000000,11.00,38.4067841,-110.7866135,1371.9000244,3.1,245.9,0.8,0.0,0.0,901,0,0,858.74,15.96,21.99,0
9:59:58,0,0,0,0,0,0,0,0,0,0,0,515,0,0,0,0,0.0000000,0.0000000,0.0000000,0.0000000,10.00,38.4067802,-110.7866211,1371.6999512,2.9,269.1,0.8,0.0,0.0,901,0,0,858.50,16.02,21.82,0
9:59:59,0,0,0,0,0,0,0,0,0,0,0,514,0,0,0,0,0.0000000,0.0000000,0.0000000,0.0000000,11.00,38.4067802,-110.7866364,1371.5999756,3.1,291.3,0.8,0.0,0.0,902,0,0,858.36,16.08,21.75,0
10:00:00,0,0,0,0,0,0,0,0,0,0,0,515,0,0,0,0,0.0000000,0.0000000,0.0000000,0.0000000,11.00,38.4067917,-110.7866592,1371.4000244,3.3,311.5,0.8,0.0,0.0,901,0,0,858.18,16.10,21.72,0
10:00:01,0,0,0,0,0,0,0,0,0,0,0,515,0,0,0,0,0.0000000,0.0000000,0.0000000,0.0000000,11.00,38.4067993,-110.7866745,1371.1999512,3.2,314.5,0.8,0.0,0.0,902,0,0,858.10,16.16,21.80,0
10:00:02,0,0,0,0,0,0,0,0,0,0,0,515,0,0,0,0,0.0000000,0.0000000,0.0000000,0.0000000,11.00,38.4068108,-110.7866898,1371.1999512,3.1,312.8,0.8,0.0,0.0,902,0,0,858.12,16.16,21.90,0
10:00:03,0,0,0,0,0,0,0,0,0,0,0,514,0,0,0,0,0.0000000,0.0000000,0.0000000,0.0000000,11.00,38.4068184,-110.7866974,1371.1999512,3.1,310.2,0.8,0.0,0.0,902,0,0,858.16,16.25,21.93,0
10:00:04,0,0,0,0,0,0,0,0,0,0,0,515,0,0,0,0,0.0000000,0.0000000,0.0000000,0.0000000,11.00,38.4068298,-110.7867126,1371.1999512,3.2,298.5,0.8,0.0,0.0,901,0,0,858.49,16.25,21.89,0
10:00:05,0,0,0,0,0,0,0,0,0,0,0,514,0,0,0,0,0.0000000,0.0000000,0.0000000,0.0000000,11.00,38.4068336,-110.7867279,1371.0999756,2.8,282.6,0.8,0.0,0.0,902,0,0,858.70,16.53,21.81,0
10:00:06,0,0,0,0,0,0,0,0,0,0,0,515,0,0,0,0,0.0000000,0.0000000,0.0000000,0.0000000,11.00,38.4068336,-110.7867508,1371.0999756,2.8,250.9,0.8,0.0,0.0,901,0,0,857.95,17.21,21.76,0
10:00:07,0,0,0,0,0,0,0,0,0,0,0,515,0,0,0,0,0.0000000,0.0000000,0.0000000,0.0000000,11.00,38.4068260,-110.7867661,1371.1999512,2.9,213.1,0.8,0.0,0.0,901,0,0,858.71,22.40,21.77,0
10:00:08,0,0,0,0,0,0,0,0,0,0,0,515,0,0,0,0,0.0000000,0.0000000,0.0000000,0.0000000,11.00,38.4068146,-110.7867661,1371.3000488,2.6,179.3,0.8,0.0,0.0,901,0,0,859.35,50.78,21.88,0
10:00:09,0,0,0,0,0,0,0,0,0,0,0,515,0,0,0,0,0.0000000,0.0000000,0.0000000,0.0000000,11.00,38.4068069,-110.7867661,1371.4000244,1.4,145.4,0.8,0.0,0.0,902,0,0,857.21,39.17,22.11,0
10:00:10,0,0,0,0,0,0,0,0,0,0,0,514,0,0,0,0,0.0000000,0.0000000,0.0000000,0.0000000,11.00,38.4067993,-110.7867508,1371.5999756,2.5,111.2,0.8,0.0,0.0,902,0,0,857.27,18.71,22.31,0
10:00:11,0,0,0,0,0,0,0,0,0,0,0,515,0,0,0,0,0.0000000,0.0000000,0.0000000,0.0000000,11.00,38.4068069,-110.7867355,1371.8000488,2.0,89.2,0.8,0.0,0.0,901,0,0,855.25,17.43,22.51,0
10:00:12,0,0,0,0,0,0,0,0,0,0,0,515,0,0,0,0,0.0000000,0.0000000,0.0000000,0.0000000,11.00,38.4068184,-110.7867279,1371.8000488,2.3,42.9,0.8,0.0,0.0,901,0,0,857.92,15.99,22.79,0
10:00:13,0,0,0,0,0,0,0,0,0,0,0,515,0,0,0,0,0.0000000,0.0000000,0.0000000,0.0000000,11.00,38.4068336,-110.7867279,1371.9000244,2.9,342.5,0.8,0.0,0.0,901,0,0,858.26,15.95,22.64,0
10:00:14,0,0,0,0,0,0,0,0,0,0,0,514,0,0,0,0,0.0000000,0.0000000,0.0000000,0.0000000,11.00,38.4068451,-110.7867355,1371.9000244,3.4,314.0,0.8,0.0,0.0,901,0,0,858.41,16.01,22.42,0
10:00:15,0,0,0,0,0,0,0,0,0,0,0,515,0,0,0,0,0.0000000,0.0000000,0.0000000,0.0000000,11.00,38.4068489,-110.7867508,1372.0000000,2.9,291.3,0.8,0.0,0.0,902,0,0,858.38,16.10,22.26,0
10:00:16,0,0,0,0,0,0,0,0,0,0,0,514,0,0,0,0,0.0000000,0.0000000,0.0000000,0.0000000,11.00,38.4068451,-110.7867813,1372.0000000,3.5,259.1,0.8,0.0,0.0,902,0,0,858.60,16.21,22.16,0
10:00:17,0,0,0,0,0,0,0,0,0,0,0,515,0,0,0,0,0.0000000,0.0000000,0.0000000,0.0000000,11.00,38.4068413,-110.7867889,1372.0000000,3.5,254.1,0.8,0.0,0.0,902,0,0,858.80,16.36,22.04,0
10:00:18,0,0,0,0,0,0,0,0,0,0,0,515,0,0,0,0,0.0000000,0.0000000,0.0000000,0.0000000,11.00,38.4068336,-110.7868195,1372.0000000,3.3,236.0,0.8,0.0,0.0,902,0,0,858.66,16.43,21.91,0
10:00:19,0,0,0,0,0,0,0,0,0,0,0,514,0,0,0,0,0.0000000,0.0000000,0.0000000,0.0000000,11.00,38.4068222,-110.7868271,1371.9000244,3.5,233.9,0.8,0.0,0.0,901,0,0,858.60,16.66,21.76,0
10:00:20,0,0,0,0,0,0,0,0,0,0,0,515,0,0,0,0,0.0000000,0.0000000,0.0000000,0.0000000,11.00,38.4068146,-110.7868423,1371.9000244,3.2,225.7,0.8,0.0,0.0,902,0,0,858.65,16.86,21.70,0
10:00:21,0,0,0,0,0,0,0,0,0,0,0,514,0,0,0,0,0.0000000,0.0000000,0.0000000,0.0000000,11.00,38.4068031,-110.7868576,1371.9000244,3.3,215.8,0.8,0.0,0.0,901,0,0,858.53,16.86,21.70,0
10:00:22,0,0,0,0,0,0,0,0,0,0,0,515,0,0,0,0,0.0000000,0.0000000,0.0000000,0.0000000,11.00,38.4067917,-110.7868652,1372.0000000,3.4,221.2,0.8,0.0,0.0,901,0,0,858.55,16.77,21.69,0
10:00:23,0,0,0,0,0,0,0,0,0,0,0,514,0,0,0,0,0.0000000,0.0000000,0.0000000,0.0000000,11.00,38.4067802,-110.7868805,1372.0999756,3.1,226.5,0.8,0.0,0.0,901,0,0,858.44,16.66,21.65,0
10:00:24,0,0,0,0,0,0,0,0,0,0,0,515,0,0,0,0,0.0000000,0.0000000,0.0000000,0.0000000,11.00,38.4067726,-110.7869034,1372.1999512,2.9,235.1,0.8,0.0,0.0,902,0,0,858.41,16.69,21.63,0
10:00:25,0,0,0,0,0,0,0,0,0,0,0,514,0,0,0,0,0.0000000,0.0000000,0.0000000,0.0000000,11.00,38.4067688,-110.7869186,1372.0999756,2.9,255.0,0.8,0.0,0.0,902,0,0,858.28,16.74,21.62,0
10:00:26,0,0,0,0,0,0,0,0,0,0,0,515,0,0,0,0,0.0000000,0.0000000,0.0000000,0.0000000,11.00,38.4067688,-110.7869339,1372.0999756,2.8,274.4,0.8,0.0,0.0,901,0,0,858.32,16.65,21.58,0
10:00:27,0,0,0,0,0,0,0,0,0,0,0,514,0,0,0,0,0.0000000,0.0000000,0.0000000,0.0000000,11.00,38.4067688,-110.7869415,1372.1999512,3.0,282.8,0.8,0.0,0.0,902,0,0,858.39,16.75,21.49,0
10:00:28,0,0,0,0,0,0,0,0,0,0,0,514,0,0,0,0,0.0000000,0.0000000,0.0000000,0.0000000,11.00,38.4067726,-110.7869720,1372.1999512,3.0,280.8,0.8,0.0,0.0,901,0,0,858.28,16.69,21.44,0
10:00:29,0,0,0,0,0,0,0,0,0,0,0,515,0,0,0,0,0.0000000,0.0000000,0.0000000,0.0000000,11.00,38.4067726,-110.7869797,1372.3000488,3.0,293.4,0.8,0.0,0.0,902,0,0,858.02,16.66,21.38,0
10:00:30,0,0,0,0,0,0,0,0,0,0,0,513,0,0,0,0,0.0000000,0.0000000,0.0000000,0.0000000,11.00,38.4067802,-110.7869949,1372.3000488,3.0,297.6,0.8,0.0,0.0,901,0,0,858.06,16.62,21.36,0
10:00:31,0,0,0,0,0,0,0,0,0,0,0,515,0,0,0,0,0.0000000,0.0000000,0.0000000,0.0000000,11.00,38.4067955,-110.7870331,1372.4000244,2.5,314.5,0.8,0.0,0.0,901,0,0,858.74,16.36,21.27,0
10:00:32,0,0,0,0,0,0,0,0,0,0,0,515,0,0,0,0,0.0000000,0.0000000,0.0000000,0.0000000,11.00,38.4067955,-110.7870331,1372.4000244,2.5,314.5,0.8,0.0,0.0,901,0,0,858.74,16.36,21.27,0
10:00:33,0,0,0,0,0,0,0,0,0,0,0,515,0,0,0,0,0.0000000,0.0000000,0.0000000,0.0000000,11.00,38.4068031,-110.7870331,1372.4000244,2.3,309.1,0.8,0.0,0.0,901,0,0,858.72,16.17,21.25,0
10:00:34,0,0,0,0,0,0,0,0,0,0,0,515,0,0,0,0,0.0000000,0.0000000,0.0000000,0.0000000,11.00,38.4068069,-110.7870483,1372.3000488,1.5,321.7,0.8,0.0,0.0,901,0,0,857.15,18.54,21.25,0
10:00:35,0,0,0,0,0,0,0,0,0,0,0,515,0,0,0,0,0.0000000,0.0000000,0.0000000,0.0000000,11.00,38.4068108,-110.7870483,1372.1999512,0.8,349.5,0.8,0.0,0.0,901,0,0,859.36,15.73,21.65,0
10:00:36,0,0,0,0,0,0,0,0,0,0,0,515,0,0,0,0,0.0000000,0.0000000,0.0000000,0.0000000,11.00,38.4068146,-110.7870483,1371.9000244,0.6,356.6,0.8,0.0,0.0,901,0,0,859.41,16.02,21.68,0
10:00:37,0,0,0,0,0,0,0,0,0,0,0,515,0,0,0,0,0.0000000,0.0000000,0.0000000,0.0000000,11.00,38.4068146,-110.7870483,1371.8000488,0.3,9.4,0.8,0.0,0.0,901,0,0,858.52,17.35,21.65,0
10:00:38,0,0,0,0,0,0,0,0,0,0,0,515,0,0,0,0,0.0000000,0.0000000,0.0000000,0.0000000,11.00,38.4068146,-110.7870483,1371.8000488,0.4,345.6,0.8,0.0,0.0,901,0,0,858.46,17.23,21.82,0
10:00:39,0,0,0,0,0,0,0,0,0,0,0,515,0,0,0,0,0.0000000,0.0000000,0.0000000,0.0000000,11.00,38.4068146,-110.7870483,1371.6999512,0.2,348.8,0.8,0.0,0.0,901,0,0,858.39,17.06,21.95,0
10:00:40,0,0,0,0,0,0,0,0,0,0,0,515,0,0,0,0,0.0000000,0.0000000,0.0000000,0.0000000,11.00,38.4068146,-110.7870483,1371.6999512,0.0,27.8,0.8,0.0,0.0,902,0,0,858.48,16.94,22.07,0
10:00:41,0,0,0,0,0,0,0,0,0,0,0,505,0,0,0,0,0.0000000,0.0000000,0.0000000,0.0000000,11.00,38.4068146,-110.7870483,1371.6999512,0.1,277.8,0.8,0.0,0.0,897,0,0,858.42,16.75,22.15,0
10:00:42,0,0,0,0,0,0,0,0,0,0,0,508,0,0,0,0,0.0000000,0.0000000,0.0000000,0.0000000,11.00,38.4068146,-110.7870483,1371.6999512,0.1,222.9,0.8,0.0,0.0,900,0,0,858.35,16.69,22.24,0
10:00:43,0,0,0,0,0,0,0,0,0,0,0,503,0,0,0,0,0.0000000,0.0000000,0.0000000,0.0000000,11.00,38.4068146,-110.7870483,1371.6999512,0.1,290.0,0.8,0.0,0.0,902,0,0,858.42,16.59,22.39,0
10:00:44,0,0,0,0,0,0,0,0,0,0,0,512,0,0,0,0,0.0000000,0.0000000,0.0000000,0.0000000,11.00,38.4068146,-110.7870483,1371.5999756,0.1,32.1,0.8,0.0,0.0,903,0,0,858.38,16.46,22.46,0
10:00:45,0,0,0,0,0,0,0,0,0,0,0,515,0,0,0,0,0.0000000,0.0000000,0.0000000,0.0000000,11.00,38.4068146,-110.7870483,1371.5999756,0.1,32.1,0.8,0.0,0.0,901,0,0,858.48,16.42,22.52,0
10:00:46,0,0,0,0,0,0,0,0,0,0,0,515,0,0,0,0,0.0000000,0.0000000,0.0000000,0.0000000,11.00,38.4068146,-110.7870483,1371.5999756,0.1,277.6,0.8,0.0,0.0,902,0,0,858.35,16.33,22.56,0
10:00:47,0,0,0,0,0,0,0,0,0,0,0,515,0,0,0,0,0.0000000,0.0000000,0.0000000,0.0000000,11.00,38.4068146,-110.7870483,1371.5999756,0.1,12.6,0.8,0.0,0.0,901,0,0,858.49,16.34,22.66,0
10:00:48,0,0,0,0,0,0,0,0,0,0,0,515,0,0,0,0,0.0000000,0.0000000,0.0000000,0.0000000,11.00,38.4068146,-110.7870483,1371.5999756,0.1,14.0,0.8,0.0,0.0,901,0,0,858.42,16.43,22.71,0
10:00:49,0,0,0,0,0,0,0,0,0,0,0,515,0,0,0,0,0.0000000,0.0000000,0.0000000,0.0000000,11.00,38.4068146,-110.7870483,1371.5999756,0.1,21.4,0.8,0.0,0.0,901,0,0,858.47,16.33,22.77,0
10:00:50,0,0,0,0,0,0,0,0,0,0,0,515,0,0,0,0,0.0000000,0.0000000,0.0000000,0.0000000,11.00,38.4068146,-110.7870483,1371.5999756,0.0,99.7,0.8,0.0,0.0,901,0,0,858.44,16.21,22.82,0
10:00:51,0,0,0,0,0,0,0,0,0,0,0,515,0,0,0,0,0.0000000,0.0000000,0.0000000,0.0000000,11.00,38.4068146,-110.7870483,1371.5999756,0.1,113.4,0.8,0.0,0.0,901,0,0,858.44,16.02,22.86,0
10:00:52,0,0,0,0,0,0,0,0,0,0,0,515,0,0,0,0,0.0000000,0.0000000,0.0000000,0.0000000,11.00,38.4068146,-110.7870483,1371.5999756,0.1,149.0,0.8,0.0,0.0,902,0,0,858.46,15.85,22.90,0
10:00:53,0,0,0,0,0,0,0,0,0,0,0,515,0,0,0,0,0.0000000,0.0000000,0.0000000,0.0000000,11.00,38.4068146,-110.7870483,1371.5999756,0.0,184.2,0.8,0.0,0.0,902,0,0,858.49,15.82,22.93,0
10:00:54,0,0,0,0,0,0,0,0,0,0,0,515,0,0,0,0,0.0000000,0.0000000,0.0000000,0.0000000,11.00,38.4068146,-110.7870483,1371.5999756,0.0,249.0,0.8,0.0,0.0,901,0,0,858.48,15.92,22.96,0
10:00:55,0,0,0,0,0,0,0,0,0,0,0,515,0,0,0,0,0.0000000,0.0000000,0.0000000,0.0000000,11.00,38.4068146,-110.7870483,1371.5999756,0.0,223.6,0.8,0.0,0.0,901,0,0,858.54,15.78,23.03,0
10:00:56,0,0,0,0,0,0,0,0,0,0,0,515,0,0,0,0,0.0000000,0.0000000,0.0000000,0.0000000,11.00,38.4068146,-110.7870483,1371.5999756,0.0,195.4,0.8,0.0,0.0,901,0,0,858.48,15.63,23.11,0
10:00:57,0,0,0,0,0,0,0,0,0,0,0,515,0,0,0,0,0.0000000,0.0000000,0.0000000,0.0000000,11.00,38.4068146,-110.7870483,1371.5999756,0.0,208.9,0.8,0.0,0.0,901,0,0,858.53,15.53,23.13,0
10:00:58,0,0,0,0,0,0,0,0,0,0,0,515,0,0,0,0,0.0000000,0.0000000,0.0000000,0.0000000,11.00,38.4068146,-110.7870483,1371.5999756,0.0,106.7,0.8,0.0,0.0,902,0,0,858.49,15.41,23.16,0
10:00:59,0,0,0,0,0,0,0,0,0,0,0,515,0,0,0,0,0.0000000,0.0000000,0.0000000,0.0000000,11.00,38.4068146,-110.7870483,1371.5999756,0.0,139.9,0.8,0.0,0.0,902,0,0,858.52,15.31,23.16,0
10:01:00,0,0,0,0,0,0,0,0,0,0,0,515,0,0,0,0,0.0000000,0.0000000,0.0000000,0.0000000,11.00,38.4068146,-110.7870483,1371.5999756,0.0,145.8,0.8,0.0,0.0,902,0,0,858.57,15.05,23.16,0
10:01:01,0,0,0,0,0,0,0,0,0,0,0,516,0,0,0,0,0.0000000,0.0000000,0.0000000,0.0000000,11.00,38.4068146,-110.7870483,1371.5999756,0.0,7.3,0.8,0.0,0.0,902,0,0,858.56,15.03,23.18,0
10:01:02,0,0,0,0,0,0,0,0,0,0,0,515,0,0,0,0,0.0000000,0.0000000,0.0000000,0.0000000,11.00,38.4068146,-110.7870483,1371.5999756,0.0,359.2,0.8,0.0,0.0,902,0,0,858.78,16.21,23.13,0
10:01:03,0,0,0,0,0,0,0,0,0,0,0,515,0,0,0,0,0.0000000,0.0000000,0.0000000,0.0000000,11.00,38.4068146,-110.7870483,1371.5999756,0.0,9.6,0.8,0.0,0.0,902,0,0,858.77,16.36,23.17,0
10:01:04,0,0,0,0,0,0,0,0,0,0,0,515,0,0,0,0,0.0000000,0.0000000,0.0000000,0.0000000,11.00,38.4068146,-110.7870483,1371.5999756,0.0,323.4,0.8,0.0,0.0,902,0,0,858.73,16.34,23.22,0
10:01:05,0,0,0,0,0,0,0,0,0,0,0,515,0,0,0,0,0.0000000,0.0000000,0.0000000,0.0000000,11.00,38.4068146,-110.7870483,1371.5999756,0.0,299.2,0.8,0.0,0.0,901,0,0,858.76,16.30,23.28,0
10:01:06,0,0,0,0,0,0,0,0,0,0,0,515,0,0,0,0,0.0000000,0.0000000,0.0000000,0.0000000,11.00,38.4068146,-110.7870483,1371.5999756,0.0,334.6,0.8,0.0,0.0,902,0,0,858.85,16.16,23.30,0
10:01:07,0,0,0,0,0,0,0,0,0,0,0,515,0,0,0,0,0.0000000,0.0000000,0.0000000,0.0000000,11.00,38.4068146,-110.7870483,1371.5999756,0.0,298.9,0.8,0.0,0.0,901,0,0,858.80,16.10,23.31,0
10:01:08,0,0,0,0,0,0,0,0,0,0,0,515,0,0,0,0,0.0000000,0.0000000,0.0000000,0.0000000,11.00,38.4068146,-110.7870483,1371.5999756,0.0,297.7,0.8,0.0,0.0,901,0,0,858.87,16.07,23.36,0
10:01:09,0,0,0,0,0,0,0,0,0,0,0,515,0,0,0,0,0.0000000,0.0000000,0.0000000,0.0000000,11.00,38.4068146,-110.7870483,1371.5999756,0.0,286.8,0.8,0.0,0.0,902,0,0,858.81,16.04,23.39,0
10:01:10,0,0,0,0,0,0,0,0,0,0,0,513,0,0,0,0,0.0000000,0.0000000,0.0000000,0.0000000,11.00,38.4068146,-110.7870483,1371.5999756,0.0,76.0,0.8,0.0,0.0,903,0,0,858.80,16.05,23.44,0
10:01:12,0,0,0,0,0,0,0,0,0,0,0,512,0,0,0,0,0.0000000,0.0000000,0.0000000,0.0000000,11.00,38.4068146,-110.7870483,1371.5999756,0.0,129.3,0.8,0.0,0.0,902,0,0,858.89,15.99,23.50,0
10:01:13,0,0,0,0,0,0,0,0,0,0,0,512,0,0,0,0,0.0000000,0.0000000,0.0000000,0.0000000,11.00,38.4068146,-110.7870483,1371.5999756,0.0,72.2,0.8,0.0,0.0,900,0,0,858.87,15.98,23.57,0
10:01:14,0,0,0,0,0,0,0,0,0,0,0,516,0,0,0,0,0.0000000,0.0000000,0.0000000,0.0000000,11.00,38.4068146,-110.7870483,1371.5999756,0.0,94.6,0.8,0.0,0.0,902,0,0,858.87,15.88,23.61,0
10:01:15,0,0,0,0,0,0,0,0,0,0,0,511,0,0,0,0,0.0000000,0.0000000,0.0000000,0.0000000,11.00,38.4068146,-110.7870483,1371.5999756,0.0,67.2,0.8,0.0,0.0,903,0,0,858.91,15.79,23.65,0
10:01:16,0,0,0,0,0,0,0,0,0,0,0,514,0,0,0,0,0.0000000,0.0000000,0.0000000,0.0000000,11.00,38.4068146,-110.7870483,1371.5999756,0.0,45.2,0.8,0.0,0.0,901,0,0,858.84,15.78,23.69,0
10:01:17,0,0,0,0,0,0,0,0,0,0,0,515,0,0,0,0,0.0000000,0.0000000,0.0000000,0.0000000,11.00,38.4068146,-110.7870483,1371.5999756,0.0,339.5,0.8,0.0,0.0,902,0,0,858.81,15.78,23.74,0
10:01:18,0,0,0,0,0,0,0,0,0,0,0,515,0,0,0,0,0.0000000,0.0000000,0.0000000,0.0000000,11.00,38.4068146,-110.7870483,1371.5999756,0.0,270.0,0.8,0.0,0.0,902,0,0,858.84,15.79,23.79,0
10:01:19,0,0,0,0,0,0,0,0,0,0,0,515,0,0,0,0,0.0000000,0.0000000,0.0000000,0.0000000,11.00,38.4068146,-110.7870483,1371.5999756,0.0,301.4,0.8,0.0,0.0,901,0,0,858.85,15.72,23.85,0
10:01:20,0,0,0,0,0,0,0,0,0,0,0,516,0,0,0,0,0.0000000,0.0000000,0.0000000,0.0000000,11.00,38.4068146,-110.7870483,1371.5999756,0.0,236.1,0.8,0.0,0.0,902,0,0,858.84,15.61,23.87,0
10:01:21,0,0,0,0,0,0,0,0,0,0,0,515,0,0,0,0,0.0000000,0.0000000,0.0000000,0.0000000,11.00,38.4068146,-110.7870483,1371.5999756,0.0,249.6,0.8,0.0,0.0,902,0,0,858.83,15.47,23.93,0
10:01:22,0,0,0,0,0,0,0,0,0,0,0,515,0,0,0,0,0.0000000,0.0000000,0.0000000,0.0000000,11.00,38.4068146,-110.7870483,1371.5999756,0.0,190.5,0.8,0.0,0.0,902,0,0,858.85,15.53,23.95,0
10:01:23,0,0,0,0,0,0,0,0,0,0,0,515,0,0,0,0,0.0000000,0.0000000,0.0000000,0.0000000,11.00,38.4068146,-110.7870483,1371.5999756,0.0,74.2,0.8,0.0,0.0,902,0,0,858.81,15.49,23.95,0
10:01:24,0,0,0,0,0,0,0,0,0,0,0,515,0,0,0,0,0.0000000,0.0000000,0.0000000,0.0000000,11.00,38.4068146,-110.7870483,1371.5999756,0.0,159.4,0.8,0.0,0.0,902,0,0,858.89,14.88,23.97,0
10:01:25,0,0,0,0,0,0,0,0,0,0,0,515,0,0,0,0,0.0000000,0.0000000,0.0000000,0.0000000,11.00,38.4068146,-110.7870483,1371.5999756,0.0,126.6,0.8,0.0,0.0,902,0,0,858.86,14.98,23.97,0
10:01:26,0,0,0,0,0,0,0,0,0,0,0,514,0,0,0,0,0.0000000,0.0000000,0.0000000,0.0000000,11.00,38.4068146,-110.7870483,1371.5999756,0.0,79.0,0.8,0.0,0.0,902,0,0,858.83,14.71,23.96,0
10:01:27,0,0,0,0,0,0,0,0,0,0,0,515,0,0,0,0,0.0000000,0.0000000,0.0000000,0.0000000,11.00,38.4068146,-110.7870483,1371.5999756,0.0,6.1,0.8,0.0,0.0,901,0,0,858.92,14.62,23.94,0
10:01:28,0,0,0,0,0,0,0,0,0,0,0,514,0,0,0,0,0.0000000,0.0000000,0.0000000,0.0000000,11.00,38.4068146,-110.7870483,1371.5999756,0.0,11.5,0.8,0.0,0.0,901,0,0,858.91,14.59,23.91,0
10:01:29,0,0,0,0,0,0,0,0,0,0,0,516,0,0,0,0,0.0000000,0.0000000,0.0000000,0.0000000,11.00,38.4068184,-110.7870483,1371.5999756,0.0,319.9,0.8,0.0,0.0,902,0,0,858.94,14.65,23.88,0
10:01:30,0,0,0,0,0,0,0,0,0,0,0,515,0,0,0,0,0.0000000,0.0000000,0.0000000,0.0000000,11.00,38.4068184,-110.7870483,1371.5999756,0.0,291.9,0.8,0.0,0.0,902,0,0,858.93,14.76,23.85,0
10:01:31,0,0,0,0,0,0,0,0,0,0,0,516,0,0,0,0,0.0000000,0.0000000,0.0000000,0.0000000,11.00,38.4068184,-110.7870483,1371.5999756,0.0,268.2,0.8,0.0,0.0,903,0,0,858.96,14.62,23.85,0
10:01:32,0,0,0,0,0,0,0,0,0,0,0,515,0,0,0,0,0.0000000,0.0000000,0.0000000,0.0000000,11.00,38.4068184,-110.7870483,1371.5999756,0.0,215.2,0.8,0.0,0.0,902,0,0,858.91,14.60,23.87,0
10:01:33,0,0,0,0,0,0,0,0,0,0,0,515,0,0,0,0,0.0000000,0.0000000,0.0000000,0.0000000,11.00,38.4068184,-110.7870483,1371.5999756,0.0,236.5,0.8,0.0,0.0,901,0,0,858.90,14.54,23.89,0
10:01:34,0,0,0,0,0,0,0,0,0,0,0,516,0,0,0,0,0.0000000,0.0000000,0.0000000,0.0000000,11.00,38.4068184,-110.7870483,1371.5999756,0.0,212.5,0.8,0.0,0.0,901,0,0,858.96,14.54,23.89,0
10:01:35,0,0,0,0,0,0,0,0,0,0,0,515,0,0,0,0,0.0000000,0.0000000,0.0000000,0.0000000,11.00,38.4068184,-110.7870483,1371.5999756,0.0,310.8,0.8,0.0,0.0,902,0,0,858.99,14.50,23.86,0
10:01:36,0,0,0,0,0,0,0,0,0,0,0,515,0,0,0,0,0.0000000,0.0000000,0.0000000,0.0000000,11.00,38.4068184,-110.7870483,1371.5999756,0.0,85.1,0.8,0.0,0.0,902,0,0,858.99,14.51,23.79,0
10:01:37,0,0,0,0,0,0,0,0,0,0,0,515,0,0,0,0,0.0000000,0.0000000,0.0000000,0.0000000,11.00,38.4068184,-110.7870483,1371.5999756,0.0,82.0,0.8,0.0,0.0,902,0,0,858.93,14.47,23.74,0
10:01:38,0,0,0,0,0,0,0,0,0,0,0,515,0,0,0,0,0.0000000,0.0000000,0.0000000,0.0000000,11.00,38.4068184,-110.7870483,1371.5999756,0.0,83.1,0.8,0.0,0.0,902,0,0,858.91,14.44,23.68,0
10:01:39,0,0,0,0,0,0,0,0,0,0,0,515,0,0,0,0,0.0000000,0.0000000,0.0000000,0.0000000,11.00,38.4068184,-110.7870483,1371.5999756,0.0,54.8,0.8,0.0,0.0,902,0,0,858.94,14.47,23.66,0
10:01:40,0,0,0,0,0,0,0,0,0,0,0,515,0,0,0,0,0.0000000,0.0000000,0.0000000,0.0000000,11.00,38.4068184,-110.7870483,1371.5999756,0.0,106.5,0.8,0.0,0.0,901,0,0,858.91,14.50,23.66,0
10:01:41,0,0,0,0,0,0,0,0,0,0,0,515,0,0,0,0,0.0000000,0.0000000,0.0000000,0.0000000,11.00,38.4068184,-110.7870483,1371.5999756,0.0,288.0,0.8,0.0,0.0,902,0,0,858.98,14.50,23.74,0
10:01:42,0,0,0,0,0,0,0,0,0,0,0,515,0,0,0,0,0.0000000,0.0000000,0.0000000,0.0000000,11.00,38.4068184,-110.7870483,1371.5999756,0.0,241.4,0.8,0.0,0.0,902,0,0,858.99,14.59,23.79,0
10:01:43,0,0,0,0,0,0,0,0,0,0,0,515,0,0,0,0,0.0000000,0.0000000,0.0000000,0.0000000,11.00,38.4068184,-110.7870483,1371.5999756,0.0,330.5,0.8,0.0,0.0,902,0,0,858.93,14.45,23.79,0
10:01:44,0,0,0,0,0,0,0,0,0,0,0,515,0,0,0,0,0.0000000,0.0000000,0.0000000,0.0000000,11.00,38.4068184,-110.7870483,1371.5999756,0.0,191.3,0.8,0.0,0.0,901,0,0,858.97,14.39,23.78,0
10:01:45,0,0,0,0,0,0,0,0,0,0,0,515,0,0,0,0,0.0000000,0.0000000,0.0000000,0.0000000,11.00,38.4068184,-110.7870483,1371.5999756,0.0,166.1,0.8,0.0,0.0,902,0,0,859.01,14.25,23.72,0
10:01:46,0,0,0,0,0,0,0,0,0,0,0,515,0,0,0,0,0.0000000,0.0000000,0.0000000,0.0000000,11.00,38.4068184,-110.7870483,1371.5999756,0.0,180.4,0.8,0.0,0.0,902,0,0,859.04,14.21,23.64,0
10:01:47,0,0,0,0,0,0,0,0,0,0,0,515,0,0,0,0,0.0000000,0.0000000,0.0000000,0.0000000,11.00,38.4068184,-110.7870483,1371.5999756,0.0,95.9,0.8,0.0,0.0,902,0,0,858.96,14.24,23.57,0
10:01:48,0,0,0,0,0,0,0,0,0,0,0,515,0,0,0,0,0.0000000,0.0000000,0.0000000,0.0000000,11.00,38.4068184,-110.7870483,1371.5999756,0.0,113.6,0.8,0.0,0.0,902,0,0,858.97,14.30,23.51,0
10:01:49,0,0,0,0,0,0,0,0,0,0,0,515,0,0,0,0,0.0000000,0.0000000,0.0000000,0.0000000,11.00,38.4068184,-110.7870483,1371.5999756,0.0,96.7,0.8,0.0,0.0,902,0,0,858.98,14.36,23.49,0
10:01:50,0,0,0,0,0,0,0,0,0,0,0,515,0,0,0,0,0.0000000,0.0000000,0.0000000,0.0000000,11.00,38.4068184,-110.7870483,1371.5999756,0.0,29.4,0.8,0.0,0.0,901,0,0,858.99,14.39,23.49,0
10:01:51,0,0,0,0,0,0,0,0,0,0,0,515,0,0,0,0,0.0000000,0.0000000,0.0000000,0.0000000,11.00,38.4068184,-110.7870483,1371.5999756,0.0,75.8,0.8,0.0,0.0,902,0,0,859.02,14.39,23.51,0
10:01:52,0,0,0,0,0,0,0,0,0,0,0,515,0,0,0,0,0.0000000,0.0000000,0.0000000,0.0000000,11.00,38.4068184,-110.7870483,1371.5999756,0.0,68.3,0.8,0.0,0.0,902,0,0,859.05,14.48,23.49,0
10:01:53,0,0,0,0,0,0,0,0,0,0,0,515,0,0,0,0,0.0000000,0.0000000,0.0000000,0.0000000,10.00,38.4068184,-110.7870483,1371.5999756,0.0,44.8,0.9,0.0,0.0,902,0,0,858.98,14.28,23.46,0
10:01:54,0,0,0,0,0,0,0,0,0,0,0,515,0,0,0,0,0.0000000,0.0000000,0.0000000,0.0000000,11.00,38.4068184,-110.7870483,1371.5999756,0.2,58.3,0.8,0.0,0.0,902,0,0,858.86,14.01,23.49,0
10:01:55,0,0,0,0,0,0,0,0,0,0,0,515,0,0,0,0,0.0000000,0.0000000,0.0000000,0.0000000,10.00,38.4068184,-110.7870483,1371.5999756,0.1,59.8,0.9,0.0,0.0,901,0,0,858.84,13.99,23.54,0
10:01:56,0,0,0,0,0,0,0,0,0,0,0,515,0,0,0,0,0.0000000,0.0000000,0.0000000,0.0000000,11.00,38.4068184,-110.7870483,1371.5999756,0.0,55.0,0.8,0.0,0.0,901,0,0,858.80,14.02,23.58,0
10:01:57,0,0,0,0,0,0,0,0,0,0,0,515,0,0,0,0,0.0000000,0.0000000,0.0000000,0.0000000,11.00,38.4068184,-110.7870483,1371.5999756,0.1,56.4,0.8,0.0,0.0,901,0,0,858.63,13.86,23.59,0
10:01:58,0,0,0,0,0,0,0,0,0,0,0,515,0,0,0,0,0.0000000,0.0000000,0.0000000,0.0000000,11.00,38.4068184,-110.7870483,1371.5999756,0.2,53.8,0.8,0.0,0.0,902,0,0,858.47,13.76,23.54,0
10:01:59,0,0,0,0,0,0,0,0,0,0,0,515,0,0,0,0,0.0000000,0.0000000,0.0000000,0.0000000,11.00,38.4068184,-110.7870483,1371.5999756,0.1,77.6,0.8,0.0,0.0,902,0,0,858.88,13.67,23.49,0
10:02:00,0,0,0,0,0,0,0,0,0,0,0,515,0,0,0,0,0.0000000,0.0000000,0.0000000,0.0000000,11.00,38.4068184,-110.7870483,1371.5999756,0.0,67.9,0.8,0.0,0.0,902,0,0,859.37,13.63,23.41,0
10:02:01,0,0,0,0,0,0,0,0,0,0,0,515,0,0,0,0,0.0000000,0.0000000,0.0000000,0.0000000,11.00,38.4068184,-110.7870483,1371.5999756,0.1,21.1,0.8,0.0,0.0,902,0,0,856.60,13.46,23.31,0
10:02:02,0,0,0,0,0,0,0,0,0,0,0,515,0,0,0,0,0.0000000,0.0000000,0.0000000,0.0000000,11.00,38.4068184,-110.7870483,1371.5999756,0.1,25.7,0.8,0.0,0.0,901,0,0,858.04,12.94,23.31,0
10:02:03,0,0,0,0,0,0,0,0,0,0,0,515,0,0,0,0,0.0000000,0.0000000,0.0000000,0.0000000,11.00,38.4068184,-110.7870483,1371.5999756,0.2,18.7,0.8,0.0,0.0,901,0,0,859.05,12.97,23.24,0
10:02:04,0,0,0,0,0,0,0,0,0,0,0,515,0,0,0,0,0.0000000,0.0000000,0.0000000,0.0000000,11.00,38.4068184,-110.7870483,1371.5999756,0.1,13.9,0.8,0.0,0.0,902,0,0,859.41,13.15,23.10,0
10:02:05,0,0,0,0,0,0,0,0,0,0,0,515,0,0,0,0,0.0000000,0.0000000,0.0000000,0.0000000,11.00,38.4068184,-110.7870483,1371.5999756,0.1,358.8,0.8,0.0,0.0,901,0,0,859.50,13.38,22.99,0
10:02:06,0,0,0,0,0,0,0,0,0,0,0,515,0,0,0,0,0.0000000,0.0000000,0.0000000,0.0000000,11.00,38.4068184,-110.7870483,1371.5999756,0.1,348.3,0.8,0.0,0.0,901,0,0,859.56,13.63,22.91,0
10:02:07,0,0,0,0,0,0,0,0,0,0,0,515,0,0,0,0,0.0000000,0.0000000,0.0000000,0.0000000,10.00,38.4068184,-110.7870483,1371.5999756,0.4,319.9,0.9,0.0,0.0,902,0,0,859.61,13.67,22.89,0
10:02:08,0,0,0,0,0,0,0,0,0,0,0,514,0,0,0,0,0.0000000,0.0000000,0.0000000,0.0000000,11.00,38.4068222,-110.7870483,1371.5999756,0.4,322.2,0.8,0.0,0.0,902,0,0,859.62,13.70,22.85,0
10:02:09,0,0,0,0,0,0,0,0,0,0,0,515,0,0,0,0,0.0000000,0.0000000,0.0000000,0.0000000,11.00,38.4068222,-110.7870483,1371.5999756,0.2,329.8,0.8,0.0,0.0,901,0,0,859.52,13.75,22.69,0
10:02:10,0,0,0,0,0,0,0,0,0,0,0,514,0,0,0,0,0.0000000,0.0000000,0.0000000,0.0000000,11.00,38.4068222,-110.7870483,1371.5999756,0.2,349.6,0.8,0.0,0.0,901,0,0,859.48,13.86,22.68,0
10:02:11,0,0,0,0,0,0,0,0,0,0,0,515,0,0,0,0,0.0000000,0.0000000,0.0000000,0.0000000,11.00,38.4068260,-110.7870483,1371.5000000,0.2,349.4,0.8,0.0,0.0,902,0,0,859.49,13.90,22.63,0
10:02:12,0,0,0,0,0,0,0,0,0,0,0,515,0,0,0,0,0.0000000,0.0000000,0.0000000,0.0000000,11.00,38.4068260,-110.7870483,1371.5000000,0.1,24.6,0.8,0.0,0.0,901,0,0,859.55,13.99,22.62,0
10:02:13,0,0,0,0,0,0,0,0,0,0,0,515,0,0,0,0,0.0000000,0.0000000,0.0000000,0.0000000,11.00,38.4068260,-110.7870483,1371.5000000,0.1,47.8,0.8,0.0,0.0,901,0,0,859.47,14.11,22.57,0
10:02:14,0,0,0,0,0,0,0,0,0,0,0,515,0,0,0,0,0.0000000,0.0000000,0.0000000,0.0000000,11.00,38.4068260,-110.7870483,1371.5000000,0.0,26.3,0.8,0.0,0.0,902,0,0,859.62,14.21,22.51,0
10:02:15,0,0,0,0,0,0,0,0,0,0,0,515,0,0,0,0,0.0000000,0.0000000,0.0000000,0.0000000,11.00,38.4068260,-110.7870483,1371.5000000,0.1,15.1,0.8,0.0,0.0,902,0,0,859.61,14.31,22.54,0
10:02:16,0,0,0,0,0,0,0,0,0,0,0,515,0,0,0,0,0.0000000,0.0000000,0.0000000,0.0000000,11.00,38.4068260,-110.7870483,1371.5000000,0.0,92.8,0.8,0.0,0.0,901,0,0,859.57,14.40,22.56,0
10:02:17,0,0,0,0,0,0,0,0,0,0,0,514,0,0,0,0,0.0000000,0.0000000,0.0000000,0.0000000,11.00,38.4068260,-110.7870483,1371.5000000,0.2,170.5,0.8,0.0,0.0,901,0,0,859.66,14.40,22.58,0
10:02:18,0,0,0,0,0,0,0,0,0,0,0,515,0,0,0,0,0.0000000,0.0000000,0.0000000,0.0000000,11.00,38.4068260,-110.7870483,1371.5000000,0.8,145.1,0.8,0.0,0.0,901,0,0,859.56,14.53,22.59,0
10:02:19,0,0,0,0,0,0,0,0,0,0,0,515,0,0,0,0,0.0000000,0.0000000,0.0000000,0.0000000,10.00,38.4068260,-110.7870483,1371.3000488,0.4,144.0,0.8,0.0,0.0,902,0,0,859.56,14.53,22.62,0
10:02:20,0,0,0,0,0,0,0,0,0,0,0,514,0,0,0,0,0.0000000,0.0000000,0.0000000,0.0000000,11.00,38.4068260,-110.7870483,1371.1999512,0.6,137.1,0.8,0.0,0.0,901,0,0,859.58,14.51,22.63,0
10:02:21,0,0,0,0,0,0,0,0,0,0,0,515,0,0,0,0,0.0000000,0.0000000,0.0000000,0.0000000,10.00,38.4068260,-110.7870331,1371.0000000,0.7,126.7,0.8,0.0,0.0,901,0,0,859.63,14.51,22.66,0
10:02:22,0,0,0,0,0,0,0,0,0,0,0,515,0,0,0,0,0.0000000,0.0000000,0.0000000,0.0000000,11.00,38.4068260,-110.7870331,1370.9000244,1.1,121.0,0.8,0.0,0.0,901,0,0,859.68,14.57,22.65,0
10:02:23,0,0,0,0,0,0,0,0,0,0,0,514,0,0,0,0,0.0000000,0.0000000,0.0000000,0.0000000,10.00,38.4068260,-110.7870331,1370.8000488,0.5,98.6,0.8,0.0,0.0,901,0,0,859.63,14.60,22.64,0
10:02:24,0,0,0,0,0,0,0,0,0,0,0,515,0,0,0,0,0.0000000,0.0000000,0.0000000,0.0000000,11.00,38.4068260,-110.7870178,1370.5999756,0.1,122.9,0.8,0.0,0.0,901,0,0,859.62,14.59,22.70,0
10:02:25,0,0,0,0,0,0,0,0,0,0,0,515,0,0,0,0,0.0000000,0.0000000,0.0000000,0.0000000,11.00,38.4068222,-110.7870331,1370.4000244,0.0,234.3,0.8,0.0,0.0,901,0,0,859.58,14.59,22.77,0
10:02:26,0,0,0,0,0,0,0,0,0,0,0,515,0,0,0,0,0.0000000,0.0000000,0.0000000,0.0000000,11.00,38.4068222,-110.7870331,1370.3000488,0.0,273.2,0.8,0.0,0.0,901,0,0,859.64,14.53,22.81,0
10:02:27,0,0,0,0,0,0,0,0,0,0,0,515,0,0,0,0,0.0000000,0.0000000,0.0000000,0.0000000,11.00,38.4068222,-110.7870331,1370.3000488,0.1,282.6,0.8,0.0,0.0,902,0,0,859.58,14.53,22.85,0
10:02:28,0,0,0,0,0,0,0,0,0,0,0,515,0,0,0,0,0.0000000,0.0000000,0.0000000,0.0000000,11.00,38.4068222,-110.7870331,1370.3000488,0.5,282.3,0.8,0.0,0.0,902,0,0,859.67,14.59,22.86,0
10:02:29,0,0,0,0,0,0,0,0,0,0,0,514,0,0,0,0,0.0000000,0.0000000,0.0000000,0.0000000,11.00,38.4068222,-110.7870331,1370.3000488,0.9,282.1,0.8,0.0,0.0,902,0,0,859.66,14.54,22.89,0
10:02:30,0,0,0,0,0,0,0,0,0,0,0,515,0,0,0,0,0.0000000,0.0000000,0.0000000,0.0000000,10.00,38.4068260,-110.7870331,1370.3000488,1.3,275.3,0.8,0.0,0.0,901,0,0,859.77,14.53,22.95,0
10:02:31,0,0,0,0,0,0,0,0,0,0,0,515,0,0,0,0,0.0000000,0.0000000,0.0000000,0.0000000,11.00,38.4068260,-110.7870483,1370.3000488,1.5,269.5,0.8,0.0,0.0,902,0,0,859.82,14.48,23.01,0
10:02:32,0,0,0,0,0,0,0,0,0,0,0,514,0,0,0,0,0.0000000,0.0000000,0.0000000,0.0000000,11.00,38.4068260,-110.7870560,1370.3000488,2.8,260.3,0.8,0.0,0.0,901,0,0,859.89,14.42,23.07,0
10:02:33,0,0,0,0,0,0,0,0,0,0,0,515,0,0,0,0,0.0000000,0.0000000,0.0000000,0.0000000,11.00,38.4068222,-110.7870712,1370.1999512,3.2,253.8,0.8,0.0,0.0,902,0,0,859.88,14.28,23.16,0
10:02:34,0,0,0,0,0,0,0,0,0,0,0,514,0,0,0,0,0.0000000,0.0000000,0.0000000,0.0000000,10.00,38.4068184,-110.7870941,1370.1999512,4.0,242.7,0.8,0.0,0.0,902,0,0,859.92,14.22,23.21,0
10:02:35,0,0,0,0,0,0,0,0,0,0,0,515,0,0,0,0,0.0000000,0.0000000,0.0000000,0.0000000,10.00,38.4068108,-110.7871094,1370.1999512,4.0,235.7,0.8,0.0,0.0,901,0,0,859.84,14.24,23.27,0
10:02:36,0,0,0,0,0,0,0,0,0,0,0,515,0,0,0,0,0.0000000,0.0000000,0.0000000,0.0000000,10.00,38.4068031,-110.7871323,1370.1999512,3.6,238.9,0.8,0.0,0.0,901,0,0,859.87,14.16,23.32,0
10:02:37,0,0,0,0,0,0,0,0,0,0,0,515,0,0,0,0,0.0000000,0.0000000,0.0000000,0.0000000,10.00,38.4067955,-110.7871475,1370.1999512,3.5,239.9,0.8,0.0,0.0,901,0,0,859.80,14.05,23.37,0
10:02:38,0,0,0,0,0,0,0,0,0,0,0,515,0,0,0,0,0.0000000,0.0000000,0.0000000,0.0000000,10.00,38.4067879,-110.7871780,1370.0999756,3.0,240.2,0.8,0.0,0.0,901,0,0,859.88,14.02,23.44,0
10:02:39,0,0,0,0,0,0,0,0,0,0,0,515,0,0,0,0,0.0000000,0.0000000,0.0000000,0.0000000,10.00,38.4067841,-110.7871857,1370.0999756,2.5,240.2,0.8,0.0,0.0,901,0,0,859.87,13.99,23.48,0
10:02:40,0,0,0,0,0,0,0,0,0,0,0,515,0,0,0,0,0.0000000,0.0000000,0.0000000,0.0000000,10.00,38.4067764,-110.7872009,1370.1999512,2.1,241.2,0.8,0.0,0.0,901,0,0,859.87,13.98,23.53,0
10:02:41,0,0,0,0,0,0,0,0,0,0,0,515,0,0,0,0,0.0000000,0.0000000,0.0000000,0.0000000,10.00,38.4067726,-110.7872009,1370.1999512,1.8,241.3,0.8,0.0,0.0,902,0,0,859.86,13.92,23.59,0
10:02:42,0,0,0,0,0,0,0,0,0,0,0,515,0,0,0,0,0.0000000,0.0000000,0.0000000,0.0000000,10.00,38.4067726,-110.7872162,1370.1999512,2.1,241.9,0.8,0.0,0.0,901,0,0,859.84,13.90,23.65,0
10:02:44,0,0,0,0,0,0,0,0,0,0,0,515,0,0,0,0,0.0000000,0.0000000,0.0000000,0.0000000,10.00,38.4067688,-110.7872238,1370.1999512,2.2,240.4,0.8,0.0,0.0,902,0,0,859.85,13.82,23.71,0
10:02:45,0,0,0,0,0,0,0,0,0,0,0,515,0,0,0,0,0.0000000,0.0000000,0.0000000,0.0000000,11.00,38.4067650,-110.7872391,1370.1999512,2.2,243.1,0.8,0.0,0.0,901,0,0,859.91,13.73,23.78,0
10:02:46,0,0,0,0,0,0,0,0,0,0,0,515,0,0,0,0,0.0000000,0.0000000,0.0000000,0.0000000,11.00,38.4067574,-110.7872543,1370.1999512,2.0,241.9,0.8,0.0,0.0,901,0,0,859.88,13.61,23.85,0
10:02:47,0,0,0,0,0,0,0,0,0,0,0,515,0,0,0,0,0.0000000,0.0000000,0.0000000,0.0000000,11.00,38.4067535,-110.7872620,1370.1999512,1.8,241.2,0.8,0.0,0.0,901,0,0,859.93,13.57,23.91,0
10:02:48,0,0,0,0,0,0,0,0,0,0,0,515,0,0,0,0,0.0000000,0.0000000,0.0000000,0.0000000,11.00,38.4067535,-110.7872620,1370.1999512,1.8,241.5,0.8,0.0,0.0,901,0,0,859.94,13.50,23.97,0
10:02:49,0,0,0,0,0,0,0,0,0,0,0,515,0,0,0,0,0.0000000,0.0000000,0.0000000,0.0000000,11.00,38.4067497,-110.7872772,1370.0999756,1.5,243.4,0.8,0.0,0.0,901,0,0,859.93,13.46,24.02,0
10:02:50,0,0,0,0,0,0,0,0,0,0,0,516,0,0,0,0,0.0000000,0.0000000,0.0000000,0.0000000,11.00,38.4067497,-110.7872925,1370.1999512,1.0,245.0,0.8,0.0,0.0,902,0,0,859.92,13.43,24.07,0
10:02:51,0,0,0,0,0,0,0,0,0,0,0,516,0,0,0,0,0.0000000,0.0000000,0.0000000,0.0000000,11.00,38.4067497,-110.7872925,1370.1999512,0.4,250.4,0.8,0.0,0.0,901,0,0,859.93,13.35,24.11,0
10:02:52,0,0,0,0,0,0,0,0,0,0,0,515,0,0,0,0,0.0000000,0.0000000,0.0000000,0.0000000,11.00,38.4067497,-110.7872925,1370.1999512,0.1,47.3,0.8,0.0,0.0,901,0,0,859.92,13.28,24.16,0
10:02:53,0,0,0,0,0,0,0,0,0,0,0,515,0,0,0,0,0.0000000,0.0000000,0.0000000,0.0000000,11.00,38.4067497,-110.7872925,1370.1999512,0.1,338.7,0.8,0.0,0.0,901,0,0,859.89,13.21,24.22,0
10:02:54,0,0,0,0,0,0,0,0,0,0,0,514,0,0,0,0,0.0000000,0.0000000,0.0000000,0.0000000,11.00,38.4067497,-110.7872925,1370.1999512,0.1,350.1,0.8,0.0,0.0,901,0,0,859.92,13.15,24.27,0
10:02:55,0,0,0,0,0,0,0,0,0,0,0,515,0,0,0,0,0.0000000,0.0000000,0.0000000,0.0000000,11.00,38.4067497,-110.7872925,1370.1999512,0.0,38.1,0.8,0.0,0.0,901,0,0,859.93,13.11,24.32,0
10:02:56,0,0,0,0,0,0,0,0,0,0,0,515,0,0,0,0,0.0000000,0.0000000,0.0000000,0.0000000,11.00,38.4067497,-110.7872925,1370.1999512,0.0,29.5,0.8,0.0,0.0,901,0,0,859.92,13.06,24.36,0
10:02:57,0,0,0,0,0,0,0,0,0,0,0,515,0,0,0,0,0.0000000,0.0000000,0.0000000,0.0000000,11.00,38.4067497,-110.7872925,1370.1999512,0.0,56.4,0.8,0.0,0.0,902,0,0,859.95,13.05,24.39,0
10:02:58,0,0,0,0,0,0,0,0,0,0,0,516,0,0,0,0,0.0000000,0.0000000,0.0000000,0.0000000,11.00,38.4067497,-110.7872925,1370.1999512,0.0,77.0,0.8,0.0,0.0,902,0,0,859.89,13.02,24.40,0
10:02:59,0,0,0,0,0,0,0,0,0,0,0,515,0,0,0,0,0.0000000,0.0000000,0.0000000,0.0000000,11.00,38.4067497,-110.7872925,1370.1999512,0.0,132.7,0.8,0.0,0.0,902,0,0,859.92,12.99,24.47,0
10:03:00,0,0,0,0,0,0,0,0,0,0,0,515,0,0,0,0,0.0000000,0.0000000,0.0000000,0.0000000,11.00,38.4067497,-110.7872925,1370.1999512,0.1,158.7,0.8,0.0,0.0,901,0,0,859.93,12.96,24.53,0
10:03:01,0,0,0,0,0,0,0,0,0,0,0,515,0,0,0,0,0.0000000,0.0000000,0.0000000,0.0000000,11.00,38.4067497,-110.7872925,1370.1999512,0.0,199.5,0.8,0.0,0.0,901,0,0,859.91,12.88,24.54,0
10:03:02,0,0,0,0,0,0,0,0,0,0,0,515,0,0,0,0,0.0000000,0.0000000,0.0000000,0.0000000,11.00,38.4067497,-110.7872925,1370.1999512,0.0,240.9,0.8,0.0,0.0,901,0,0,859.93,12.80,24.60,0
10:03:03,0,0,0,0,0,0,0,0,0,0,0,515,0,0,0,0,0.0000000,0.0000000,0.0000000,0.0000000,11.00,38.4067497,-110.7872925,1370.1999512,0.0,240.9,0.8,0.0,0.0,901,0,0,859.90,12.73,24.59,0
10:03:04,0,0,0,0,0,0,0,0,0,0,0,514,0,0,0,0,0.0000000,0.0000000,0.0000000,0.0000000,11.00,38.4067497,-110.7872925,1370.1999512,0.0,278.7,0.8,0.0,0.0,901,0,0,859.94,12.67,24.61,0
10:03:05,0,0,0,0,0,0,0,0,0,0,0,515,0,0,0,0,0.0000000,0.0000000,0.0000000,0.0000000,11.00,38.4067497,-110.7872925,1370.1999512,0.0,319.9,0.8,0.0,0.0,902,0,0,859.92,12.65,24.64,0
10:03:06,0,0,0,0,0,0,0,0,0,0,0,514,0,0,0,0,0.0000000,0.0000000,0.0000000,0.0000000,11.00,38.4067497,-110.7872925,1370.1999512,0.0,341.9,0.8,0.0,0.0,901,0,0,859.93,12.63,24.67,0
10:03:07,0,0,0,0,0,0,0,0,0,0,0,515,0,0,0,0,0.0000000,0.0000000,0.0000000,0.0000000,11.00,38.4067497,-110.7872925,1370.1999512,0.0,45.7,0.8,0.0,0.0,900,0,0,859.93,12.59,24.70,0
10:03:08,0,0,0,0,0,0,0,0,0,0,0,513,0,0,0,0,0.0000000,0.0000000,0.0000000,0.0000000,11.00,38.4067497,-110.7872925,1370.1999512,0.1,237.2,0.8,0.0,0.0,901,0,0,859.94,12.54,24.75,0
10:03:09,0,0,0,0,0,0,0,0,0,0,0,515,0,0,0,0,0.0000000,0.0000000,0.0000000,0.0000000,11.00,38.4067497,-110.7872925,1370.1999512,0.4,244.3,0.8,0.0,0.0,901,0,0,859.93,12.54,24.81,0
10:03:10,0,0,0,0,0,0,0,0,0,0,0,516,0,0,0,0,0.0000000,0.0000000,0.0000000,0.0000000,11.00,38.4067497,-110.7872925,1370.1999512,0.4,265.5,0.8,0.0,0.0,901,0,0,859.92,12.47,24.86,0
10:03:11,0,0,0,0,0,0,0,0,0,0,0,514,0,0,0,0,0.0000000,0.0000000,0.0000000,0.0000000,11.00,38.4067497,-110.7872925,1370.0999756,2.7,243.8,0.8,0.0,0.0,901,0,0,859.90,12.42,24.90,0
10:03:12,0,0,0,0,0,0,0,0,0,0,0,515,0,0,0,0,0.0000000,0.0000000,0.0000000,0.0000000,11.00,38.4067421,-110.7873154,1370.0999756,3.8,244.2,0.8,0.0,0.0,901,0,0,859.92,12.39,24.93,0
10:03:13,0,0,0,0,0,0,0,0,0,0,0,515,0,0,0,0,0.0000000,0.0000000,0.0000000,0.0000000,11.00,38.4067345,-110.7873306,1370.0999756,4.4,244.9,0.8,0.0,0.0,901,0,0,859.92,12.34,24.97,0
10:03:14,0,0,0,0,0,0,0,0,0,0,0,515,0,0,0,0,0.0000000,0.0000000,0.0000000,0.0000000,11.00,38.4067268,-110.7873535,1370.1999512,4.6,245.8,0.8,0.0,0.0,901,0,0,859.91,12.34,25.02,0
10:03:15,0,0,0,0,0,0,0,0,0,0,0,515,0,0,0,0,0.0000000,0.0000000,0.0000000,0.0000000,11.00,38.4067154,-110.7873764,1370.1999512,4.7,245.4,0.8,0.0,0.0,901,0,0,859.91,12.34,25.04,0
10:03:16,0,0,0,0,0,0,0,0,0,0,0,515,0,0,0,0,0.0000000,0.0000000,0.0000000,0.0000000,11.00,38.4067078,-110.7874069,1370.3000488,4.8,245.9,0.8,0.0,0.0,901,0,0,859.85,12.34,25.07,0
10:03:17,0,0,0,0,0,0,0,0,0,0,0,514,0,0,0,0,0.0000000,0.0000000,0.0000000,0.0000000,11.00,38.4066963,-110.7874451,1370.1999512,4.8,246.3,0.8,0.0,0.0,901,0,0,859.88,12.38,25.06,0
10:03:18,0,0,0,0,0,0,0,0,0,0,0,515,0,0,0,0,0.0000000,0.0000000,0.0000000,0.0000000,11.00,38.4066887,-110.7874680,1370.0999756,4.8,245.9,0.8,0.0,0.0,902,0,0,859.89,12.41,25.05,0
10:03:19,0,0,0,0,0,0,0,0,0,0,0,515,0,0,0,0,0.0000000,0.0000000,0.0000000,0.0000000,11.00,38.4066772,-110.7874908,1370.0000000,4.9,245.9,0.8,0.0,0.0,901,0,0,859.87,12.38,25.04,0
10:03:20,0,0,0,0,0,0,0,0,0,0,0,515,0,0,0,0,0.0000000,0.0000000,0.0000000,0.0000000,11.00,38.4066696,-110.7875214,1370.0000000,5.1,245.6,0.8,0.0,0.0,901,0,0,859.97,12.31,25.03,0
10:03:21,0,0,0,0,0,0,0,0,0,0,0,515,0,0,0,0,0.0000000,0.0000000,0.0000000,0.0000000,11.00,38.4066582,-110.7875443,1370.0000000,5.2,246.1,0.8,0.0,0.0,901,0,0,859.89,12.33,25.01,0
10:03:22,0,0,0,0,0,0,0,0,0,0,0,514,0,0,0,0,0.0000000,0.0000000,0.0000000,0.0000000,11.00,38.4066505,-110.7875748,1370.0000000,5.3,245.6,0.8,0.0,0.0,901,0,0,859.87,12.31,25.03,0
10:03:23,0,0,0,0,0,0,0,0,0,0,0,515,0,0,0,0,0.0000000,0.0000000,0.0000000,0.0000000,11.00,38.4066353,-110.7876129,1369.9000244,5.5,244.8,0.8,0.0,0.0,902,0,0,859.89,12.25,25.05,0
10:03:24,0,0,0,0,0,0,0,0,0,0,0,515,0,0,0,0,0.0000000,0.0000000,0.0000000,0.0000000,11.00,38.4066277,-110.7876358,1369.6999512,5.8,244.0,0.8,0.0,0.0,901,0,0,859.95,12.25,25.06,0
10:03:25,0,0,0,0,0,0,0,0,0,0,0,515,0,0,0,0,0.0000000,0.0000000,0.0000000,0.0000000,10.00,38.4066162,-110.7876740,1369.5999756,5.8,243.5,0.8,0.0,0.0,901,0,0,859.96,12.28,25.05,0
10:03:26,0,0,0,0,0,0,0,0,0,0,0,515,0,0,0,0,0.0000000,0.0000000,0.0000000,0.0000000,10.00,38.4066010,-110.7876968,1369.5000000,5.8,242.0,0.8,0.0,0.0,901,0,0,859.97,12.22,25.05,0
10:03:27,0,0,0,0,0,0,0,0,0,0,0,515,0,0,0,0,0.0000000,0.0000000,0.0000000,0.0000000,10.00,38.4065895,-110.7877274,1369.4000244,5.8,240.9,0.8,0.0,0.0,901,0,0,859.90,12.19,25.06,0
10:03:28,0,0,0,0,0,0,0,0,0,0,0,515,0,0,0,0,0.0000000,0.0000000,0.0000000,0.0000000,11.00,38.4065742,-110.7877655,1369.1999512,5.8,239.7,0.8,0.0,0.0,901,0,0,859.97,12.15,25.08,0
10:03:29,0,0,0,0,0,0,0,0,0,0,0,515,0,0,0,0,0.0000000,0.0000000,0.0000000,0.0000000,11.00,38.4065628,-110.7877884,1369.1999512,5.8,238.5,0.8,0.0,0.0,901,0,0,859.98,12.05,25.09,0
10:03:30,0,0,0,0,0,0,0,0,0,0,0,515,0,0,0,0,0.0000000,0.0000000,0.0000000,0.0000000,10.00,38.4065475,-110.7878265,1369.0999756,5.8,237.0,0.8,0.0,0.0,902,0,0,860.03,12.04,25.09,0
