Time, Motor A Speed, Motor A Dir, Motor B Speed, Motor B Dir, Servo Rail Current Sensor, Servo Pos - Arm L, Servo Pos - Arm R, Servo Pos - End, Servo Pos - Hopper, Servo Pos - Lid, Servo Pos - Extra, Servo Current, LED - Front L, LED - Front R, LED - Back L, LED - Back R, IMU Pitch, IMU Roll, IMU Yaw, Compass Heading, GPS Sats, GPS Latitude, GPS Longitude, GPS Altitude, GPS Speed, GPS Angle, GPS HDOP, GPS VDOP, GPS PDOP, Battery, Wind, Comm Xbee Latency, Comm Arduino Latency, Pressure, Humidity, Temperature, uRADMonitor
9:50:42,0,0,0,0,0,0,0,0,0,0,0,0,0,0,0,0,0.0000000,0.0000000,0.0000000,0.0000000,0.00,0.0000000,0.0000000,0.0000000,0.0,0.0,0.0,0.0,0.0,0,0,0,0,0.00,0.00,0.00,0
9:50:43,0,0,0,0,0,0,0,0,0,0,0,515,0,0,0,0,0.0000000,0.0000000,0.0000000,0.0000000,9.00,38.4063187,-110.7922592,1384.5000000,0.2,289.9,0.9,0.0,0.0,894,128,0,0,863.25,23.18,19.55,# data time:1240,pm2.5:6.445,pm10:5.704,O2:0.000,NO2:0.000,SO2:0.000,NH3:3.273
9:50:44,0,0,0,0,0,0,0,0,0,0,0,515,0,0,0,0,0.0000000,0.0000000,0.0000000,0.0000000,9.00,38.4063187,-110.7922668,1384.5000000,0.3,294.2,0.9,0.0,0.0,894,126,0,0,863.26,23.16,19.60,# data time:1240,pm2.5:6.445,pm10:5.704,O2:0.000,NO2:0.000,SO2:0.000,NH3:3.273
9:50:45,0,0,0,0,0,0,0,0,0,0,0,515,0,0,0,0,0.0000000,0.0000000,0.0000000,0.0000000,9.00,38.4063187,-110.7922668,1384.5000000,0.2,272.0,0.9,0.0,0.0,893,128,0,0,863.22,23.16,19.60,# data time:1240,pm2.5:6.445,pm10:5.704,O2:0.000,NO2:0.000,SO2:0.000,NH3:3.273
9:50:46,0,0,0,0,0,0,0,0,0,0,0,519,0,0,0,0,0.0000000,0.0000000,0.0000000,0.0000000,9.00,38.4063187,-110.7922668,1384.5000000,0.2,281.7,0.9,0.0,0.0,891,127,0,0,863.23,23.18,19.60,# data time:1240,pm2.5:6.445,pm10:5.704,O2:0.000,NO2:0.000,SO2:0.000,NH3:3.273
9:50:47,0,0,0,0,0,0,0,0,0,0,0,552,0,0,0,0,0.0000000,0.0000000,0.0000000,0.0000000,9.00,38.4063187,-110.7922668,1384.5000000,0.2,264.7,0.9,0.0,0.0,886,131,0,0,863.20,23.24,19.61,# data time:1240,pm2.5:6.445,pm10:5.704,O2:0.000,NO2:0.000,SO2:0.000,NH3:3.273
9:50:48,0,0,0,0,0,0,0,0,0,0,0,516,0,0,0,0,0.0000000,0.0000000,0.0000000,0.0000000,9.00,38.4063187,-110.7922668,1384.5000000,0.1,262.9,0.9,0.0,0.0,893,129,0,0,863.25,23.22,19.61,# data time:1240,pm2.5:6.445,pm10:5.704,O2:0.000,NO2:0.000,SO2:0.000,NH3:3.273
9:50:49,0,0,0,0,0,0,0,0,0,0,0,515,0,0,0,0,0.0000000,0.0000000,0.0000000,0.0000000,9.00,38.4063187,-110.7922668,1384.5000000,0.1,235.7,0.9,0.0,0.0,894,124,0,0,863.18,23.19,19.61,# data time:1240,pm2.5:6.445,pm10:5.704,O2:0.000,NO2:0.000,SO2:0.000,NH3:3.273
9:50:50,0,0,0,0,0,0,0,0,0,0,0,533,0,0,0,0,0.0000000,0.0000000,0.0000000,0.0000000,9.00,38.4063187,-110.7922668,1384.5000000,0.2,220.7,0.9,0.0,0.0,888,128,0,0,863.20,23.18,19.62,# data time:1240,pm2.5:6.445,pm10:5.704,O2:0.000,NO2:0.000,SO2:0.000,NH3:3.273
9:50:51,0,0,0,0,0,0,0,0,0,0,0,514,0,0,0,0,0.0000000,0.0000000,0.0000000,0.0000000,9.00,38.4063187,-110.7922668,1384.5000000,0.2,184.8,0.9,0.0,0.0,894,130,0,0,863.26,23.15,19.62,# data time:1240,pm2.5:6.445,pm10:5.704,O2:0.000,NO2:0.000,SO2:0.000,NH3:3.273
9:50:52,0,0,0,0,0,0,0,0,0,0,0,513,0,0,0,0,0.0000000,0.0000000,0.0000000,0.0000000,9.00,38.4063187,-110.7922668,1384.5000000,0.1,140.4,0.9,0.0,0.0,894,128,0,0,863.23,23.10,19.62,# data time:1240,pm2.5:6.445,pm10:5.704,O2:0.000,NO2:0.000,SO2:0.000,NH3:3.273
9:50:53,0,0,0,0,0,0,0,0,0,0,0,514,0,0,0,0,0.0000000,0.0000000,0.0000000,0.0000000,9.00,38.4063187,-110.7922668,1384.5000000,0.1,171.1,0.9,0.0,0.0,894,127,0,0,863.24,23.12,19.62,# data time:1250,pm2.5:6.445,pm10:5.704,O2:0.000,NO2:0.000,SO2:0.000,NH3:3.273
9:50:54,0,0,0,0,0,0,0,0,0,0,0,514,0,0,0,0,0.0000000,0.0000000,0.0000000,0.0000000,9.00,38.4063187,-110.7922668,1384.5000000,0.1,158.5,0.9,0.0,0.0,894,126,0,0,863.25,23.09,19.63,# data time:1250,pm2.5:6.445,pm10:5.704,O2:0.000,NO2:0.000,SO2:0.000,NH3:3.273
9:50:55,0,0,0,0,0,0,0,0,0,0,0,514,0,0,0,0,0.0000000,0.0000000,0.0000000,0.0000000,9.00,38.4063187,-110.7922668,1384.5000000,0.1,55.6,0.9,0.0,0.0,894,128,0,0,863.21,23.07,19.63,# data time:1250,pm2.5:6.445,pm10:5.704,O2:0.000,NO2:0.000,SO2:0.000,NH3:3.273
9:50:56,0,0,0,0,0,0,0,0,0,0,0,515,0,0,0,0,0.0000000,0.0000000,0.0000000,0.0000000,9.00,38.4063187,-110.7922668,1384.5000000,0.2,52.3,0.9,0.0,0.0,894,127,0,0,863.22,23.00,19.62,# data time:1250,pm2.5:6.445,pm10:5.704,O2:0.000,NO2:0.000,SO2:0.000,NH3:3.273
9:50:57,0,0,0,0,0,0,0,0,0,0,0,515,0,0,0,0,0.0000000,0.0000000,0.0000000,0.0000000,9.00,38.4063187,-110.7922668,1384.5000000,0.4,50.6,0.9,0.0,0.0,894,126,0,0,863.24,23.01,19.63,# data time:1250,pm2.5:6.445,pm10:5.704,O2:0.000,NO2:0.000,SO2:0.000,NH3:3.273
9:50:58,0,0,0,0,0,0,0,0,0,0,0,514,0,0,0,0,0.0000000,0.0000000,0.0000000,0.0000000,9.00,38.4063187,-110.7922668,1384.5000000,0.5,29.3,0.9,0.0,0.0,894,126,0,0,863.23,22.95,19.63,# data time:1250,pm2.5:6.445,pm10:5.704,O2:0.000,NO2:0.000,SO2:0.000,NH3:3.273
9:50:59,0,0,0,0,0,0,0,0,0,0,0,514,0,0,0,0,0.0000000,0.0000000,0.0000000,0.0000000,9.00,38.4063225,-110.7922668,1384.5000000,0.4,18.4,0.9,0.0,0.0,894,127,0,0,863.23,22.96,19.64,# data time:1250,pm2.5:6.445,pm10:5.704,O2:0.000,NO2:0.000,SO2:0.000,NH3:3.273
9:51:00,0,0,0,0,0,0,0,0,0,0,0,514,0,0,0,0,0.0000000,0.0000000,0.0000000,0.0000000,9.00,38.4063225,-110.7922668,1384.5000000,0.4,20.3,0.9,0.0,0.0,894,127,0,0,863.23,22.92,19.64,# data time:1250,pm2.5:6.445,pm10:5.704,O2:0.000,NO2:0.000,SO2:0.000,NH3:3.273
9:51:01,0,0,0,0,0,0,0,0,0,0,0,514,0,0,0,0,0.0000000,0.0000000,0.0000000,0.0000000,10.00,38.4063263,-110.7922592,1384.5000000,0.5,32.5,0.8,0.0,0.0,894,129,0,0,863.25,22.93,19.64,# data time:1250,pm2.5:6.445,pm10:5.704,O2:0.000,NO2:0.000,SO2:0.000,NH3:3.273
9:51:02,0,0,0,0,0,0,0,0,0,0,0,515,0,0,0,0,0.0000000,0.0000000,0.0000000,0.0000000,10.00,38.4063339,-110.7922592,1384.4000244,0.4,31.3,0.8,0.0,0.0,894,126,0,0,863.25,22.92,19.65,# data time:1260,pm2.5:6.445,pm10:5.704,O2:0.000,NO2:0.000,SO2:0.000,NH3:3.273
9:51:03,0,0,0,0,0,0,0,0,0,0,0,515,0,0,0,0,0.0000000,0.0000000,0.0000000,0.0000000,10.00,38.4063454,-110.7922440,1384.1999512,0.4,25.6,0.8,0.0,0.0,894,127,0,0,863.23,22.89,19.65,# data time:1260,pm2.5:6.445,pm10:5.704,O2:0.000,NO2:0.000,SO2:0.000,NH3:3.273
9:51:04,0,0,0,0,0,0,0,0,0,0,0,514,0,0,0,0,0.0000000,0.0000000,0.0000000,0.0000000,10.00,38.4063530,-110.7922440,1384.0999756,0.4,25.9,0.8,0.0,0.0,894,128,0,0,863.21,22.90,19.66,# data time:1260,pm2.5:6.445,pm10:5.704,O2:0.000,NO2:0.000,SO2:0.000,NH3:3.273
9:51:05,0,0,0,0,0,0,0,0,0,0,0,515,0,0,0,0,0.0000000,0.0000000,0.0000000,0.0000000,10.00,38.4063644,-110.7922440,1384.0999756,0.4,21.6,0.8,0.0,0.0,894,126,0,0,863.24,22.93,19.66,# data time:1260,pm2.5:6.445,pm10:5.704,O2:0.000,NO2:0.000,SO2:0.000,NH3:3.273
