Time, Motor A Speed, Motor A Dir, Motor B Speed, Motor B Dir, Servo Rail Current Sensor, Servo Pos - Arm L, Servo Pos - Arm R, Servo Pos - End, Servo Pos - Hopper, Servo Pos - Lid, Servo Pos - Extra, Servo Current, LED - Front L, LED - Front R, LED - Back L, LED - Back R, IMU Pitch, IMU Roll, IMU Yaw, Compass Heading, GPS Sats, GPS Latitude, GPS Longitude, GPS Altitude, GPS Speed, GPS Angle, GPS HDOP, GPS VDOP, GPS PDOP, Battery, Wind, Comm Xbee Latency, Comm Arduino Latency, Pressure, Humidity, Temperature, uRADMonitor
15:04:23,0,0,0,0,0,2700,2200,1,0,0,0,514,0,0,0,0,0.0000000,0.0000000,0.0000000,0.0000000,7.00,38.4062881,-110.7921371,1356.6999512,0.0,64.9,1.5,0.0,0.0,854,130,0,0,859.92,9.77,27.78,# data time:9900,pm2.5:6.445,pm10:5.704,O2:0.000,NO2:0.046,SO2:0.000,NH3:7.346
15:04:24,0,0,0,0,0,2700,2200,1,0,0,0,514,0,0,0,0,0.0000000,0.0000000,0.0000000,0.0000000,7.00,38.4062881,-110.7921371,1356.6999512,0.0,64.9,1.5,0.0,0.0,854,128,0,0,860.01,9.77,27.83,# data time:9900,pm2.5:6.445,pm10:5.704,O2:0.000,NO2:0.046,SO2:0.000,NH3:7.346
15:04:25,0,0,0,0,0,2700,2200,1,0,0,0,514,0,0,0,0,0.0000000,0.0000000,0.0000000,0.0000000,7.00,38.4062881,-110.7921371,1356.5999756,0.0,64.9,1.5,0.0,0.0,854,125,0,0,860.03,9.72,27.77,# data time:9910,pm2.5:6.445,pm10:5.704,O2:0.000,NO2:0.028,SO2:0.000,NH3:7.346
15:04:26,0,0,0,0,0,2700,2200,1,0,0,0,515,0,0,0,0,0.0000000,0.0000000,0.0000000,0.0000000,7.00,38.4062881,-110.7921371,1356.5999756,0.0,137.9,1.5,0.0,0.0,854,130,0,0,859.96,9.75,27.82,# data time:9910,pm2.5:6.445,pm10:5.704,O2:0.000,NO2:0.028,SO2:0.000,NH3:7.346
15:04:28,0,0,0,0,0,2700,2200,1,0,0,0,514,0,0,0,0,0.0000000,0.0000000,0.0000000,0.0000000,7.00,38.4062881,-110.7921371,1356.5999756,0.0,25.1,1.5,0.0,0.0,854,132,0,0,860.00,9.72,27.87,# data time:9910,pm2.5:6.445,pm10:5.704,O2:0.000,NO2:0.028,SO2:0.000,NH3:7.346
15:04:29,0,0,0,0,0,2700,2200,1,0,0,0,515,0,0,0,0,0.0000000,0.0000000,0.0000000,0.0000000,7.00,38.4062881,-110.7921371,1356.5999756,0.0,218.9,1.5,0.0,0.0,854,129,0,0,860.05,9.72,27.87,# data time:9910,pm2.5:6.445,pm10:5.704,O2:0.000,NO2:0.028,SO2:0.000,NH3:7.346
15:04:30,0,0,0,0,0,2700,2200,1,0,0,0,513,0,0,0,0,0.0000000,0.0000000,0.0000000,0.0000000,7.00,38.4062881,-110.7921371,1356.5999756,0.0,134.6,1.5,0.0,0.0,854,128,0,0,859.95,9.71,27.87,# data time:9910,pm2.5:6.445,pm10:5.704,O2:0.000,NO2:0.028,SO2:0.000,NH3:7.346
15:04:31,0,0,0,0,0,2700,2200,1,0,0,0,515,0,0,0,0,0.0000000,0.0000000,0.0000000,0.0000000,7.00,38.4062881,-110.7921371,1356.5999756,0.0,200.4,1.5,0.0,0.0,854,130,0,0,859.92,9.74,27.87,# data time:9910,pm2.5:6.445,pm10:5.704,O2:0.000,NO2:0.028,SO2:0.000,NH3:7.346
15:04:32,0,0,0,0,0,2700,2200,1,0,0,0,514,0,0,0,0,0.0000000,0.0000000,0.0000000,0.0000000,7.00,38.4062881,-110.7921371,1356.5999756,0.0,59.7,1.5,0.0,0.0,854,130,0,0,859.87,9.75,27.87,# data time:9910,pm2.5:6.445,pm10:5.704,O2:0.000,NO2:0.028,SO2:0.000,NH3:7.346
15:04:33,0,0,0,0,0,2700,2200,1,0,0,0,514,0,0,0,0,0.0000000,0.0000000,0.0000000,0.0000000,7.00,38.4062881,-110.7921371,1356.5999756,0.0,141.5,1.5,0.0,0.0,854,129,0,0,859.92,9.72,27.87,# data time:9910,pm2.5:6.445,pm10:5.704,O2:0.000,NO2:0.028,SO2:0.000,NH3:7.346
15:04:34,0,0,0,0,0,2700,2200,1,0,0,0,514,0,0,0,0,0.0000000,0.0000000,0.0000000,0.0000000,7.00,38.4062881,-110.7921371,1356.5999756,0.0,170.1,1.5,0.0,0.0,855,128,0,0,859.87,9.71,27.87,# data time:9910,pm2.5:6.445,pm10:5.704,O2:0.000,NO2:0.028,SO2:0.000,NH3:7.346
15:04:35,0,0,0,0,0,2700,2200,1,0,0,0,514,0,0,0,0,0.0000000,0.0000000,0.0000000,0.0000000,7.00,38.4062881,-110.7921371,1356.5999756,0.0,198.4,1.5,0.0,0.0,854,131,0,0,859.92,9.74,27.87,# data time:9910,pm2.5:6.445,pm10:5.704,O2:0.000,NO2:0.028,SO2:0.000,NH3:7.346
15:04:36,0,0,0,0,0,2700,2200,1,0,0,0,514,0,0,0,0,0.0000000,0.0000000,0.0000000,0.0000000,7.00,38.4062881,-110.7921371,1356.5999756,0.0,118.5,1.5,0.0,0.0,855,130,0,0,859.93,9.74,27.87,# data time:9920,pm2.5:6.445,pm10:5.704,O2:0.000,NO2:0.010,SO2:0.000,NH3:7.346
15:04:37,0,0,0,0,0,2700,2200,1,0,0,0,514,0,0,0,0,0.0000000,0.0000000,0.0000000,0.0000000,7.00,38.4062881,-110.7921371,1356.5999756,0.0,128.3,1.5,0.0,0.0,854,129,0,0,859.90,9.72,27.88,# data time:9920,pm2.5:6.445,pm10:5.704,O2:0.000,NO2:0.010,SO2:0.000,NH3:7.346
15:04:38,0,0,0,0,0,2700,2200,1,0,0,0,514,0,0,0,0,0.0000000,0.0000000,0.0000000,0.0000000,7.00,38.4062881,-110.7921371,1356.5999756,0.0,159.6,1.5,0.0,0.0,854,132,0,0,859.88,9.74,27.88,# data time:9920,pm2.5:6.445,pm10:5.704,O2:0.000,NO2:0.010,SO2:0.000,NH3:7.346
15:04:39,0,0,0,0,0,2700,2200,1,0,0,0,514,0,0,0,0,0.0000000,0.0000000,0.0000000,0.0000000,7.00,38.4062881,-110.7921371,1356.5999756,0.0,190.5,1.5,0.0,0.0,854,127,0,0,859.96,9.75,27.88,# data time:9920,pm2.5:6.445,pm10:5.704,O2:0.000,NO2:0.010,SO2:0.000,NH3:7.346
15:04:40,0,0,0,0,0,2700,2200,1,0,0,0,514,0,0,0,0,0.0000000,0.0000000,0.0000000,0.0000000,7.00,38.4062881,-110.7921371,1356.5999756,0.0,117.9,1.5,0.0,0.0,854,129,0,0,860.01,9.74,27.88,# data time:9920,pm2.5:6.445,pm10:5.704,O2:0.000,NO2:0.010,SO2:0.000,NH3:7.346
15:04:41,0,0,0,0,0,2700,2200,1,0,0,0,514,0,0,0,0,0.0000000,0.0000000,0.0000000,0.0000000,7.00,38.4062881,-110.7921371,1356.5999756,0.0,147.1,1.5,0.0,0.0,854,129,0,0,860.09,9.75,27.88,# data time:9920,pm2.5:6.445,pm10:5.704,O2:0.000,NO2:0.010,SO2:0.000,NH3:7.346
15:04:42,0,0,0,0,0,2700,2200,1,0,0,0,514,0,0,0,0,0.0000000,0.0000000,0.0000000,0.0000000,7.00,38.4062881,-110.7921371,1356.5999756,0.1,121.8,1.5,0.0,0.0,854,127,0,0,860.02,9.75,27.88,# data time:9920,pm2.5:6.445,pm10:5.704,O2:0.000,NO2:0.010,SO2:0.000,NH3:7.346
15:04:43,0,0,0,0,0,2700,2200,1,0,0,0,514,0,0,0,0,0.0000000,0.0000000,0.0000000,0.0000000,7.00,38.4062881,-110.7921371,1356.5999756,0.0,123.5,1.5,0.0,0.0,854,129,0,0,860.00,9.77,27.88,# data time:9920,pm2.5:6.445,pm10:5.704,O2:0.000,NO2:0.010,SO2:0.000,NH3:7.346
15:04:44,0,0,0,0,0,2700,2200,1,0,0,0,514,0,0,0,0,0.0000000,0.0000000,0.0000000,0.0000000,7.00,38.4062881,-110.7921371,1356.5999756,0.0,158.2,1.3,0.0,0.0,854,130,0,0,860.00,9.77,27.88,# data time:9920,pm2.5:6.445,pm10:5.704,O2:0.000,NO2:0.010,SO2:0.000,NH3:7.346
15:04:45,0,0,0,0,0,2700,2200,1,0,0,0,514,0,0,0,0,0.0000000,0.0000000,0.0000000,0.0000000,7.00,38.4062881,-110.7921371,1356.5999756,0.1,130.4,1.3,0.0,0.0,854,130,0,0,859.93,9.75,27.88,# data time:9930,pm2.5:6.445,pm10:5.704,O2:0.000,NO2:0.000,SO2:0.000,NH3:7.346
15:04:46,0,0,0,0,0,2700,2200,1,0,0,0,514,0,0,0,0,0.0000000,0.0000000,0.0000000,0.0000000,7.00,38.4062881,-110.7921371,1356.5999756,0.0,146.9,1.5,0.0,0.0,854,130,0,0,859.97,9.77,27.89,# data time:9930,pm2.5:6.445,pm10:5.704,O2:0.000,NO2:0.000,SO2:0.000,NH3:7.346
15:04:47,0,0,0,0,0,2700,2200,1,0,0,0,514,0,0,0,0,0.0000000,0.0000000,0.0000000,0.0000000,7.00,38.4062881,-110.7921371,1356.5999756,0.1,131.2,1.5,0.0,0.0,854,132,0,0,859.99,9.78,27.79,# data time:9930,pm2.5:6.445,pm10:5.704,O2:0.000,NO2:0.000,SO2:0.000,NH3:7.346
15:04:48,0,0,0,0,0,2700,2200,1,0,0,0,514,0,0,0,0,0.0000000,0.0000000,0.0000000,0.0000000,7.00,38.4062881,-110.7921371,1356.5999756,0.1,131.2,1.5,0.0,0.0,855,130,0,0,859.96,9.78,27.78,# data time:9930,pm2.5:6.445,pm10:5.704,O2:0.000,NO2:0.000,SO2:0.000,NH3:7.346
15:04:49,0,0,0,0,0,2700,2200,1,0,0,0,514,0,0,0,0,0.0000000,0.0000000,0.0000000,0.0000000,7.00,38.4062881,-110.7921371,1356.5999756,0.0,158.2,1.5,0.0,0.0,854,132,0,0,859.96,9.75,27.84,# data time:9930,pm2.5:6.445,pm10:5.704,O2:0.000,NO2:0.000,SO2:0.000,NH3:7.346
15:04:51,0,0,0,0,0,2700,2200,1,0,0,0,514,0,0,0,0,0.0000000,0.0000000,0.0000000,0.0000000,7.00,38.4062881,-110.7921371,1356.5999756,0.0,78.5,1.5,0.0,0.0,854,128,0,0,859.90,9.75,27.84,# data time:9930,pm2.5:6.445,pm10:5.704,O2:0.000,NO2:0.000,SO2:0.000,NH3:7.346
15:04:52,0,0,0,0,0,2700,2200,1,0,0,0,514,0,0,0,0,0.0000000,0.0000000,0.0000000,0.0000000,7.00,38.4062881,-110.7921371,1356.5999756,0.0,111.7,1.5,0.0,0.0,854,128,0,0,859.88,9.75,27.88,# data time:9930,pm2.5:6.445,pm10:5.704,O2:0.000,NO2:0.000,SO2:0.000,NH3:7.346
15:04:53,0,0,0,0,0,2700,2200,1,0,0,0,514,0,0,0,0,0.0000000,0.0000000,0.0000000,0.0000000,7.00,38.4062881,-110.7921371,1356.5999756,0.0,144.6,1.5,0.0,0.0,854,129,0,0,859.87,9.75,27.88,# data time:9930,pm2.5:6.445,pm10:5.704,O2:0.000,NO2:0.000,SO2:0.000,NH3:7.346
15:04:54,0,0,0,0,0,2700,2200,1,0,0,0,514,0,0,0,0,0.0000000,0.0000000,0.0000000,0.0000000,7.00,38.4062881,-110.7921371,1356.5999756,0.0,88.2,1.5,0.0,0.0,854,130,0,0,859.94,9.75,27.88,# data time:9930,pm2.5:6.445,pm10:5.704,O2:0.000,NO2:0.000,SO2:0.000,NH3:7.346
15:04:55,0,0,0,0,0,2700,2200,1,0,0,0,514,0,0,0,0,0.0000000,0.0000000,0.0000000,0.0000000,7.00,38.4062881,-110.7921371,1356.5999756,0.1,110.2,1.5,0.0,0.0,853,128,0,0,859.93,9.74,27.88,# data time:9930,pm2.5:6.445,pm10:5.704,O2:0.000,NO2:0.000,SO2:0.000,NH3:7.346
15:04:56,0,0,0,0,0,2700,2200,1,0,0,0,514,0,0,0,0,0.0000000,0.0000000,0.0000000,0.0000000,7.00,38.4062881,-110.7921371,1356.5000000,0.0,145.0,1.5,0.0,0.0,854,129,0,0,859.94,9.77,27.88,# data time:9940,pm2.5:6.445,pm10:5.704,O2:0.000,NO2:0.081,SO2:0.000,NH3:7.346
15:04:57,0,0,0,0,0,2700,2200,1,0,0,0,515,0,0,0,0,0.0000000,0.0000000,0.0000000,0.0000000,7.00,38.4062881,-110.7921371,1356.5000000,0.0,150.1,1.5,0.0,0.0,854,132,0,0,859.80,9.75,27.88,# data time:9940,pm2.5:6.445,pm10:5.704,O2:0.000,NO2:0.081,SO2:0.000,NH3:7.346
15:04:58,0,0,0,0,0,2700,2200,1,0,0,0,514,0,0,0,0,0.0000000,0.0000000,0.0000000,0.0000000,7.00,38.4062881,-110.7921371,1356.5000000,0.0,119.1,1.5,0.0,0.0,854,132,0,0,859.88,9.72,27.88,# data time:9940,pm2.5:6.445,pm10:5.704,O2:0.000,NO2:0.081,SO2:0.000,NH3:7.346
15:04:59,0,0,0,0,0,2700,2200,1,0,0,0,514,0,0,0,0,0.0000000,0.0000000,0.0000000,0.0000000,7.00,38.4062881,-110.7921371,1356.5000000,0.0,137.0,1.5,0.0,0.0,854,129,0,0,859.91,9.74,27.88,# data time:9940,pm2.5:6.445,pm10:5.704,O2:0.000,NO2:0.081,SO2:0.000,NH3:7.346
15:05:00,0,0,0,0,0,2700,2200,1,0,0,0,514,0,0,0,0,0.0000000,0.0000000,0.0000000,0.0000000,7.00,38.4062881,-110.7921371,1356.5000000,0.0,186.4,1.5,0.0,0.0,854,131,0,0,859.94,9.72,27.88,# data time:9940,pm2.5:6.445,pm10:5.704,O2:0.000,NO2:0.081,SO2:0.000,NH3:7.346
15:05:01,0,0,0,0,0,2700,2200,1,0,0,0,514,0,0,0,0,0.0000000,0.0000000,0.0000000,0.0000000,7.00,38.4062881,-110.7921371,1356.5000000,0.1,127.6,1.5,0.0,0.0,854,128,0,0,859.96,9.74,27.88,# data time:9940,pm2.5:6.445,pm10:5.704,O2:0.000,NO2:0.081,SO2:0.000,NH3:7.346
15:05:02,0,0,0,0,0,2700,2200,1,0,0,0,514,0,0,0,0,0.0000000,0.0000000,0.0000000,0.0000000,7.00,38.4062881,-110.7921371,1356.5000000,0.0,141.2,1.5,0.0,0.0,854,128,0,0,859.86,9.72,27.88,# data time:9940,pm2.5:6.445,pm10:5.704,O2:0.000,NO2:0.081,SO2:0.000,NH3:7.346
15:05:03,0,0,0,0,0,2700,2200,1,0,0,0,514,0,0,0,0,0.0000000,0.0000000,0.0000000,0.0000000,7.00,38.4062881,-110.7921371,1356.5000000,0.0,147.1,1.5,0.0,0.0,854,130,0,0,859.84,9.71,27.89,# data time:9940,pm2.5:6.445,pm10:5.704,O2:0.000,NO2:0.081,SO2:0.000,NH3:7.346
15:05:04,0,0,0,0,0,2700,2200,1,0,0,0,514,0,0,0,0,0.0000000,0.0000000,0.0000000,0.0000000,7.00,38.4062881,-110.7921371,1356.5000000,0.0,147.1,1.5,0.0,0.0,854,127,0,0,859.83,9.74,27.89,# data time:9940,pm2.5:6.445,pm10:5.704,O2:0.000,NO2:0.081,SO2:0.000,NH3:7.346
15:05:05,0,0,0,0,0,2700,2200,1,0,0,0,514,0,0,0,0,0.0000000,0.0000000,0.0000000,0.0000000,7.00,38.4062881,-110.7921371,1356.5000000,0.0,128.1,1.5,0.0,0.0,854,129,0,0,859.78,9.74,27.89,# data time:9950,pm2.5:6.445,pm10:5.704,O2:0.000,NO2:0.010,SO2:0.000,NH3:7.572
15:05:06,0,0,0,0,0,2700,2200,1,0,0,0,515,0,0,0,0,0.0000000,0.0000000,0.0000000,0.0000000,7.00,38.4062881,-110.7921371,1356.5000000,0.0,141.6,1.5,0.0,0.0,854,134,0,0,859.82,9.71,27.89,# data time:9950,pm2.5:6.445,pm10:5.704,O2:0.000,NO2:0.010,SO2:0.000,NH3:7.572
15:05:07,0,0,0,0,0,2700,2200,1,0,0,0,515,0,0,0,0,0.0000000,0.0000000,0.0000000,0.0000000,7.00,38.4062881,-110.7921371,1356.4000244,0.1,154.3,1.5,0.0,0.0,854,129,0,0,860.03,9.74,27.89,# data time:9950,pm2.5:6.445,pm10:5.704,O2:0.000,NO2:0.010,SO2:0.000,NH3:7.572
15:05:08,0,0,0,0,0,2700,2200,1,0,0,0,515,0,0,0,0,0.0000000,0.0000000,0.0000000,0.0000000,7.00,38.4062881,-110.7921371,1356.4000244,0.0,112.7,1.5,0.0,0.0,854,129,0,0,859.96,9.75,27.80,# data time:9950,pm2.5:6.445,pm10:5.704,O2:0.000,NO2:0.010,SO2:0.000,NH3:7.572
15:05:09,0,0,0,0,0,2700,2200,1,0,0,0,514,0,0,0,0,0.0000000,0.0000000,0.0000000,0.0000000,7.00,38.4062881,-110.7921371,1356.4000244,0.0,112.7,1.5,0.0,0.0,854,131,0,0,859.96,9.71,27.79,# data time:9950,pm2.5:6.445,pm10:5.704,O2:0.000,NO2:0.010,SO2:0.000,NH3:7.572
15:05:10,0,0,0,0,0,2700,2200,1,0,0,0,514,0,0,0,0,0.0000000,0.0000000,0.0000000,0.0000000,7.00,38.4062881,-110.7921371,1356.4000244,0.0,112.7,1.5,0.0,0.0,855,127,0,0,859.92,9.71,27.84,# data time:9950,pm2.5:6.445,pm10:5.704,O2:0.000,NO2:0.010,SO2:0.000,NH3:7.572
15:05:11,0,0,0,0,0,2700,2200,1,0,0,0,514,0,0,0,0,0.0000000,0.0000000,0.0000000,0.0000000,7.00,38.4062881,-110.7921371,1356.4000244,0.0,112.7,1.5,0.0,0.0,854,131,0,0,859.84,9.71,27.79,# data time:9950,pm2.5:6.445,pm10:5.704,O2:0.000,NO2:0.010,SO2:0.000,NH3:7.572
15:05:12,0,0,0,0,0,2700,2200,1,0,0,0,514,0,0,0,0,0.0000000,0.0000000,0.0000000,0.0000000,7.00,38.4062881,-110.7921371,1356.4000244,0.0,149.3,1.5,0.0,0.0,854,129,0,0,859.79,9.71,27.84,# data time:9950,pm2.5:6.445,pm10:5.704,O2:0.000,NO2:0.010,SO2:0.000,NH3:7.572
15:05:14,0,0,0,0,0,2700,2200,1,0,0,0,515,0,0,0,0,0.0000000,0.0000000,0.0000000,0.0000000,7.00,38.4062881,-110.7921371,1356.4000244,0.0,146.2,1.5,0.0,0.0,854,131,0,0,859.88,9.69,27.88,# data time:9950,pm2.5:6.445,pm10:5.704,O2:0.000,NO2:0.010,SO2:0.000,NH3:7.572
15:05:15,0,0,0,0,0,2700,2200,1,0,0,0,514,0,0,0,0,0.0000000,0.0000000,0.0000000,0.0000000,7.00,38.4062881,-110.7921371,1356.4000244,0.0,125.8,1.5,0.0,0.0,854,127,0,0,859.91,9.69,27.89,# data time:9950,pm2.5:6.445,pm10:5.704,O2:0.000,NO2:0.010,SO2:0.000,NH3:7.572
15:05:16,0,0,0,0,0,2700,2200,1,0,0,0,514,0,0,0,0,0.0000000,0.0000000,0.0000000,0.0000000,7.00,38.4062881,-110.7921371,1356.4000244,0.0,167.5,1.5,0.0,0.0,854,129,0,0,859.90,9.69,27.89,# data time:9960,pm2.5:6.445,pm10:5.704,O2:0.000,NO2:0.063,SO2:0.000,NH3:7.346
15:05:17,0,0,0,0,0,2700,2200,1,0,0,0,514,0,0,0,0,0.0000000,0.0000000,0.0000000,0.0000000,7.00,38.4062881,-110.7921371,1356.4000244,0.0,130.6,1.5,0.0,0.0,854,128,0,0,859.92,9.71,27.89,# data time:9960,pm2.5:6.445,pm10:5.704,O2:0.000,NO2:0.063,SO2:0.000,NH3:7.346
15:05:18,0,0,0,0,0,2700,2200,1,0,0,0,513,0,0,0,0,0.0000000,0.0000000,0.0000000,0.0000000,7.00,38.4062881,-110.7921371,1356.4000244,0.0,125.4,1.5,0.0,0.0,854,129,0,0,859.88,9.71,27.89,# data time:9960,pm2.5:6.445,pm10:5.704,O2:0.000,NO2:0.063,SO2:0.000,NH3:7.346
15:05:19,0,0,0,0,0,2700,2200,1,0,0,0,514,0,0,0,0,0.0000000,0.0000000,0.0000000,0.0000000,7.00,38.4062881,-110.7921371,1356.3000488,0.1,133.5,1.5,0.0,0.0,854,131,0,0,859.97,9.69,27.89,# data time:9960,pm2.5:6.445,pm10:5.704,O2:0.000,NO2:0.063,SO2:0.000,NH3:7.346
15:05:20,0,0,0,0,0,2700,2200,1,0,0,0,515,0,0,0,0,0.0000000,0.0000000,0.0000000,0.0000000,7.00,38.4062881,-110.7921371,1356.3000488,0.0,166.8,1.5,0.0,0.0,854,130,0,0,859.95,9.66,27.89,# data time:9960,pm2.5:6.445,pm10:5.704,O2:0.000,NO2:0.063,SO2:0.000,NH3:7.346
15:05:21,0,0,0,0,0,2700,2200,1,0,0,0,514,0,0,0,0,0.0000000,0.0000000,0.0000000,0.0000000,7.00,38.4062881,-110.7921371,1356.3000488,0.0,174.5,1.5,0.0,0.0,855,130,0,0,859.92,9.69,27.89,# data time:9960,pm2.5:6.445,pm10:5.704,O2:0.000,NO2:0.063,SO2:0.000,NH3:7.346
15:05:22,0,0,0,0,0,2700,2200,1,0,0,0,514,0,0,0,0,0.0000000,0.0000000,0.0000000,0.0000000,7.00,38.4062881,-110.7921371,1356.3000488,0.0,143.2,1.5,0.0,0.0,855,129,0,0,859.98,9.69,27.89,# data time:9960,pm2.5:6.445,pm10:5.704,O2:0.000,NO2:0.063,SO2:0.000,NH3:7.346
15:05:23,0,0,0,0,0,2700,2200,1,0,0,0,515,0,0,0,0,0.0000000,0.0000000,0.0000000,0.0000000,7.00,38.4062881,-110.7921371,1356.3000488,0.0,175.4,1.5,0.0,0.0,854,127,0,0,859.94,9.67,27.89,# data time:9960,pm2.5:6.445,pm10:5.704,O2:0.000,NO2:0.063,SO2:0.000,NH3:7.346
15:05:24,0,0,0,0,0,2700,2200,1,0,0,0,514,0,0,0,0,0.0000000,0.0000000,0.0000000,0.0000000,7.00,38.4062881,-110.7921371,1356.3000488,0.0,151.3,1.5,0.0,0.0,854,127,0,0,860.01,9.67,27.89,# data time:9960,pm2.5:6.445,pm10:5.704,O2:0.000,NO2:0.063,SO2:0.000,NH3:7.346
15:05:25,0,0,0,0,0,2700,2200,1,0,0,0,513,0,0,0,0,0.0000000,0.0000000,0.0000000,0.0000000,7.00,38.4062881,-110.7921371,1356.3000488,0.0,163.1,1.5,0.0,0.0,854,130,0,0,859.89,9.72,27.89,# data time:9960,pm2.5:6.445,pm10:5.704,O2:0.000,NO2:0.063,SO2:0.000,NH3:7.346
15:05:26,0,0,0,0,0,2700,2200,1,0,0,0,514,0,0,0,0,0.0000000,0.0000000,0.0000000,0.0000000,7.00,38.4062881,-110.7921371,1356.3000488,0.0,172.6,1.5,0.0,0.0,854,130,0,0,859.99,9.72,27.89,# data time:9970,pm2.5:5.640,pm10:4.991,O2:0.000,NO2:0.010,SO2:NH3:7.346
15:05:27,0,0,0,0,0,2700,2200,1,0,0,0,515,0,0,0,0,0.0000000,0.0000000,0.0000000,0.0000000,7.00,38.4062881,-110.7921371,1356.3000488,0.0,167.2,1.5,0.0,0.0,854,127,0,0,859.98,9.69,27.89,# data time:9970,pm2.5:5.640,pm10:4.991,O2:0.000,NO2:0.010,SO2:NH3:7.346
15:05:28,0,0,0,0,0,2700,2200,1,0,0,0,514,0,0,0,0,0.0000000,0.0000000,0.0000000,0.0000000,7.00,38.4062881,-110.7921371,1356.3000488,0.0,167.9,1.5,0.0,0.0,854,129,0,0,859.96,9.71,27.89,# data time:9970,pm2.5:5.640,pm10:4.991,O2:0.000,NO2:0.010,SO2:NH3:7.346
15:05:29,0,0,0,0,0,2700,2200,1,0,0,0,513,0,0,0,0,0.0000000,0.0000000,0.0000000,0.0000000,7.00,38.4062881,-110.7921371,1356.3000488,0.0,150.6,1.5,0.0,0.0,854,131,0,0,859.98,9.71,27.89,# data time:9970,pm2.5:5.640,pm10:4.991,O2:0.000,NO2:0.010,SO2:NH3:7.346
15:05:30,0,0,0,0,0,2700,2200,1,0,0,0,514,0,0,0,0,0.0000000,0.0000000,0.0000000,0.0000000,7.00,38.4062881,-110.7921371,1356.3000488,0.0,145.5,1.5,0.0,0.0,854,130,0,0,860.10,9.72,27.90,# data time:9970,pm2.5:5.640,pm10:4.991,O2:0.000,NO2:0.010,SO2:NH3:7.346
15:05:31,0,0,0,0,0,2700,2200,1,0,0,0,514,0,0,0,0,0.0000000,0.0000000,0.0000000,0.0000000,7.00,38.4062881,-110.7921371,1356.3000488,0.0,83.8,1.5,0.0,0.0,854,130,0,0,860.14,9.74,27.89,# data time:9970,pm2.5:5.640,pm10:4.991,O2:0.000,NO2:0.010,SO2:NH3:7.346
15:05:32,0,0,0,0,0,2700,2200,1,0,0,0,514,0,0,0,0,0.0000000,0.0000000,0.0000000,0.0000000,7.00,38.4062881,-110.7921371,1356.3000488,0.0,150.8,1.5,0.0,0.0,854,128,0,0,860.02,9.72,27.84,# data time:9970,pm2.5:5.640,pm10:4.991,O2:0.000,NO2:0.010,SO2:NH3:7.346
15:05:33,0,0,0,0,0,2700,2200,1,0,0,0,514,0,0,0,0,0.0000000,0.0000000,0.0000000,0.0000000,7.00,38.4062881,-110.7921371,1356.3000488,0.0,149.1,1.5,0.0,0.0,854,129,0,0,859.85,9.71,27.81,# data time:9970,pm2.5:5.640,pm10:4.991,O2:0.000,NO2:0.010,SO2:NH3:7.346
15:05:34,0,0,0,0,0,2700,2200,1,0,0,0,514,0,0,0,0,0.0000000,0.0000000,0.0000000,0.0000000,7.00,38.4062881,-110.7921371,1356.3000488,0.0,149.1,1.5,0.0,0.0,854,128,0,0,859.92,9.71,27.80,# data time:9970,pm2.5:5.640,pm10:4.991,O2:0.000,NO2:0.010,SO2:NH3:7.346
15:05:35,0,0,0,0,0,2700,2200,1,0,0,0,514,0,0,0,0,0.0000000,0.0000000,0.0000000,0.0000000,7.00,38.4062843,-110.7921371,1356.1999512,0.0,149.1,1.5,0.0,0.0,854,126,0,0,859.88,9.71,27.84,# data time:9980,pm2.5:6.445,pm10:5.704,O2:0.000,NO2:0.046,SO2:0.000,NH3:7.346
15:05:36,0,0,0,0,0,2700,2200,1,0,0,0,514,0,0,0,0,0.0000000,0.0000000,0.0000000,0.0000000,7.00,38.4062843,-110.7921371,1356.1999512,0.0,150.8,1.5,0.0,0.0,854,126,0,0,860.00,9.72,27.85,# data time:9980,pm2.5:6.445,pm10:5.704,O2:0.000,NO2:0.046,SO2:0.000,NH3:7.346
15:05:38,0,0,0,0,0,2700,2200,1,0,0,0,514,0,0,0,0,0.0000000,0.0000000,0.0000000,0.0000000,7.00,38.4062843,-110.7921371,1356.1999512,0.0,113.7,1.5,0.0,0.0,854,129,0,0,860.07,9.69,27.89,# data time:9980,pm2.5:6.445,pm10:5.704,O2:0.000,NO2:0.046,SO2:0.000,NH3:7.346
15:05:39,0,0,0,0,0,2700,2200,1,0,0,0,514,0,0,0,0,0.0000000,0.0000000,0.0000000,0.0000000,7.00,38.4062843,-110.7921371,1356.1999512,0.0,128.2,1.5,0.0,0.0,854,128,0,0,860.01,9.74,27.89,# data time:9980,pm2.5:6.445,pm10:5.704,O2:0.000,NO2:0.046,SO2:0.000,NH3:7.346
15:05:40,0,0,0,0,0,2700,2200,1,0,0,0,514,0,0,0,0,0.0000000,0.0000000,0.0000000,0.0000000,7.00,38.4062843,-110.7921371,1356.1999512,0.0,171.0,1.5,0.0,0.0,854,128,0,0,859.99,9.72,27.88,# data time:9980,pm2.5:6.445,pm10:5.704,O2:0.000,NO2:0.046,SO2:0.000,NH3:7.346
15:05:41,0,0,0,0,0,2700,2200,1,0,0,0,514,0,0,0,0,0.0000000,0.0000000,0.0000000,0.0000000,7.00,38.4062843,-110.7921371,1356.1999512,0.0,164.4,1.5,0.0,0.0,854,127,0,0,860.08,9.71,27.88,# data time:9980,pm2.5:6.445,pm10:5.704,O2:0.000,NO2:0.046,SO2:0.000,NH3:7.346
15:05:42,0,0,0,0,0,2700,2200,1,0,0,0,514,0,0,0,0,0.0000000,0.0000000,0.0000000,0.0000000,7.00,38.4062843,-110.7921371,1356.1999512,0.1,116.1,1.5,0.0,0.0,854,127,0,0,860.04,9.67,27.89,# data time:9980,pm2.5:6.445,pm10:5.704,O2:0.000,NO2:0.046,SO2:0.000,NH3:7.346
15:05:43,0,0,0,0,0,2700,2200,1,0,0,0,514,0,0,0,0,0.0000000,0.0000000,0.0000000,0.0000000,7.00,38.4062843,-110.7921371,1356.1999512,0.0,118.9,1.5,0.0,0.0,854,131,0,0,860.14,9.71,27.89,# data time:9980,pm2.5:6.445,pm10:5.704,O2:0.000,NO2:0.046,SO2:0.000,NH3:7.346
15:05:44,0,0,0,0,0,2700,2200,1,0,0,0,515,0,0,0,0,0.0000000,0.0000000,0.0000000,0.0000000,7.00,38.4062843,-110.7921371,1356.1999512,0.0,154.3,1.5,0.0,0.0,854,128,0,0,860.26,9.72,27.89,# data time:9980,pm2.5:6.445,pm10:5.704,O2:0.000,NO2:0.046,SO2:0.000,NH3:7.346
15:05:45,0,0,0,0,0,2700,2200,1,0,0,0,514,0,0,0,0,0.0000000,0.0000000,0.0000000,0.0000000,7.00,38.4062843,-110.7921371,1356.1999512,0.0,106.5,1.5,0.0,0.0,854,126,0,0,860.02,9.71,27.89,# data time:9980,pm2.5:6.445,pm10:5.704,O2:0.000,NO2:0.046,SO2:0.000,NH3:7.346
15:05:46,0,0,0,0,0,2700,2200,1,0,0,0,514,0,0,0,0,0.0000000,0.0000000,0.0000000,0.0000000,7.00,38.4062843,-110.7921371,1356.1999512,0.1,96.7,1.5,0.0,0.0,854,131,0,0,860.07,9.71,27.89,# data time:9990,pm2.5:6.445,pm10:5.704,O2:0.000,NO2:0.028,SO2:0.000,NH3:7.346
15:05:47,0,0,0,0,0,2700,2200,1,0,0,0,514,0,0,0,0,0.0000000,0.0000000,0.0000000,0.0000000,7.00,38.4062843,-110.7921371,1356.1999512,0.1,108.9,1.5,0.0,0.0,854,129,0,0,859.93,9.71,27.89,# data time:9990,pm2.5:6.445,pm10:5.704,O2:0.000,NO2:0.028,SO2:0.000,NH3:7.346
15:05:48,0,0,0,0,0,2700,2200,1,0,0,0,514,0,0,0,0,0.0000000,0.0000000,0.0000000,0.0000000,7.00,38.4062843,-110.7921371,1356.0999756,0.0,135.9,1.5,0.0,0.0,854,132,0,0,859.89,9.72,27.90,# data time:9990,pm2.5:6.445,pm10:5.704,O2:0.000,NO2:0.028,SO2:0.000,NH3:7.346
15:05:49,0,0,0,0,0,2700,2200,1,0,0,0,514,0,0,0,0,0.0000000,0.0000000,0.0000000,0.0000000,7.00,38.4062843,-110.7921371,1356.0999756,0.0,120.4,1.5,0.0,0.0,855,129,0,0,859.96,9.72,27.89,# data time:9990,pm2.5:6.445,pm10:5.704,O2:0.000,NO2:0.028,SO2:0.000,NH3:7.346
15:05:50,0,0,0,0,0,2700,2200,1,0,0,0,514,0,0,0,0,0.0000000,0.0000000,0.0000000,0.0000000,7.00,38.4062843,-110.7921371,1356.0999756,0.0,162.0,1.5,0.0,0.0,854,131,0,0,859.85,9.71,27.89,# data time:9990,pm2.5:6.445,pm10:5.704,O2:0.000,NO2:0.028,SO2:0.000,NH3:7.346
15:05:51,0,0,0,0,0,2700,2200,1,0,0,0,514,0,0,0,0,0.0000000,0.0000000,0.0000000,0.0000000,7.00,38.4062843,-110.7921371,1356.0999756,0.0,194.8,1.5,0.0,0.0,854,128,0,0,859.95,9.71,27.90,# data time:9990,pm2.5:6.445,pm10:5.704,O2:0.000,NO2:0.028,SO2:0.000,NH3:7.346
15:05:52,0,0,0,0,0,2700,2200,1,0,0,0,514,0,0,0,0,0.0000000,0.0000000,0.0000000,0.0000000,7.00,38.4062843,-110.7921371,1356.0999756,0.0,146.1,1.5,0.0,0.0,854,131,0,0,860.00,9.74,27.89,# data time:9990,pm2.5:6.445,pm10:5.704,O2:0.000,NO2:0.028,SO2:0.000,NH3:7.346
15:05:53,0,0,0,0,0,2700,2200,1,0,0,0,514,0,0,0,0,0.0000000,0.0000000,0.0000000,0.0000000,7.00,38.4062843,-110.7921371,1356.0999756,0.0,74.9,1.5,0.0,0.0,854,130,0,0,860.01,9.72,27.90,# data time:9990,pm2.5:6.445,pm10:5.704,O2:0.000,NO2:0.028,SO2:0.000,NH3:7.346
15:05:54,0,0,0,0,0,2700,2200,1,0,0,0,514,0,0,0,0,0.0000000,0.0000000,0.0000000,0.0000000,7.00,38.4062843,-110.7921371,1356.0999756,0.1,144.3,1.5,0.0,0.0,854,128,0,0,859.94,9.75,27.90,# data time:9990,pm2.5:6.445,pm10:5.704,O2:0.000,NO2:0.028,SO2:0.000,NH3:7.346
15:05:55,0,0,0,0,0,2700,2200,1,0,0,0,515,0,0,0,0,0.0000000,0.0000000,0.0000000,0.0000000,7.00,38.4062843,-110.7921371,1356.0999756,0.1,136.9,1.5,0.0,0.0,854,129,0,0,860.03,9.75,27.90,# data time:10000,pm2.5:6.445,pm10:5.704,O2:0.000,NO2:0.063,SO2:0.000,NH3:7.572
15:05:56,0,0,0,0,0,2700,2200,1,0,0,0,514,0,0,0,0,0.0000000,0.0000000,0.0000000,0.0000000,7.00,38.4062843,-110.7921371,1356.0999756,0.0,188.5,1.5,0.0,0.0,854,131,0,0,860.03,9.74,27.90,# data time:10000,pm2.5:6.445,pm10:5.704,O2:0.000,NO2:0.063,SO2:0.000,NH3:7.572
15:05:57,0,0,0,0,0,2700,2200,1,0,0,0,514,0,0,0,0,0.0000000,0.0000000,0.0000000,0.0000000,7.00,38.4062843,-110.7921371,1356.0000000,0.0,188.3,1.5,0.0,0.0,854,130,0,0,859.90,9.71,27.82,# data time:10000,pm2.5:6.445,pm10:5.704,O2:0.000,NO2:0.063,SO2:0.000,NH3:7.572
15:05:58,0,0,0,0,0,2700,2200,1,0,0,0,514,0,0,0,0,0.0000000,0.0000000,0.0000000,0.0000000,7.00,38.4062843,-110.7921371,1356.0000000,0.0,188.3,1.5,0.0,0.0,854,135,0,0,859.90,9.74,27.80,# data time:10000,pm2.5:6.445,pm10:5.704,O2:0.000,NO2:0.063,SO2:0.000,NH3:7.572
15:05:59,0,0,0,0,0,2700,2200,1,0,0,0,514,0,0,0,0,0.0000000,0.0000000,0.0000000,0.0000000,7.00,38.4062843,-110.7921371,1356.0000000,0.0,188.3,1.5,0.0,0.0,854,129,0,0,859.91,9.72,27.85,# data time:10000,pm2.5:6.445,pm10:5.704,O2:0.000,NO2:0.063,SO2:0.000,NH3:7.572
15:06:00,0,0,0,0,0,2700,2200,1,0,0,0,514,0,0,0,0,0.0000000,0.0000000,0.0000000,0.0000000,7.00,38.4062843,-110.7921371,1356.0000000,0.0,120.2,1.5,0.0,0.0,854,129,0,0,859.82,9.71,27.85,# data time:10000,pm2.5:6.445,pm10:5.704,O2:0.000,NO2:0.063,SO2:0.000,NH3:7.572
15:06:01,0,0,0,0,0,2700,2200,1,0,0,0,515,0,0,0,0,0.0000000,0.0000000,0.0000000,0.0000000,7.00,38.4062843,-110.7921371,1356.0000000,0.0,196.2,1.5,0.0,0.0,854,126,0,0,859.93,9.69,27.86,# data time:10000,pm2.5:6.445,pm10:5.704,O2:0.000,NO2:0.063,SO2:0.000,NH3:7.572
15:06:03,0,0,0,0,0,2700,2200,1,0,0,0,514,0,0,0,0,0.0000000,0.0000000,0.0000000,0.0000000,7.00,38.4062843,-110.7921371,1356.0000000,0.0,134.4,1.5,0.0,0.0,854,129,0,0,859.86,9.71,27.90,# data time:10000,pm2.5:6.445,pm10:5.704,O2:0.000,NO2:0.063,SO2:0.000,NH3:7.572
15:06:04,0,0,0,0,0,2700,2200,1,0,0,0,514,0,0,0,0,0.0000000,0.0000000,0.0000000,0.0000000,7.00,38.4062843,-110.7921371,1356.0000000,0.0,87.3,1.5,0.0,0.0,854,130,0,0,860.09,9.69,27.90,# data time:10000,pm2.5:6.445,pm10:5.704,O2:0.000,NO2:0.063,SO2:0.000,NH3:7.572
15:06:05,0,0,0,0,0,2700,2200,1,0,0,0,514,0,0,0,0,0.0000000,0.0000000,0.0000000,0.0000000,7.00,38.4062843,-110.7921371,1355.9000244,0.0,72.9,1.5,0.0,0.0,854,130,0,0,860.19,9.72,27.90,# data time:10000,pm2.5:6.445,pm10:5.704,O2:0.000,NO2:0.063,SO2:0.000,NH3:7.572
15:06:06,0,0,0,0,0,2700,2200,1,0,0,0,514,0,0,0,0,0.0000000,0.0000000,0.0000000,0.0000000,7.00,38.4062843,-110.7921371,1355.9000244,0.0,76.2,1.5,0.0,0.0,854,129,0,0,860.27,9.71,27.91,# data time:10010,pm2.5:6.445,pm10:5.704,O2:0.000,NO2:0.028,SO2:0.000,NH3:7.346
15:06:07,0,0,0,0,0,2700,2200,1,0,0,0,513,0,0,0,0,0.0000000,0.0000000,0.0000000,0.0000000,7.00,38.4062843,-110.7921371,1355.9000244,0.0,145.7,1.5,0.0,0.0,854,130,0,0,860.38,9.71,27.91,# data time:10010,pm2.5:6.445,pm10:5.704,O2:0.000,NO2:0.028,SO2:0.000,NH3:7.346
15:06:08,0,0,0,0,0,2700,2200,1,0,0,0,514,0,0,0,0,0.0000000,0.0000000,0.0000000,0.0000000,7.00,38.4062843,-110.7921371,1355.9000244,0.0,199.1,1.5,0.0,0.0,854,128,0,0,860.16,9.74,27.91,# data time:10010,pm2.5:6.445,pm10:5.704,O2:0.000,NO2:0.028,SO2:0.000,NH3:7.346
15:06:09,0,0,0,0,0,2700,2200,1,0,0,0,515,0,0,0,0,0.0000000,0.0000000,0.0000000,0.0000000,7.00,38.4062843,-110.7921371,1355.9000244,0.0,93.6,1.5,0.0,0.0,854,128,0,0,860.03,9.72,27.91,# data time:10010,pm2.5:6.445,pm10:5.704,O2:0.000,NO2:0.028,SO2:0.000,NH3:7.346
15:06:10,0,0,0,0,0,2700,2200,1,0,0,0,513,0,0,0,0,0.0000000,0.0000000,0.0000000,0.0000000,7.00,38.4062843,-110.7921371,1355.9000244,0.0,97.6,1.5,0.0,0.0,854,129,0,0,860.01,9.72,27.91,# data time:10010,pm2.5:6.445,pm10:5.704,O2:0.000,NO2:0.028,SO2:0.000,NH3:7.346
15:06:11,0,0,0,0,0,2700,2200,1,0,0,0,514,0,0,0,0,0.0000000,0.0000000,0.0000000,0.0000000,7.00,38.4062843,-110.7921371,1355.9000244,0.0,130.8,1.5,0.0,0.0,854,131,0,0,860.01,9.71,27.91,# data time:10010,pm2.5:6.445,pm10:5.704,O2:0.000,NO2:0.028,SO2:0.000,NH3:7.346
15:06:12,0,0,0,0,0,2700,2200,1,0,0,0,514,0,0,0,0,0.0000000,0.0000000,0.0000000,0.0000000,7.00,38.4062843,-110.7921371,1355.8000488,0.0,159.6,1.5,0.0,0.0,854,128,0,0,860.20,9.69,27.91,# data time:10010,pm2.5:6.445,pm10:5.704,O2:0.000,NO2:0.028,SO2:0.000,NH3:7.346
15:06:13,0,0,0,0,0,2700,2200,1,0,0,0,514,0,0,0,0,0.0000000,0.0000000,0.0000000,0.0000000,7.00,38.4062843,-110.7921371,1355.8000488,0.0,133.8,1.5,0.0,0.0,854,128,0,0,860.10,9.69,27.91,# data time:10010,pm2.5:6.445,pm10:5.704,O2:0.000,NO2:0.028,SO2:0.000,NH3:7.346
15:06:14,0,0,0,0,0,2700,2200,1,0,0,0,514,0,0,0,0,0.0000000,0.0000000,0.0000000,0.0000000,7.00,38.4062843,-110.7921371,1355.8000488,0.0,54.3,1.5,0.0,0.0,854,128,0,0,860.06,9.69,27.92,# data time:10010,pm2.5:6.445,pm10:5.704,O2:0.000,NO2:0.028,SO2:0.000,NH3:7.346
15:06:15,0,0,0,0,0,2700,2200,1,0,0,0,514,0,0,0,0,0.0000000,0.0000000,0.0000000,0.0000000,7.00,38.4062843,-110.7921371,1355.8000488,0.1,161.9,1.5,0.0,0.0,854,128,0,0,860.08,9.71,27.91,# data time:10020,pm2.5:6.445,pm10:5.704,O2:0.000,NO2:0.028,SO2:0.000,NH3:7.572
15:06:16,0,0,0,0,0,2700,2200,1,0,0,0,514,0,0,0,0,0.0000000,0.0000000,0.0000000,0.0000000,7.00,38.4062843,-110.7921371,1355.8000488,0.0,47.4,1.5,0.0,0.0,854,127,0,0,860.03,9.72,27.92,# data time:10020,pm2.5:6.445,pm10:5.704,O2:0.000,NO2:0.028,SO2:0.000,NH3:7.572
15:06:17,0,0,0,0,0,2700,2200,1,0,0,0,514,0,0,0,0,0.0000000,0.0000000,0.0000000,0.0000000,7.00,38.4062843,-110.7921371,1355.8000488,0.0,11.1,1.5,0.0,0.0,855,128,0,0,860.09,9.72,27.92,# data time:10020,pm2.5:6.445,pm10:5.704,O2:0.000,NO2:0.028,SO2:0.000,NH3:7.572
15:06:18,0,0,0,0,0,2700,2200,1,0,0,0,514,0,0,0,0,0.0000000,0.0000000,0.0000000,0.0000000,7.00,38.4062843,-110.7921371,1355.8000488,0.0,81.3,1.5,0.0,0.0,853,129,0,0,860.10,9.71,27.92,# data time:10020,pm2.5:6.445,pm10:5.704,O2:0.000,NO2:0.028,SO2:0.000,NH3:7.572
15:06:19,0,0,0,0,0,2700,2200,1,0,0,0,514,0,0,0,0,0.0000000,0.0000000,0.0000000,0.0000000,7.00,38.4062843,-110.7921371,1355.6999512,0.0,166.7,1.5,0.0,0.0,854,128,0,0,860.14,9.69,27.92,# data time:10020,pm2.5:6.445,pm10:5.704,O2:0.000,NO2:0.028,SO2:0.000,NH3:7.572
15:06:20,0,0,0,0,0,2700,2200,1,0,0,0,514,0,0,0,0,0.0000000,0.0000000,0.0000000,0.0000000,7.00,38.4062843,-110.7921371,1355.6999512,0.0,150.3,1.5,0.0,0.0,854,130,0,0,860.03,9.69,27.82,# data time:10020,pm2.5:6.445,pm10:5.704,O2:0.000,NO2:0.028,SO2:0.000,NH3:7.572
15:06:21,0,0,0,0,0,2700,2200,1,0,0,0,514,0,0,0,0,0.0000000,0.0000000,0.0000000,0.0000000,7.00,38.4062843,-110.7921371,1355.6999512,0.0,150.3,1.5,0.0,0.0,854,127,0,0,859.95,9.69,27.82,# data time:10020,pm2.5:6.445,pm10:5.704,O2:0.000,NO2:0.028,SO2:0.000,NH3:7.572
15:06:22,0,0,0,0,0,2700,2200,1,0,0,0,514,0,0,0,0,0.0000000,0.0000000,0.0000000,0.0000000,7.00,38.4062843,-110.7921371,1355.6999512,0.0,100.0,1.5,0.0,0.0,854,128,0,0,859.93,9.72,27.87,# data time:10020,pm2.5:6.445,pm10:5.704,O2:0.000,NO2:0.028,SO2:0.000,NH3:7.572
15:06:24,0,0,0,0,0,2700,2200,1,0,0,0,514,0,0,0,0,0.0000000,0.0000000,0.0000000,0.0000000,7.00,38.4062843,-110.7921371,1355.5999756,0.0,187.0,1.5,0.0,0.0,853,129,0,0,860.15,9.71,27.92,# data time:10020,pm2.5:6.445,pm10:5.704,O2:0.000,NO2:0.028,SO2:0.000,NH3:7.572
15:06:25,0,0,0,0,0,2700,2200,1,0,0,0,514,0,0,0,0,0.0000000,0.0000000,0.0000000,0.0000000,7.00,38.4062843,-110.7921371,1355.5999756,0.0,54.8,1.5,0.0,0.0,854,131,0,0,860.02,9.69,27.92,# data time:10020,pm2.5:6.445,pm10:5.704,O2:0.000,NO2:0.028,SO2:0.000,NH3:7.572
15:06:26,0,0,0,0,0,2700,2200,1,0,0,0,514,0,0,0,0,0.0000000,0.0000000,0.0000000,0.0000000,7.00,38.4062843,-110.7921371,1355.5999756,0.0,47.0,1.5,0.0,0.0,854,127,0,0,859.99,9.69,27.92,# data time:10030,pm2.5:6.445,pm10:5.704,O2:0.000,NO2:0.046,SO2:0.000,NH3:7.572
15:06:27,0,0,0,0,0,2700,2200,1,0,0,0,514,0,0,0,0,0.0000000,0.0000000,0.0000000,0.0000000,7.00,38.4062843,-110.7921371,1355.5999756,0.0,46.7,1.5,0.0,0.0,853,130,0,0,859.90,9.66,27.92,# data time:10030,pm2.5:6.445,pm10:5.704,O2:0.000,NO2:0.046,SO2:0.000,NH3:7.572
15:06:28,0,0,0,0,0,2700,2200,1,0,0,0,514,0,0,0,0,0.0000000,0.0000000,0.0000000,0.0000000,7.00,38.4062843,-110.7921371,1355.5999756,0.0,91.4,1.5,0.0,0.0,854,128,0,0,860.04,9.69,27.92,# data time:10030,pm2.5:6.445,pm10:5.704,O2:0.000,NO2:0.046,SO2:0.000,NH3:7.572
15:06:29,0,0,0,0,0,2700,2200,1,0,0,0,514,0,0,0,0,0.0000000,0.0000000,0.0000000,0.0000000,7.00,38.4062843,-110.7921371,1355.5000000,0.0,99.7,1.5,0.0,0.0,854,128,0,0,860.01,9.71,27.92,# data time:10030,pm2.5:6.445,pm10:5.704,O2:0.000,NO2:0.046,SO2:0.000,NH3:7.572
15:06:30,0,0,0,0,0,2700,2200,1,0,0,0,514,0,0,0,0,0.0000000,0.0000000,0.0000000,0.0000000,7.00,38.4062843,-110.7921371,1355.5000000,0.0,65.7,1.5,0.0,0.0,854,128,0,0,859.87,9.71,27.92,# data time:10030,pm2.5:6.445,pm10:5.704,O2:0.000,NO2:0.046,SO2:0.000,NH3:7.572
15:06:31,0,0,0,0,0,2700,2200,1,0,0,0,514,0,0,0,0,0.0000000,0.0000000,0.0000000,0.0000000,7.00,38.4062843,-110.7921371,1355.5000000,0.0,79.4,1.5,0.0,0.0,854,133,0,0,859.93,9.69,27.92,# data time:10030,pm2.5:6.445,pm10:5.704,O2:0.000,NO2:0.046,SO2:0.000,NH3:7.572
15:06:32,0,0,0,0,0,2700,2200,1,0,0,0,514,0,0,0,0,0.0000000,0.0000000,0.0000000,0.0000000,7.00,38.4062843,-110.7921371,1355.5000000,0.0,73.4,1.5,0.0,0.0,854,127,0,0,860.12,9.69,27.92,# data time:10030,pm2.5:6.445,pm10:5.704,O2:0.000,NO2:0.046,SO2:0.000,NH3:7.572
15:06:33,0,0,0,0,0,2700,2200,1,0,0,0,514,0,0,0,0,0.0000000,0.0000000,0.0000000,0.0000000,7.00,38.4062843,-110.7921371,1355.5000000,0.0,118.2,1.5,0.0,0.0,854,129,0,0,859.99,9.69,27.92,# data time:10030,pm2.5:6.445,pm10:5.704,O2:0.000,NO2:0.046,SO2:0.000,NH3:7.572
15:06:34,0,0,0,0,0,2700,2200,1,0,0,0,514,0,0,0,0,0.0000000,0.0000000,0.0000000,0.0000000,7.00,38.4062843,-110.7921371,1355.4000244,0.0,119.6,1.5,0.0,0.0,853,129,0,0,859.94,9.71,27.92,# data time:10030,pm2.5:6.445,pm10:5.704,O2:0.000,NO2:0.046,SO2:0.000,NH3:7.572
15:06:35,0,0,0,0,0,2700,2200,1,0,0,0,514,0,0,0,0,0.0000000,0.0000000,0.0000000,0.0000000,7.00,38.4062843,-110.7921371,1355.4000244,0.0,123.7,1.5,0.0,0.0,854,128,0,0,859.92,9.71,27.93,# data time:10040,pm2.5:6.445,pm10:5.704,O2:0.000,NO2:0.028,SO2:0.000,NH3:7.572
15:06:36,0,0,0,0,0,2700,2200,1,0,0,0,514,0,0,0,0,0.0000000,0.0000000,0.0000000,0.0000000,7.00,38.4062843,-110.7921371,1355.4000244,0.0,142.0,1.5,0.0,0.0,854,130,0,0,860.02,9.71,27.92,# data time:10040,pm2.5:6.445,pm10:5.704,O2:0.000,NO2:0.028,SO2:0.000,NH3:7.572
15:06:37,0,0,0,0,0,2700,2200,1,0,0,0,514,0,0,0,0,0.0000000,0.0000000,0.0000000,0.0000000,7.00,38.4062843,-110.7921371,1355.4000244,0.0,131.2,1.5,0.0,0.0,854,130,0,0,859.95,9.66,27.92,# data time:10040,pm2.5:6.445,pm10:5.704,O2:0.000,NO2:0.028,SO2:0.000,NH3:7.572
15:06:38,0,0,0,0,0,2700,2200,1,0,0,0,514,0,0,0,0,0.0000000,0.0000000,0.0000000,0.0000000,7.00,38.4062843,-110.7921371,1355.3000488,0.0,146.9,1.5,0.0,0.0,854,128,0,0,859.92,9.69,27.92,# data time:10040,pm2.5:6.445,pm10:5.704,O2:0.000,NO2:0.028,SO2:0.000,NH3:7.572
15:06:39,0,0,0,0,0,2700,2200,1,0,0,0,514,0,0,0,0,0.0000000,0.0000000,0.0000000,0.0000000,7.00,38.4062843,-110.7921371,1355.3000488,0.0,175.9,1.5,0.0,0.0,854,126,0,0,860.10,9.67,27.92,# data time:10040,pm2.5:6.445,pm10:5.704,O2:0.000,NO2:0.028,SO2:0.000,NH3:7.572
15:06:40,0,0,0,0,0,2700,2200,1,0,0,0,514,0,0,0,0,0.0000000,0.0000000,0.0000000,0.0000000,7.00,38.4062843,-110.7921295,1355.3000488,0.0,151.4,1.5,0.0,0.0,854,127,0,0,860.11,9.71,27.83,# data time:10040,pm2.5:6.445,pm10:5.704,O2:0.000,NO2:0.028,SO2:0.000,NH3:7.572
15:06:41,0,0,0,0,0,2700,2200,1,0,0,0,514,0,0,0,0,0.0000000,0.0000000,0.0000000,0.0000000,7.00,38.4062843,-110.7921295,1355.3000488,0.0,151.4,1.5,0.0,0.0,854,131,0,0,859.88,9.69,27.82,# data time:10040,pm2.5:6.445,pm10:5.704,O2:0.000,NO2:0.028,SO2:0.000,NH3:7.572
15:06:42,0,0,0,0,0,2700,2200,1,0,0,0,514,0,0,0,0,0.0000000,0.0000000,0.0000000,0.0000000,7.00,38.4062843,-110.7921295,1355.1999512,0.0,151.4,1.5,0.0,0.0,854,130,0,0,859.84,9.69,27.81,# data time:10040,pm2.5:6.445,pm10:5.704,O2:0.000,NO2:0.028,SO2:0.000,NH3:7.572
15:06:43,0,0,0,0,0,2700,2200,1,0,0,0,514,0,0,0,0,0.0000000,0.0000000,0.0000000,0.0000000,7.00,38.4062843,-110.7921295,1355.1999512,0.0,107.6,1.5,0.0,0.0,854,127,0,0,859.97,9.67,27.87,# data time:10040,pm2.5:6.445,pm10:5.704,O2:0.000,NO2:0.028,SO2:0.000,NH3:7.572
15:06:45,0,0,0,0,0,2700,2200,1,0,0,0,515,0,0,0,0,0.0000000,0.0000000,0.0000000,0.0000000,7.00,38.4062843,-110.7921295,1355.1999512,0.0,112.9,1.5,0.0,0.0,854,125,0,0,859.85,9.66,27.91,# data time:10040,pm2.5:6.445,pm10:5.704,O2:0.000,NO2:0.028,SO2:0.000,NH3:7.572
15:06:46,0,0,0,0,0,2700,2200,1,0,0,0,514,0,0,0,0,0.0000000,0.0000000,0.0000000,0.0000000,7.00,38.4062843,-110.7921295,1355.0999756,0.1,125.3,1.5,0.0,0.0,854,130,0,0,859.92,9.64,27.90,# data time:10050,pm2.5:6.445,pm10:5.704,O2:0.000,NO2:0.010,SO2:0.000,NH3:7.346
15:06:47,0,0,0,0,0,2700,2200,1,0,0,0,514,0,0,0,0,0.0000000,0.0000000,0.0000000,0.0000000,7.00,38.4062843,-110.7921295,1355.0999756,0.0,205.5,1.5,0.0,0.0,854,128,0,0,859.95,9.64,27.89,# data time:10050,pm2.5:6.445,pm10:5.704,O2:0.000,NO2:0.010,SO2:0.000,NH3:7.346
15:06:48,0,0,0,0,0,2700,2200,1,0,0,0,514,0,0,0,0,0.0000000,0.0000000,0.0000000,0.0000000,7.00,38.4062843,-110.7921295,1355.0999756,0.0,199.8,1.5,0.0,0.0,854,128,0,0,859.87,9.64,27.89,# data time:10050,pm2.5:6.445,pm10:5.704,O2:0.000,NO2:0.010,SO2:0.000,NH3:7.346
15:06:49,0,0,0,0,0,2700,2200,1,0,0,0,515,0,0,0,0,0.0000000,0.0000000,0.0000000,0.0000000,7.00,38.4062843,-110.7921295,1355.0999756,0.0,198.8,1.5,0.0,0.0,853,129,0,0,859.93,9.66,27.90,# data time:10050,pm2.5:6.445,pm10:5.704,O2:0.000,NO2:0.010,SO2:0.000,NH3:7.346
15:06:50,0,0,0,0,0,2700,2200,1,0,0,0,514,0,0,0,0,0.0000000,0.0000000,0.0000000,0.0000000,7.00,38.4062843,-110.7921295,1355.0999756,0.0,116.1,1.5,0.0,0.0,854,128,0,0,859.89,9.66,27.90,# data time:10050,pm2.5:6.445,pm10:5.704,O2:0.000,NO2:0.010,SO2:0.000,NH3:7.346
15:06:51,0,0,0,0,0,2700,2200,1,0,0,0,514,0,0,0,0,0.0000000,0.0000000,0.0000000,0.0000000,7.00,38.4062843,-110.7921295,1355.0999756,0.0,90.4,1.5,0.0,0.0,854,130,0,0,860.09,9.67,27.90,# data time:10050,pm2.5:6.445,pm10:5.704,O2:0.000,NO2:0.010,SO2:0.000,NH3:7.346
15:06:52,0,0,0,0,0,2700,2200,1,0,0,0,514,0,0,0,0,0.0000000,0.0000000,0.0000000,0.0000000,7.00,38.4062843,-110.7921295,1355.0000000,0.0,126.4,1.5,0.0,0.0,854,132,0,0,860.01,9.67,27.90,# data time:10050,pm2.5:6.445,pm10:5.704,O2:0.000,NO2:0.010,SO2:0.000,NH3:7.346
15:06:53,0,0,0,0,0,2700,2200,1,0,0,0,514,0,0,0,0,0.0000000,0.0000000,0.0000000,0.0000000,7.00,38.4062805,-110.7921295,1355.0000000,0.0,72.6,1.5,0.0,0.0,853,132,0,0,859.98,9.66,27.90,# data time:10050,pm2.5:6.445,pm10:5.704,O2:0.000,NO2:0.010,SO2:0.000,NH3:7.346
15:06:54,0,0,0,0,0,2700,2200,1,0,0,0,515,0,0,0,0,0.0000000,0.0000000,0.0000000,0.0000000,7.00,38.4062805,-110.7921295,1355.0000000,0.0,51.8,1.5,0.0,0.0,854,126,0,0,860.04,9.66,27.90,# data time:10050,pm2.5:6.445,pm10:5.704,O2:0.000,NO2:0.010,SO2:0.000,NH3:7.346
15:06:55,0,0,0,0,0,2700,2200,1,0,0,0,514,0,0,0,0,0.0000000,0.0000000,0.0000000,0.0000000,7.00,38.4062805,-110.7921295,1355.0000000,0.0,136.8,1.5,0.0,0.0,853,129,0,0,860.06,9.66,27.89,# data time:10050,pm2.5:6.445,pm10:5.704,O2:0.000,NO2:0.010,SO2:0.000,NH3:7.346
15:06:56,0,0,0,0,0,2700,2200,1,0,0,0,514,0,0,0,0,0.0000000,0.0000000,0.0000000,0.0000000,7.00,38.4062805,-110.7921295,1354.9000244,0.0,117.1,1.5,0.0,0.0,854,128,0,0,860.05,9.64,27.90,# data time:10060,pm2.5:6.445,pm10:5.704,O2:0.000,NO2:0.028,SO2:0.000,NH3:7.346
15:06:57,0,0,0,0,0,2700,2200,1,0,0,0,514,0,0,0,0,0.0000000,0.0000000,0.0000000,0.0000000,7.00,38.4062805,-110.7921295,1354.9000244,0.0,261.0,1.5,0.0,0.0,854,126,0,0,859.99,9.63,27.90,# data time:10060,pm2.5:6.445,pm10:5.704,O2:0.000,NO2:0.028,SO2:0.000,NH3:7.346
15:06:58,0,0,0,0,0,2700,2200,1,0,0,0,514,0,0,0,0,0.0000000,0.0000000,0.0000000,0.0000000,7.00,38.4062805,-110.7921295,1354.9000244,0.0,276.0,1.5,0.0,0.0,853,129,0,0,860.00,9.64,27.90,# data time:10060,pm2.5:6.445,pm10:5.704,O2:0.000,NO2:0.028,SO2:0.000,NH3:7.346
15:06:59,0,0,0,0,0,2700,2200,1,0,0,0,515,0,0,0,0,0.0000000,0.0000000,0.0000000,0.0000000,7.00,38.4062805,-110.7921295,1354.9000244,0.0,262.6,1.5,0.0,0.0,854,129,0,0,860.00,9.64,27.90,# data time:10060,pm2.5:6.445,pm10:5.704,O2:0.000,NO2:0.028,SO2:0.000,NH3:7.346
15:07:00,0,0,0,0,0,2700,2200,1,0,0,0,515,0,0,0,0,0.0000000,0.0000000,0.0000000,0.0000000,7.00,38.4062805,-110.7921295,1354.9000244,0.0,282.8,1.5,0.0,0.0,853,127,0,0,859.99,9.69,27.90,# data time:10060,pm2.5:6.445,pm10:5.704,O2:0.000,NO2:0.028,SO2:0.000,NH3:7.346
15:07:01,0,0,0,0,0,2700,2200,1,0,0,0,514,0,0,0,0,0.0000000,0.0000000,0.0000000,0.0000000,7.00,38.4062805,-110.7921295,1354.9000244,0.0,246.5,1.5,0.0,0.0,854,127,0,0,859.98,9.67,27.90,# data time:10060,pm2.5:6.445,pm10:5.704,O2:0.000,NO2:0.028,SO2:0.000,NH3:7.346
15:07:02,0,0,0,0,0,2700,2200,1,0,0,0,515,0,0,0,0,0.0000000,0.0000000,0.0000000,0.0000000,7.00,38.4062805,-110.7921295,1354.8000488,0.0,268.0,1.5,0.0,0.0,853,128,0,0,860.07,9.69,27.90,# data time:10060,pm2.5:6.445,pm10:5.704,O2:0.000,NO2:0.028,SO2:0.000,NH3:7.346
15:07:03,0,0,0,0,0,2700,2200,1,0,0,0,514,0,0,0,0,0.0000000,0.0000000,0.0000000,0.0000000,7.00,38.4062805,-110.7921295,1354.8000488,0.0,259.9,1.5,0.0,0.0,854,129,0,0,859.89,9.69,27.90,# data time:10060,pm2.5:6.445,pm10:5.704,O2:0.000,NO2:0.028,SO2:0.000,NH3:7.346
15:07:04,0,0,0,0,0,2700,2200,1,0,0,0,514,0,0,0,0,0.0000000,0.0000000,0.0000000,0.0000000,7.00,38.4062805,-110.7921295,1354.8000488,0.0,273.2,1.5,0.0,0.0,854,132,0,0,859.95,9.69,27.81,# data time:10060,pm2.5:6.445,pm10:5.704,O2:0.000,NO2:0.028,SO2:0.000,NH3:7.346
15:07:05,0,0,0,0,0,2700,2200,1,0,0,0,514,0,0,0,0,0.0000000,0.0000000,0.0000000,0.0000000,7.00,38.4062805,-110.7921295,1354.8000488,0.0,273.2,1.5,0.0,0.0,854,131,0,0,859.97,9.71,27.80,# data time:10070,pm2.5:6.445,pm10:5.704,O2:0.000,NO2:0.010,SO2:0.000,NH3:7.572
15:07:06,0,0,0,0,0,2700,2200,1,0,0,0,514,0,0,0,0,0.0000000,0.0000000,0.0000000,0.0000000,7.00,38.4062805,-110.7921371,1354.8000488,0.0,277.7,1.5,0.0,0.0,854,128,0,0,860.13,9.67,27.90,# data time:10070,pm2.5:6.445,pm10:5.704,O2:0.000,NO2:0.010,SO2:0.000,NH3:7.572
15:07:07,0,0,0,0,0,2700,2200,1,0,0,0,515,0,0,0,0,0.0000000,0.0000000,0.0000000,0.0000000,7.00,38.4062805,-110.7921371,1354.8000488,0.0,256.9,1.5,0.0,0.0,854,128,0,0,860.05,9.69,27.90,# data time:10070,pm2.5:6.445,pm10:5.704,O2:0.000,NO2:0.010,SO2:0.000,NH3:7.572
15:07:09,0,0,0,0,0,2700,2200,1,0,0,0,514,0,0,0,0,0.0000000,0.0000000,0.0000000,0.0000000,7.00,38.4062805,-110.7921371,1354.6999512,0.0,248.9,1.5,0.0,0.0,853,129,0,0,859.94,9.66,27.90,# data time:10070,pm2.5:6.445,pm10:5.704,O2:0.000,NO2:0.010,SO2:0.000,NH3:7.572
15:07:10,0,0,0,0,0,2700,2200,1,0,0,0,515,0,0,0,0,0.0000000,0.0000000,0.0000000,0.0000000,7.00,38.4062805,-110.7921371,1354.6999512,0.0,239.8,1.5,0.0,0.0,854,130,0,0,859.93,9.69,27.89,# data time:10070,pm2.5:6.445,pm10:5.704,O2:0.000,NO2:0.010,SO2:0.000,NH3:7.572
15:07:11,0,0,0,0,0,2700,2200,1,0,0,0,514,0,0,0,0,0.0000000,0.0000000,0.0000000,0.0000000,7.00,38.4062805,-110.7921371,1354.6999512,0.0,295.9,1.5,0.0,0.0,854,126,0,0,860.01,9.69,27.90,# data time:10070,pm2.5:6.445,pm10:5.704,O2:0.000,NO2:0.010,SO2:0.000,NH3:7.572
15:07:12,0,0,0,0,0,2700,2200,1,0,0,0,514,0,0,0,0,0.0000000,0.0000000,0.0000000,0.0000000,7.00,38.4062805,-110.7921371,1354.6999512,0.0,270.5,1.5,0.0,0.0,854,129,0,0,860.15,9.69,27.90,# data time:10070,pm2.5:6.445,pm10:5.704,O2:0.000,NO2:0.010,SO2:0.000,NH3:7.572
15:07:13,0,0,0,0,0,2700,2200,1,0,0,0,513,0,0,0,0,0.0000000,0.0000000,0.0000000,0.0000000,7.00,38.4062805,-110.7921371,1354.6999512,0.0,274.5,1.5,0.0,0.0,853,128,0,0,859.90,9.69,27.89,# data time:10070,pm2.5:6.445,pm10:5.704,O2:0.000,NO2:0.010,SO2:0.000,NH3:7.572
15:07:14,0,0,0,0,0,2700,2200,1,0,0,0,514,0,0,0,0,0.0000000,0.0000000,0.0000000,0.0000000,7.00,38.4062805,-110.7921371,1354.6999512,0.0,303.8,1.5,0.0,0.0,854,130,0,0,859.93,9.66,27.89,# data time:10070,pm2.5:6.445,pm10:5.704,O2:0.000,NO2:0.010,SO2:0.000,NH3:7.572
15:07:15,0,0,0,0,0,2700,2200,1,0,0,0,514,0,0,0,0,0.0000000,0.0000000,0.0000000,0.0000000,7.00,38.4062805,-110.7921371,1354.5999756,0.0,284.3,1.5,0.0,0.0,854,129,0,0,859.85,9.69,27.89,# data time:10070,pm2.5:6.445,pm10:5.704,O2:0.000,NO2:0.010,SO2:0.000,NH3:7.572
15:07:16,0,0,0,0,0,2700,2200,1,0,0,0,514,0,0,0,0,0.0000000,0.0000000,0.0000000,0.0000000,7.00,38.4062805,-110.7921371,1354.5999756,0.0,287.5,1.5,0.0,0.0,854,127,0,0,859.98,9.67,27.89,# data time:10080,pm2.5:6.445,pm10:5.704,O2:0.000,NO2:0.010,SO2:0.000,NH3:7.572
15:07:17,0,0,0,0,0,2700,2200,1,0,0,0,514,0,0,0,0,0.0000000,0.0000000,0.0000000,0.0000000,7.00,38.4062805,-110.7921371,1354.5999756,0.0,312.0,1.5,0.0,0.0,854,126,0,0,859.90,9.69,27.90,# data time:10080,pm2.5:6.445,pm10:5.704,O2:0.000,NO2:0.010,SO2:0.000,NH3:7.572
15:07:18,0,0,0,0,0,2700,2200,1,0,0,0,514,0,0,0,0,0.0000000,0.0000000,0.0000000,0.0000000,7.00,38.4062805,-110.7921371,1354.5999756,0.0,243.2,1.5,0.0,0.0,854,132,0,0,859.99,9.67,27.90,# data time:10080,pm2.5:6.445,pm10:5.704,O2:0.000,NO2:0.010,SO2:0.000,NH3:7.572
15:07:19,0,0,0,0,0,2700,2200,1,0,0,0,514,0,0,0,0,0.0000000,0.0000000,0.0000000,0.0000000,7.00,38.4062805,-110.7921371,1354.5999756,0.0,251.2,1.5,0.0,0.0,854,135,0,0,859.96,9.67,27.90,# data time:10080,pm2.5:6.445,pm10:5.704,O2:0.000,NO2:0.010,SO2:0.000,NH3:7.572
15:07:20,0,0,0,0,0,2700,2200,1,0,0,0,514,0,0,0,0,0.0000000,0.0000000,0.0000000,0.0000000,7.00,38.4062805,-110.7921371,1354.5999756,0.0,282.6,1.5,0.0,0.0,854,128,0,0,859.96,9.69,27.89,# data time:10080,pm2.5:6.445,pm10:5.704,O2:0.000,NO2:0.010,SO2:0.000,NH3:7.572
15:07:21,0,0,0,0,0,2700,2200,1,0,0,0,514,0,0,0,0,0.0000000,0.0000000,0.0000000,0.0000000,7.00,38.4062805,-110.7921371,1354.5999756,0.1,291.7,1.5,0.0,0.0,854,131,0,0,859.90,9.69,27.89,# data time:10080,pm2.5:6.445,pm10:5.704,O2:0.000,NO2:0.010,SO2:0.000,NH3:7.572
15:07:22,0,0,0,0,0,2700,2200,1,0,0,0,514,0,0,0,0,0.0000000,0.0000000,0.0000000,0.0000000,7.00,38.4062843,-110.7921371,1354.5999756,0.1,279.8,1.5,0.0,0.0,854,127,0,0,859.83,9.69,27.89,# data time:10080,pm2.5:6.445,pm10:5.704,O2:0.000,NO2:0.010,SO2:0.000,NH3:7.572
15:07:23,0,0,0,0,0,2700,2200,1,0,0,0,515,0,0,0,0,0.0000000,0.0000000,0.0000000,0.0000000,7.00,38.4062843,-110.7921371,1354.5000000,0.1,275.1,1.5,0.0,0.0,854,134,0,0,859.86,9.69,27.89,# data time:10080,pm2.5:6.445,pm10:5.704,O2:0.000,NO2:0.010,SO2:0.000,NH3:7.572
15:07:24,0,0,0,0,0,2700,2200,1,0,0,0,514,0,0,0,0,0.0000000,0.0000000,0.0000000,0.0000000,7.00,38.4062843,-110.7921371,1354.5000000,0.0,265.3,1.5,0.0,0.0,854,129,0,0,859.95,9.66,27.89,# data time:10080,pm2.5:6.445,pm10:5.704,O2:0.000,NO2:0.010,SO2:0.000,NH3:7.572
15:07:25,0,0,0,0,0,2700,2200,1,0,0,0,514,0,0,0,0,0.0000000,0.0000000,0.0000000,0.0000000,7.00,38.4062843,-110.7921371,1354.5000000,0.1,261.7,1.5,0.0,0.0,854,129,0,0,859.90,9.64,27.89,# data time:10090,pm2.5:6.445,pm10:5.704,O2:0.000,NO2:0.010,SO2:0.000,NH3:7.572
15:07:26,0,0,0,0,0,2700,2200,1,0,0,0,515,0,0,0,0,0.0000000,0.0000000,0.0000000,0.0000000,7.00,38.4062843,-110.7921371,1354.5000000,0.1,286.8,1.5,0.0,0.0,854,129,0,0,859.94,9.67,27.89,# data time:10090,pm2.5:6.445,pm10:5.704,O2:0.000,NO2:0.010,SO2:0.000,NH3:7.572
15:07:27,0,0,0,0,0,2700,2200,1,0,0,0,514,0,0,0,0,0.0000000,0.0000000,0.0000000,0.0000000,7.00,38.4062843,-110.7921371,1354.5000000,0.1,300.0,1.5,0.0,0.0,853,129,0,0,859.94,9.69,27.89,# data time:10090,pm2.5:6.445,pm10:5.704,O2:0.000,NO2:0.010,SO2:0.000,NH3:7.572
15:07:28,0,0,0,0,0,2700,2200,1,0,0,0,514,0,0,0,0,0.0000000,0.0000000,0.0000000,0.0000000,7.00,38.4062843,-110.7921371,1354.5000000,0.0,306.9,1.5,0.0,0.0,854,128,0,0,860.00,9.69,27.79,# data time:10090,pm2.5:6.445,pm10:5.704,O2:0.000,NO2:0.010,SO2:0.000,NH3:7.572
15:07:29,0,0,0,0,0,2700,2200,1,0,0,0,514,0,0,0,0,0.0000000,0.0000000,0.0000000,0.0000000,7.00,38.4062843,-110.7921371,1354.4000244,0.0,306.9,1.5,0.0,0.0,854,127,0,0,859.93,9.67,27.83,# data time:10090,pm2.5:6.445,pm10:5.704,O2:0.000,NO2:0.010,SO2:0.000,NH3:7.572
15:07:30,0,0,0,0,0,2700,2200,1,0,0,0,515,0,0,0,0,0.0000000,0.0000000,0.0000000,0.0000000,7.00,38.4062843,-110.7921371,1354.4000244,0.1,303.8,1.5,0.0,0.0,854,129,0,0,859.96,9.71,27.83,# data time:10090,pm2.5:6.445,pm10:5.704,O2:0.000,NO2:0.010,SO2:0.000,NH3:7.572
15:07:31,0,0,0,0,0,2700,2200,1,0,0,0,514,0,0,0,0,0.0000000,0.0000000,0.0000000,0.0000000,7.00,38.4062843,-110.7921371,1354.4000244,0.1,280.3,1.5,0.0,0.0,854,125,0,0,859.98,9.69,27.88,# data time:10090,pm2.5:6.445,pm10:5.704,O2:0.000,NO2:0.010,SO2:0.000,NH3:7.572
15:07:33,0,0,0,0,0,2700,2200,1,0,0,0,514,0,0,0,0,0.0000000,0.0000000,0.0000000,0.0000000,7.00,38.4062843,-110.7921371,1354.4000244,0.0,289.8,1.5,0.0,0.0,853,130,0,0,859.93,9.67,27.88,# data time:10090,pm2.5:6.445,pm10:5.704,O2:0.000,NO2:0.010,SO2:0.000,NH3:7.572
15:07:34,0,0,0,0,0,2700,2200,1,0,0,0,514,0,0,0,0,0.0000000,0.0000000,0.0000000,0.0000000,7.00,38.4062843,-110.7921371,1354.4000244,0.1,293.7,1.5,0.0,0.0,854,132,0,0,859.99,9.72,27.89,# data time:10090,pm2.5:6.445,pm10:5.704,O2:0.000,NO2:0.010,SO2:0.000,NH3:7.572
15:07:35,0,0,0,0,0,2700,2200,1,0,0,0,514,0,0,0,0,0.0000000,0.0000000,0.0000000,0.0000000,7.00,38.4062843,-110.7921371,1354.4000244,0.1,292.8,1.5,0.0,0.0,854,132,0,0,859.99,9.69,27.89,# data time:10090,pm2.5:6.445,pm10:5.704,O2:0.000,NO2:0.010,SO2:0.000,NH3:7.572
15:07:36,0,0,0,0,0,2700,2200,1,0,0,0,514,0,0,0,0,0.0000000,0.0000000,0.0000000,0.0000000,7.00,38.4062843,-110.7921371,1354.4000244,0.1,291.2,1.5,0.0,0.0,854,130,0,0,859.97,9.67,27.89,# data time:10100,pm2.5:6.445,pm10:5.704,O2:0.000,NO2:0.000,SO2:0.000,NH3:7.572
15:07:37,0,0,0,0,0,2700,2200,1,0,0,0,514,0,0,0,0,0.0000000,0.0000000,0.0000000,0.0000000,7.00,38.4062843,-110.7921371,1354.4000244,0.0,300.1,1.5,0.0,0.0,854,131,0,0,859.97,9.66,27.89,# data time:10100,pm2.5:6.445,pm10:5.704,O2:0.000,NO2:0.000,SO2:0.000,NH3:7.572
15:07:38,0,0,0,0,0,2700,2200,1,0,0,0,514,0,0,0,0,0.0000000,0.0000000,0.0000000,0.0000000,7.00,38.4062843,-110.7921371,1354.3000488,0.0,302.2,1.5,0.0,0.0,853,126,0,0,860.02,9.67,27.89,# data time:10100,pm2.5:6.445,pm10:5.704,O2:0.000,NO2:0.000,SO2:0.000,NH3:7.572
15:07:39,0,0,0,0,0,2700,2200,1,0,0,0,514,0,0,0,0,0.0000000,0.0000000,0.0000000,0.0000000,7.00,38.4062843,-110.7921371,1354.3000488,0.1,301.4,1.5,0.0,0.0,853,129,0,0,859.99,9.69,27.89,# data time:10100,pm2.5:6.445,pm10:5.704,O2:0.000,NO2:0.000,SO2:0.000,NH3:7.572
15:07:40,0,0,0,0,0,2700,2200,1,0,0,0,515,0,0,0,0,0.0000000,0.0000000,0.0000000,0.0000000,7.00,38.4062843,-110.7921371,1354.3000488,0.1,295.7,1.5,0.0,0.0,853,129,0,0,860.06,9.69,27.89,# data time:10100,pm2.5:6.445,pm10:5.704,O2:0.000,NO2:0.000,SO2:0.000,NH3:7.572
15:07:41,0,0,0,0,0,2700,2200,1,0,0,0,514,0,0,0,0,0.0000000,0.0000000,0.0000000,0.0000000,7.00,38.4062843,-110.7921371,1354.3000488,0.1,281.2,1.5,0.0,0.0,853,127,0,0,860.06,9.72,27.89,# data time:10100,pm2.5:6.445,pm10:5.704,O2:0.000,NO2:0.000,SO2:0.000,NH3:7.572
15:07:42,0,0,0,0,0,2700,2200,1,0,0,0,514,0,0,0,0,0.0000000,0.0000000,0.0000000,0.0000000,7.00,38.4062843,-110.7921371,1354.3000488,0.1,308.4,1.5,0.0,0.0,854,134,0,0,860.06,9.66,27.89,# data time:10100,pm2.5:6.445,pm10:5.704,O2:0.000,NO2:0.000,SO2:0.000,NH3:7.572
15:07:43,0,0,0,0,0,2700,2200,1,0,0,0,514,0,0,0,0,0.0000000,0.0000000,0.0000000,0.0000000,7.00,38.4062843,-110.7921371,1354.3000488,0.0,290.7,1.5,0.0,0.0,854,128,0,0,860.01,9.67,27.89,# data time:10100,pm2.5:6.445,pm10:5.704,O2:0.000,NO2:0.000,SO2:0.000,NH3:7.572
15:07:44,0,0,0,0,0,2700,2200,1,0,0,0,514,0,0,0,0,0.0000000,0.0000000,0.0000000,0.0000000,7.00,38.4062843,-110.7921371,1354.3000488,0.0,306.8,1.5,0.0,0.0,854,131,0,0,859.96,9.69,27.89,# data time:10100,pm2.5:6.445,pm10:5.704,O2:0.000,NO2:0.000,SO2:0.000,NH3:7.572
15:07:45,0,0,0,0,0,2700,2200,1,0,0,0,514,0,0,0,0,0.0000000,0.0000000,0.0000000,0.0000000,7.00,38.4062843,-110.7921371,1354.3000488,0.1,298.8,1.5,0.0,0.0,853,129,0,0,859.97,9.69,27.88,# data time:10110,pm2.5:6.445,pm10:5.704,O2:0.000,NO2:0.028,SO2:0.000,NH3:7.346
15:07:46,0,0,0,0,0,2700,2200,1,0,0,0,514,0,0,0,0,0.0000000,0.0000000,0.0000000,0.0000000,7.00,38.4062843,-110.7921371,1354.1999512,0.0,278.5,1.5,0.0,0.0,854,129,0,0,859.98,9.67,27.88,# data time:10110,pm2.5:6.445,pm10:5.704,O2:0.000,NO2:0.028,SO2:0.000,NH3:7.346
15:07:47,0,0,0,0,0,2700,2200,1,0,0,0,514,0,0,0,0,0.0000000,0.0000000,0.0000000,0.0000000,7.00,38.4062843,-110.7921371,1354.1999512,0.0,301.0,1.5,0.0,0.0,854,129,0,0,859.98,9.67,27.88,# data time:10110,pm2.5:6.445,pm10:5.704,O2:0.000,NO2:0.028,SO2:0.000,NH3:7.346
15:07:48,0,0,0,0,0,2700,2200,1,0,0,0,514,0,0,0,0,0.0000000,0.0000000,0.0000000,0.0000000,7.00,38.4062843,-110.7921371,1354.1999512,0.0,322.2,1.5,0.0,0.0,854,129,0,0,860.00,9.69,27.88,# data time:10110,pm2.5:6.445,pm10:5.704,O2:0.000,NO2:0.028,SO2:0.000,NH3:7.346
15:07:49,0,0,0,0,0,2700,2200,1,0,0,0,514,0,0,0,0,0.0000000,0.0000000,0.0000000,0.0000000,7.00,38.4062843,-110.7921371,1354.1999512,0.1,317.2,1.5,0.0,0.0,854,131,0,0,859.93,9.66,27.88,# data time:10110,pm2.5:6.445,pm10:5.704,O2:0.000,NO2:0.028,SO2:0.000,NH3:7.346
15:07:50,0,0,0,0,0,2700,2200,1,0,0,0,514,0,0,0,0,0.0000000,0.0000000,0.0000000,0.0000000,7.00,38.4062843,-110.7921371,1354.1999512,0.0,280.4,1.5,0.0,0.0,854,128,0,0,860.03,9.67,27.79,# data time:10110,pm2.5:6.445,pm10:5.704,O2:0.000,NO2:0.028,SO2:0.000,NH3:7.346
15:07:51,0,0,0,0,0,2700,2200,1,0,0,0,514,0,0,0,0,0.0000000,0.0000000,0.0000000,0.0000000,7.00,38.4062843,-110.7921371,1354.1999512,0.0,280.4,1.5,0.0,0.0,854,133,0,0,860.01,9.67,27.83,# data time:10110,pm2.5:6.445,pm10:5.704,O2:0.000,NO2:0.028,SO2:0.000,NH3:7.346
15:07:52,0,0,0,0,0,2700,2200,1,0,0,0,515,0,0,0,0,0.0000000,0.0000000,0.0000000,0.0000000,7.00,38.4062843,-110.7921371,1354.1999512,0.0,296.2,1.5,0.0,0.0,853,130,0,0,860.05,9.66,27.84,# data time:10110,pm2.5:6.445,pm10:5.704,O2:0.000,NO2:0.028,SO2:0.000,NH3:7.346
15:07:53,0,0,0,0,0,2700,2200,1,0,0,0,514,0,0,0,0,0.0000000,0.0000000,0.0000000,0.0000000,7.00,38.4062843,-110.7921371,1354.1999512,0.0,318.7,1.5,0.0,0.0,853,128,0,0,859.98,9.66,27.88,# data time:10110,pm2.5:6.445,pm10:5.704,O2:0.000,NO2:0.028,SO2:0.000,NH3:7.346
15:07:55,0,0,0,0,0,2700,2200,1,0,0,0,514,0,0,0,0,0.0000000,0.0000000,0.0000000,0.0000000,7.00,38.4062843,-110.7921371,1354.0999756,0.1,10.9,1.5,0.0,0.0,854,128,0,0,859.94,9.67,27.89,# data time:10110,pm2.5:6.445,pm10:5.704,O2:0.000,NO2:0.028,SO2:0.000,NH3:7.346
15:07:56,0,0,0,0,0,2700,2200,1,0,0,0,514,0,0,0,0,0.0000000,0.0000000,0.0000000,0.0000000,7.00,38.4062843,-110.7921371,1354.0999756,0.0,327.1,1.5,0.0,0.0,854,130,0,0,860.01,9.71,27.88,# data time:10120,pm2.5:6.445,pm10:5.704,O2:0.000,NO2:0.046,SO2:0.000,NH3:7.346
15:07:57,0,0,0,0,0,2700,2200,1,0,0,0,514,0,0,0,0,0.0000000,0.0000000,0.0000000,0.0000000,7.00,38.4062843,-110.7921371,1354.0999756,0.0,40.8,1.5,0.0,0.0,854,132,0,0,859.94,9.67,27.89,# data time:10120,pm2.5:6.445,pm10:5.704,O2:0.000,NO2:0.046,SO2:0.000,NH3:7.346
15:07:58,0,0,0,0,0,2700,2200,1,0,0,0,514,0,0,0,0,0.0000000,0.0000000,0.0000000,0.0000000,7.00,38.4062843,-110.7921371,1354.0999756,0.0,303.1,1.5,0.0,0.0,853,131,0,0,859.95,9.69,27.89,# data time:10120,pm2.5:6.445,pm10:5.704,O2:0.000,NO2:0.046,SO2:0.000,NH3:7.346
15:07:59,0,0,0,0,0,2700,2200,1,0,0,0,514,0,0,0,0,0.0000000,0.0000000,0.0000000,0.0000000,7.00,38.4062843,-110.7921371,1354.0999756,0.0,281.8,1.5,0.0,0.0,854,130,0,0,860.04,9.69,27.88,# data time:10120,pm2.5:6.445,pm10:5.704,O2:0.000,NO2:0.046,SO2:0.000,NH3:7.346
15:08:00,0,0,0,0,0,2700,2200,1,0,0,0,514,0,0,0,0,0.0000000,0.0000000,0.0000000,0.0000000,7.00,38.4062843,-110.7921371,1354.0000000,0.0,269.5,1.5,0.0,0.0,854,130,0,0,860.03,9.67,27.88,# data time:10120,pm2.5:6.445,pm10:5.704,O2:0.000,NO2:0.046,SO2:0.000,NH3:7.346
15:08:01,0,0,0,0,0,2700,2200,1,0,0,0,514,0,0,0,0,0.0000000,0.0000000,0.0000000,0.0000000,7.00,38.4062843,-110.7921371,1354.0000000,0.0,39.8,1.5,0.0,0.0,854,131,0,0,859.87,9.71,27.88,# data time:10120,pm2.5:6.445,pm10:5.704,O2:0.000,NO2:0.046,SO2:0.000,NH3:7.346
15:08:02,0,0,0,0,0,2700,2200,1,0,0,0,514,0,0,0,0,0.0000000,0.0000000,0.0000000,0.0000000,7.00,38.4062843,-110.7921371,1353.9000244,0.0,23.0,1.5,0.0,0.0,854,129,0,0,860.12,9.69,27.88,# data time:10120,pm2.5:6.445,pm10:5.704,O2:0.000,NO2:0.046,SO2:0.000,NH3:7.346
15:08:03,0,0,0,0,0,2700,2200,1,0,0,0,514,0,0,0,0,0.0000000,0.0000000,0.0000000,0.0000000,7.00,38.4062843,-110.7921371,1353.8000488,0.1,30.4,1.5,0.0,0.0,853,130,0,0,859.85,9.71,27.88,# data time:10120,pm2.5:6.445,pm10:5.704,O2:0.000,NO2:0.046,SO2:0.000,NH3:7.346
15:08:04,0,0,0,0,0,2700,2200,1,0,0,0,514,0,0,0,0,0.0000000,0.0000000,0.0000000,0.0000000,7.00,38.4062843,-110.7921371,1353.6999512,0.1,43.9,1.5,0.0,0.0,853,133,0,0,859.96,9.71,27.89,# data time:10120,pm2.5:6.445,pm10:5.704,O2:0.000,NO2:0.046,SO2:0.000,NH3:7.346
15:08:05,0,0,0,0,0,2700,2200,1,0,0,0,514,0,0,0,0,0.0000000,0.0000000,0.0000000,0.0000000,7.00,38.4062843,-110.7921371,1353.6999512,0.0,19.1,1.5,0.0,0.0,854,131,0,0,859.85,9.67,27.88,# data time:10130,pm2.5:6.445,pm10:5.704,O2:0.000,NO2:0.046,SO2:0.000,NH3:7.799
15:08:06,0,0,0,0,0,2700,2200,1,0,0,0,514,0,0,0,0,0.0000000,0.0000000,0.0000000,0.0000000,7.00,38.4062881,-110.7921371,1353.6999512,0.0,289.3,1.5,0.0,0.0,854,130,0,0,859.89,9.67,27.88,# data time:10130,pm2.5:6.445,pm10:5.704,O2:0.000,NO2:0.046,SO2:0.000,NH3:7.799
15:08:07,0,0,0,0,0,2700,2200,1,0,0,0,514,0,0,0,0,0.0000000,0.0000000,0.0000000,0.0000000,7.00,38.4062881,-110.7921371,1353.5999756,0.0,15.7,1.5,0.0,0.0,854,130,0,0,859.98,9.69,27.88,# data time:10130,pm2.5:6.445,pm10:5.704,O2:0.000,NO2:0.046,SO2:0.000,NH3:7.799
15:08:08,0,0,0,0,0,2700,2200,1,0,0,0,514,0,0,0,0,0.0000000,0.0000000,0.0000000,0.0000000,7.00,38.4062881,-110.7921371,1353.5999756,0.0,249.3,1.5,0.0,0.0,854,128,0,0,859.85,9.69,27.88,# data time:10130,pm2.5:6.445,pm10:5.704,O2:0.000,NO2:0.046,SO2:0.000,NH3:7.799
15:08:09,0,0,0,0,0,2700,2200,1,0,0,0,513,0,0,0,0,0.0000000,0.0000000,0.0000000,0.0000000,7.00,38.4062881,-110.7921371,1353.5999756,0.0,264.4,1.5,0.0,0.0,854,130,0,0,859.96,9.67,27.87,# data time:10130,pm2.5:6.445,pm10:5.704,O2:0.000,NO2:0.046,SO2:0.000,NH3:7.799
15:08:10,0,0,0,0,0,2700,2200,1,0,0,0,515,0,0,0,0,0.0000000,0.0000000,0.0000000,0.0000000,7.00,38.4062881,-110.7921371,1353.5000000,0.0,357.6,1.5,0.0,0.0,854,134,0,0,859.84,9.67,27.77,# data time:10130,pm2.5:6.445,pm10:5.704,O2:0.000,NO2:0.046,SO2:0.000,NH3:7.799
15:08:11,0,0,0,0,0,2700,2200,1,0,0,0,514,0,0,0,0,0.0000000,0.0000000,0.0000000,0.0000000,7.00,38.4062881,-110.7921371,1353.4000244,0.0,357.6,1.5,0.0,0.0,853,125,0,0,860.00,9.71,27.81,# data time:10130,pm2.5:6.445,pm10:5.704,O2:0.000,NO2:0.046,SO2:0.000,NH3:7.799
15:08:12,0,0,0,0,0,2700,2200,1,0,0,0,514,0,0,0,0,0.0000000,0.0000000,0.0000000,0.0000000,7.00,38.4062881,-110.7921371,1353.4000244,0.0,270.2,1.5,0.0,0.0,853,129,0,0,860.02,9.67,27.82,# data time:10130,pm2.5:6.445,pm10:5.704,O2:0.000,NO2:0.046,SO2:0.000,NH3:7.799
15:08:13,0,0,0,0,0,2700,2200,1,0,0,0,514,0,0,0,0,0.0000000,0.0000000,0.0000000,0.0000000,7.00,38.4062881,-110.7921371,1353.4000244,0.0,19.6,1.5,0.0,0.0,853,130,0,0,859.89,9.69,27.86,# data time:10130,pm2.5:6.445,pm10:5.704,O2:0.000,NO2:0.046,SO2:0.000,NH3:7.799
15:08:15,0,0,0,0,0,2700,2200,1,0,0,0,514,0,0,0,0,0.0000000,0.0000000,0.0000000,0.0000000,7.00,38.4062881,-110.7921371,1353.3000488,0.0,72.7,1.5,0.0,0.0,853,128,0,0,859.96,9.71,27.87,# data time:10130,pm2.5:6.445,pm10:5.704,O2:0.000,NO2:0.046,SO2:0.000,NH3:7.799
15:08:16,0,0,0,0,0,2700,2200,1,0,0,0,514,0,0,0,0,0.0000000,0.0000000,0.0000000,0.0000000,7.00,38.4062881,-110.7921371,1353.1999512,0.0,48.8,1.5,0.0,0.0,853,129,0,0,859.96,9.72,27.87,# data time:10140,pm2.5:6.445,pm10:5.704,O2:0.000,NO2:0.010,SO2:0.000,NH3:7.572
15:08:17,0,0,0,0,0,2700,2200,1,0,0,0,515,0,0,0,0,0.0000000,0.0000000,0.0000000,0.0000000,7.00,38.4062881,-110.7921371,1353.0999756,0.1,56.8,1.5,0.0,0.0,853,126,0,0,859.91,9.71,27.86,# data time:10140,pm2.5:6.445,pm10:5.704,O2:0.000,NO2:0.010,SO2:0.000,NH3:7.572
15:08:18,0,0,0,0,0,2700,2200,1,0,0,0,514,0,0,0,0,0.0000000,0.0000000,0.0000000,0.0000000,7.00,38.4062881,-110.7921371,1352.9000244,0.1,66.5,1.5,0.0,0.0,853,130,0,0,859.95,9.71,27.87,# data time:10140,pm2.5:6.445,pm10:5.704,O2:0.000,NO2:0.010,SO2:0.000,NH3:7.572
