Time, Motor A Speed, Motor A Dir, Motor B Speed, Motor B Dir, Servo Rail Current Sensor, Servo Pos - Arm L, Servo Pos - Arm R, Servo Pos - End, Servo Pos - Hopper, Servo Pos - Lid, Servo Pos - Extra, Servo Current, LED - Front L, LED - Front R, LED - Back L, LED - Back R, IMU Pitch, IMU Roll, IMU Yaw, Compass Heading, GPS Sats, GPS Latitude, GPS Longitude, GPS Altitude, GPS Speed, GPS Angle, GPS HDOP, GPS VDOP, GPS PDOP, Battery, Wind, Comm Xbee Latency, Comm Arduino Latency, Pressure, Humidity, Temperature, uRADMonitor
14:04:23,0,0,0,0,0,2700,2200,1,0,0,0,514,0,0,0,0,0.0000000,0.0000000,0.0000000,0.0000000,9.00,38.4062042,-110.7922211,1363.3000488,0.1,158.4,0.9,0.0,0.0,863,129,0,0,860.61,11.55,26.36,# data time:6300,pm2.5:6.445,pm10:5.704,O2:0.000,NO2:0.010,SO2:0.000,NH3:7.799
14:04:24,0,0,0,0,0,2700,2200,1,0,0,0,514,0,0,0,0,0.0000000,0.0000000,0.0000000,0.0000000,9.00,38.4062042,-110.7922211,1363.3000488,0.1,163.6,0.9,0.0,0.0,863,131,0,0,860.60,11.54,26.36,# data time:6300,pm2.5:6.445,pm10:5.704,O2:0.000,NO2:0.010,SO2:0.000,NH3:7.799
14:04:25,0,0,0,0,0,2700,2200,1,0,0,0,514,0,0,0,0,0.0000000,0.0000000,0.0000000,0.0000000,9.00,38.4062042,-110.7922211,1363.3000488,0.1,174.0,0.9,0.0,0.0,863,130,0,0,860.63,11.57,26.35,# data time:6300,pm2.5:6.445,pm10:5.704,O2:0.000,NO2:0.010,SO2:0.000,NH3:7.799
14:04:26,0,0,0,0,0,2700,2200,1,0,0,0,514,0,0,0,0,0.0000000,0.0000000,0.0000000,0.0000000,9.00,38.4062042,-110.7922211,1363.3000488,0.0,169.1,0.9,0.0,0.0,863,129,0,0,860.58,11.57,26.35,# data time:6300,pm2.5:6.445,pm10:5.704,O2:0.000,NO2:0.010,SO2:0.000,NH3:7.799
14:04:27,0,0,0,0,0,2700,2200,1,0,0,0,513,0,0,0,0,0.0000000,0.0000000,0.0000000,0.0000000,9.00,38.4062042,-110.7922211,1363.3000488,0.1,168.9,0.9,0.0,0.0,863,129,0,0,860.66,11.54,26.35,# data time:6300,pm2.5:6.445,pm10:5.704,O2:0.000,NO2:0.010,SO2:0.000,NH3:7.799
14:04:28,0,0,0,0,0,2700,2200,1,0,0,0,514,0,0,0,0,0.0000000,0.0000000,0.0000000,0.0000000,9.00,38.4062042,-110.7922211,1363.3000488,0.0,165.9,0.9,0.0,0.0,863,129,0,0,860.75,11.57,26.35,# data time:6310,pm2.5:6.445,pm10:5.704,O2:0.000,NO2:0.046,SO2:0.000,NH3:7.799
14:04:29,0,0,0,0,0,2700,2200,1,0,0,0,514,0,0,0,0,0.0000000,0.0000000,0.0000000,0.0000000,9.00,38.4062042,-110.7922211,1363.4000244,0.0,179.5,0.9,0.0,0.0,863,130,0,0,860.63,11.57,26.34,# data time:6310,pm2.5:6.445,pm10:5.704,O2:0.000,NO2:0.046,SO2:0.000,NH3:7.799
14:04:30,0,0,0,0,0,2700,2200,1,0,0,0,514,0,0,0,0,0.0000000,0.0000000,0.0000000,0.0000000,9.00,38.4062042,-110.7922211,1363.4000244,0.1,162.8,0.9,0.0,0.0,862,133,0,0,860.71,11.58,26.34,# data time:6310,pm2.5:6.445,pm10:5.704,O2:0.000,NO2:0.046,SO2:0.000,NH3:7.799
14:04:31,0,0,0,0,0,2700,2200,1,0,0,0,514,0,0,0,0,0.0000000,0.0000000,0.0000000,0.0000000,9.00,38.4062042,-110.7922211,1363.4000244,0.1,159.7,0.9,0.0,0.0,863,130,0,0,860.67,11.58,26.34,# data time:6310,pm2.5:6.445,pm10:5.704,O2:0.000,NO2:0.046,SO2:0.000,NH3:7.799
14:04:32,0,0,0,0,0,2700,2200,1,0,0,0,514,0,0,0,0,0.0000000,0.0000000,0.0000000,0.0000000,9.00,38.4062042,-110.7922211,1363.4000244,0.1,184.3,0.9,0.0,0.0,863,131,0,0,860.69,11.58,26.34,# data time:6310,pm2.5:6.445,pm10:5.704,O2:0.000,NO2:0.046,SO2:0.000,NH3:7.799
14:04:33,0,0,0,0,0,2700,2200,1,0,0,0,514,0,0,0,0,0.0000000,0.0000000,0.0000000,0.0000000,9.00,38.4062042,-110.7922211,1363.4000244,0.1,156.4,0.9,0.0,0.0,864,132,0,0,860.76,11.57,26.34,# data time:6310,pm2.5:6.445,pm10:5.704,O2:0.000,NO2:0.046,SO2:0.000,NH3:7.799
14:04:35,0,0,0,0,0,2700,2200,1,0,0,0,515,0,0,0,0,0.0000000,0.0000000,0.0000000,0.0000000,9.00,38.4062042,-110.7922211,1363.4000244,0.1,159.6,0.9,0.0,0.0,863,129,0,0,860.78,11.57,26.34,# data time:6310,pm2.5:6.445,pm10:5.704,O2:0.000,NO2:0.046,SO2:0.000,NH3:7.799
14:04:36,0,0,0,0,0,2700,2200,1,0,0,0,514,0,0,0,0,0.0000000,0.0000000,0.0000000,0.0000000,9.00,38.4062042,-110.7922211,1363.4000244,0.1,221.1,0.9,0.0,0.0,864,132,0,0,860.72,11.55,26.25,# data time:6310,pm2.5:6.445,pm10:5.704,O2:0.000,NO2:0.046,SO2:0.000,NH3:7.799
14:04:37,0,0,0,0,0,2700,2200,1,0,0,0,515,0,0,0,0,0.0000000,0.0000000,0.0000000,0.0000000,9.00,38.4062042,-110.7922211,1363.4000244,0.1,221.1,0.9,0.0,0.0,863,127,0,0,860.78,11.58,26.24,# data time:6310,pm2.5:6.445,pm10:5.704,O2:0.000,NO2:0.046,SO2:0.000,NH3:7.799
14:04:38,0,0,0,0,0,2700,2200,1,0,0,0,514,0,0,0,0,0.0000000,0.0000000,0.0000000,0.0000000,9.00,38.4062004,-110.7922211,1363.4000244,0.1,221.1,0.9,0.0,0.0,863,128,0,0,860.65,11.58,26.24,# data time:6320,pm2.5:6.445,pm10:5.704,O2:0.000,NO2:0.028,SO2:0.000,NH3:7.799
14:04:39,0,0,0,0,0,2700,2200,1,0,0,0,515,0,0,0,0,0.0000000,0.0000000,0.0000000,0.0000000,9.00,38.4062004,-110.7922211,1363.4000244,0.1,175.3,0.9,0.0,0.0,863,129,0,0,860.74,11.57,26.33,# data time:6320,pm2.5:6.445,pm10:5.704,O2:0.000,NO2:0.028,SO2:0.000,NH3:7.799
14:04:40,0,0,0,0,0,2700,2200,1,0,0,0,514,0,0,0,0,0.0000000,0.0000000,0.0000000,0.0000000,9.00,38.4062004,-110.7922211,1363.5000000,0.0,212.9,0.9,0.0,0.0,863,129,0,0,860.75,11.58,26.33,# data time:6320,pm2.5:6.445,pm10:5.704,O2:0.000,NO2:0.028,SO2:0.000,NH3:7.799
14:04:41,0,0,0,0,0,2700,2200,1,0,0,0,514,0,0,0,0,0.0000000,0.0000000,0.0000000,0.0000000,9.00,38.4062004,-110.7922211,1363.5000000,0.1,204.1,0.9,0.0,0.0,863,128,0,0,860.73,11.58,26.34,# data time:6320,pm2.5:6.445,pm10:5.704,O2:0.000,NO2:0.028,SO2:0.000,NH3:7.799
14:04:42,0,0,0,0,0,2700,2200,1,0,0,0,514,0,0,0,0,0.0000000,0.0000000,0.0000000,0.0000000,9.00,38.4062004,-110.7922211,1363.5000000,0.1,196.3,0.9,0.0,0.0,863,129,0,0,860.71,11.58,26.33,# data time:6320,pm2.5:6.445,pm10:5.704,O2:0.000,NO2:0.028,SO2:0.000,NH3:7.799
14:04:43,0,0,0,0,0,2700,2200,1,0,0,0,514,0,0,0,0,0.0000000,0.0000000,0.0000000,0.0000000,9.00,38.4062004,-110.7922211,1363.5000000,0.1,211.5,0.9,0.0,0.0,863,130,0,0,860.64,11.55,26.33,# data time:6320,pm2.5:6.445,pm10:5.704,O2:0.000,NO2:0.028,SO2:0.000,NH3:7.799
14:04:44,0,0,0,0,0,2700,2200,1,0,0,0,514,0,0,0,0,0.0000000,0.0000000,0.0000000,0.0000000,9.00,38.4062004,-110.7922211,1363.5000000,0.1,209.7,0.9,0.0,0.0,863,130,0,0,860.65,11.60,26.33,# data time:6320,pm2.5:6.445,pm10:5.704,O2:0.000,NO2:0.028,SO2:0.000,NH3:7.799
14:04:45,0,0,0,0,0,2700,2200,1,0,0,0,514,0,0,0,0,0.0000000,0.0000000,0.0000000,0.0000000,9.00,38.4062004,-110.7922211,1363.5000000,0.1,207.9,0.9,0.0,0.0,863,131,0,0,860.68,11.61,26.33,# data time:6320,pm2.5:6.445,pm10:5.704,O2:0.000,NO2:0.028,SO2:0.000,NH3:7.799
14:04:46,0,0,0,0,0,2700,2200,1,0,0,0,514,0,0,0,0,0.0000000,0.0000000,0.0000000,0.0000000,9.00,38.4062004,-110.7922211,1363.5000000,0.1,173.6,0.9,0.0,0.0,863,129,0,0,860.71,11.60,26.33,# data time:6320,pm2.5:6.445,pm10:5.704,O2:0.000,NO2:0.028,SO2:0.000,NH3:7.799
14:04:47,0,0,0,0,0,2700,2200,1,0,0,0,515,0,0,0,0,0.0000000,0.0000000,0.0000000,0.0000000,9.00,38.4062004,-110.7922211,1363.5999756,0.0,193.1,0.9,0.0,0.0,863,129,0,0,860.61,11.60,26.33,# data time:6320,pm2.5:6.445,pm10:5.704,O2:0.000,NO2:0.028,SO2:0.000,NH3:7.799
14:04:48,0,0,0,0,0,2700,2200,1,0,0,0,514,0,0,0,0,0.0000000,0.0000000,0.0000000,0.0000000,9.00,38.4062004,-110.7922211,1363.5999756,0.1,180.6,0.9,0.0,0.0,863,130,0,0,860.57,11.58,26.32,# data time:6330,pm2.5:6.445,pm10:5.704,O2:0.000,NO2:0.000,SO2:0.000,NH3:7.799
14:04:49,0,0,0,0,0,2700,2200,1,0,0,0,515,0,0,0,0,0.0000000,0.0000000,0.0000000,0.0000000,9.00,38.4062004,-110.7922211,1363.5999756,0.1,162.6,0.9,0.0,0.0,863,130,0,0,860.62,11.61,26.32,# data time:6330,pm2.5:6.445,pm10:5.704,O2:0.000,NO2:0.000,SO2:0.000,NH3:7.799
14:04:50,0,0,0,0,0,2700,2200,1,0,0,0,514,0,0,0,0,0.0000000,0.0000000,0.0000000,0.0000000,9.00,38.4062004,-110.7922211,1363.5999756,0.1,159.2,0.9,0.0,0.0,863,128,0,0,860.65,11.61,26.32,# data time:6330,pm2.5:6.445,pm10:5.704,O2:0.000,NO2:0.000,SO2:0.000,NH3:7.799
14:04:51,0,0,0,0,0,2700,2200,1,0,0,0,514,0,0,0,0,0.0000000,0.0000000,0.0000000,0.0000000,9.00,38.4062004,-110.7922211,1363.5999756,0.1,170.2,0.9,0.0,0.0,863,129,0,0,860.65,11.61,26.31,# data time:6330,pm2.5:6.445,pm10:5.704,O2:0.000,NO2:0.000,SO2:0.000,NH3:7.799
14:04:52,0,0,0,0,0,2700,2200,1,0,0,0,515,0,0,0,0,0.0000000,0.0000000,0.0000000,0.0000000,9.00,38.4062004,-110.7922211,1363.5999756,0.1,176.2,0.9,0.0,0.0,863,127,0,0,860.59,11.60,26.31,# data time:6330,pm2.5:6.445,pm10:5.704,O2:0.000,NO2:0.000,SO2:0.000,NH3:7.799
14:04:53,0,0,0,0,0,2700,2200,1,0,0,0,514,0,0,0,0,0.0000000,0.0000000,0.0000000,0.0000000,9.00,38.4062004,-110.7922211,1363.6999512,0.1,185.1,0.9,0.0,0.0,864,127,0,0,860.62,11.61,26.31,# data time:6330,pm2.5:6.445,pm10:5.704,O2:0.000,NO2:0.000,SO2:0.000,NH3:7.799
14:04:54,0,0,0,0,0,2700,2200,1,0,0,0,513,0,0,0,0,0.0000000,0.0000000,0.0000000,0.0000000,9.00,38.4062004,-110.7922211,1363.6999512,0.1,187.1,0.9,0.0,0.0,863,131,0,0,860.61,11.60,26.31,# data time:6330,pm2.5:6.445,pm10:5.704,O2:0.000,NO2:0.000,SO2:0.000,NH3:7.799
14:04:55,0,0,0,0,0,2700,2200,1,0,0,0,513,0,0,0,0,0.0000000,0.0000000,0.0000000,0.0000000,9.00,38.4062004,-110.7922211,1363.6999512,0.1,185.6,0.9,0.0,0.0,863,129,0,0,860.68,11.60,26.31,# data time:6330,pm2.5:6.445,pm10:5.704,O2:0.000,NO2:0.000,SO2:0.000,NH3:7.799
14:04:56,0,0,0,0,0,2700,2200,1,0,0,0,514,0,0,0,0,0.0000000,0.0000000,0.0000000,0.0000000,9.00,38.4061966,-110.7922211,1363.6999512,0.1,189.7,0.9,0.0,0.0,862,129,0,0,860.74,11.60,26.31,# data time:6330,pm2.5:6.445,pm10:5.704,O2:0.000,NO2:0.000,SO2:0.000,NH3:7.799
14:04:57,0,0,0,0,0,2700,2200,1,0,0,0,515,0,0,0,0,0.0000000,0.0000000,0.0000000,0.0000000,9.00,38.4061966,-110.7922211,1363.6999512,0.1,177.4,0.9,0.0,0.0,863,128,0,0,860.73,11.61,26.31,# data time:6340,pm2.5:6.445,pm10:5.704,O2:0.000,NO2:0.010,SO2:0.000,NH3:7.799
14:04:59,0,0,0,0,0,2700,2200,1,0,0,0,514,0,0,0,0,0.0000000,0.0000000,0.0000000,0.0000000,9.00,38.4061966,-110.7922211,1363.8000488,0.1,177.3,0.9,0.0,0.0,863,132,0,0,860.73,11.60,26.31,# data time:6340,pm2.5:6.445,pm10:5.704,O2:0.000,NO2:0.010,SO2:0.000,NH3:7.799
14:05:00,0,0,0,0,0,2700,2200,1,0,0,0,514,0,0,0,0,0.0000000,0.0000000,0.0000000,0.0000000,9.00,38.4061966,-110.7922211,1363.8000488,0.1,177.3,0.9,0.0,0.0,863,128,0,0,860.66,11.61,26.21,# data time:6340,pm2.5:6.445,pm10:5.704,O2:0.000,NO2:0.010,SO2:0.000,NH3:7.799
14:05:01,0,0,0,0,0,2700,2200,1,0,0,0,514,0,0,0,0,0.0000000,0.0000000,0.0000000,0.0000000,9.00,38.4061966,-110.7922211,1363.8000488,0.1,177.3,0.9,0.0,0.0,863,131,0,0,860.76,11.63,26.20,# data time:6340,pm2.5:6.445,pm10:5.704,O2:0.000,NO2:0.010,SO2:0.000,NH3:7.799
14:05:02,0,0,0,0,0,2700,2200,1,0,0,0,514,0,0,0,0,0.0000000,0.0000000,0.0000000,0.0000000,9.00,38.4061966,-110.7922211,1363.8000488,0.1,177.3,0.9,0.0,0.0,863,128,0,0,860.86,11.61,26.25,# data time:6340,pm2.5:6.445,pm10:5.704,O2:0.000,NO2:0.010,SO2:0.000,NH3:7.799
14:05:03,0,0,0,0,0,2700,2200,1,0,0,0,515,0,0,0,0,0.0000000,0.0000000,0.0000000,0.0000000,9.00,38.4061966,-110.7922211,1363.9000244,0.1,177.3,0.9,0.0,0.0,863,130,0,0,860.74,11.64,26.20,# data time:6340,pm2.5:6.445,pm10:5.704,O2:0.000,NO2:0.010,SO2:0.000,NH3:7.799
14:05:04,0,0,0,0,0,2700,2200,1,0,0,0,514,0,0,0,0,0.0000000,0.0000000,0.0000000,0.0000000,9.00,38.4061966,-110.7922211,1363.9000244,0.1,177.2,0.9,0.0,0.0,863,129,0,0,860.85,11.61,26.25,# data time:6340,pm2.5:6.445,pm10:5.704,O2:0.000,NO2:0.010,SO2:0.000,NH3:7.799
14:05:05,0,0,0,0,0,2700,2200,1,0,0,0,514,0,0,0,0,0.0000000,0.0000000,0.0000000,0.0000000,9.00,38.4061966,-110.7922211,1363.9000244,0.1,181.1,0.9,0.0,0.0,863,128,0,0,860.79,11.61,26.29,# data time:6340,pm2.5:6.445,pm10:5.704,O2:0.000,NO2:0.010,SO2:0.000,NH3:7.799
14:05:06,0,0,0,0,0,2700,2200,1,0,0,0,514,0,0,0,0,0.0000000,0.0000000,0.0000000,0.0000000,9.00,38.4061966,-110.7922211,1363.9000244,0.1,183.4,0.9,0.0,0.0,864,131,0,0,860.95,11.66,26.30,# data time:6340,pm2.5:6.445,pm10:5.704,O2:0.000,NO2:0.010,SO2:0.000,NH3:7.799
14:05:07,0,0,0,0,0,2700,2200,1,0,0,0,514,0,0,0,0,0.0000000,0.0000000,0.0000000,0.0000000,9.00,38.4061966,-110.7922211,1363.9000244,0.1,168.4,0.9,0.0,0.0,863,130,0,0,860.98,11.61,26.29,# data time:6340,pm2.5:6.445,pm10:5.704,O2:0.000,NO2:0.010,SO2:0.000,NH3:7.799
14:05:08,0,0,0,0,0,2700,2200,1,0,0,0,515,0,0,0,0,0.0000000,0.0000000,0.0000000,0.0000000,9.00,38.4061966,-110.7922211,1363.9000244,0.1,174.4,0.9,0.0,0.0,864,130,0,0,860.85,11.60,26.29,# data time:6350,pm2.5:6.445,pm10:5.704,O2:0.000,NO2:0.028,SO2:0.000,NH3:7.799
14:05:09,0,0,0,0,0,2700,2200,1,0,0,0,514,0,0,0,0,0.0000000,0.0000000,0.0000000,0.0000000,9.00,38.4061966,-110.7922211,1363.9000244,0.1,166.4,0.9,0.0,0.0,863,126,0,0,860.85,11.60,26.29,# data time:6350,pm2.5:6.445,pm10:5.704,O2:0.000,NO2:0.028,SO2:0.000,NH3:7.799
14:05:10,0,0,0,0,0,2700,2200,1,0,0,0,515,0,0,0,0,0.0000000,0.0000000,0.0000000,0.0000000,9.00,38.4061966,-110.7922211,1364.0000000,0.1,154.9,0.9,0.0,0.0,863,129,0,0,861.00,11.60,26.30,# data time:6350,pm2.5:6.445,pm10:5.704,O2:0.000,NO2:0.028,SO2:0.000,NH3:7.799
14:05:11,0,0,0,0,0,2700,2200,1,0,0,0,514,0,0,0,0,0.0000000,0.0000000,0.0000000,0.0000000,9.00,38.4061966,-110.7922211,1364.0000000,0.1,158.6,0.9,0.0,0.0,863,129,0,0,860.70,11.64,26.29,# data time:6350,pm2.5:6.445,pm10:5.704,O2:0.000,NO2:0.028,SO2:0.000,NH3:7.799
14:05:12,0,0,0,0,0,2700,2200,1,0,0,0,515,0,0,0,0,0.0000000,0.0000000,0.0000000,0.0000000,9.00,38.4061966,-110.7922211,1364.0000000,0.1,185.6,0.9,0.0,0.0,863,130,0,0,860.96,11.66,26.30,# data time:6350,pm2.5:6.445,pm10:5.704,O2:0.000,NO2:0.028,SO2:0.000,NH3:7.799
14:05:13,0,0,0,0,0,2700,2200,1,0,0,0,514,0,0,0,0,0.0000000,0.0000000,0.0000000,0.0000000,9.00,38.4061966,-110.7922211,1364.0000000,0.1,195.3,0.9,0.0,0.0,863,128,0,0,860.89,11.64,26.30,# data time:6350,pm2.5:6.445,pm10:5.704,O2:0.000,NO2:0.028,SO2:0.000,NH3:7.799
14:05:14,0,0,0,0,0,2700,2200,1,0,0,0,515,0,0,0,0,0.0000000,0.0000000,0.0000000,0.0000000,9.00,38.4061966,-110.7922211,1364.0000000,0.1,188.2,0.9,0.0,0.0,863,126,0,0,860.97,11.63,26.29,# data time:6350,pm2.5:6.445,pm10:5.704,O2:0.000,NO2:0.028,SO2:0.000,NH3:7.799
14:05:15,0,0,0,0,0,2700,2200,1,0,0,0,514,0,0,0,0,0.0000000,0.0000000,0.0000000,0.0000000,9.00,38.4061966,-110.7922211,1364.0000000,0.1,188.3,0.9,0.0,0.0,863,129,0,0,860.88,11.63,26.30,# data time:6350,pm2.5:6.445,pm10:5.704,O2:0.000,NO2:0.028,SO2:0.000,NH3:7.799
14:05:16,0,0,0,0,0,2700,2200,1,0,0,0,514,0,0,0,0,0.0000000,0.0000000,0.0000000,0.0000000,9.00,38.4061966,-110.7922211,1364.0999756,0.1,179.0,0.9,0.0,0.0,862,129,0,0,860.82,11.63,26.30,# data time:6350,pm2.5:6.445,pm10:5.704,O2:0.000,NO2:0.028,SO2:0.000,NH3:7.799
14:05:17,0,0,0,0,0,2700,2200,1,0,0,0,514,0,0,0,0,0.0000000,0.0000000,0.0000000,0.0000000,9.00,38.4061966,-110.7922211,1364.0999756,0.1,169.0,0.9,0.0,0.0,862,129,0,0,860.75,11.61,26.30,# data time:6350,pm2.5:6.445,pm10:5.704,O2:0.000,NO2:0.028,SO2:0.000,NH3:7.799
14:05:18,0,0,0,0,0,2700,2200,1,0,0,0,514,0,0,0,0,0.0000000,0.0000000,0.0000000,0.0000000,9.00,38.4061966,-110.7922211,1364.0999756,0.0,180.4,0.9,0.0,0.0,863,126,0,0,860.81,11.61,26.30,# data time:6360,pm2.5:6.445,pm10:5.704,O2:0.000,NO2:0.028,SO2:0.000,NH3:7.799
14:05:19,0,0,0,0,0,2700,2200,1,0,0,0,514,0,0,0,0,0.0000000,0.0000000,0.0000000,0.0000000,9.00,38.4061966,-110.7922211,1364.0999756,0.1,171.0,0.9,0.0,0.0,863,129,0,0,860.64,11.64,26.29,# data time:6360,pm2.5:6.445,pm10:5.704,O2:0.000,NO2:0.028,SO2:0.000,NH3:7.799
14:05:20,0,0,0,0,0,2700,2200,1,0,0,0,513,0,0,0,0,0.0000000,0.0000000,0.0000000,0.0000000,9.00,38.4061928,-110.7922211,1364.0999756,0.1,166.4,0.9,0.0,0.0,863,128,0,0,860.67,11.64,26.29,# data time:6360,pm2.5:6.445,pm10:5.704,O2:0.000,NO2:0.028,SO2:0.000,NH3:7.799
14:05:21,0,0,0,0,0,2700,2200,1,0,0,0,514,0,0,0,0,0.0000000,0.0000000,0.0000000,0.0000000,9.00,38.4061928,-110.7922211,1364.0999756,0.1,178.9,0.9,0.0,0.0,863,128,0,0,860.77,11.63,26.29,# data time:6360,pm2.5:6.445,pm10:5.704,O2:0.000,NO2:0.028,SO2:0.000,NH3:7.799
14:05:23,0,0,0,0,0,2700,2200,1,0,0,0,514,0,0,0,0,0.0000000,0.0000000,0.0000000,0.0000000,9.00,38.4061928,-110.7922211,1364.0999756,0.1,173.6,0.9,0.0,0.0,863,128,0,0,860.70,11.66,26.29,# data time:6360,pm2.5:6.445,pm10:5.704,O2:0.000,NO2:0.028,SO2:0.000,NH3:7.799
14:05:24,0,0,0,0,0,2700,2200,1,0,0,0,514,0,0,0,0,0.0000000,0.0000000,0.0000000,0.0000000,9.00,38.4061928,-110.7922211,1364.0999756,0.1,196.7,0.9,0.0,0.0,863,128,0,0,860.66,11.67,26.29,# data time:6360,pm2.5:6.445,pm10:5.704,O2:0.000,NO2:0.028,SO2:0.000,NH3:7.799
14:05:25,0,0,0,0,0,2700,2200,1,0,0,0,515,0,0,0,0,0.0000000,0.0000000,0.0000000,0.0000000,9.00,38.4061928,-110.7922211,1364.0999756,0.1,164.0,0.9,0.0,0.0,863,128,0,0,860.71,11.66,26.29,# data time:6360,pm2.5:6.445,pm10:5.704,O2:0.000,NO2:0.028,SO2:0.000,NH3:7.799
14:05:26,0,0,0,0,0,2700,2200,1,0,0,0,514,0,0,0,0,0.0000000,0.0000000,0.0000000,0.0000000,9.00,38.4061928,-110.7922211,1364.0999756,0.1,164.0,0.9,0.0,0.0,863,130,0,0,860.68,11.61,26.17,# data time:6360,pm2.5:6.445,pm10:5.704,O2:0.000,NO2:0.028,SO2:0.000,NH3:7.799
14:05:27,0,0,0,0,0,2700,2200,1,0,0,0,514,0,0,0,0,0.0000000,0.0000000,0.0000000,0.0000000,9.00,38.4061928,-110.7922211,1364.1999512,0.1,164.0,0.9,0.0,0.0,863,129,0,0,860.73,11.64,26.22,# data time:6360,pm2.5:6.445,pm10:5.704,O2:0.000,NO2:0.028,SO2:0.000,NH3:7.799
14:05:28,0,0,0,0,0,2700,2200,1,0,0,0,514,0,0,0,0,0.0000000,0.0000000,0.0000000,0.0000000,9.00,38.4061928,-110.7922211,1364.1999512,0.1,164.0,0.9,0.0,0.0,863,129,0,0,860.64,11.63,26.16,# data time:6370,pm2.5:6.445,pm10:5.704,O2:0.000,NO2:0.028,SO2:0.000,NH3:7.799
14:05:29,0,0,0,0,0,2700,2200,1,0,0,0,514,0,0,0,0,0.0000000,0.0000000,0.0000000,0.0000000,9.00,38.4061928,-110.7922211,1364.1999512,0.0,170.2,0.9,0.0,0.0,863,129,0,0,860.65,11.66,26.22,# data time:6370,pm2.5:6.445,pm10:5.704,O2:0.000,NO2:0.028,SO2:0.000,NH3:7.799
14:05:30,0,0,0,0,0,2700,2200,1,0,0,0,514,0,0,0,0,0.0000000,0.0000000,0.0000000,0.0000000,9.00,38.4061928,-110.7922211,1364.1999512,0.1,168.9,0.9,0.0,0.0,863,131,0,0,860.62,11.63,26.26,# data time:6370,pm2.5:6.445,pm10:5.704,O2:0.000,NO2:0.028,SO2:0.000,NH3:7.799
14:05:31,0,0,0,0,0,2700,2200,1,0,0,0,514,0,0,0,0,0.0000000,0.0000000,0.0000000,0.0000000,9.00,38.4061928,-110.7922211,1364.1999512,0.1,146.9,0.9,0.0,0.0,863,126,0,0,860.68,11.63,26.26,# data time:6370,pm2.5:6.445,pm10:5.704,O2:0.000,NO2:0.028,SO2:0.000,NH3:7.799
14:05:32,0,0,0,0,0,2700,2200,1,0,0,0,514,0,0,0,0,0.0000000,0.0000000,0.0000000,0.0000000,9.00,38.4061928,-110.7922211,1364.3000488,0.1,155.0,0.9,0.0,0.0,863,132,0,0,860.77,11.64,26.26,# data time:6370,pm2.5:6.445,pm10:5.704,O2:0.000,NO2:0.028,SO2:0.000,NH3:7.799
14:05:33,0,0,0,0,0,2700,2200,1,0,0,0,514,0,0,0,0,0.0000000,0.0000000,0.0000000,0.0000000,9.00,38.4061928,-110.7922211,1364.3000488,0.1,175.0,0.9,0.0,0.0,863,132,0,0,860.77,11.66,26.27,# data time:6370,pm2.5:6.445,pm10:5.704,O2:0.000,NO2:0.028,SO2:0.000,NH3:7.799
14:05:34,0,0,0,0,0,2700,2200,1,0,0,0,514,0,0,0,0,0.0000000,0.0000000,0.0000000,0.0000000,9.00,38.4061928,-110.7922211,1364.3000488,0.0,191.3,0.9,0.0,0.0,863,130,0,0,860.79,11.63,26.27,# data time:6370,pm2.5:6.445,pm10:5.704,O2:0.000,NO2:0.028,SO2:0.000,NH3:7.799
14:05:35,0,0,0,0,0,2700,2200,1,0,0,0,514,0,0,0,0,0.0000000,0.0000000,0.0000000,0.0000000,9.00,38.4061928,-110.7922211,1364.3000488,0.0,197.0,0.9,0.0,0.0,862,131,0,0,860.73,11.67,26.26,# data time:6370,pm2.5:6.445,pm10:5.704,O2:0.000,NO2:0.028,SO2:0.000,NH3:7.799
14:05:36,0,0,0,0,0,2700,2200,1,0,0,0,514,0,0,0,0,0.0000000,0.0000000,0.0000000,0.0000000,9.00,38.4061928,-110.7922211,1364.3000488,0.0,190.9,0.9,0.0,0.0,863,129,0,0,860.85,11.66,26.27,# data time:6370,pm2.5:6.445,pm10:5.704,O2:0.000,NO2:0.028,SO2:0.000,NH3:7.799
14:05:37,0,0,0,0,0,2700,2200,1,0,0,0,514,0,0,0,0,0.0000000,0.0000000,0.0000000,0.0000000,9.00,38.4061890,-110.7922211,1364.3000488,0.0,207.6,0.9,0.0,0.0,863,129,0,0,860.81,11.64,26.27,# data time:6370,pm2.5:6.445,pm10:5.704,O2:0.000,NO2:0.028,SO2:0.000,NH3:7.799
14:05:38,0,0,0,0,0,2700,2200,1,0,0,0,514,0,0,0,0,0.0000000,0.0000000,0.0000000,0.0000000,9.00,38.4061890,-110.7922211,1364.3000488,0.0,150.2,0.9,0.0,0.0,863,129,0,0,860.91,11.66,26.27,# data time:6380,pm2.5:6.445,pm10:5.704,O2:0.000,NO2:0.046,SO2:0.000,NH3:7.799
14:05:39,0,0,0,0,0,2700,2200,1,0,0,0,514,0,0,0,0,0.0000000,0.0000000,0.0000000,0.0000000,9.00,38.4061890,-110.7922211,1364.3000488,0.0,194.6,0.9,0.0,0.0,863,129,0,0,860.79,11.64,26.27,# data time:6380,pm2.5:6.445,pm10:5.704,O2:0.000,NO2:0.046,SO2:0.000,NH3:7.799
14:05:40,0,0,0,0,0,2700,2200,1,0,0,0,514,0,0,0,0,0.0000000,0.0000000,0.0000000,0.0000000,9.00,38.4061890,-110.7922211,1364.3000488,0.0,190.2,0.9,0.0,0.0,863,128,0,0,860.76,11.67,26.27,# data time:6380,pm2.5:6.445,pm10:5.704,O2:0.000,NO2:0.046,SO2:0.000,NH3:7.799
14:05:41,0,0,0,0,0,2700,2200,1,0,0,0,514,0,0,0,0,0.0000000,0.0000000,0.0000000,0.0000000,9.00,38.4061890,-110.7922211,1364.3000488,0.0,196.5,0.9,0.0,0.0,862,130,0,0,860.77,11.66,26.27,# data time:6380,pm2.5:6.445,pm10:5.704,O2:0.000,NO2:0.046,SO2:0.000,NH3:7.799
14:05:42,0,0,0,0,0,2700,2200,1,0,0,0,514,0,0,0,0,0.0000000,0.0000000,0.0000000,0.0000000,9.00,38.4061890,-110.7922211,1364.4000244,0.0,157.0,0.9,0.0,0.0,862,134,0,0,860.82,11.66,26.27,# data time:6380,pm2.5:6.445,pm10:5.704,O2:0.000,NO2:0.046,SO2:0.000,NH3:7.799
14:05:43,0,0,0,0,0,2700,2200,1,0,0,0,514,0,0,0,0,0.0000000,0.0000000,0.0000000,0.0000000,9.00,38.4061890,-110.7922211,1364.4000244,0.0,193.6,0.9,0.0,0.0,863,128,0,0,860.85,11.64,26.27,# data time:6380,pm2.5:6.445,pm10:5.704,O2:0.000,NO2:0.046,SO2:0.000,NH3:7.799
14:05:44,0,0,0,0,0,2700,2200,1,0,0,0,514,0,0,0,0,0.0000000,0.0000000,0.0000000,0.0000000,9.00,38.4061890,-110.7922211,1364.4000244,0.1,132.5,0.9,0.0,0.0,863,129,0,0,860.83,11.67,26.27,# data time:6380,pm2.5:6.445,pm10:5.704,O2:0.000,NO2:0.046,SO2:0.000,NH3:7.799
14:05:45,0,0,0,0,0,2700,2200,1,0,0,0,515,0,0,0,0,0.0000000,0.0000000,0.0000000,0.0000000,9.00,38.4061890,-110.7922211,1364.4000244,0.0,159.7,0.9,0.0,0.0,863,128,0,0,860.74,11.66,26.27,# data time:6380,pm2.5:6.445,pm10:5.704,O2:0.000,NO2:0.046,SO2:0.000,NH3:7.799
14:05:47,0,0,0,0,0,2700,2200,1,0,0,0,515,0,0,0,0,0.0000000,0.0000000,0.0000000,0.0000000,9.00,38.4061890,-110.7922211,1364.4000244,0.0,139.4,0.9,0.0,0.0,863,129,0,0,860.83,11.63,26.27,# data time:6380,pm2.5:6.445,pm10:5.704,O2:0.000,NO2:0.046,SO2:0.000,NH3:7.799
14:05:48,0,0,0,0,0,2700,2200,1,0,0,0,514,0,0,0,0,0.0000000,0.0000000,0.0000000,0.0000000,9.00,38.4061890,-110.7922211,1364.4000244,0.0,198.8,0.9,0.0,0.0,863,129,0,0,860.87,11.64,26.27,# data time:6390,pm2.5:6.445,pm10:5.704,O2:0.000,NO2:0.028,SO2:0.000,NH3:7.799
14:05:49,0,0,0,0,0,2700,2200,1,0,0,0,514,0,0,0,0,0.0000000,0.0000000,0.0000000,0.0000000,9.00,38.4061890,-110.7922211,1364.4000244,0.0,136.6,0.9,0.0,0.0,863,128,0,0,860.89,11.63,26.26,# data time:6390,pm2.5:6.445,pm10:5.704,O2:0.000,NO2:0.028,SO2:0.000,NH3:7.799
14:05:50,0,0,0,0,0,2700,2200,1,0,0,0,515,0,0,0,0,0.0000000,0.0000000,0.0000000,0.0000000,9.00,38.4061890,-110.7922211,1364.5000000,0.0,141.1,0.9,0.0,0.0,863,130,0,0,860.81,11.66,26.17,# data time:6390,pm2.5:6.445,pm10:5.704,O2:0.000,NO2:0.028,SO2:0.000,NH3:7.799
14:05:51,0,0,0,0,0,2700,2200,1,0,0,0,514,0,0,0,0,0.0000000,0.0000000,0.0000000,0.0000000,9.00,38.4061890,-110.7922211,1364.5000000,0.0,141.1,0.9,0.0,0.0,863,128,0,0,860.88,11.66,26.15,# data time:6390,pm2.5:6.445,pm10:5.704,O2:0.000,NO2:0.028,SO2:0.000,NH3:7.799
14:05:52,0,0,0,0,0,2700,2200,1,0,0,0,514,0,0,0,0,0.0000000,0.0000000,0.0000000,0.0000000,9.00,38.4061890,-110.7922058,1364.5000000,0.0,168.5,0.9,0.0,0.0,863,130,0,0,860.81,11.66,26.25,# data time:6390,pm2.5:6.445,pm10:5.704,O2:0.000,NO2:0.028,SO2:0.000,NH3:7.799
14:05:53,0,0,0,0,0,2700,2200,1,0,0,0,514,0,0,0,0,0.0000000,0.0000000,0.0000000,0.0000000,9.00,38.4061890,-110.7922058,1364.5000000,0.0,164.1,0.9,0.0,0.0,863,133,0,0,860.88,11.61,26.25,# data time:6390,pm2.5:6.445,pm10:5.704,O2:0.000,NO2:0.028,SO2:0.000,NH3:7.799
14:05:54,0,0,0,0,0,2700,2200,1,0,0,0,514,0,0,0,0,0.0000000,0.0000000,0.0000000,0.0000000,9.00,38.4061890,-110.7922058,1364.5999756,0.0,128.0,0.9,0.0,0.0,862,130,0,0,860.71,11.61,26.25,# data time:6390,pm2.5:6.445,pm10:5.704,O2:0.000,NO2:0.028,SO2:0.000,NH3:7.799
14:05:55,0,0,0,0,0,2700,2200,1,0,0,0,514,0,0,0,0,0.0000000,0.0000000,0.0000000,0.0000000,9.00,38.4061890,-110.7922058,1364.5999756,0.1,140.2,0.9,0.0,0.0,863,130,0,0,860.85,11.63,26.24,# data time:6390,pm2.5:6.445,pm10:5.704,O2:0.000,NO2:0.028,SO2:0.000,NH3:7.799
14:05:56,0,0,0,0,0,2700,2200,1,0,0,0,514,0,0,0,0,0.0000000,0.0000000,0.0000000,0.0000000,9.00,38.4061890,-110.7922058,1364.5999756,0.0,264.2,0.9,0.0,0.0,863,131,0,0,860.77,11.61,26.25,# data time:6390,pm2.5:6.445,pm10:5.704,O2:0.000,NO2:0.028,SO2:0.000,NH3:7.799
14:05:57,0,0,0,0,0,2700,2200,1,0,0,0,514,0,0,0,0,0.0000000,0.0000000,0.0000000,0.0000000,9.00,38.4061890,-110.7922058,1364.5999756,0.0,218.6,0.9,0.0,0.0,863,127,0,0,860.82,11.63,26.24,# data time:6390,pm2.5:6.445,pm10:5.704,O2:0.000,NO2:0.028,SO2:0.000,NH3:7.799
14:05:58,0,0,0,0,0,2700,2200,1,0,0,0,514,0,0,0,0,0.0000000,0.0000000,0.0000000,0.0000000,9.00,38.4061890,-110.7922058,1364.5999756,0.0,295.1,0.9,0.0,0.0,863,127,0,0,860.90,11.66,26.24,# data time:6400,pm2.5:6.445,pm10:5.704,O2:0.000,NO2:0.063,SO2:0.000,NH3:7.799
14:05:59,0,0,0,0,0,2700,2200,1,0,0,0,514,0,0,0,0,0.0000000,0.0000000,0.0000000,0.0000000,9.00,38.4061890,-110.7922058,1364.5999756,0.0,59.8,0.9,0.0,0.0,863,128,0,0,860.86,11.63,26.25,# data time:6400,pm2.5:6.445,pm10:5.704,O2:0.000,NO2:0.063,SO2:0.000,NH3:7.799
14:06:00,0,0,0,0,0,2700,2200,1,0,0,0,514,0,0,0,0,0.0000000,0.0000000,0.0000000,0.0000000,9.00,38.4061890,-110.7922058,1364.5999756,0.0,190.3,0.9,0.0,0.0,863,127,0,0,860.93,11.63,26.25,# data time:6400,pm2.5:6.445,pm10:5.704,O2:0.000,NO2:0.063,SO2:0.000,NH3:7.799
14:06:01,0,0,0,0,0,2700,2200,1,0,0,0,513,0,0,0,0,0.0000000,0.0000000,0.0000000,0.0000000,9.00,38.4061890,-110.7922058,1364.5999756,0.0,263.1,0.9,0.0,0.0,863,133,0,0,860.93,11.66,26.24,# data time:6400,pm2.5:6.445,pm10:5.704,O2:0.000,NO2:0.063,SO2:0.000,NH3:7.799
14:06:02,0,0,0,0,0,2700,2200,1,0,0,0,514,0,0,0,0,0.0000000,0.0000000,0.0000000,0.0000000,9.00,38.4061890,-110.7922058,1364.5999756,0.0,179.3,0.9,0.0,0.0,863,130,0,0,860.70,11.64,26.23,# data time:6400,pm2.5:6.445,pm10:5.704,O2:0.000,NO2:0.063,SO2:0.000,NH3:7.799
14:06:03,0,0,0,0,0,2700,2200,1,0,0,0,514,0,0,0,0,0.0000000,0.0000000,0.0000000,0.0000000,9.00,38.4061890,-110.7922058,1364.5999756,0.0,269.7,0.9,0.0,0.0,863,130,0,0,860.96,11.67,26.22,# data time:6400,pm2.5:6.445,pm10:5.704,O2:0.000,NO2:0.063,SO2:0.000,NH3:7.799
14:06:04,0,0,0,0,0,2700,2200,1,0,0,0,513,0,0,0,0,0.0000000,0.0000000,0.0000000,0.0000000,9.00,38.4061890,-110.7922058,1364.5999756,0.0,264.9,0.9,0.0,0.0,863,130,0,0,860.73,11.64,26.23,# data time:6400,pm2.5:6.445,pm10:5.704,O2:0.000,NO2:0.063,SO2:0.000,NH3:7.799
14:06:05,0,0,0,0,0,2700,2200,1,0,0,0,514,0,0,0,0,0.0000000,0.0000000,0.0000000,0.0000000,9.00,38.4061890,-110.7922058,1364.6999512,0.1,102.9,0.9,0.0,0.0,863,130,0,0,860.78,11.64,26.23,# data time:6400,pm2.5:6.445,pm10:5.704,O2:0.000,NO2:0.063,SO2:0.000,NH3:7.799
14:06:06,0,0,0,0,0,2700,2200,1,0,0,0,514,0,0,0,0,0.0000000,0.0000000,0.0000000,0.0000000,9.00,38.4061890,-110.7922058,1364.6999512,0.0,152.5,0.9,0.0,0.0,863,130,0,0,860.95,11.64,26.23,# data time:6400,pm2.5:6.445,pm10:5.704,O2:0.000,NO2:0.063,SO2:0.000,NH3:7.799
14:06:07,0,0,0,0,0,2700,2200,1,0,0,0,514,0,0,0,0,0.0000000,0.0000000,0.0000000,0.0000000,9.00,38.4061890,-110.7922058,1364.6999512,0.0,156.7,0.9,0.0,0.0,863,128,0,0,860.87,11.66,26.24,# data time:6410,pm2.5:6.445,pm10:5.704,O2:0.000,NO2:0.046,SO2:0.000,NH3:7.572
14:06:09,0,0,0,0,0,2700,2200,1,0,0,0,514,0,0,0,0,0.0000000,0.0000000,0.0000000,0.0000000,9.00,38.4061890,-110.7922058,1364.6999512,0.0,280.2,0.9,0.0,0.0,862,128,0,0,860.77,11.69,26.23,# data time:6410,pm2.5:6.445,pm10:5.704,O2:0.000,NO2:0.046,SO2:0.000,NH3:7.572
14:06:10,0,0,0,0,0,2700,2200,1,0,0,0,515,0,0,0,0,0.0000000,0.0000000,0.0000000,0.0000000,9.00,38.4061890,-110.7922058,1364.6999512,0.0,5.0,0.9,0.0,0.0,863,128,0,0,860.97,11.67,26.24,# data time:6410,pm2.5:6.445,pm10:5.704,O2:0.000,NO2:0.046,SO2:0.000,NH3:7.572
14:06:11,0,0,0,0,0,2700,2200,1,0,0,0,514,0,0,0,0,0.0000000,0.0000000,0.0000000,0.0000000,9.00,38.4061890,-110.7922058,1364.8000488,0.0,207.4,0.9,0.0,0.0,863,127,0,0,860.95,11.67,26.15,# data time:6410,pm2.5:6.445,pm10:5.704,O2:0.000,NO2:0.046,SO2:0.000,NH3:7.572
14:06:12,0,0,0,0,0,2700,2200,1,0,0,0,514,0,0,0,0,0.0000000,0.0000000,0.0000000,0.0000000,9.00,38.4061890,-110.7922058,1364.8000488,0.0,207.4,0.9,0.0,0.0,863,130,0,0,860.98,11.69,26.13,# data time:6410,pm2.5:6.445,pm10:5.704,O2:0.000,NO2:0.046,SO2:0.000,NH3:7.572
14:06:13,0,0,0,0,0,2700,2200,1,0,0,0,514,0,0,0,0,0.0000000,0.0000000,0.0000000,0.0000000,9.00,38.4061890,-110.7922058,1364.8000488,0.0,31.7,0.9,0.0,0.0,863,130,0,0,860.99,11.67,26.23,# data time:6410,pm2.5:6.445,pm10:5.704,O2:0.000,NO2:0.046,SO2:0.000,NH3:7.572
14:06:14,0,0,0,0,0,2700,2200,1,0,0,0,514,0,0,0,0,0.0000000,0.0000000,0.0000000,0.0000000,9.00,38.4061890,-110.7922058,1364.8000488,0.0,46.4,0.9,0.0,0.0,863,127,0,0,860.84,11.67,26.23,# data time:6410,pm2.5:6.445,pm10:5.704,O2:0.000,NO2:0.046,SO2:0.000,NH3:7.572
14:06:15,0,0,0,0,0,2700,2200,1,0,0,0,514,0,0,0,0,0.0000000,0.0000000,0.0000000,0.0000000,9.00,38.4061890,-110.7922058,1364.9000244,0.0,349.2,0.9,0.0,0.0,863,129,0,0,860.87,11.67,26.23,# data time:6410,pm2.5:6.445,pm10:5.704,O2:0.000,NO2:0.046,SO2:0.000,NH3:7.572
14:06:16,0,0,0,0,0,2700,2200,1,0,0,0,514,0,0,0,0,0.0000000,0.0000000,0.0000000,0.0000000,9.00,38.4061890,-110.7922058,1364.9000244,0.0,15.0,0.9,0.0,0.0,862,129,0,0,860.91,11.66,26.23,# data time:6410,pm2.5:6.445,pm10:5.704,O2:0.000,NO2:0.046,SO2:0.000,NH3:7.572
14:06:17,0,0,0,0,0,2700,2200,1,0,0,0,514,0,0,0,0,0.0000000,0.0000000,0.0000000,0.0000000,9.00,38.4061890,-110.7922058,1364.9000244,0.0,16.9,0.9,0.0,0.0,863,133,0,0,860.87,11.66,26.23,# data time:6410,pm2.5:6.445,pm10:5.704,O2:0.000,NO2:0.046,SO2:0.000,NH3:7.572
14:06:18,0,0,0,0,0,2700,2200,1,0,0,0,514,0,0,0,0,0.0000000,0.0000000,0.0000000,0.0000000,9.00,38.4061890,-110.7922058,1364.9000244,0.0,289.5,0.9,0.0,0.0,863,134,0,0,860.89,11.66,26.23,# data time:6420,pm2.5:6.445,pm10:5.704,O2:0.000,NO2:0.028,SO2:0.000,NH3:7.799
14:06:19,0,0,0,0,0,2700,2200,1,0,0,0,514,0,0,0,0,0.0000000,0.0000000,0.0000000,0.0000000,9.00,38.4061890,-110.7922058,1364.9000244,0.0,98.4,0.9,0.0,0.0,862,127,0,0,860.79,11.67,26.23,# data time:6420,pm2.5:6.445,pm10:5.704,O2:0.000,NO2:0.028,SO2:0.000,NH3:7.799
14:06:20,0,0,0,0,0,2700,2200,1,0,0,0,514,0,0,0,0,0.0000000,0.0000000,0.0000000,0.0000000,9.00,38.4061890,-110.7922058,1364.9000244,0.0,167.4,0.9,0.0,0.0,863,127,0,0,860.81,11.64,26.23,# data time:6420,pm2.5:6.445,pm10:5.704,O2:0.000,NO2:0.028,SO2:0.000,NH3:7.799
14:06:21,0,0,0,0,0,2700,2200,1,0,0,0,514,0,0,0,0,0.0000000,0.0000000,0.0000000,0.0000000,9.00,38.4061890,-110.7922058,1365.0000000,0.0,15.2,0.9,0.0,0.0,863,130,0,0,860.77,11.66,26.22,# data time:6420,pm2.5:6.445,pm10:5.704,O2:0.000,NO2:0.028,SO2:0.000,NH3:7.799
14:06:22,0,0,0,0,0,2700,2200,1,0,0,0,514,0,0,0,0,0.0000000,0.0000000,0.0000000,0.0000000,9.00,38.4061890,-110.7922058,1365.0000000,0.0,68.4,0.9,0.0,0.0,862,131,0,0,860.86,11.66,26.22,# data time:6420,pm2.5:6.445,pm10:5.704,O2:0.000,NO2:0.028,SO2:0.000,NH3:7.799
14:06:23,0,0,0,0,0,2700,2200,1,0,0,0,514,0,0,0,0,0.0000000,0.0000000,0.0000000,0.0000000,9.00,38.4061890,-110.7922058,1365.0000000,0.0,178.4,0.9,0.0,0.0,863,128,0,0,860.81,11.66,26.22,# data time:6420,pm2.5:6.445,pm10:5.704,O2:0.000,NO2:0.028,SO2:0.000,NH3:7.799
14:06:24,0,0,0,0,0,2700,2200,1,0,0,0,513,0,0,0,0,0.0000000,0.0000000,0.0000000,0.0000000,9.00,38.4061890,-110.7922058,1365.0000000,0.0,242.4,0.9,0.0,0.0,863,130,0,0,860.79,11.66,26.21,# data time:6420,pm2.5:6.445,pm10:5.704,O2:0.000,NO2:0.028,SO2:0.000,NH3:7.799
14:06:25,0,0,0,0,0,2700,2200,1,0,0,0,514,0,0,0,0,0.0000000,0.0000000,0.0000000,0.0000000,9.00,38.4061890,-110.7922058,1365.0000000,0.0,267.9,0.9,0.0,0.0,863,129,0,0,860.89,11.63,26.21,# data time:6420,pm2.5:6.445,pm10:5.704,O2:0.000,NO2:0.028,SO2:0.000,NH3:7.799
14:06:26,0,0,0,0,0,2700,2200,1,0,0,0,514,0,0,0,0,0.0000000,0.0000000,0.0000000,0.0000000,9.00,38.4061890,-110.7922058,1365.0000000,0.0,168.2,0.9,0.0,0.0,863,132,0,0,860.77,11.66,26.21,# data time:6420,pm2.5:6.445,pm10:5.704,O2:0.000,NO2:0.028,SO2:0.000,NH3:7.799
14:06:27,0,0,0,0,0,2700,2200,1,0,0,0,514,0,0,0,0,0.0000000,0.0000000,0.0000000,0.0000000,9.00,38.4061890,-110.7922058,1365.0000000,0.0,96.8,0.9,0.0,0.0,863,129,0,0,860.73,11.66,26.21,# data time:6420,pm2.5:6.445,pm10:5.704,O2:0.000,NO2:0.028,SO2:0.000,NH3:7.799
14:06:28,0,0,0,0,0,2700,2200,1,0,0,0,514,0,0,0,0,0.0000000,0.0000000,0.0000000,0.0000000,9.00,38.4061890,-110.7922058,1365.0000000,0.0,101.4,0.9,0.0,0.0,863,128,0,0,860.78,11.66,26.21,# data time:6430,pm2.5:6.445,pm10:5.704,O2:0.000,NO2:0.028,SO
14:06:29,0,0,0,0,0,2700,2200,1,0,0,0,515,0,0,0,0,0.0000000,0.0000000,0.0000000,0.0000000,9.00,38.4061890,-110.7922058,1365.0000000,0.0,151.5,0.9,0.0,0.0,863,130,0,0,860.75,11.64,26.21,# data time:6430,pm2.5:6.445,pm10:5.704,O2:0.000,NO2:0.028,SO
14:06:30,0,0,0,0,0,2700,2200,1,0,0,0,514,0,0,0,0,0.0000000,0.0000000,0.0000000,0.0000000,9.00,38.4061890,-110.7922058,1365.0000000,0.0,0.0,0.9,0.0,0.0,863,129,0,0,860.68,11.66,26.21,# data time:6430,pm2.5:6.445,pm10:5.704,O2:0.000,NO2:0.028,SO
14:06:32,0,0,0,0,0,2700,2200,1,0,0,0,514,0,0,0,0,0.0000000,0.0000000,0.0000000,0.0000000,9.00,38.4061890,-110.7922058,1365.0000000,0.0,358.5,0.9,0.0,0.0,863,129,0,0,860.73,11.66,26.21,# data time:6430,pm2.5:6.445,pm10:5.704,O2:0.000,NO2:0.028,SO
14:06:33,0,0,0,0,0,2700,2200,1,0,0,0,514,0,0,0,0,0.0000000,0.0000000,0.0000000,0.0000000,9.00,38.4061890,-110.7922058,1365.0000000,0.0,304.4,0.9,0.0,0.0,863,132,0,0,860.69,11.66,26.22,# data time:6430,pm2.5:6.445,pm10:5.704,O2:0.000,NO2:0.028,SO
14:06:34,0,0,0,0,0,2700,2200,1,0,0,0,514,0,0,0,0,0.0000000,0.0000000,0.0000000,0.0000000,9.00,38.4061890,-110.7922058,1365.0000000,0.0,222.1,0.9,0.0,0.0,862,127,0,0,860.74,11.66,26.13,# data time:6430,pm2.5:6.445,pm10:5.704,O2:0.000,NO2:0.028,SO
14:06:35,0,0,0,0,0,2700,2200,1,0,0,0,514,0,0,0,0,0.0000000,0.0000000,0.0000000,0.0000000,9.00,38.4061890,-110.7922058,1365.0000000,0.0,222.1,0.9,0.0,0.0,863,128,0,0,860.65,11.66,26.17,# data time:6430,pm2.5:6.445,pm10:5.704,O2:0.000,NO2:0.028,SO
14:06:36,0,0,0,0,0,2700,2200,1,0,0,0,514,0,0,0,0,0.0000000,0.0000000,0.0000000,0.0000000,9.00,38.4061890,-110.7922058,1365.0000000,0.0,249.3,0.9,0.0,0.0,863,129,0,0,860.72,11.67,26.17,# data time:6430,pm2.5:6.445,pm10:5.704,O2:0.000,NO2:0.028,SO
14:06:37,0,0,0,0,0,2700,2200,1,0,0,0,515,0,0,0,0,0.0000000,0.0000000,0.0000000,0.0000000,9.00,38.4061890,-110.7922058,1365.0000000,0.0,254.5,0.9,0.0,0.0,863,133,0,0,860.69,11.67,26.21,# data time:6430,pm2.5:6.445,pm10:5.704,O2:0.000,NO2:0.028,SO
14:06:38,0,0,0,0,0,2700,2200,1,0,0,0,515,0,0,0,0,0.0000000,0.0000000,0.0000000,0.0000000,9.00,38.4061890,-110.7922058,1365.0000000,0.0,325.9,0.9,0.0,0.0,863,125,0,0,860.64,11.64,26.22,# data time:6440,pm2.5:6.445,pm10:5.704,O2:0.000,NO2:0.046,SO2:0.000,NH3:7.572
14:06:39,0,0,0,0,0,2700,2200,1,0,0,0,514,0,0,0,0,0.0000000,0.0000000,0.0000000,0.0000000,9.00,38.4061890,-110.7922058,1365.0000000,0.0,253.8,0.9,0.0,0.0,863,129,0,0,860.72,11.64,26.22,# data time:6440,pm2.5:6.445,pm10:5.704,O2:0.000,NO2:0.046,SO2:0.000,NH3:7.572
14:06:40,0,0,0,0,0,2700,2200,1,0,0,0,517,0,0,0,0,0.0000000,0.0000000,0.0000000,0.0000000,9.00,38.4061890,-110.7922058,1365.0000000,0.0,223.6,0.9,0.0,0.0,863,129,0,0,860.75,11.67,26.22,# data time:6440,pm2.5:6.445,pm10:5.704,O2:0.000,NO2:0.046,SO2:0.000,NH3:7.572
14:06:41,0,0,0,0,0,2700,2200,1,0,0,0,514,0,0,0,0,0.0000000,0.0000000,0.0000000,0.0000000,9.00,38.4061890,-110.7922058,1365.0000000,0.0,262.1,0.9,0.0,0.0,863,130,0,0,860.78,11.66,26.22,# data time:6440,pm2.5:6.445,pm10:5.704,O2:0.000,NO2:0.046,SO2:0.000,NH3:7.572
14:06:42,0,0,0,0,0,2700,2200,1,0,0,0,514,0,0,0,0,0.0000000,0.0000000,0.0000000,0.0000000,9.00,38.4061890,-110.7922058,1365.0000000,0.0,290.9,0.9,0.0,0.0,863,129,0,0,860.86,11.66,26.22,# data time:6440,pm2.5:6.445,pm10:5.704,O2:0.000,NO2:0.046,SO2:0.000,NH3:7.572
14:06:43,0,0,0,0,0,2700,2200,1,0,0,0,514,0,0,0,0,0.0000000,0.0000000,0.0000000,0.0000000,9.00,38.4061890,-110.7922058,1365.0000000,0.0,326.6,0.9,0.0,0.0,862,129,0,0,860.79,11.64,26.23,# data time:6440,pm2.5:6.445,pm10:5.704,O2:0.000,NO2:0.046,SO2:0.000,NH3:7.572
14:06:44,0,0,0,0,0,2700,2200,1,0,0,0,514,0,0,0,0,0.0000000,0.0000000,0.0000000,0.0000000,9.00,38.4061890,-110.7922058,1365.0000000,0.0,298.1,0.9,0.0,0.0,863,126,0,0,860.62,11.64,26.22,# data time:6440,pm2.5:6.445,pm10:5.704,O2:0.000,NO2:0.046,SO2:0.000,NH3:7.572
14:06:45,0,0,0,0,0,2700,2200,1,0,0,0,514,0,0,0,0,0.0000000,0.0000000,0.0000000,0.0000000,9.00,38.4061890,-110.7922058,1365.0000000,0.0,262.5,0.9,0.0,0.0,862,132,0,0,860.73,11.64,26.23,# data time:6440,pm2.5:6.445,pm10:5.704,O2:0.000,NO2:0.046,SO2:0.000,NH3:7.572
14:06:46,0,0,0,0,0,2700,2200,1,0,0,0,515,0,0,0,0,0.0000000,0.0000000,0.0000000,0.0000000,9.00,38.4061890,-110.7922058,1365.0000000,0.0,280.1,0.9,0.0,0.0,864,125,0,0,860.77,11.67,26.22,# data time:6440,pm2.5:6.445,pm10:5.704,O2:0.000,NO2:0.046,SO2:0.000,NH3:7.572
14:06:47,0,0,0,0,0,2700,2200,1,0,0,0,514,0,0,0,0,0.0000000,0.0000000,0.0000000,0.0000000,9.00,38.4061890,-110.7922058,1365.0000000,0.0,300.0,0.9,0.0,0.0,862,129,0,0,860.77,11.67,26.23,# data time:6440,pm2.5:6.445,pm10:5.704,O2:0.000,NO2:0.046,SO2:0.000,NH3:7.572
14:06:48,0,0,0,0,0,2700,2200,1,0,0,0,513,0,0,0,0,0.0000000,0.0000000,0.0000000,0.0000000,9.00,38.4061890,-110.7922058,1365.0000000,0.0,277.8,0.9,0.0,0.0,863,129,0,0,860.82,11.69,26.23,# data time:6450,pm2.5:6.445,pm10:5.704,O2:0.000,NO2:0.028,SO2:0.000,NH3:7.799
14:06:49,0,0,0,0,0,2700,2200,1,0,0,0,514,0,0,0,0,0.0000000,0.0000000,0.0000000,0.0000000,9.00,38.4061890,-110.7922058,1365.0000000,0.0,280.7,0.9,0.0,0.0,863,128,0,0,860.82,11.67,26.23,# data time:6450,pm2.5:6.445,pm10:5.704,O2:0.000,NO2:0.028,SO2:0.000,NH3:7.799
14:06:50,0,0,0,0,0,2700,2200,1,0,0,0,514,0,0,0,0,0.0000000,0.0000000,0.0000000,0.0000000,9.00,38.4061890,-110.7922058,1365.0000000,0.0,304.3,0.9,0.0,0.0,862,129,0,0,860.80,11.66,26.23,# data time:6450,pm2.5:6.445,pm10:5.704,O2:0.000,NO2:0.028,SO2:0.000,NH3:7.799
14:06:51,0,0,0,0,0,2700,2200,1,0,0,0,514,0,0,0,0,0.0000000,0.0000000,0.0000000,0.0000000,9.00,38.4061890,-110.7922058,1365.0000000,0.0,279.0,0.9,0.0,0.0,862,131,0,0,860.89,11.67,26.23,# data time:6450,pm2.5:6.445,pm10:5.704,O2:0.000,NO2:0.028,SO2:0.000,NH3:7.799
14:06:52,0,0,0,0,0,2700,2200,1,0,0,0,513,0,0,0,0,0.0000000,0.0000000,0.0000000,0.0000000,9.00,38.4061890,-110.7922058,1365.0000000,0.0,270.5,0.9,0.0,0.0,862,129,0,0,860.74,11.67,26.23,# data time:6450,pm2.5:6.445,pm10:5.704,O2:0.000,NO2:0.028,SO2:0.000,NH3:7.799
14:06:54,0,0,0,0,0,2700,2200,1,0,0,0,514,0,0,0,0,0.0000000,0.0000000,0.0000000,0.0000000,9.00,38.4061890,-110.7922058,1365.0000000,0.0,227.5,0.9,0.0,0.0,862,134,0,0,860.71,11.69,26.23,# data time:6450,pm2.5:6.445,pm10:5.704,O2:0.000,NO2:0.028,SO2:0.000,NH3:7.799
14:06:55,0,0,0,0,0,2700,2200,1,0,0,0,514,0,0,0,0,0.0000000,0.0000000,0.0000000,0.0000000,9.00,38.4061890,-110.7922058,1365.0000000,0.0,271.6,0.9,0.0,0.0,863,131,0,0,860.74,11.67,26.23,# data time:6450,pm2.5:6.445,pm10:5.704,O2:0.000,NO2:0.028,SO2:0.000,NH3:7.799
14:06:56,0,0,0,0,0,2700,2200,1,0,0,0,514,0,0,0,0,0.0000000,0.0000000,0.0000000,0.0000000,9.00,38.4061890,-110.7922211,1365.0000000,0.1,266.9,0.9,0.0,0.0,863,128,0,0,860.73,11.67,26.18,# data time:6450,pm2.5:6.445,pm10:5.704,O2:0.000,NO2:0.028,SO2:0.000,NH3:7.799
14:06:57,0,0,0,0,0,2700,2200,1,0,0,0,514,0,0,0,0,0.0000000,0.0000000,0.0000000,0.0000000,9.00,38.4061890,-110.7922211,1365.0000000,0.0,226.7,0.9,0.0,0.0,863,128,0,0,860.78,11.69,26.14,# data time:6450,pm2.5:6.445,pm10:5.704,O2:0.000,NO2:0.028,SO2:0.000,NH3:7.799
14:06:58,0,0,0,0,0,2700,2200,1,0,0,0,515,0,0,0,0,0.0000000,0.0000000,0.0000000,0.0000000,9.00,38.4061890,-110.7922211,1365.0000000,0.0,226.7,0.9,0.0,0.0,863,129,0,0,860.74,11.70,26.12,# data time:6460,pm2.5:6.445,pm10:5.704,O2:0.000,NO2:0.028,SO2:0.000,NH3:7.799
14:06:59,0,0,0,0,0,2700,2200,1,0,0,0,514,0,0,0,0,0.0000000,0.0000000,0.0000000,0.0000000,9.00,38.4061890,-110.7922211,1365.0000000,0.0,226.7,0.9,0.0,0.0,863,130,0,0,860.79,11.67,26.18,# data time:6460,pm2.5:6.445,pm10:5.704,O2:0.000,NO2:0.028,SO2:0.000,NH3:7.799
14:07:00,0,0,0,0,0,2700,2200,1,0,0,0,514,0,0,0,0,0.0000000,0.0000000,0.0000000,0.0000000,9.00,38.4061890,-110.7922211,1364.9000244,0.0,269.9,0.9,0.0,0.0,863,129,0,0,860.78,11.66,26.18,# data time:6460,pm2.5:6.445,pm10:5.704,O2:0.000,NO2:0.028,SO2:0.000,NH3:7.799
14:07:01,0,0,0,0,0,2700,2200,1,0,0,0,514,0,0,0,0,0.0000000,0.0000000,0.0000000,0.0000000,9.00,38.4061890,-110.7922211,1364.9000244,0.0,290.8,0.9,0.0,0.0,863,125,0,0,860.79,11.67,26.22,# data time:6460,pm2.5:6.445,pm10:5.704,O2:0.000,NO2:0.028,SO2:0.000,NH3:7.799
14:07:02,0,0,0,0,0,2700,2200,1,0,0,0,514,0,0,0,0,0.0000000,0.0000000,0.0000000,0.0000000,9.00,38.4061890,-110.7922211,1364.9000244,0.0,297.1,0.9,0.0,0.0,863,129,0,0,860.71,11.67,26.23,# data time:6460,pm2.5:6.445,pm10:5.704,O2:0.000,NO2:0.028,SO2:0.000,NH3:7.799
14:07:03,0,0,0,0,0,2700,2200,1,0,0,0,514,0,0,0,0,0.0000000,0.0000000,0.0000000,0.0000000,9.00,38.4061890,-110.7922211,1364.9000244,0.0,316.2,0.9,0.0,0.0,863,129,0,0,860.73,11.64,26.23,# data time:6460,pm2.5:6.445,pm10:5.704,O2:0.000,NO2:0.028,SO2:0.000,NH3:7.799
14:07:04,0,0,0,0,0,2700,2200,1,0,0,0,515,0,0,0,0,0.0000000,0.0000000,0.0000000,0.0000000,9.00,38.4061890,-110.7922211,1364.9000244,0.0,296.2,0.9,0.0,0.0,863,129,0,0,860.73,11.67,26.23,# data time:6460,pm2.5:6.445,pm10:5.704,O2:0.000,NO2:0.028,SO2:0.000,NH3:7.799
14:07:05,0,0,0,0,0,2700,2200,1,0,0,0,514,0,0,0,0,0.0000000,0.0000000,0.0000000,0.0000000,9.00,38.4061890,-110.7922211,1364.9000244,0.0,335.0,0.9,0.0,0.0,863,128,0,0,860.91,11.66,26.23,# data time:6460,pm2.5:6.445,pm10:5.704,O2:0.000,NO2:0.028,SO2:0.000,NH3:7.799
14:07:06,0,0,0,0,0,2700,2200,1,0,0,0,514,0,0,0,0,0.0000000,0.0000000,0.0000000,0.0000000,9.00,38.4061890,-110.7922211,1364.9000244,0.0,257.8,0.9,0.0,0.0,863,130,0,0,860.84,11.64,26.23,# data time:6460,pm2.5:6.445,pm10:5.704,O2:0.000,NO2:0.028,SO2:0.000,NH3:7.799
14:07:07,0,0,0,0,0,2700,2200,1,0,0,0,514,0,0,0,0,0.0000000,0.0000000,0.0000000,0.0000000,9.00,38.4061890,-110.7922211,1364.8000488,0.0,335.1,0.9,0.0,0.0,863,132,0,0,860.77,11.63,26.23,# data time:6460,pm2.5:6.445,pm10:5.704,O2:0.000,NO2:0.028,SO2:0.000,NH3:7.799
14:07:08,0,0,0,0,0,2700,2200,1,0,0,0,514,0,0,0,0,0.0000000,0.0000000,0.0000000,0.0000000,9.00,38.4061890,-110.7922211,1364.8000488,0.0,342.9,0.9,0.0,0.0,862,130,0,0,860.75,11.61,26.23,# data time:6470,pm2.5:6.445,pm10:5.704,O2:0.000,NO2:0.081,SO2:0.000,NH3:7.799
14:07:09,0,0,0,0,0,2700,2200,1,0,0,0,514,0,0,0,0,0.0000000,0.0000000,0.0000000,0.0000000,9.00,38.4061890,-110.7922211,1364.8000488,0.0,322.0,0.9,0.0,0.0,863,127,0,0,860.84,11.63,26.24,# data time:6470,pm2.5:6.445,pm10:5.704,O2:0.000,NO2:0.081,SO2:0.000,NH3:7.799
14:07:10,0,0,0,0,0,2700,2200,1,0,0,0,515,0,0,0,0,0.0000000,0.0000000,0.0000000,0.0000000,9.00,38.4061890,-110.7922211,1364.8000488,0.0,319.2,0.9,0.0,0.0,863,128,0,0,860.79,11.64,26.23,# data time:6470,pm2.5:6.445,pm10:5.704,O2:0.000,NO2:0.081,SO2:0.000,NH3:7.799
14:07:11,0,0,0,0,0,2700,2200,1,0,0,0,514,0,0,0,0,0.0000000,0.0000000,0.0000000,0.0000000,9.00,38.4061890,-110.7922211,1364.8000488,0.0,297.5,0.9,0.0,0.0,863,129,0,0,860.86,11.66,26.24,# data time:6470,pm2.5:6.445,pm10:5.704,O2:0.000,NO2:0.081,SO2:0.000,NH3:7.799
14:07:12,0,0,0,0,0,2700,2200,1,0,0,0,514,0,0,0,0,0.0000000,0.0000000,0.0000000,0.0000000,9.00,38.4061890,-110.7922211,1364.8000488,0.0,307.0,0.9,0.0,0.0,863,132,0,0,860.76,11.66,26.24,# data time:6470,pm2.5:6.445,pm10:5.704,O2:0.000,NO2:0.081,SO2:0.000,NH3:7.799
14:07:13,0,0,0,0,0,2700,2200,1,0,0,0,515,0,0,0,0,0.0000000,0.0000000,0.0000000,0.0000000,9.00,38.4061890,-110.7922211,1364.8000488,0.0,335.1,0.9,0.0,0.0,862,128,0,0,860.80,11.63,26.24,# data time:6470,pm2.5:6.445,pm10:5.704,O2:0.000,NO2:0.081,SO2:0.000,NH3:7.799
14:07:14,0,0,0,0,0,2700,2200,1,0,0,0,514,0,0,0,0,0.0000000,0.0000000,0.0000000,0.0000000,9.00,38.4061890,-110.7922211,1364.8000488,0.0,349.5,0.9,0.0,0.0,862,126,0,0,860.80,11.64,26.24,# data time:6470,pm2.5:6.445,pm10:5.704,O2:0.000,NO2:0.081,SO2:0.000,NH3:7.799
14:07:15,0,0,0,0,0,2700,2200,1,0,0,0,514,0,0,0,0,0.0000000,0.0000000,0.0000000,0.0000000,9.00,38.4061890,-110.7922211,1364.8000488,0.0,280.9,0.9,0.0,0.0,862,129,0,0,860.75,11.63,26.23,# data time:6470,pm2.5:6.445,pm10:5.704,O2:0.000,NO2:0.081,SO2:0.000,NH3:7.799
14:07:16,0,0,0,0,0,2700,2200,1,0,0,0,514,0,0,0,0,0.0000000,0.0000000,0.0000000,0.0000000,9.00,38.4061890,-110.7922211,1364.6999512,0.0,294.7,0.9,0.0,0.0,862,128,0,0,860.84,11.66,26.24,# data time:6470,pm2.5:6.445,pm10:5.704,O2:0.000,NO2:0.081,SO2:0.000,NH3:7.799
14:07:18,0,0,0,0,0,2700,2200,1,0,0,0,514,0,0,0,0,0.0000000,0.0000000,0.0000000,0.0000000,9.00,38.4061890,-110.7922211,1364.6999512,0.0,342.7,0.9,0.0,0.0,863,132,0,0,860.74,11.64,26.23,# data time:6480,pm2.5:6.445,pm10:5.704,O2:0.000,NO2:0.063,SO2:0.000,NH3:7.799
14:07:19,0,0,0,0,0,2700,2200,1,0,0,0,515,0,0,0,0,0.0000000,0.0000000,0.0000000,0.0000000,9.00,38.4061890,-110.7922211,1364.6999512,0.0,344.2,0.9,0.0,0.0,863,129,0,0,860.64,11.64,26.24,# data time:6480,pm2.5:6.445,pm10:5.704,O2:0.000,NO2:0.063,SO2:0.000,NH3:7.799
14:07:20,0,0,0,0,0,2700,2200,1,0,0,0,514,0,0,0,0,0.0000000,0.0000000,0.0000000,0.0000000,9.00,38.4061890,-110.7922211,1364.6999512,0.0,289.4,0.9,0.0,0.0,863,130,0,0,860.60,11.69,26.15,# data time:6480,pm2.5:6.445,pm10:5.704,O2:0.000,NO2:0.063,SO2:0.000,NH3:7.799
14:07:21,0,0,0,0,0,2700,2200,1,0,0,0,514,0,0,0,0,0.0000000,0.0000000,0.0000000,0.0000000,9.00,38.4061890,-110.7922211,1364.6999512,0.0,289.4,0.9,0.0,0.0,862,129,0,0,860.64,11.66,26.14,# data time:6480,pm2.5:6.445,pm10:5.704,O2:0.000,NO2:0.063,SO2:0.000,NH3:7.799
14:07:22,0,0,0,0,0,2700,2200,1,0,0,0,515,0,0,0,0,0.0000000,0.0000000,0.0000000,0.0000000,9.00,38.4061890,-110.7922211,1364.6999512,0.0,289.4,0.9,0.0,0.0,863,130,0,0,860.58,11.66,26.14,# data time:6480,pm2.5:6.445,pm10:5.704,O2:0.000,NO2:0.063,SO2:0.000,NH3:7.799
14:07:23,0,0,0,0,0,2700,2200,1,0,0,0,514,0,0,0,0,0.0000000,0.0000000,0.0000000,0.0000000,9.00,38.4061928,-110.7922211,1364.6999512,0.0,289.4,0.9,0.0,0.0,862,124,0,0,860.57,11.66,26.14,# data time:6480,pm2.5:6.445,pm10:5.704,O2:0.000,NO2:0.063,SO2:0.000,NH3:7.799
14:07:24,0,0,0,0,0,2700,2200,1,0,0,0,515,0,0,0,0,0.0000000,0.0000000,0.0000000,0.0000000,9.00,38.4061928,-110.7922211,1364.6999512,0.1,327.8,0.9,0.0,0.0,862,132,0,0,860.59,11.64,26.20,# data time:6480,pm2.5:6.445,pm10:5.704,O2:0.000,NO2:0.063,SO2:0.000,NH3:7.799
14:07:25,0,0,0,0,0,2700,2200,1,0,0,0,514,0,0,0,0,0.0000000,0.0000000,0.0000000,0.0000000,9.00,38.4061928,-110.7922211,1364.6999512,0.1,335.8,0.9,0.0,0.0,862,127,0,0,860.62,11.64,26.24,# data time:6480,pm2.5:6.445,pm10:5.704,O2:0.000,NO2:0.063,SO2:0.000,NH3:7.799
14:07:26,0,0,0,0,0,2700,2200,1,0,0,0,515,0,0,0,0,0.0000000,0.0000000,0.0000000,0.0000000,9.00,38.4061928,-110.7922211,1364.6999512,0.1,353.8,0.9,0.0,0.0,862,129,0,0,860.66,11.64,26.24,# data time:6480,pm2.5:6.445,pm10:5.704,O2:0.000,NO2:0.063,SO2:0.000,NH3:7.799
14:07:27,0,0,0,0,0,2700,2200,1,0,0,0,514,0,0,0,0,0.0000000,0.0000000,0.0000000,0.0000000,9.00,38.4061928,-110.7922211,1364.6999512,0.1,328.5,0.9,0.0,0.0,863,125,0,0,860.58,11.63,26.25,# data time:6480,pm2.5:6.445,pm10:5.704,O2:0.000,NO2:0.063,SO2:0.000,NH3:7.799
14:07:28,0,0,0,0,0,2700,2200,1,0,0,0,514,0,0,0,0,0.0000000,0.0000000,0.0000000,0.0000000,9.00,38.4061928,-110.7922211,1364.5999756,0.0,311.9,0.9,0.0,0.0,863,132,0,0,860.58,11.66,26.24,# data time:6490,pm2.5:6.445,pm10:5.704,O2:0.000,NO2:0.010,SO2:0.000,NH3:7.346
14:07:29,0,0,0,0,0,2700,2200,1,0,0,0,514,0,0,0,0,0.0000000,0.0000000,0.0000000,0.0000000,9.00,38.4061928,-110.7922211,1364.5999756,0.0,318.9,0.9,0.0,0.0,863,128,0,0,860.57,11.64,26.24,# data time:6490,pm2.5:6.445,pm10:5.704,O2:0.000,NO2:0.010,SO2:0.000,NH3:7.346
14:07:30,0,0,0,0,0,2700,2200,1,0,0,0,513,0,0,0,0,0.0000000,0.0000000,0.0000000,0.0000000,9.00,38.4061928,-110.7922211,1364.5999756,0.0,275.4,0.9,0.0,0.0,863,129,0,0,860.62,11.66,26.25,# data time:6490,pm2.5:6.445,pm10:5.704,O2:0.000,NO2:0.010,SO2:0.000,NH3:7.346
14:07:31,0,0,0,0,0,2700,2200,1,0,0,0,514,0,0,0,0,0.0000000,0.0000000,0.0000000,0.0000000,9.00,38.4061928,-110.7922211,1364.5999756,0.0,338.9,0.9,0.0,0.0,862,131,0,0,860.67,11.61,26.25,# data time:6490,pm2.5:6.445,pm10:5.704,O2:0.000,NO2:0.010,SO2:0.000,NH3:7.346
14:07:32,0,0,0,0,0,2700,2200,1,0,0,0,512,0,0,0,0,0.0000000,0.0000000,0.0000000,0.0000000,9.00,38.4061928,-110.7922211,1364.5999756,0.0,316.4,0.9,0.0,0.0,863,129,0,0,860.57,11.63,26.24,# data time:6490,pm2.5:6.445,pm10:5.704,O2:0.000,NO2:0.010,SO2:0.000,NH3:7.346
14:07:33,0,0,0,0,0,2700,2200,1,0,0,0,513,0,0,0,0,0.0000000,0.0000000,0.0000000,0.0000000,9.00,38.4061928,-110.7922211,1364.5999756,0.0,341.9,0.9,0.0,0.0,863,127,0,0,860.58,11.63,26.25,# data time:6490,pm2.5:6.445,pm10:5.704,O2:0.000,NO2:0.010,SO2:0.000,NH3:7.346
14:07:34,0,0,0,0,0,2700,2200,1,0,0,0,515,0,0,0,0,0.0000000,0.0000000,0.0000000,0.0000000,9.00,38.4061928,-110.7922211,1364.5999756,0.0,313.5,0.9,0.0,0.0,862,128,0,0,860.66,11.61,26.25,# data time:6490,pm2.5:6.445,pm10:5.704,O2:0.000,NO2:0.010,SO2:0.000,NH3:7.346
14:07:35,0,0,0,0,0,2700,2200,1,0,0,0,514,0,0,0,0,0.0000000,0.0000000,0.0000000,0.0000000,9.00,38.4061928,-110.7922211,1364.5999756,0.0,339.2,0.9,0.0,0.0,863,129,0,0,860.73,11.64,26.25,# data time:6490,pm2.5:6.445,pm10:5.704,O2:0.000,NO2:0.010,SO2:0.000,NH3:7.346
14:07:36,0,0,0,0,0,2700,2200,1,0,0,0,514,0,0,0,0,0.0000000,0.0000000,0.0000000,0.0000000,9.00,38.4061928,-110.7922211,1364.5999756,0.0,332.5,0.9,0.0,0.0,863,132,0,0,860.80,11.63,26.25,# data time:6490,pm2.5:6.445,pm10:5.704,O2:0.000,NO2:0.010,SO2:0.000,NH3:7.346
14:07:37,0,0,0,0,0,2700,2200,1,0,0,0,514,0,0,0,0,0.0000000,0.0000000,0.0000000,0.0000000,9.00,38.4061928,-110.7922211,1364.5999756,0.0,336.9,0.9,0.0,0.0,862,129,0,0,860.69,11.61,26.25,# data time:6500,pm2.5:6.445,pm10:5.704,O2:0.000,NO2:0.000,SO2:0.000,NH3:7.799
14:07:38,0,0,0,0,0,2700,2200,1,0,0,0,514,0,0,0,0,0.0000000,0.0000000,0.0000000,0.0000000,9.00,38.4061928,-110.7922211,1364.5999756,0.1,279.1,0.9,0.0,0.0,862,130,0,0,860.70,11.61,26.25,# data time:6500,pm2.5:6.445,pm10:5.704,O2:0.000,NO2:0.000,SO2:0.000,NH3:7.799
14:07:40,0,0,0,0,0,2700,2200,1,0,0,0,514,0,0,0,0,0.0000000,0.0000000,0.0000000,0.0000000,9.00,38.4061928,-110.7922211,1364.5999756,0.0,288.2,0.9,0.0,0.0,863,131,0,0,860.68,11.61,26.25,# data time:6500,pm2.5:6.445,pm10:5.704,O2:0.000,NO2:0.000,SO2:0.000,NH3:7.799
14:07:41,0,0,0,0,0,2700,2200,1,0,0,0,515,0,0,0,0,0.0000000,0.0000000,0.0000000,0.0000000,9.00,38.4061928,-110.7922211,1364.5999756,0.1,329.2,0.9,0.0,0.0,862,127,0,0,860.68,11.63,26.25,# data time:6500,pm2.5:6.445,pm10:5.704,O2:0.000,NO2:0.000,SO2:0.000,NH3:7.799
14:07:42,0,0,0,0,0,2700,2200,1,0,0,0,514,0,0,0,0,0.0000000,0.0000000,0.0000000,0.0000000,9.00,38.4061928,-110.7922211,1364.5999756,0.0,314.9,0.9,0.0,0.0,862,130,0,0,860.62,11.64,26.25,# data time:6500,pm2.5:6.445,pm10:5.704,O2:0.000,NO2:0.000,SO2:0.000,NH3:7.799
14:07:43,0,0,0,0,0,2700,2200,1,0,0,0,514,0,0,0,0,0.0000000,0.0000000,0.0000000,0.0000000,9.00,38.4061928,-110.7922211,1364.5999756,0.0,320.4,0.9,0.0,0.0,863,131,0,0,860.65,11.64,26.24,# data time:6500,pm2.5:6.445,pm10:5.704,O2:0.000,NO2:0.000,SO2:0.000,NH3:7.799
14:07:44,0,0,0,0,0,2700,2200,1,0,0,0,514,0,0,0,0,0.0000000,0.0000000,0.0000000,0.0000000,9.00,38.4061928,-110.7922211,1364.5999756,0.0,304.5,0.9,0.0,0.0,863,129,0,0,860.70,11.66,26.15,# data time:6500,pm2.5:6.445,pm10:5.704,O2:0.000,NO2:0.000,SO2:0.000,NH3:7.799
14:07:45,0,0,0,0,0,2700,2200,1,0,0,0,514,0,0,0,0,0.0000000,0.0000000,0.0000000,0.0000000,9.00,38.4061928,-110.7922211,1364.5999756,0.0,304.5,0.9,0.0,0.0,863,129,0,0,860.69,11.66,26.20,# data time:6500,pm2.5:6.445,pm10:5.704,O2:0.000,NO2:0.000,SO2:0.000,NH3:7.799
14:07:46,0,0,0,0,0,2700,2200,1,0,0,0,514,0,0,0,0,0.0000000,0.0000000,0.0000000,0.0000000,9.00,38.4061928,-110.7922211,1364.5999756,0.0,304.5,0.9,0.0,0.0,862,127,0,0,860.60,11.64,26.13,# data time:6500,pm2.5:6.445,pm10:5.704,O2:0.000,NO2:0.000,SO2:0.000,NH3:7.799
14:07:47,0,0,0,0,0,2700,2200,1,0,0,0,514,0,0,0,0,0.0000000,0.0000000,0.0000000,0.0000000,9.00,38.4061928,-110.7922211,1364.5999756,0.0,272.0,0.9,0.0,0.0,862,129,0,0,860.64,11.67,26.18,# data time:6500,pm2.5:6.445,pm10:5.704,O2:0.000,NO2:0.000,SO2:0.000,NH3:7.799
14:07:48,0,0,0,0,0,2700,2200,1,0,0,0,514,0,0,0,0,0.0000000,0.0000000,0.0000000,0.0000000,9.00,38.4061928,-110.7922211,1364.5999756,0.0,299.4,0.9,0.0,0.0,863,131,0,0,860.65,11.66,26.23,# data time:6510,pm2.5:6.445,pm10:5.704,O2:0.000,NO2:0.000,SO2:0.000,NH3:7.799
14:07:49,0,0,0,0,0,2700,2200,1,0,0,0,514,0,0,0,0,0.0000000,0.0000000,0.0000000,0.0000000,9.00,38.4061928,-110.7922211,1364.5999756,0.0,324.1,0.9,0.0,0.0,863,129,0,0,860.60,11.67,26.24,# data time:6510,pm2.5:6.445,pm10:5.704,O2:0.000,NO2:0.000,SO2:0.000,NH3:7.799
14:07:50,0,0,0,0,0,2700,2200,1,0,0,0,514,0,0,0,0,0.0000000,0.0000000,0.0000000,0.0000000,9.00,38.4061928,-110.7922211,1364.5999756,0.0,304.1,0.9,0.0,0.0,862,131,0,0,860.65,11.67,26.24,# data time:6510,pm2.5:6.445,pm10:5.704,O2:0.000,NO2:0.000,SO2:0.000,NH3:7.799
14:07:51,0,0,0,0,0,2700,2200,1,0,0,0,514,0,0,0,0,0.0000000,0.0000000,0.0000000,0.0000000,9.00,38.4061928,-110.7922211,1364.5999756,0.0,301.3,0.9,0.0,0.0,863,127,0,0,860.63,11.66,26.24,# data time:6510,pm2.5:6.445,pm10:5.704,O2:0.000,NO2:0.000,SO2:0.000,NH3:7.799
14:07:52,0,0,0,0,0,2700,2200,1,0,0,0,515,0,0,0,0,0.0000000,0.0000000,0.0000000,0.0000000,9.00,38.4061928,-110.7922211,1364.5999756,0.0,333.4,0.9,0.0,0.0,862,132,0,0,860.62,11.64,26.24,# data time:6510,pm2.5:6.445,pm10:5.704,O2:0.000,NO2:0.000,SO2:0.000,NH3:7.799
14:07:53,0,0,0,0,0,2700,2200,1,0,0,0,514,0,0,0,0,0.0000000,0.0000000,0.0000000,0.0000000,9.00,38.4061928,-110.7922211,1364.5999756,0.0,324.6,0.9,0.0,0.0,862,128,0,0,860.59,11.66,26.24,# data time:6510,pm2.5:6.445,pm10:5.704,O2:0.000,NO2:0.000,SO2:0.000,NH3:7.799
14:07:54,0,0,0,0,0,2700,2200,1,0,0,0,514,0,0,0,0,0.0000000,0.0000000,0.0000000,0.0000000,9.00,38.4061966,-110.7922211,1364.5999756,0.0,286.9,0.9,0.0,0.0,862,132,0,0,860.61,11.69,26.25,# data time:6510,pm2.5:6.445,pm10:5.704,O2:0.000,NO2:0.000,SO2:0.000,NH3:7.799
14:07:55,0,0,0,0,0,2700,2200,1,0,0,0,514,0,0,0,0,0.0000000,0.0000000,0.0000000,0.0000000,9.00,38.4061966,-110.7922211,1364.5999756,0.0,327.1,0.9,0.0,0.0,862,129,0,0,860.59,11.64,26.25,# data time:6510,pm2.5:6.445,pm10:5.704,O2:0.000,NO2:0.000,SO2:0.000,NH3:7.799
14:07:56,0,0,0,0,0,2700,2200,1,0,0,0,515,0,0,0,0,0.0000000,0.0000000,0.0000000,0.0000000,9.00,38.4061966,-110.7922211,1364.5999756,0.0,272.0,0.9,0.0,0.0,862,127,0,0,860.60,11.66,26.25,# data time:6510,pm2.5:6.445,pm10:5.704,O2:0.000,NO2:0.000,SO2:0.000,NH3:7.799
14:07:57,0,0,0,0,0,2700,2200,1,0,0,0,514,0,0,0,0,0.0000000,0.0000000,0.0000000,0.0000000,9.00,38.4061966,-110.7922211,1364.5999756,0.0,343.6,0.9,0.0,0.0,862,127,0,0,860.61,11.66,26.25,# data time:6510,pm2.5:6.445,pm10:5.704,O2:0.000,NO2:0.000,SO2:0.000,NH3:7.799
14:07:58,0,0,0,0,0,2700,2200,1,0,0,0,514,0,0,0,0,0.0000000,0.0000000,0.0000000,0.0000000,9.00,38.4061966,-110.7922211,1364.5999756,0.0,15.0,0.9,0.0,0.0,862,129,0,0,860.61,11.66,26.26,# data time:6520,pm2.5:6.445,pm10:5.704,O2:0.000,NO2:0.000,SO2:0.000,NH3:7.572
14:07:59,0,0,0,0,0,2700,2200,1,0,0,0,515,0,0,0,0,0.0000000,0.0000000,0.0000000,0.0000000,9.00,38.4061966,-110.7922211,1364.5999756,0.0,16.0,0.9,0.0,0.0,862,128,0,0,860.61,11.64,26.25,# data time:6520,pm2.5:6.445,pm10:5.704,O2:0.000,NO2:0.000,SO2:0.000,NH3:7.572
14:08:00,0,0,0,0,0,2700,2200,1,0,0,0,514,0,0,0,0,0.0000000,0.0000000,0.0000000,0.0000000,9.00,38.4061966,-110.7922211,1364.5999756,0.0,284.7,0.9,0.0,0.0,863,132,0,0,860.65,11.60,26.26,# data time:6520,pm2.5:6.445,pm10:5.704,O2:0.000,NO2:0.000,SO2:0.000,NH3:7.572
14:08:01,0,0,0,0,0,2700,2200,1,0,0,0,514,0,0,0,0,0.0000000,0.0000000,0.0000000,0.0000000,9.00,38.4061966,-110.7922211,1364.6999512,0.0,291.9,0.9,0.0,0.0,862,129,0,0,860.65,11.61,26.26,# data time:6520,pm2.5:6.445,pm10:5.704,O2:0.000,NO2:0.000,SO2:0.000,NH3:7.572
14:08:02,0,0,0,0,0,2700,2200,1,0,0,0,514,0,0,0,0,0.0000000,0.0000000,0.0000000,0.0000000,9.00,38.4061966,-110.7922211,1364.6999512,0.1,297.9,0.9,0.0,0.0,862,128,0,0,860.66,11.63,26.26,# data time:6520,pm2.5:6.445,pm10:5.704,O2:0.000,NO2:0.000,SO2:0.000,NH3:7.572
14:08:03,0,0,0,0,0,2700,2200,1,0,0,0,514,0,0,0,0,0.0000000,0.0000000,0.0000000,0.0000000,9.00,38.4061966,-110.7922211,1364.6999512,0.0,351.1,0.9,0.0,0.0,862,128,0,0,860.64,11.61,26.25,# data time:6520,pm2.5:6.445,pm10:5.704,O2:0.000,NO2:0.000,SO2:0.000,NH3:7.572
14:08:05,0,0,0,0,0,2700,2200,1,0,0,0,515,0,0,0,0,0.0000000,0.0000000,0.0000000,0.0000000,9.00,38.4061966,-110.7922211,1364.6999512,0.0,282.5,0.9,0.0,0.0,863,127,0,0,860.68,11.64,26.25,# data time:6520,pm2.5:6.445,pm10:5.704,O2:0.000,NO2:0.000,SO2:0.000,NH3:7.572
14:08:06,0,0,0,0,0,2700,2200,1,0,0,0,514,0,0,0,0,0.0000000,0.0000000,0.0000000,0.0000000,9.00,38.4061966,-110.7922211,1364.6999512,0.0,317.6,0.9,0.0,0.0,862,130,0,0,860.64,11.64,26.25,# data time:6520,pm2.5:6.445,pm10:5.704,O2:0.000,NO2:0.000,SO2:0.000,NH3:7.572
14:08:07,0,0,0,0,0,2700,2200,1,0,0,0,513,0,0,0,0,0.0000000,0.0000000,0.0000000,0.0000000,9.00,38.4061966,-110.7922211,1364.6999512,0.0,337.3,0.9,0.0,0.0,862,131,0,0,860.66,11.69,26.25,# data time:6520,pm2.5:6.445,pm10:5.704,O2:0.000,NO2:0.000,SO2:0.000,NH3:7.572
14:08:08,0,0,0,0,0,2700,2200,1,0,0,0,514,0,0,0,0,0.0000000,0.0000000,0.0000000,0.0000000,9.00,38.4061966,-110.7922211,1364.6999512,0.0,296.0,0.9,0.0,0.0,863,129,0,0,860.63,11.67,26.16,# data time:6530,pm2.5:6.445,pm10:5.704,O2:0.000,NO2:0.028,SO2:0.000,NH3:7.799
14:08:09,0,0,0,0,0,2700,2200,1,0,0,0,514,0,0,0,0,0.0000000,0.0000000,0.0000000,0.0000000,9.00,38.4061966,-110.7922211,1364.6999512,0.0,296.0,0.9,0.0,0.0,862,127,0,0,860.65,11.63,26.20,# data time:6530,pm2.5:6.445,pm10:5.704,O2:0.000,NO2:0.028,SO2:0.000,NH3:7.799
14:08:10,0,0,0,0,0,2700,2200,1,0,0,0,515,0,0,0,0,0.0000000,0.0000000,0.0000000,0.0000000,9.00,38.4061966,-110.7922211,1364.6999512,0.0,331.5,0.9,0.0,0.0,863,130,0,0,860.65,11.66,26.25,# data time:6530,pm2.5:6.445,pm10:5.704,O2:0.000,NO2:0.028,SO2:0.000,NH3:7.799
14:08:11,0,0,0,0,0,2700,2200,1,0,0,0,514,0,0,0,0,0.0000000,0.0000000,0.0000000,0.0000000,9.00,38.4061966,-110.7922211,1364.6999512,0.0,321.7,0.9,0.0,0.0,863,126,0,0,860.64,11.66,26.25,# data time:6530,pm2.5:6.445,pm10:5.704,O2:0.000,NO2:0.028,SO2:0.000,NH3:7.799
14:08:12,0,0,0,0,0,2700,2200,1,0,0,0,514,0,0,0,0,0.0000000,0.0000000,0.0000000,0.0000000,9.00,38.4061966,-110.7922211,1364.6999512,0.0,350.4,0.9,0.0,0.0,862,129,0,0,860.62,11.66,26.26,# data time:6530,pm2.5:6.445,pm10:5.704,O2:0.000,NO2:0.028,SO2:0.000,NH3:7.799
14:08:13,0,0,0,0,0,2700,2200,1,0,0,0,514,0,0,0,0,0.0000000,0.0000000,0.0000000,0.0000000,9.00,38.4061966,-110.7922211,1364.6999512,0.0,352.2,0.9,0.0,0.0,863,127,0,0,860.66,11.66,26.26,# data time:6530,pm2.5:6.445,pm10:5.704,O2:0.000,NO2:0.028,SO2:0.000,NH3:7.799
14:08:14,0,0,0,0,0,2700,2200,1,0,0,0,513,0,0,0,0,0.0000000,0.0000000,0.0000000,0.0000000,9.00,38.4061966,-110.7922211,1364.6999512,0.1,314.8,0.9,0.0,0.0,862,132,0,0,860.61,11.63,26.26,# data time:6530,pm2.5:6.445,pm10:5.704,O2:0.000,NO2:0.028,SO2:0.000,NH3:7.799
14:08:15,0,0,0,0,0,2700,2200,1,0,0,0,515,0,0,0,0,0.0000000,0.0000000,0.0000000,0.0000000,9.00,38.4061966,-110.7922211,1364.6999512,0.0,316.5,0.9,0.0,0.0,863,132,0,0,860.63,11.64,26.27,# data time:6530,pm2.5:6.445,pm10:5.704,O2:0.000,NO2:0.028,SO2:0.000,NH3:7.799
14:08:16,0,0,0,0,0,2700,2200,1,0,0,0,514,0,0,0,0,0.0000000,0.0000000,0.0000000,0.0000000,9.00,38.4061966,-110.7922211,1364.5999756,0.0,311.4,0.9,0.0,0.0,863,131,0,0,860.60,11.67,26.27,# data time:6530,pm2.5:6.445,pm10:5.704,O2:0.000,NO2:0.028,SO2:0.000,NH3:7.799
14:08:17,0,0,0,0,0,2700,2200,1,0,0,0,514,0,0,0,0,0.0000000,0.0000000,0.0000000,0.0000000,9.00,38.4061966,-110.7922211,1364.5999756,0.0,303.9,0.9,0.0,0.0,862,131,0,0,860.59,11.66,26.27,# data time:6530,pm2.5:6.445,pm10:5.704,O2:0.000,NO2:0.028,SO2:0.000,NH3:7.799
