Time, Motor A Speed, Motor A Dir, Motor B Speed, Motor B Dir, Servo Rail Current Sensor, Servo Pos - Arm L, Servo Pos - Arm R, Servo Pos - End, Servo Pos - Hopper, Servo Pos - Lid, Servo Pos - Extra, Servo Current, LED - Front L, LED - Front R, LED - Back L, LED - Back R, IMU Pitch, IMU Roll, IMU Yaw, Compass Heading, GPS Sats, GPS Latitude, GPS Longitude, GPS Altitude, GPS Speed, GPS Angle, GPS HDOP, GPS VDOP, GPS PDOP, Battery, Wind, Comm Xbee Latency, Comm Arduino Latency, Pressure, Humidity, Temperature, uRADMonitor
13:34:23,0,0,0,0,0,2700,2200,1,0,0,0,515,0,0,0,0,0.0000000,0.0000000,0.0000000,0.0000000,10.00,38.4062386,-110.7920609,1375.0999756,0.0,326.5,0.8,0.0,0.0,869,156,0,0,860.14,19.90,32.27,# data time:4500,pm2.5:6.445,pm10:5.704,O2:0.000,NO2:0.046,SO2:0.000,NH3:5.536
13:34:24,0,0,0,0,0,2700,2200,1,0,0,0,515,0,0,0,0,0.0000000,0.0000000,0.0000000,0.0000000,10.00,38.4062386,-110.7920609,1375.0999756,0.0,258.5,0.8,0.0,0.0,869,150,0,0,860.07,10.42,32.22,# data time:4500,pm2.5:6.445,pm10:5.704,O2:0.000,NO2:0.046,SO2:0.000,NH3:5.536
13:34:25,0,0,0,0,0,2700,2200,1,0,0,0,514,0,0,0,0,0.0000000,0.0000000,0.0000000,0.0000000,10.00,38.4062386,-110.7920609,1375.0999756,0.1,276.2,0.8,0.0,0.0,870,153,0,0,860.08,9.26,31.87,# data time:4500,pm2.5:6.445,pm10:5.704,O2:0.000,NO2:0.046,SO2:0.000,NH3:5.536
13:34:26,0,0,0,0,0,2700,2200,1,0,0,0,515,0,0,0,0,0.0000000,0.0000000,0.0000000,0.0000000,10.00,38.4062386,-110.7920609,1375.0000000,0.1,273.8,0.8,0.0,0.0,870,157,0,0,860.09,9.17,31.60,# data time:4500,pm2.5:6.445,pm10:5.704,O2:0.000,NO2:0.046,SO2:0.000,NH3:5.536
13:34:27,0,0,0,0,0,2700,2200,1,0,0,0,515,0,0,0,0,0.0000000,0.0000000,0.0000000,0.0000000,10.00,38.4062386,-110.7920609,1375.0000000,0.0,290.6,0.8,0.0,0.0,869,159,0,0,860.10,8.73,31.23,# data time:4500,pm2.5:6.445,pm10:5.704,O2:0.000,NO2:0.046,SO2:0.000,NH3:5.536
13:34:28,0,0,0,0,0,2700,2200,1,0,0,0,514,0,0,0,0,0.0000000,0.0000000,0.0000000,0.0000000,10.00,38.4062386,-110.7920609,1375.0000000,0.0,260.6,0.8,0.0,0.0,869,157,0,0,859.97,9.19,30.77,# data time:4500,pm2.5:6.445,pm10:5.704,O2:0.000,NO2:0.046,SO2:0.000,NH3:5.536
13:34:29,0,0,0,0,0,2700,2200,1,0,0,0,515,0,0,0,0,0.0000000,0.0000000,0.0000000,0.0000000,10.00,38.4062386,-110.7920609,1375.0000000,0.0,271.7,0.8,0.0,0.0,869,157,0,0,859.84,9.95,30.30,# data time:4510,pm2.5:6.445,pm10:5.704,O2:0.000,NO2:0.046,SO2:0.000,NH3:5.762
13:34:30,0,0,0,0,0,2700,2200,1,0,0,0,514,0,0,0,0,0.0000000,0.0000000,0.0000000,0.0000000,10.00,38.4062386,-110.7920609,1375.0000000,0.0,298.5,0.8,0.0,0.0,869,156,0,0,860.11,21.48,30.06,# data time:4510,pm2.5:6.445,pm10:5.704,O2:0.000,NO2:0.046,SO2:0.000,NH3:5.762
13:34:31,0,0,0,0,0,2700,2200,1,0,0,0,515,0,0,0,0,0.0000000,0.0000000,0.0000000,0.0000000,10.00,38.4062386,-110.7920609,1375.0000000,0.0,257.5,0.8,0.0,0.0,869,152,0,0,859.87,29.59,30.06,# data time:4510,pm2.5:6.445,pm10:5.704,O2:0.000,NO2:0.046,SO2:0.000,NH3:5.762
13:34:32,0,0,0,0,0,2700,2200,1,0,0,0,514,0,0,0,0,0.0000000,0.0000000,0.0000000,0.0000000,9.00,38.4062386,-110.7920609,1375.0000000,0.0,259.1,0.9,0.0,0.0,869,152,0,0,861.67,35.08,30.15,# data time:4510,pm2.5:6.445,pm10:5.704,O2:0.000,NO2:0.046,SO2:0.000,NH3:5.762
13:34:33,0,0,0,0,0,2700,2200,1,0,0,0,514,0,0,0,0,0.0000000,0.0000000,0.0000000,0.0000000,10.00,38.4062386,-110.7920609,1375.0000000,0.0,188.1,0.8,0.0,0.0,869,149,0,0,860.53,11.98,30.23,# data time:4510,pm2.5:6.445,pm10:5.704,O2:0.000,NO2:0.046,SO2:0.000,NH3:5.762
13:34:34,0,0,0,0,0,2700,2200,1,0,0,0,515,0,0,0,0,0.0000000,0.0000000,0.0000000,0.0000000,9.00,38.4062386,-110.7920609,1375.0000000,0.2,159.4,0.9,0.0,0.0,869,152,0,0,860.87,41.23,29.98,# data time:4510,pm2.5:6.445,pm10:5.704,O2:0.000,NO2:0.046,SO2:0.000,NH3:5.762
13:34:36,0,0,0,0,0,2700,2200,1,0,0,0,514,0,0,0,0,0.0000000,0.0000000,0.0000000,0.0000000,9.00,38.4062386,-110.7920609,1375.0000000,0.2,159.6,0.9,0.0,0.0,869,156,0,0,860.83,41.03,29.95,# data time:4510,pm2.5:6.445,pm10:5.704,O2:0.000,NO2:0.046,SO2:0.000,NH3:5.762
13:34:37,0,0,0,0,0,2700,2200,1,0,0,0,514,0,0,0,0,0.0000000,0.0000000,0.0000000,0.0000000,9.00,38.4062386,-110.7920609,1375.0000000,0.0,190.3,0.9,0.0,0.0,869,157,0,0,860.65,40.73,29.94,# data time:4510,pm2.5:6.445,pm10:5.704,O2:0.000,NO2:0.046,SO2:0.000,NH3:5.762
13:34:38,0,0,0,0,0,2700,2200,1,0,0,0,514,0,0,0,0,0.0000000,0.0000000,0.0000000,0.0000000,9.00,38.4062386,-110.7920609,1375.0000000,0.0,267.9,0.9,0.0,0.0,869,155,0,0,860.72,40.36,30.03,# data time:4510,pm2.5:6.445,pm10:5.704,O2:0.000,NO2:0.046,SO2:0.000,NH3:5.762
13:34:39,0,0,0,0,0,2700,2200,1,0,0,0,514,0,0,0,0,0.0000000,0.0000000,0.0000000,0.0000000,9.00,38.4062386,-110.7920609,1375.0000000,0.0,1.8,0.9,0.0,0.0,869,153,0,0,860.65,40.22,30.07,# data time:4520,pm2.5:6.445,pm10:5.704,O2:0.000,NO2:0.063,SO2:0.000,NH3:5.762
13:34:40,0,0,0,0,0,2700,2200,1,0,0,0,515,0,0,0,0,0.0000000,0.0000000,0.0000000,0.0000000,9.00,38.4062386,-110.7920609,1375.0000000,0.0,258.3,0.9,0.0,0.0,869,148,0,0,860.76,40.48,30.00,# data time:4520,pm2.5:6.445,pm10:5.704,O2:0.000,NO2:0.063,SO2:0.000,NH3:5.762
13:34:41,0,0,0,0,0,2700,2200,1,0,0,0,515,0,0,0,0,0.0000000,0.0000000,0.0000000,0.0000000,9.00,38.4062386,-110.7920609,1375.0000000,0.1,243.8,0.9,0.0,0.0,869,163,0,0,860.65,40.28,29.74,# data time:4520,pm2.5:6.445,pm10:5.704,O2:0.000,NO2:0.063,SO2:0.000,NH3:5.762
13:34:42,0,0,0,0,0,2700,2200,1,0,0,0,514,0,0,0,0,0.0000000,0.0000000,0.0000000,0.0000000,9.00,38.4062386,-110.7920609,1375.0000000,0.1,243.8,0.9,0.0,0.0,870,161,0,0,860.69,39.95,29.80,# data time:4520,pm2.5:6.445,pm10:5.704,O2:0.000,NO2:0.063,SO2:0.000,NH3:5.762
13:34:43,0,0,0,0,0,2700,2200,1,0,0,0,515,0,0,0,0,0.0000000,0.0000000,0.0000000,0.0000000,8.00,38.4062386,-110.7920609,1375.0000000,0.1,249.6,1.4,0.0,0.0,870,157,0,0,860.68,39.25,29.84,# data time:4520,pm2.5:6.445,pm10:5.704,O2:0.000,NO2:0.063,SO2:0.000,NH3:5.762
13:34:44,0,0,0,0,0,2700,2200,1,0,0,0,514,0,0,0,0,0.0000000,0.0000000,0.0000000,0.0000000,10.00,38.4062386,-110.7920609,1375.0000000,0.1,272.5,0.8,0.0,0.0,869,155,0,0,861.16,37.74,29.90,# data time:4520,pm2.5:6.445,pm10:5.704,O2:0.000,NO2:0.063,SO2:0.000,NH3:5.762
13:34:45,0,0,0,0,0,2700,2200,1,0,0,0,515,0,0,0,0,0.0000000,0.0000000,0.0000000,0.0000000,10.00,38.4062386,-110.7920609,1375.0000000,0.2,291.9,0.8,0.0,0.0,870,150,0,0,860.31,14.47,30.02,# data time:4520,pm2.5:6.445,pm10:5.704,O2:0.000,NO2:0.063,SO2:0.000,NH3:5.762
13:34:46,0,0,0,0,0,2700,2200,1,0,0,0,515,0,0,0,0,0.0000000,0.0000000,0.0000000,0.0000000,10.00,38.4062386,-110.7920609,1375.0000000,0.3,289.7,0.8,0.0,0.0,870,149,0,0,861.14,8.30,29.91,# data time:4520,pm2.5:6.445,pm10:5.704,O2:0.000,NO2:0.063,SO2:0.000,NH3:5.762
13:34:47,0,0,0,0,0,2700,2200,1,0,0,0,514,0,0,0,0,0.0000000,0.0000000,0.0000000,0.0000000,10.00,38.4062386,-110.7920609,1375.0999756,0.3,290.9,0.8,0.0,0.0,868,149,0,0,860.78,8.27,29.74,# data time:4520,pm2.5:6.445,pm10:5.704,O2:0.000,NO2:0.063,SO2:0.000,NH3:5.762
13:34:48,0,0,0,0,0,2700,2200,1,0,0,0,514,0,0,0,0,0.0000000,0.0000000,0.0000000,0.0000000,10.00,38.4062386,-110.7920609,1375.0999756,0.3,294.2,0.8,0.0,0.0,869,150,0,0,860.92,8.85,29.63,# data time:4520,pm2.5:6.445,pm10:5.704,O2:0.000,NO2:0.063,SO2:0.000,NH3:5.762
13:34:49,0,0,0,0,0,2700,2200,1,0,0,0,514,0,0,0,0,0.0000000,0.0000000,0.0000000,0.0000000,10.00,38.4062386,-110.7920609,1375.0999756,0.3,293.9,0.8,0.0,0.0,869,144,0,0,860.84,8.90,29.59,# data time:4530,pm2.5:6.445,pm10:5.704,O2:0.000,NO2:0.046,SO2:0.000,NH3:5.988
13:34:50,0,0,0,0,0,2700,2200,1,0,0,0,515,0,0,0,0,0.0000000,0.0000000,0.0000000,0.0000000,10.00,38.4062386,-110.7920761,1375.0999756,0.3,289.9,0.8,0.0,0.0,870,143,0,0,860.89,8.94,29.59,# data time:4530,pm2.5:6.445,pm10:5.704,O2:0.000,NO2:0.046,SO2:0.000,NH3:5.988
13:34:51,0,0,0,0,0,2700,2200,1,0,0,0,515,0,0,0,0,0.0000000,0.0000000,0.0000000,0.0000000,10.00,38.4062386,-110.7920761,1375.0999756,0.2,291.1,0.8,0.0,0.0,869,140,0,0,860.90,8.94,29.60,# data time:4530,pm2.5:6.445,pm10:5.704,O2:0.000,NO2:0.046,SO2:0.000,NH3:5.988
13:34:52,0,0,0,0,0,2700,2200,1,0,0,0,514,0,0,0,0,0.0000000,0.0000000,0.0000000,0.0000000,10.00,38.4062386,-110.7920761,1375.0999756,0.2,294.9,0.8,0.0,0.0,869,139,0,0,860.87,8.90,29.61,# data time:4530,pm2.5:6.445,pm10:5.704,O2:0.000,NO2:0.046,SO2:0.000,NH3:5.988
13:34:53,0,0,0,0,0,2700,2200,1,0,0,0,515,0,0,0,0,0.0000000,0.0000000,0.0000000,0.0000000,10.00,38.4062386,-110.7920761,1375.0999756,0.1,293.6,0.8,0.0,0.0,869,141,0,0,860.89,8.85,29.61,# data time:4530,pm2.5:6.445,pm10:5.704,O2:0.000,NO2:0.046,SO2:0.000,NH3:5.988
13:34:54,0,0,0,0,0,2700,2200,1,0,0,0,514,0,0,0,0,0.0000000,0.0000000,0.0000000,0.0000000,10.00,38.4062386,-110.7920761,1375.0999756,0.1,297.8,0.8,0.0,0.0,870,140,0,0,860.91,8.84,29.58,# data time:4530,pm2.5:6.445,pm10:5.704,O2:0.000,NO2:0.046,SO2:0.000,NH3:5.988
13:34:55,0,0,0,0,0,2700,2200,1,0,0,0,514,0,0,0,0,0.0000000,0.0000000,0.0000000,0.0000000,10.00,38.4062386,-110.7920761,1375.0999756,0.1,308.1,0.8,0.0,0.0,869,134,0,0,860.88,8.82,29.57,# data time:4530,pm2.5:6.445,pm10:5.704,O2:0.000,NO2:0.046,SO2:0.000,NH3:5.988
13:34:56,0,0,0,0,0,2700,2200,1,0,0,0,514,0,0,0,0,0.0000000,0.0000000,0.0000000,0.0000000,10.00,38.4062386,-110.7920761,1375.0999756,0.0,343.0,0.8,0.0,0.0,869,136,0,0,860.89,8.79,29.53,# data time:4530,pm2.5:6.445,pm10:5.704,O2:0.000,NO2:0.046,SO2:0.000,NH3:5.988
13:34:57,0,0,0,0,0,2700,2200,1,0,0,0,515,0,0,0,0,0.0000000,0.0000000,0.0000000,0.0000000,10.00,38.4062386,-110.7920761,1375.0999756,0.0,38.5,0.8,0.0,0.0,869,133,0,0,860.89,8.80,29.48,# data time:4530,pm2.5:6.445,pm10:5.704,O2:0.000,NO2:0.046,SO2:0.000,NH3:5.988
13:34:58,0,0,0,0,0,2700,2200,1,0,0,0,514,0,0,0,0,0.0000000,0.0000000,0.0000000,0.0000000,10.00,38.4062386,-110.7920761,1375.0999756,0.0,55.4,0.8,0.0,0.0,869,135,0,0,860.89,8.80,29.46,# data time:4530,pm2.5:6.445,pm10:5.704,O2:0.000,NO2:0.046,SO2:0.000,NH3:5.988
13:34:59,0,0,0,0,0,2700,2200,1,0,0,0,514,0,0,0,0,0.0000000,0.0000000,0.0000000,0.0000000,10.00,38.4062386,-110.7920761,1375.0999756,0.0,159.2,0.8,0.0,0.0,869,135,0,0,860.89,8.82,29.44,# data time:4540,pm2.5:6.445,pm10:5.704,O2:0.000,NO2:0.046,SO2:0.000,NH3:6.894
13:35:00,0,0,0,0,0,2700,2200,1,0,0,0,515,0,0,0,0,0.0000000,0.0000000,0.0000000,0.0000000,10.00,38.4062386,-110.7920761,1375.0999756,0.0,186.0,0.8,0.0,0.0,869,137,0,0,860.93,8.84,29.43,# data time:4540,pm2.5:6.445,pm10:5.704,O2:0.000,NO2:0.046,SO2:0.000,NH3:6.894
13:35:01,0,0,0,0,0,2700,2200,1,0,0,0,514,0,0,0,0,0.0000000,0.0000000,0.0000000,0.0000000,10.00,38.4062386,-110.7920761,1375.0999756,0.1,196.3,0.8,0.0,0.0,869,133,0,0,860.90,8.87,29.40,# data time:4540,pm2.5:6.445,pm10:5.704,O2:0.000,NO2:0.046,SO2:0.000,NH3:6.894
13:35:02,0,0,0,0,0,2700,2200,1,0,0,0,515,0,0,0,0,0.0000000,0.0000000,0.0000000,0.0000000,10.00,38.4062386,-110.7920761,1375.0999756,0.0,172.5,0.8,0.0,0.0,869,138,0,0,860.93,8.90,29.37,# data time:4540,pm2.5:6.445,pm10:5.704,O2:0.000,NO2:0.046,SO2:0.000,NH3:6.894
13:35:04,0,0,0,0,0,2700,2200,1,0,0,0,514,0,0,0,0,0.0000000,0.0000000,0.0000000,0.0000000,10.00,38.4062386,-110.7920761,1375.0999756,0.1,188.4,0.8,0.0,0.0,869,131,0,0,860.96,8.88,29.35,# data time:4540,pm2.5:6.445,pm10:5.704,O2:0.000,NO2:0.046,SO2:0.000,NH3:6.894
13:35:05,0,0,0,0,0,2700,2200,1,0,0,0,514,0,0,0,0,0.0000000,0.0000000,0.0000000,0.0000000,10.00,38.4062386,-110.7920761,1375.0999756,0.1,173.3,0.8,0.0,0.0,870,131,0,0,860.96,8.91,29.31,# data time:4540,pm2.5:6.445,pm10:5.704,O2:0.000,NO2:0.046,SO2:0.000,NH3:6.894
13:35:06,0,0,0,0,0,2700,2200,1,0,0,0,514,0,0,0,0,0.0000000,0.0000000,0.0000000,0.0000000,10.00,38.4062386,-110.7920761,1375.0999756,0.1,165.9,0.8,0.0,0.0,869,134,0,0,860.96,8.93,29.29,# data time:4540,pm2.5:6.445,pm10:5.704,O2:0.000,NO2:0.046,SO2:0.000,NH3:6.894
13:35:07,0,0,0,0,0,2700,2200,1,0,0,0,513,0,0,0,0,0.0000000,0.0000000,0.0000000,0.0000000,10.00,38.4062386,-110.7920761,1375.0999756,0.1,170.8,0.8,0.0,0.0,869,134,0,0,860.92,8.90,29.27,# data time:4540,pm2.5:6.445,pm10:5.704,O2:0.000,NO2:0.046,SO2:0.000,NH3:6.894
13:35:08,0,0,0,0,0,2700,2200,1,0,0,0,514,0,0,0,0,0.0000000,0.0000000,0.0000000,0.0000000,10.00,38.4062386,-110.7920761,1375.0999756,0.1,147.3,0.8,0.0,0.0,869,131,0,0,860.86,8.93,29.15,# data time:4540,pm2.5:6.445,pm10:5.704,O2:0.000,NO2:0.046,SO2:0.000,NH3:6.894
13:35:09,0,0,0,0,0,2700,2200,1,0,0,0,514,0,0,0,0,0.0000000,0.0000000,0.0000000,0.0000000,10.00,38.4062386,-110.7920761,1375.0999756,0.1,131.2,0.8,0.0,0.0,869,134,0,0,860.92,8.93,29.12,# data time:4550,pm2.5:6.445,pm10:5.704,O2:0.000,NO2:0.081,SO2:0.000,NH3:7.572
13:35:10,0,0,0,0,0,2700,2200,1,0,0,0,514,0,0,0,0,0.0000000,0.0000000,0.0000000,0.0000000,10.00,38.4062386,-110.7920761,1375.1999512,0.1,131.2,0.8,0.0,0.0,869,133,0,0,860.94,9.02,29.07,# data time:4550,pm2.5:6.445,pm10:5.704,O2:0.000,NO2:0.081,SO2:0.000,NH3:7.572
13:35:11,0,0,0,0,0,2700,2200,1,0,0,0,515,0,0,0,0,0.0000000,0.0000000,0.0000000,0.0000000,10.00,38.4062347,-110.7920761,1375.1999512,0.1,131.8,0.8,0.0,0.0,869,128,0,0,860.92,9.03,29.06,# data time:4550,pm2.5:6.445,pm10:5.704,O2:0.000,NO2:0.081,SO2:0.000,NH3:7.572
13:35:12,0,0,0,0,0,2700,2200,1,0,0,0,514,0,0,0,0,0.0000000,0.0000000,0.0000000,0.0000000,10.00,38.4062347,-110.7920761,1375.1999512,0.1,130.4,0.8,0.0,0.0,869,129,0,0,860.91,9.06,29.07,# data time:4550,pm2.5:6.445,pm10:5.704,O2:0.000,NO2:0.081,SO2:0.000,NH3:7.572
13:35:13,0,0,0,0,0,2700,2200,1,0,0,0,514,0,0,0,0,0.0000000,0.0000000,0.0000000,0.0000000,10.00,38.4062347,-110.7920761,1375.1999512,0.1,135.6,0.8,0.0,0.0,869,131,0,0,860.90,9.08,29.04,# data time:4550,pm2.5:6.445,pm10:5.704,O2:0.000,NO2:0.081,SO2:0.000,NH3:7.572
13:35:14,0,0,0,0,0,2700,2200,1,0,0,0,514,0,0,0,0,0.0000000,0.0000000,0.0000000,0.0000000,10.00,38.4062347,-110.7920761,1375.1999512,0.0,273.6,0.8,0.0,0.0,869,131,0,0,860.89,9.11,29.02,# data time:4550,pm2.5:6.445,pm10:5.704,O2:0.000,NO2:0.081,SO2:0.000,NH3:7.572
13:35:15,0,0,0,0,0,2700,2200,1,0,0,0,514,0,0,0,0,0.0000000,0.0000000,0.0000000,0.0000000,10.00,38.4062347,-110.7920761,1375.1999512,0.0,121.8,0.8,0.0,0.0,869,130,0,0,860.93,9.14,29.00,# data time:4550,pm2.5:6.445,pm10:5.704,O2:0.000,NO2:0.081,SO2:0.000,NH3:7.572
13:35:16,0,0,0,0,0,2700,2200,1,0,0,0,514,0,0,0,0,0.0000000,0.0000000,0.0000000,0.0000000,10.00,38.4062347,-110.7920761,1375.1999512,0.0,151.3,0.8,0.0,0.0,868,127,0,0,860.95,9.14,28.95,# data time:4550,pm2.5:6.445,pm10:5.704,O2:0.000,NO2:0.081,SO2:0.000,NH3:7.572
13:35:17,0,0,0,0,0,2700,2200,1,0,0,0,515,0,0,0,0,0.0000000,0.0000000,0.0000000,0.0000000,10.00,38.4062347,-110.7920761,1375.1999512,0.0,137.3,0.8,0.0,0.0,869,129,0,0,860.89,9.17,28.92,# data time:4550,pm2.5:6.445,pm10:5.704,O2:0.000,NO2:0.081,SO2:0.000,NH3:7.572
13:35:18,0,0,0,0,0,2700,2200,1,0,0,0,515,0,0,0,0,0.0000000,0.0000000,0.0000000,0.0000000,10.00,38.4062347,-110.7920761,1375.1999512,0.0,105.8,0.8,0.0,0.0,869,128,0,0,860.94,9.17,28.90,# data time:4550,pm2.5:6.445,pm10:5.704,O2:0.000,NO2:0.081,SO2:0.000,NH3:7.572
13:35:19,0,0,0,0,0,2700,2200,1,0,0,0,514,0,0,0,0,0.0000000,0.0000000,0.0000000,0.0000000,10.00,38.4062347,-110.7920761,1375.1999512,0.0,113.9,0.8,0.0,0.0,869,129,0,0,860.93,9.22,28.86,# data time:4560,pm2.5:6.445,pm10:5.704,O2:0.000,NO2:0.046,SO2:0.000,NH3:8.025
13:35:20,0,0,0,0,0,2700,2200,1,0,0,0,515,0,0,0,0,0.0000000,0.0000000,0.0000000,0.0000000,10.00,38.4062347,-110.7920761,1375.1999512,0.0,150.5,0.8,0.0,0.0,869,129,0,0,860.87,9.25,28.83,# data time:4560,pm2.5:6.445,pm10:5.704,O2:0.000,NO2:0.046,SO2:0.000,NH3:8.025
13:35:21,0,0,0,0,0,2700,2200,1,0,0,0,514,0,0,0,0,0.0000000,0.0000000,0.0000000,0.0000000,10.00,38.4062347,-110.7920761,1375.1999512,0.0,182.4,0.8,0.0,0.0,869,130,0,0,860.89,9.26,28.81,# data time:4560,pm2.5:6.445,pm10:5.704,O2:0.000,NO2:0.046,SO2:0.000,NH3:8.025
13:35:22,0,0,0,0,0,2700,2200,1,0,0,0,514,0,0,0,0,0.0000000,0.0000000,0.0000000,0.0000000,10.00,38.4062347,-110.7920761,1375.1999512,0.0,147.3,0.8,0.0,0.0,869,127,0,0,860.94,9.29,28.79,# data time:4560,pm2.5:6.445,pm10:5.704,O2:0.000,NO2:0.046,SO2:0.000,NH3:8.025
13:35:23,0,0,0,0,0,2700,2200,1,0,0,0,514,0,0,0,0,0.0000000,0.0000000,0.0000000,0.0000000,10.00,38.4062347,-110.7920761,1375.1999512,0.0,148.6,0.8,0.0,0.0,869,131,0,0,860.95,9.29,28.77,# data time:4560,pm2.5:6.445,pm10:5.704,O2:0.000,NO2:0.046,SO2:0.000,NH3:8.025
13:35:24,0,0,0,0,0,2700,2200,1,0,0,0,514,0,0,0,0,0.0000000,0.0000000,0.0000000,0.0000000,10.00,38.4062347,-110.7920761,1375.1999512,0.0,158.9,0.8,0.0,0.0,869,126,0,0,860.89,9.37,28.74,# data time:4560,pm2.5:6.445,pm10:5.704,O2:0.000,NO2:0.046,SO2:0.000,NH3:8.025
13:35:25,0,0,0,0,0,2700,2200,1,0,0,0,514,0,0,0,0,0.0000000,0.0000000,0.0000000,0.0000000,10.00,38.4062347,-110.7920761,1375.1999512,0.0,4.7,0.8,0.0,0.0,869,132,0,0,860.87,9.46,28.69,# data time:4560,pm2.5:6.445,pm10:5.704,O2:0.000,NO2:0.046,SO2:0.000,NH3:8.025
13:35:26,0,0,0,0,0,2700,2200,1,0,0,0,514,0,0,0,0,0.0000000,0.0000000,0.0000000,0.0000000,10.00,38.4062347,-110.7920761,1375.1999512,0.0,351.1,0.8,0.0,0.0,869,133,0,0,860.91,9.43,28.68,# data time:4560,pm2.5:6.445,pm10:5.704,O2:0.000,NO2:0.046,SO2:0.000,NH3:8.025
13:35:27,0,0,0,0,0,2700,2200,1,0,0,0,514,0,0,0,0,0.0000000,0.0000000,0.0000000,0.0000000,10.00,38.4062347,-110.7920761,1375.1999512,0.0,0.8,0.8,0.0,0.0,869,136,0,0,860.91,9.43,28.65,# data time:4560,pm2.5:6.445,pm10:5.704,O2:0.000,NO2:0.046,SO2:0.000,NH3:8.025
13:35:28,0,0,0,0,0,2700,2200,1,0,0,0,514,0,0,0,0,0.0000000,0.0000000,0.0000000,0.0000000,10.00,38.4062347,-110.7920761,1375.1999512,0.0,157.1,0.8,0.0,0.0,869,131,0,0,860.95,9.48,28.61,# data time:4560,pm2.5:6.445,pm10:5.704,O2:0.000,NO2:0.046,SO2:0.000,NH3:8.025
13:35:29,0,0,0,0,0,2700,2200,1,0,0,0,514,0,0,0,0,0.0000000,0.0000000,0.0000000,0.0000000,10.00,38.4062347,-110.7920761,1375.1999512,0.0,28.0,0.8,0.0,0.0,869,131,0,0,860.99,9.52,28.58,# data time:4570,pm2.5:6.445,pm10:5.704,O2:0.000,NO2:0.063,SO2:00,NH3:8.478
13:35:30,0,0,0,0,0,2700,2200,1,0,0,0,514,0,0,0,0,0.0000000,0.0000000,0.0000000,0.0000000,10.00,38.4062347,-110.7920761,1375.1999512,0.0,88.4,0.8,0.0,0.0,869,133,0,0,861.00,9.52,28.47,# data time:4570,pm2.5:6.445,pm10:5.704,O2:0.000,NO2:0.063,SO2:00,NH3:8.478
13:35:32,0,0,0,0,0,2700,2200,1,0,0,0,514,0,0,0,0,0.0000000,0.0000000,0.0000000,0.0000000,10.00,38.4062347,-110.7920761,1375.1999512,0.0,27.0,0.8,0.0,0.0,869,132,0,0,860.96,9.54,28.35,# data time:4570,pm2.5:6.445,pm10:5.704,O2:0.000,NO2:0.063,SO2:00,NH3:8.478
13:35:33,0,0,0,0,0,2700,2200,1,0,0,0,514,0,0,0,0,0.0000000,0.0000000,0.0000000,0.0000000,10.00,38.4062347,-110.7920761,1375.1999512,0.0,155.2,0.8,0.0,0.0,869,128,0,0,860.87,9.60,28.23,# data time:4570,pm2.5:6.445,pm10:5.704,O2:0.000,NO2:0.063,SO2:00,NH3:8.478
13:35:34,0,0,0,0,0,2700,2200,1,0,0,0,514,0,0,0,0,0.0000000,0.0000000,0.0000000,0.0000000,10.00,38.4062347,-110.7920761,1375.1999512,0.0,216.6,0.8,0.0,0.0,869,129,0,0,860.92,9.66,28.20,# data time:4570,pm2.5:6.445,pm10:5.704,O2:0.000,NO2:0.063,SO2:00,NH3:8.478
13:35:35,0,0,0,0,0,2700,2200,1,0,0,0,514,0,0,0,0,0.0000000,0.0000000,0.0000000,0.0000000,10.00,38.4062347,-110.7920761,1375.1999512,0.0,253.4,0.8,0.0,0.0,869,127,0,0,860.90,9.63,28.21,# data time:4570,pm2.5:6.445,pm10:5.704,O2:0.000,NO2:0.063,SO2:00,NH3:8.478
13:35:36,0,0,0,0,0,2700,2200,1,0,0,0,514,0,0,0,0,0.0000000,0.0000000,0.0000000,0.0000000,10.00,38.4062347,-110.7920761,1375.1999512,0.0,173.2,0.8,0.0,0.0,869,128,0,0,860.84,9.66,28.08,# data time:4570,pm2.5:6.445,pm10:5.704,O2:0.000,NO2:0.063,SO2:00,NH3:8.478
13:35:37,0,0,0,0,0,2700,2200,1,0,0,0,514,0,0,0,0,0.0000000,0.0000000,0.0000000,0.0000000,10.00,38.4062347,-110.7920761,1375.1999512,0.0,26.3,0.8,0.0,0.0,869,130,0,0,860.80,9.67,28.05,# data time:4570,pm2.5:6.445,pm10:5.704,O2:0.000,NO2:0.063,SO2:00,NH3:8.478
13:35:38,0,0,0,0,0,2700,2200,1,0,0,0,514,0,0,0,0,0.0000000,0.0000000,0.0000000,0.0000000,10.00,38.4062347,-110.7920761,1375.1999512,0.0,26.3,0.8,0.0,0.0,869,128,0,0,860.83,9.72,28.08,# data time:4570,pm2.5:6.445,pm10:5.704,O2:0.000,NO2:0.063,SO2:00,NH3:8.478
13:35:39,0,0,0,0,0,2700,2200,1,0,0,0,514,0,0,0,0,0.0000000,0.0000000,0.0000000,0.0000000,10.00,38.4062347,-110.7920761,1375.1999512,0.0,26.3,0.8,0.0,0.0,869,128,0,0,860.87,9.72,28.02,# data time:4580,pm2.5:6.445,pm10:5.704,O2:0.000,NO2:0.046,SO2:0.000,NH3:8.930
13:35:40,0,0,0,0,0,2700,2200,1,0,0,0,514,0,0,0,0,0.0000000,0.0000000,0.0000000,0.0000000,10.00,38.4062347,-110.7920761,1375.1999512,0.0,120.8,0.8,0.0,0.0,869,127,0,0,860.89,9.72,28.11,# data time:4580,pm2.5:6.445,pm10:5.704,O2:0.000,NO2:0.046,SO2:0.000,NH3:8.930
13:35:41,0,0,0,0,0,2700,2200,1,0,0,0,514,0,0,0,0,0.0000000,0.0000000,0.0000000,0.0000000,10.00,38.4062347,-110.7920761,1375.1999512,0.0,114.8,0.8,0.0,0.0,869,128,0,0,860.84,9.75,28.08,# data time:4580,pm2.5:6.445,pm10:5.704,O2:0.000,NO2:0.046,SO2:0.000,NH3:8.930
13:35:42,0,0,0,0,0,2700,2200,1,0,0,0,514,0,0,0,0,0.0000000,0.0000000,0.0000000,0.0000000,10.00,38.4062347,-110.7920761,1375.1999512,0.0,118.5,0.8,0.0,0.0,869,128,0,0,860.90,9.80,28.06,# data time:4580,pm2.5:6.445,pm10:5.704,O2:0.000,NO2:0.046,SO2:0.000,NH3:8.930
13:35:43,0,0,0,0,0,2700,2200,1,0,0,0,515,0,0,0,0,0.0000000,0.0000000,0.0000000,0.0000000,10.00,38.4062347,-110.7920761,1375.1999512,0.0,123.9,0.8,0.0,0.0,869,132,0,0,860.82,9.84,28.04,# data time:4580,pm2.5:6.445,pm10:5.704,O2:0.000,NO2:0.046,SO2:0.000,NH3:8.930
13:35:44,0,0,0,0,0,2700,2200,1,0,0,0,515,0,0,0,0,0.0000000,0.0000000,0.0000000,0.0000000,10.00,38.4062347,-110.7920761,1375.1999512,0.0,152.2,0.8,0.0,0.0,869,131,0,0,860.82,9.86,28.04,# data time:4580,pm2.5:6.445,pm10:5.704,O2:0.000,NO2:0.046,SO2:0.000,NH3:8.930
13:35:45,0,0,0,0,0,2700,2200,1,0,0,0,514,0,0,0,0,0.0000000,0.0000000,0.0000000,0.0000000,10.00,38.4062347,-110.7920761,1375.1999512,0.0,125.1,0.8,0.0,0.0,869,126,0,0,860.83,9.86,28.02,# data time:4580,pm2.5:6.445,pm10:5.704,O2:0.000,NO2:0.046,SO2:0.000,NH3:8.930
13:35:46,0,0,0,0,0,2700,2200,1,0,0,0,514,0,0,0,0,0.0000000,0.0000000,0.0000000,0.0000000,10.00,38.4062347,-110.7920761,1375.1999512,0.0,170.2,0.8,0.0,0.0,869,129,0,0,860.84,9.87,28.00,# data time:4580,pm2.5:6.445,pm10:5.704,O2:0.000,NO2:0.046,SO2:0.000,NH3:8.930
13:35:47,0,0,0,0,0,2700,2200,1,0,0,0,515,0,0,0,0,0.0000000,0.0000000,0.0000000,0.0000000,10.00,38.4062347,-110.7920761,1375.1999512,0.0,181.3,0.8,0.0,0.0,869,132,0,0,860.89,9.89,27.96,# data time:4580,pm2.5:6.445,pm10:5.704,O2:0.000,NO2:0.046,SO2:0.000,NH3:8.930
13:35:48,0,0,0,0,0,2700,2200,1,0,0,0,514,0,0,0,0,0.0000000,0.0000000,0.0000000,0.0000000,10.00,38.4062347,-110.7920761,1375.1999512,0.0,113.6,0.8,0.0,0.0,869,127,0,0,860.90,9.90,27.93,# data time:4580,pm2.5:6.445,pm10:5.704,O2:0.000,NO2:0.046,SO2:0.000,NH3:8.930
13:35:49,0,0,0,0,0,2700,2200,1,0,0,0,514,0,0,0,0,0.0000000,0.0000000,0.0000000,0.0000000,10.00,38.4062347,-110.7920761,1375.1999512,0.0,183.2,0.8,0.0,0.0,869,131,0,0,860.89,9.93,27.93,# data time:4590,pm2.5:6.445,pm10:5.704,O2:0.000,NO2:0.046,SO2:0.000,NH3:9.157
13:35:50,0,0,0,0,0,2700,2200,1,0,0,0,514,0,0,0,0,0.0000000,0.0000000,0.0000000,0.0000000,10.00,38.4062347,-110.7920761,1375.1999512,0.0,180.1,0.8,0.0,0.0,869,127,0,0,860.85,9.93,27.92,# data time:4590,pm2.5:6.445,pm10:5.704,O2:0.000,NO2:0.046,SO2:0.000,NH3:9.157
13:35:51,0,0,0,0,0,2700,2200,1,0,0,0,514,0,0,0,0,0.0000000,0.0000000,0.0000000,0.0000000,10.00,38.4062347,-110.7920761,1375.1999512,0.0,133.7,0.8,0.0,0.0,869,128,0,0,860.90,9.92,27.91,# data time:4590,pm2.5:6.445,pm10:5.704,O2:0.000,NO2:0.046,SO2:0.000,NH3:9.157
13:35:52,0,0,0,0,0,2700,2200,1,0,0,0,514,0,0,0,0,0.0000000,0.0000000,0.0000000,0.0000000,10.00,38.4062347,-110.7920761,1375.1999512,0.0,167.8,0.8,0.0,0.0,869,127,0,0,860.77,9.92,27.88,# data time:4590,pm2.5:6.445,pm10:5.704,O2:0.000,NO2:0.046,SO2:0.000,NH3:9.157
13:35:53,0,0,0,0,0,2700,2200,1,0,0,0,514,0,0,0,0,0.0000000,0.0000000,0.0000000,0.0000000,10.00,38.4062347,-110.7920761,1375.1999512,0.0,186.1,0.8,0.0,0.0,869,132,0,0,860.81,9.98,27.86,# data time:4590,pm2.5:6.445,pm10:5.704,O2:0.000,NO2:0.046,SO2:0.000,NH3:9.157
13:35:54,0,0,0,0,0,2700,2200,1,0,0,0,514,0,0,0,0,0.0000000,0.0000000,0.0000000,0.0000000,10.00,38.4062347,-110.7920761,1375.1999512,0.0,194.4,0.8,0.0,0.0,869,128,0,0,860.79,9.95,27.84,# data time:4590,pm2.5:6.445,pm10:5.704,O2:0.000,NO2:0.046,SO2:0.000,NH3:9.157
13:35:55,0,0,0,0,0,2700,2200,1,0,0,0,514,0,0,0,0,0.0000000,0.0000000,0.0000000,0.0000000,10.00,38.4062347,-110.7920761,1375.1999512,0.0,192.6,0.8,0.0,0.0,868,130,0,0,860.88,9.95,27.83,# data time:4590,pm2.5:6.445,pm10:5.704,O2:0.000,NO2:0.046,SO2:0.000,NH3:9.157
13:35:56,0,0,0,0,0,2700,2200,1,0,0,0,514,0,0,0,0,0.0000000,0.0000000,0.0000000,0.0000000,10.00,38.4062347,-110.7920761,1375.1999512,0.0,163.8,0.8,0.0,0.0,869,128,0,0,860.94,9.95,27.81,# data time:4590,pm2.5:6.445,pm10:5.704,O2:0.000,NO2:0.046,SO2:0.000,NH3:9.157
13:35:57,0,0,0,0,0,2700,2200,1,0,0,0,514,0,0,0,0,0.0000000,0.0000000,0.0000000,0.0000000,10.00,38.4062347,-110.7920761,1375.1999512,0.0,139.0,0.8,0.0,0.0,869,129,0,0,860.86,9.95,27.78,# data time:4590,pm2.5:6.445,pm10:5.704,O2:0.000,NO2:0.046,SO2:0.000,NH3:9.157
13:35:58,0,0,0,0,0,2700,2200,1,0,0,0,514,0,0,0,0,0.0000000,0.0000000,0.0000000,0.0000000,10.00,38.4062347,-110.7920761,1375.1999512,0.0,60.0,0.8,0.0,0.0,869,129,0,0,860.89,9.90,27.78,# data time:4600,pm2.5:6.445,pm10:5.704,O2:0.000,NO2:0.046,SO2:0.000,NH3:9.609
13:36:00,0,0,0,0,0,2700,2200,1,0,0,0,514,0,0,0,0,0.0000000,0.0000000,0.0000000,0.0000000,10.00,38.4062347,-110.7920761,1375.1999512,0.0,328.7,0.8,0.0,0.0,869,130,0,0,860.88,10.00,27.77,# data time:4600,pm2.5:6.445,pm10:5.704,O2:0.000,NO2:0.046,SO2:0.000,NH3:9.609
13:36:01,0,0,0,0,0,2700,2200,1,0,0,0,514,0,0,0,0,0.0000000,0.0000000,0.0000000,0.0000000,10.00,38.4062347,-110.7920761,1375.1999512,0.0,22.5,0.8,0.0,0.0,869,130,0,0,860.91,9.92,27.76,# data time:4600,pm2.5:6.445,pm10:5.704,O2:0.000,NO2:0.046,SO2:0.000,NH3:9.609
13:36:02,0,0,0,0,0,2700,2200,1,0,0,0,514,0,0,0,0,0.0000000,0.0000000,0.0000000,0.0000000,10.00,38.4062347,-110.7920761,1375.1999512,0.0,29.3,0.8,0.0,0.0,869,128,0,0,860.87,10.09,27.61,# data time:4600,pm2.5:6.445,pm10:5.704,O2:0.000,NO2:0.046,SO2:0.000,NH3:9.609
13:36:03,0,0,0,0,0,2700,2200,1,0,0,0,514,0,0,0,0,0.0000000,0.0000000,0.0000000,0.0000000,10.00,38.4062347,-110.7920609,1375.1999512,0.0,29.3,0.8,0.0,0.0,869,130,0,0,860.85,10.10,27.64,# data time:4600,pm2.5:6.445,pm10:5.704,O2:0.000,NO2:0.046,SO2:0.000,NH3:9.609
13:36:04,0,0,0,0,0,2700,2200,1,0,0,0,514,0,0,0,0,0.0000000,0.0000000,0.0000000,0.0000000,10.00,38.4062347,-110.7920609,1375.1999512,0.0,29.3,0.8,0.0,0.0,869,129,0,0,860.81,10.13,27.53,# data time:4600,pm2.5:6.445,pm10:5.704,O2:0.000,NO2:0.046,SO2:0.000,NH3:9.609
13:36:05,0,0,0,0,0,2700,2200,1,0,0,0,514,0,0,0,0,0.0000000,0.0000000,0.0000000,0.0000000,10.00,38.4062347,-110.7920609,1375.1999512,0.0,71.0,0.8,0.0,0.0,869,131,0,0,860.90,10.18,27.56,# data time:4600,pm2.5:6.445,pm10:5.704,O2:0.000,NO2:0.046,SO2:0.000,NH3:9.609
13:36:06,0,0,0,0,0,2700,2200,1,0,0,0,515,0,0,0,0,0.0000000,0.0000000,0.0000000,0.0000000,10.00,38.4062347,-110.7920609,1375.1999512,0.0,75.1,0.8,0.0,0.0,869,126,0,0,860.86,10.16,27.58,# data time:4600,pm2.5:6.445,pm10:5.704,O2:0.000,NO2:0.046,SO2:0.000,NH3:9.609
13:36:07,0,0,0,0,0,2700,2200,1,0,0,0,514,0,0,0,0,0.0000000,0.0000000,0.0000000,0.0000000,10.00,38.4062347,-110.7920609,1375.1999512,0.0,65.3,0.8,0.0,0.0,869,129,0,0,860.94,10.22,27.55,# data time:4600,pm2.5:6.445,pm10:5.704,O2:0.000,NO2:0.046,SO2:0.000,NH3:9.609
13:36:08,0,0,0,0,0,2700,2200,1,0,0,0,514,0,0,0,0,0.0000000,0.0000000,0.0000000,0.0000000,10.00,38.4062347,-110.7920609,1375.1999512,0.0,141.6,0.8,0.0,0.0,868,128,0,0,860.93,10.19,27.51,# data time:4600,pm2.5:6.445,pm10:5.704,O2:0.000,NO2:0.046,SO2:0.000,NH3:9.609
13:36:09,0,0,0,0,0,2700,2200,1,0,0,0,514,0,0,0,0,0.0000000,0.0000000,0.0000000,0.0000000,10.00,38.4062347,-110.7920609,1375.1999512,0.0,122.2,0.8,0.0,0.0,869,128,0,0,860.92,10.25,27.45,# data time:4610,pm2.5:6.445,pm10:5.704,O2:0.000,NO2:0.046,SO2:0.000,NH3:9.609
13:36:10,0,0,0,0,0,2700,2200,1,0,0,0,514,0,0,0,0,0.0000000,0.0000000,0.0000000,0.0000000,10.00,38.4062347,-110.7920609,1375.1999512,0.0,182.0,0.8,0.0,0.0,869,130,0,0,860.93,10.28,27.41,# data time:4610,pm2.5:6.445,pm10:5.704,O2:0.000,NO2:0.046,SO2:0.000,NH3:9.609
13:36:11,0,0,0,0,0,2700,2200,1,0,0,0,514,0,0,0,0,0.0000000,0.0000000,0.0000000,0.0000000,10.00,38.4062347,-110.7920609,1375.1999512,0.0,173.7,0.8,0.0,0.0,868,131,0,0,860.96,10.32,27.37,# data time:4610,pm2.5:6.445,pm10:5.704,O2:0.000,NO2:0.046,SO2:0.000,NH3:9.609
13:36:12,0,0,0,0,0,2700,2200,1,0,0,0,514,0,0,0,0,0.0000000,0.0000000,0.0000000,0.0000000,10.00,38.4062347,-110.7920609,1375.1999512,0.0,17.2,0.8,0.0,0.0,869,125,0,0,860.91,10.32,27.33,# data time:4610,pm2.5:6.445,pm10:5.704,O2:0.000,NO2:0.046,SO2:0.000,NH3:9.609
13:36:13,0,0,0,0,0,2700,2200,1,0,0,0,515,0,0,0,0,0.0000000,0.0000000,0.0000000,0.0000000,10.00,38.4062347,-110.7920609,1375.1999512,0.0,144.4,0.8,0.0,0.0,869,127,0,0,860.90,10.36,27.30,# data time:4610,pm2.5:6.445,pm10:5.704,O2:0.000,NO2:0.046,SO2:0.000,NH3:9.609
13:36:14,0,0,0,0,0,2700,2200,1,0,0,0,514,0,0,0,0,0.0000000,0.0000000,0.0000000,0.0000000,10.00,38.4062347,-110.7920609,1375.1999512,0.0,160.5,0.8,0.0,0.0,869,126,0,0,860.96,10.36,27.30,# data time:4610,pm2.5:6.445,pm10:5.704,O2:0.000,NO2:0.046,SO2:0.000,NH3:9.609
13:36:15,0,0,0,0,0,2700,2200,1,0,0,0,514,0,0,0,0,0.0000000,0.0000000,0.0000000,0.0000000,10.00,38.4062347,-110.7920609,1375.1999512,0.0,234.7,0.8,0.0,0.0,868,128,0,0,860.89,10.38,27.30,# data time:4610,pm2.5:6.445,pm10:5.704,O2:0.000,NO2:0.046,SO2:0.000,NH3:9.609
13:36:16,0,0,0,0,0,2700,2200,1,0,0,0,514,0,0,0,0,0.0000000,0.0000000,0.0000000,0.0000000,10.00,38.4062347,-110.7920609,1375.1999512,0.0,149.0,0.8,0.0,0.0,869,129,0,0,860.88,10.39,27.23,# data time:4610,pm2.5:6.445,pm10:5.704,O2:0.000,NO2:0.046,SO2:0.000,NH3:9.609
13:36:17,0,0,0,0,0,2700,2200,1,0,0,0,515,0,0,0,0,0.0000000,0.0000000,0.0000000,0.0000000,10.00,38.4062347,-110.7920609,1375.1999512,0.0,124.8,0.8,0.0,0.0,869,127,0,0,860.89,10.44,27.12,# data time:4610,pm2.5:6.445,pm10:5.704,O2:0.000,NO2:0.046,SO2:0.000,NH3:9.609
13:36:18,0,0,0,0,0,2700,2200,1,0,0,0,514,0,0,0,0,0.0000000,0.0000000,0.0000000,0.0000000,10.00,38.4062347,-110.7920609,1375.1999512,0.0,139.1,0.8,0.0,0.0,869,128,0,0,860.90,10.50,27.07,# data time:4610,pm2.5:6.445,pm10:5.704,O2:0.000,NO2:0.046,SO2:0.000,NH3:9.609
13:36:19,0,0,0,0,0,2700,2200,1,0,0,0,514,0,0,0,0,0.0000000,0.0000000,0.0000000,0.0000000,10.00,38.4062347,-110.7920609,1375.1999512,0.0,127.8,0.8,0.0,0.0,868,128,0,0,860.87,10.54,27.06,# data time:4620,pm2.5:6.445,pm10:5.704,O2:0.000,NO2:0.028,SO2:0.000,NH3:9.836
13:36:20,0,0,0,0,0,2700,2200,1,0,0,0,514,0,0,0,0,0.0000000,0.0000000,0.0000000,0.0000000,10.00,38.4062347,-110.7920609,1375.1999512,0.0,319.1,0.8,0.0,0.0,869,126,0,0,860.82,10.59,27.06,# data time:4620,pm2.5:6.445,pm10:5.704,O2:0.000,NO2:0.028,SO2:0.000,NH3:9.836
13:36:21,0,0,0,0,0,2700,2200,1,0,0,0,514,0,0,0,0,0.0000000,0.0000000,0.0000000,0.0000000,10.00,38.4062347,-110.7920609,1375.1999512,0.0,201.1,0.8,0.0,0.0,869,126,0,0,860.85,10.59,27.06,# data time:4620,pm2.5:6.445,pm10:5.704,O2:0.000,NO2:0.028,SO2:0.000,NH3:9.836
13:36:22,0,0,0,0,0,2700,2200,1,0,0,0,514,0,0,0,0,0.0000000,0.0000000,0.0000000,0.0000000,10.00,38.4062347,-110.7920609,1375.1999512,0.0,204.8,0.8,0.0,0.0,869,130,0,0,860.88,10.59,27.08,# data time:4620,pm2.5:6.445,pm10:5.704,O2:0.000,NO2:0.028,SO2:0.000,NH3:9.836
13:36:24,0,0,0,0,0,2700,2200,1,0,0,0,514,0,0,0,0,0.0000000,0.0000000,0.0000000,0.0000000,10.00,38.4062347,-110.7920609,1375.1999512,0.0,241.6,0.8,0.0,0.0,868,129,0,0,860.84,10.61,27.08,# data time:4620,pm2.5:6.445,pm10:5.704,O2:0.000,NO2:0.028,SO2:0.000,NH3:9.836
13:36:25,0,0,0,0,0,2700,2200,1,0,0,0,514,0,0,0,0,0.0000000,0.0000000,0.0000000,0.0000000,10.00,38.4062347,-110.7920609,1375.1999512,0.0,137.0,0.8,0.0,0.0,869,129,0,0,860.85,10.59,27.07,# data time:4620,pm2.5:6.445,pm10:5.704,O2:0.000,NO2:0.028,SO2:0.000,NH3:9.836
13:36:26,0,0,0,0,0,2700,2200,1,0,0,0,514,0,0,0,0,0.0000000,0.0000000,0.0000000,0.0000000,10.00,38.4062347,-110.7920609,1375.1999512,0.0,139.6,0.8,0.0,0.0,869,128,0,0,860.89,10.57,27.08,# data time:4620,pm2.5:6.445,pm10:5.704,O2:0.000,NO2:0.028,SO2:0.000,NH3:9.836
13:36:27,0,0,0,0,0,2700,2200,1,0,0,0,515,0,0,0,0,0.0000000,0.0000000,0.0000000,0.0000000,10.00,38.4062347,-110.7920609,1375.1999512,0.0,172.6,0.8,0.0,0.0,869,127,0,0,860.86,10.56,27.02,# data time:4620,pm2.5:6.445,pm10:5.704,O2:0.000,NO2:0.028,SO2:0.000,NH3:9.836
13:36:28,0,0,0,0,0,2700,2200,1,0,0,0,514,0,0,0,0,0.0000000,0.0000000,0.0000000,0.0000000,10.00,38.4062347,-110.7920609,1375.1999512,0.0,36.0,0.8,0.0,0.0,869,127,0,0,860.84,10.62,26.89,# data time:4620,pm2.5:6.445,pm10:5.704,O2:0.000,NO2:0.028,SO2:0.000,NH3:9.836
13:36:29,0,0,0,0,0,2700,2200,1,0,0,0,514,0,0,0,0,0.0000000,0.0000000,0.0000000,0.0000000,10.00,38.4062347,-110.7920609,1375.1999512,0.0,36.0,0.8,0.0,0.0,869,128,0,0,860.88,10.61,26.92,# data time:4630,pm2.5:6.445,pm10:5.704,O2:0.000,NO2:0.063,SO2:0.000,NH3:10.062
13:36:30,0,0,0,0,0,2700,2200,1,0,0,0,515,0,0,0,0,0.0000000,0.0000000,0.0000000,0.0000000,10.00,38.4062347,-110.7920609,1375.1999512,0.0,36.0,0.8,0.0,0.0,868,127,0,0,860.84,10.65,26.87,# data time:4630,pm2.5:6.445,pm10:5.704,O2:0.000,NO2:0.063,SO2:0.000,NH3:10.062
13:36:31,0,0,0,0,0,2700,2200,1,0,0,0,515,0,0,0,0,0.0000000,0.0000000,0.0000000,0.0000000,10.00,38.4062347,-110.7920609,1375.1999512,0.0,54.0,0.8,0.0,0.0,869,127,0,0,860.79,10.70,26.90,# data time:4630,pm2.5:6.445,pm10:5.704,O2:0.000,NO2:0.063,SO2:0.000,NH3:10.062
13:36:32,0,0,0,0,0,2700,2200,1,0,0,0,514,0,0,0,0,0.0000000,0.0000000,0.0000000,0.0000000,10.00,38.4062347,-110.7920609,1375.1999512,0.0,24.5,0.8,0.0,0.0,869,128,0,0,860.83,10.76,26.93,# data time:4630,pm2.5:6.445,pm10:5.704,O2:0.000,NO2:0.063,SO2:0.000,NH3:10.062
13:36:33,0,0,0,0,0,2700,2200,1,0,0,0,514,0,0,0,0,0.0000000,0.0000000,0.0000000,0.0000000,10.00,38.4062347,-110.7920609,1375.1999512,0.0,69.5,0.8,0.0,0.0,868,125,0,0,860.84,10.64,26.92,# data time:4630,pm2.5:6.445,pm10:5.704,O2:0.000,NO2:0.063,SO2:0.000,NH3:10.062
13:36:34,0,0,0,0,0,2700,2200,1,0,0,0,514,0,0,0,0,0.0000000,0.0000000,0.0000000,0.0000000,10.00,38.4062347,-110.7920609,1375.1999512,0.0,343.8,0.8,0.0,0.0,870,126,0,0,860.85,10.62,26.92,# data time:4630,pm2.5:6.445,pm10:5.704,O2:0.000,NO2:0.063,SO2:0.000,NH3:10.062
13:36:35,0,0,0,0,0,2700,2200,1,0,0,0,515,0,0,0,0,0.0000000,0.0000000,0.0000000,0.0000000,10.00,38.4062347,-110.7920609,1375.1999512,0.0,351.5,0.8,0.0,0.0,869,128,0,0,860.84,10.61,26.90,# data time:4630,pm2.5:6.445,pm10:5.704,O2:0.000,NO2:0.063,SO2:0.000,NH3:10.062
13:36:36,0,0,0,0,0,2700,2200,1,0,0,0,514,0,0,0,0,0.0000000,0.0000000,0.0000000,0.0000000,10.00,38.4062347,-110.7920609,1375.1999512,0.0,123.5,0.8,0.0,0.0,868,132,0,0,860.96,10.62,26.89,# data time:4630,pm2.5:6.445,pm10:5.704,O2:0.000,NO2:0.063,SO2:0.000,NH3:10.062
13:36:37,0,0,0,0,0,2700,2200,1,0,0,0,514,0,0,0,0,0.0000000,0.0000000,0.0000000,0.0000000,10.00,38.4062347,-110.7920609,1375.1999512,0.0,304.2,0.8,0.0,0.0,869,126,0,0,860.89,10.64,26.86,# data time:4630,pm2.5:6.445,pm10:5.704,O2:0.000,NO2:0.063,SO2:0.000,NH3:10.062
13:36:38,0,0,0,0,0,2700,2200,1,0,0,0,514,0,0,0,0,0.0000000,0.0000000,0.0000000,0.0000000,10.00,38.4062347,-110.7920609,1375.1999512,0.0,327.3,0.8,0.0,0.0,869,127,0,0,860.83,10.65,26.81,# data time:4630,pm2.5:6.445,pm10:5.704,O2:0.000,NO2:0.063,SO2:0.000,NH3:10.062
13:36:39,0,0,0,0,0,2700,2200,1,0,0,0,514,0,0,0,0,0.0000000,0.0000000,0.0000000,0.0000000,10.00,38.4062347,-110.7920609,1375.1999512,0.0,229.8,0.8,0.0,0.0,869,126,0,0,860.87,10.68,26.78,# data time:4640,pm2.5:6.445,pm10:5.704,O2:0.000,NO2:0.063,SO2:0.000,NH3:10.062
13:36:40,0,0,0,0,0,2700,2200,1,0,0,0,514,0,0,0,0,0.0000000,0.0000000,0.0000000,0.0000000,10.00,38.4062347,-110.7920609,1375.1999512,0.0,232.1,0.8,0.0,0.0,869,128,0,0,860.98,10.70,26.77,# data time:4640,pm2.5:6.445,pm10:5.704,O2:0.000,NO2:0.063,SO2:0.000,NH3:10.062
13:36:41,0,0,0,0,0,2700,2200,1,0,0,0,513,0,0,0,0,0.0000000,0.0000000,0.0000000,0.0000000,10.00,38.4062347,-110.7920609,1375.1999512,0.0,233.6,0.8,0.0,0.0,869,131,0,0,861.05,10.70,26.78,# data time:4640,pm2.5:6.445,pm10:5.704,O2:0.000,NO2:0.063,SO2:0.000,NH3:10.062
13:36:42,0,0,0,0,0,2700,2200,1,0,0,0,514,0,0,0,0,0.0000000,0.0000000,0.0000000,0.0000000,10.00,38.4062347,-110.7920609,1375.0999756,0.0,178.3,0.8,0.0,0.0,869,130,0,0,860.95,10.71,26.78,# data time:4640,pm2.5:6.445,pm10:5.704,O2:0.000,NO2:0.063,SO2:0.000,NH3:10.062
13:36:43,0,0,0,0,0,2700,2200,1,0,0,0,514,0,0,0,0,0.0000000,0.0000000,0.0000000,0.0000000,10.00,38.4062347,-110.7920609,1375.0999756,0.0,161.9,0.8,0.0,0.0,868,130,0,0,861.02,10.71,26.76,# data time:4640,pm2.5:6.445,pm10:5.704,O2:0.000,NO2:0.063,SO2:0.000,NH3:10.062
13:36:44,0,0,0,0,0,2700,2200,1,0,0,0,515,0,0,0,0,0.0000000,0.0000000,0.0000000,0.0000000,10.00,38.4062347,-110.7920609,1375.0999756,0.0,165.2,0.8,0.0,0.0,869,128,0,0,860.87,10.73,26.74,# data time:4640,pm2.5:6.445,pm10:5.704,O2:0.000,NO2:0.063,SO2:0.000,NH3:10.062
13:36:45,0,0,0,0,0,2700,2200,1,0,0,0,515,0,0,0,0,0.0000000,0.0000000,0.0000000,0.0000000,10.00,38.4062347,-110.7920609,1375.0999756,0.0,230.5,0.8,0.0,0.0,869,129,0,0,860.99,10.70,26.72,# data time:4640,pm2.5:6.445,pm10:5.704,O2:0.000,NO2:0.063,SO2:0.000,NH3:10.062
13:36:46,0,0,0,0,0,2700,2200,1,0,0,0,514,0,0,0,0,0.0000000,0.0000000,0.0000000,0.0000000,10.00,38.4062347,-110.7920609,1375.0000000,0.0,181.2,0.8,0.0,0.0,868,135,0,0,861.07,10.74,26.70,# data time:4640,pm2.5:6.445,pm10:5.704,O2:0.000,NO2:0.063,SO2:0.000,NH3:10.062
13:36:47,0,0,0,0,0,2700,2200,1,0,0,0,514,0,0,0,0,0.0000000,0.0000000,0.0000000,0.0000000,10.00,38.4062347,-110.7920609,1375.0000000,0.0,222.8,0.8,0.0,0.0,869,131,0,0,861.14,10.71,26.68,# data time:4640,pm2.5:6.445,pm10:5.704,O2:0.000,NO2:0.063,SO2:0.000,NH3:10.062
13:36:48,0,0,0,0,0,2700,2200,1,0,0,0,514,0,0,0,0,0.0000000,0.0000000,0.0000000,0.0000000,10.00,38.4062347,-110.7920609,1375.0000000,0.0,244.9,0.8,0.0,0.0,869,130,0,0,860.93,10.76,26.68,# data time:4650,pm2.5:6.445,pm10:5.704,O2:0.000,NO2:0.046,SO2:0.000,NH3:10.515
13:36:50,0,0,0,0,0,2700,2200,1,0,0,0,514,0,0,0,0,0.0000000,0.0000000,0.0000000,0.0000000,10.00,38.4062347,-110.7920609,1375.0000000,0.0,213.6,0.8,0.0,0.0,869,132,0,0,861.04,10.79,26.67,# data time:4650,pm2.5:6.445,pm10:5.704,O2:0.000,NO2:0.046,SO2:0.000,NH3:10.515
13:36:51,0,0,0,0,0,2700,2200,1,0,0,0,515,0,0,0,0,0.0000000,0.0000000,0.0000000,0.0000000,10.00,38.4062347,-110.7920609,1375.0000000,0.0,188.7,0.8,0.0,0.0,869,133,0,0,861.01,10.80,26.66,# data time:4650,pm2.5:6.445,pm10:5.704,O2:0.000,NO2:0.046,SO2:0.000,NH3:10.515
13:36:52,0,0,0,0,0,2700,2200,1,0,0,0,514,0,0,0,0,0.0000000,0.0000000,0.0000000,0.0000000,10.00,38.4062347,-110.7920609,1374.9000244,0.0,196.0,0.8,0.0,0.0,868,131,0,0,861.01,10.79,26.65,# data time:4650,pm2.5:6.445,pm10:5.704,O2:0.000,NO2:0.046,SO2:0.000,NH3:10.515
13:36:53,0,0,0,0,0,2700,2200,1,0,0,0,514,0,0,0,0,0.0000000,0.0000000,0.0000000,0.0000000,10.00,38.4062347,-110.7920609,1374.9000244,0.0,220.7,0.8,0.0,0.0,868,129,0,0,860.92,10.77,26.55,# data time:4650,pm2.5:6.445,pm10:5.704,O2:0.000,NO2:0.046,SO2:0.000,NH3:10.515
13:36:54,0,0,0,0,0,2700,2200,1,0,0,0,514,0,0,0,0,0.0000000,0.0000000,0.0000000,0.0000000,10.00,38.4062347,-110.7920609,1374.9000244,0.0,238.0,0.8,0.0,0.0,869,131,0,0,860.96,10.80,26.54,# data time:4650,pm2.5:6.445,pm10:5.704,O2:0.000,NO2:0.046,SO2:0.000,NH3:10.515
13:36:55,0,0,0,0,0,2700,2200,1,0,0,0,514,0,0,0,0,0.0000000,0.0000000,0.0000000,0.0000000,10.00,38.4062347,-110.7920609,1374.9000244,0.0,238.0,0.8,0.0,0.0,869,129,0,0,860.94,10.79,26.59,# data time:4650,pm2.5:6.445,pm10:5.704,O2:0.000,NO2:0.046,SO2:0.000,NH3:10.515
13:36:56,0,0,0,0,0,2700,2200,1,0,0,0,514,0,0,0,0,0.0000000,0.0000000,0.0000000,0.0000000,10.00,38.4062347,-110.7920609,1374.8000488,0.0,199.2,0.8,0.0,0.0,868,129,0,0,860.97,10.77,26.58,# data time:4650,pm2.5:6.445,pm10:5.704,O2:0.000,NO2:0.046,SO2:0.000,NH3:10.515
13:36:57,0,0,0,0,0,2700,2200,1,0,0,0,514,0,0,0,0,0.0000000,0.0000000,0.0000000,0.0000000,10.00,38.4062347,-110.7920609,1374.8000488,0.0,233.4,0.8,0.0,0.0,868,132,0,0,860.95,10.80,26.62,# data time:4650,pm2.5:6.445,pm10:5.704,O2:0.000,NO2:0.046,SO2:0.000,NH3:10.515
13:36:58,0,0,0,0,0,2700,2200,1,0,0,0,514,0,0,0,0,0.0000000,0.0000000,0.0000000,0.0000000,10.00,38.4062347,-110.7920609,1374.8000488,0.0,228.9,0.8,0.0,0.0,868,127,0,0,861.02,10.83,26.62,# data time:4650,pm2.5:6.445,pm10:5.704,O2:0.000,NO2:0.046,SO2:0.000,NH3:10.515
13:36:59,0,0,0,0,0,2700,2200,1,0,0,0,514,0,0,0,0,0.0000000,0.0000000,0.0000000,0.0000000,10.00,38.4062347,-110.7920609,1374.8000488,0.0,197.4,0.8,0.0,0.0,869,131,0,0,861.01,10.82,26.61,# data time:4660,pm2.5:6.445,pm10:5.704,O2:0.000,NO2:0.081,SO2:0.000,NH3:10.515
13:37:00,0,0,0,0,0,2700,2200,1,0,0,0,514,0,0,0,0,0.0000000,0.0000000,0.0000000,0.0000000,10.00,38.4062347,-110.7920609,1374.8000488,0.0,51.9,0.8,0.0,0.0,868,127,0,0,861.06,10.82,26.61,# data time:4660,pm2.5:6.445,pm10:5.704,O2:0.000,NO2:0.081,SO2:0.000,NH3:10.515
13:37:01,0,0,0,0,0,2700,2200,1,0,0,0,514,0,0,0,0,0.0000000,0.0000000,0.0000000,0.0000000,10.00,38.4062347,-110.7920609,1374.6999512,0.0,112.2,0.8,0.0,0.0,869,127,0,0,861.08,10.79,26.60,# data time:4660,pm2.5:6.445,pm10:5.704,O2:0.000,NO2:0.081,SO2:0.000,NH3:10.515
13:37:02,0,0,0,0,0,2700,2200,1,0,0,0,514,0,0,0,0,0.0000000,0.0000000,0.0000000,0.0000000,10.00,38.4062347,-110.7920761,1374.6999512,0.0,226.3,0.8,0.0,0.0,869,129,0,0,860.96,10.80,26.59,# data time:4660,pm2.5:6.445,pm10:5.704,O2:0.000,NO2:0.081,SO2:0.000,NH3:10.515
13:37:03,0,0,0,0,0,2700,2200,1,0,0,0,514,0,0,0,0,0.0000000,0.0000000,0.0000000,0.0000000,10.00,38.4062347,-110.7920761,1374.6999512,0.0,274.3,0.8,0.0,0.0,868,134,0,0,860.92,10.82,26.58,# data time:4660,pm2.5:6.445,pm10:5.704,O2:0.000,NO2:0.081,SO2:0.000,NH3:10.515
13:37:04,0,0,0,0,0,2700,2200,1,0,0,0,514,0,0,0,0,0.0000000,0.0000000,0.0000000,0.0000000,10.00,38.4062347,-110.7920761,1374.6999512,0.0,237.4,0.8,0.0,0.0,869,128,0,0,861.00,10.85,26.57,# data time:4660,pm2.5:6.445,pm10:5.704,O2:0.000,NO2:0.081,SO2:0.000,NH3:10.515
13:37:05,0,0,0,0,0,2700,2200,1,0,0,0,515,0,0,0,0,0.0000000,0.0000000,0.0000000,0.0000000,10.00,38.4062347,-110.7920761,1374.6999512,0.0,230.0,0.8,0.0,0.0,868,124,0,0,860.92,10.88,26.55,# data time:4660,pm2.5:6.445,pm10:5.704,O2:0.000,NO2:0.081,SO2:0.000,NH3:10.515
13:37:06,0,0,0,0,0,2700,2200,1,0,0,0,515,0,0,0,0,0.0000000,0.0000000,0.0000000,0.0000000,10.00,38.4062309,-110.7920761,1374.6999512,0.0,235.6,0.8,0.0,0.0,869,133,0,0,860.89,10.85,26.54,# data time:4660,pm2.5:6.445,pm10:5.704,O2:0.000,NO2:0.081,SO2:0.000,NH3:10.515
13:37:07,0,0,0,0,0,2700,2200,1,0,0,0,514,0,0,0,0,0.0000000,0.0000000,0.0000000,0.0000000,10.00,38.4062347,-110.7920761,1374.6999512,0.1,290.2,0.8,0.0,0.0,868,131,0,0,860.91,10.86,26.53,# data time:4660,pm2.5:6.445,pm10:5.704,O2:0.000,NO2:0.081,SO2:0.000,NH3:10.515
13:37:08,0,0,0,0,0,2700,2200,1,0,0,0,514,0,0,0,0,0.0000000,0.0000000,0.0000000,0.0000000,10.00,38.4062347,-110.7920761,1374.5999756,0.0,283.6,0.8,0.0,0.0,868,130,0,0,860.92,10.86,26.54,# data time:4660,pm2.5:6.445,pm10:5.704,O2:0.000,NO2:0.081,SO2:0.000,NH3:10.515
13:37:09,0,0,0,0,0,2700,2200,1,0,0,0,514,0,0,0,0,0.0000000,0.0000000,0.0000000,0.0000000,10.00,38.4062347,-110.7920761,1374.5999756,0.1,298.6,0.8,0.0,0.0,868,132,0,0,860.97,10.85,26.53,# data time:4670,pm2.5:6.445,pm10:5.704,O2:0.000,NO2:0.063,SO2:0.000,NH3:10.515
13:37:10,0,0,0,0,0,2700,2200,1,0,0,0,515,0,0,0,0,0.0000000,0.0000000,0.0000000,0.0000000,10.00,38.4062347,-110.7920761,1374.5999756,0.1,300.6,0.8,0.0,0.0,868,126,0,0,860.87,10.88,26.53,# data time:4670,pm2.5:6.445,pm10:5.704,O2:0.000,NO2:0.063,SO2:0.000,NH3:10.515
13:37:11,0,0,0,0,0,2700,2200,1,0,0,0,514,0,0,0,0,0.0000000,0.0000000,0.0000000,0.0000000,10.00,38.4062347,-110.7920761,1374.5999756,0.1,237.3,0.8,0.0,0.0,868,127,0,0,861.01,10.90,26.53,# data time:4670,pm2.5:6.445,pm10:5.704,O2:0.000,NO2:0.063,SO2:0.000,NH3:10.515
13:37:12,0,0,0,0,0,2700,2200,1,0,0,0,514,0,0,0,0,0.0000000,0.0000000,0.0000000,0.0000000,10.00,38.4062347,-110.7920761,1374.5999756,0.0,219.8,0.8,0.0,0.0,868,129,0,0,861.00,10.88,26.53,# data time:4670,pm2.5:6.445,pm10:5.704,O2:0.000,NO2:0.063,SO2:0.000,NH3:10.515
13:37:13,0,0,0,0,0,2700,2200,1,0,0,0,514,0,0,0,0,0.0000000,0.0000000,0.0000000,0.0000000,10.00,38.4062347,-110.7920761,1374.5000000,0.0,264.0,0.8,0.0,0.0,868,130,0,0,860.92,10.88,26.52,# data time:4670,pm2.5:6.445,pm10:5.704,O2:0.000,NO2:0.063,SO2:0.000,NH3:10.515
13:37:14,0,0,0,0,0,2700,2200,1,0,0,0,514,0,0,0,0,0.0000000,0.0000000,0.0000000,0.0000000,10.00,38.4062347,-110.7920761,1374.5000000,0.0,257.3,0.8,0.0,0.0,868,125,0,0,861.02,10.90,26.52,# data time:4670,pm2.5:6.445,pm10:5.704,O2:0.000,NO2:0.063,SO2:0.000,NH3:10.515
13:37:16,0,0,0,0,0,2700,2200,1,0,0,0,514,0,0,0,0,0.0000000,0.0000000,0.0000000,0.0000000,10.00,38.4062347,-110.7920761,1374.5000000,0.1,268.5,0.8,0.0,0.0,868,128,0,0,860.99,10.85,26.52,# data time:4670,pm2.5:6.445,pm10:5.704,O2:0.000,NO2:0.063,SO2:0.000,NH3:10.515
13:37:17,0,0,0,0,0,2700,2200,1,0,0,0,515,0,0,0,0,0.0000000,0.0000000,0.0000000,0.0000000,10.00,38.4062347,-110.7920761,1374.5000000,0.1,300.2,0.8,0.0,0.0,868,127,0,0,860.98,10.85,26.51,# data time:4670,pm2.5:6.445,pm10:5.704,O2:0.000,NO2:0.063,SO2:0.000,NH3:10.515
13:37:18,0,0,0,0,0,2700,2200,1,0,0,0,514,0,0,0,0,0.0000000,0.0000000,0.0000000,0.0000000,10.00,38.4062347,-110.7920761,1374.5000000,0.0,237.6,0.8,0.0,0.0,868,129,0,0,860.91,10.86,26.51,# data time:4670,pm2.5:6.445,pm10:5.704,O2:0.000,NO2:0.063,SO2:0.000,NH3:10.515
13:37:19,0,0,0,0,0,2700,2200,1,0,0,0,513,0,0,0,0,0.0000000,0.0000000,0.0000000,0.0000000,10.00,38.4062347,-110.7920761,1374.5000000,0.0,286.2,0.8,0.0,0.0,868,131,0,0,860.90,10.85,26.41,# data time:4680,pm2.5:6.445,pm10:5.704,O2:0.000,NO2:0.063,SO2:0.000,NH3:10.741
13:37:20,0,0,0,0,0,2700,2200,1,0,0,0,514,0,0,0,0,0.0000000,0.0000000,0.0000000,0.0000000,10.00,38.4062347,-110.7920761,1374.5000000,0.1,275.4,0.8,0.0,0.0,868,129,0,0,860.99,10.86,26.41,# data time:4680,pm2.5:6.445,pm10:5.704,O2:0.000,NO2:0.063,SO2:0.000,NH3:10.741
13:37:21,0,0,0,0,0,2700,2200,1,0,0,0,514,0,0,0,0,0.0000000,0.0000000,0.0000000,0.0000000,10.00,38.4062347,-110.7920761,1374.4000244,0.1,275.4,0.8,0.0,0.0,868,128,0,0,860.96,10.83,26.40,# data time:4680,pm2.5:6.445,pm10:5.704,O2:0.000,NO2:0.063,SO2:0.000,NH3:10.741
13:37:22,0,0,0,0,0,2700,2200,1,0,0,0,514,0,0,0,0,0.0000000,0.0000000,0.0000000,0.0000000,10.00,38.4062347,-110.7920761,1374.4000244,0.1,296.5,0.8,0.0,0.0,869,131,0,0,861.02,10.85,26.44,# data time:4680,pm2.5:6.445,pm10:5.704,O2:0.000,NO2:0.063,SO2:0.000,NH3:10.741
13:37:23,0,0,0,0,0,2700,2200,1,0,0,0,514,0,0,0,0,0.0000000,0.0000000,0.0000000,0.0000000,10.00,38.4062347,-110.7920761,1374.4000244,0.1,256.4,0.8,0.0,0.0,869,129,0,0,860.97,10.88,26.48,# data time:4680,pm2.5:6.445,pm10:5.704,O2:0.000,NO2:0.063,SO2:0.000,NH3:10.741
13:37:24,0,0,0,0,0,2700,2200,1,0,0,0,514,0,0,0,0,0.0000000,0.0000000,0.0000000,0.0000000,10.00,38.4062347,-110.7920761,1374.4000244,0.0,304.6,0.8,0.0,0.0,868,129,0,0,861.00,10.83,26.48,# data time:4680,pm2.5:6.445,pm10:5.704,O2:0.000,NO2:0.063,SO2:0.000,NH3:10.741
13:37:25,0,0,0,0,0,2700,2200,1,0,0,0,514,0,0,0,0,0.0000000,0.0000000,0.0000000,0.0000000,10.00,38.4062347,-110.7920761,1374.3000488,0.0,290.9,0.8,0.0,0.0,868,125,0,0,860.98,10.86,26.48,# data time:4680,pm2.5:6.445,pm10:5.704,O2:0.000,NO2:0.063,SO2:0.000,NH3:10.741
13:37:26,0,0,0,0,0,2700,2200,1,0,0,0,515,0,0,0,0,0.0000000,0.0000000,0.0000000,0.0000000,10.00,38.4062347,-110.7920761,1374.3000488,0.1,291.1,0.8,0.0,0.0,868,131,0,0,860.95,10.88,26.47,# data time:4680,pm2.5:6.445,pm10:5.704,O2:0.000,NO2:0.063,SO2:0.000,NH3:10.741
13:37:27,0,0,0,0,0,2700,2200,1,0,0,0,514,0,0,0,0,0.0000000,0.0000000,0.0000000,0.0000000,10.00,38.4062347,-110.7920761,1374.3000488,0.0,283.1,0.8,0.0,0.0,868,127,0,0,860.88,10.88,26.47,# data time:4680,pm2.5:6.445,pm10:5.704,O2:0.000,NO2:0.063,SO2:0.000,NH3:10.741
13:37:28,0,0,0,0,0,2700,2200,1,0,0,0,514,0,0,0,0,0.0000000,0.0000000,0.0000000,0.0000000,10.00,38.4062347,-110.7920761,1374.3000488,0.1,302.8,0.8,0.0,0.0,869,128,0,0,860.92,10.88,26.47,# data time:4680,pm2.5:6.445,pm10:5.704,O2:0.000,NO2:0.063,SO2:0.000,NH3:10.741
13:37:29,0,0,0,0,0,2700,2200,1,0,0,0,514,0,0,0,0,0.0000000,0.0000000,0.0000000,0.0000000,10.00,38.4062347,-110.7920761,1374.3000488,0.1,268.1,0.8,0.0,0.0,868,131,0,0,860.86,10.93,26.46,# data time:4690,pm2.5:6.445,pm10:5.704,O2:0.000,NO2:0.028,SO2:0.000,NH3:10.967
13:37:30,0,0,0,0,0,2700,2200,1,0,0,0,514,0,0,0,0,0.0000000,0.0000000,0.0000000,0.0000000,10.00,38.4062347,-110.7920761,1374.3000488,0.1,272.9,0.8,0.0,0.0,868,127,0,0,860.92,10.94,26.45,# data time:4690,pm2.5:6.445,pm10:5.704,O2:0.000,NO2:0.028,SO2:0.000,NH3:10.967
13:37:31,0,0,0,0,0,2700,2200,1,0,0,0,515,0,0,0,0,0.0000000,0.0000000,0.0000000,0.0000000,10.00,38.4062347,-110.7920761,1374.3000488,0.0,289.3,0.8,0.0,0.0,869,128,0,0,860.94,10.91,26.45,# data time:4690,pm2.5:6.445,pm10:5.704,O2:0.000,NO2:0.028,SO2:0.000,NH3:10.967
13:37:32,0,0,0,0,0,2700,2200,1,0,0,0,514,0,0,0,0,0.0000000,0.0000000,0.0000000,0.0000000,10.00,38.4062347,-110.7920761,1374.1999512,0.0,274.4,0.8,0.0,0.0,869,129,0,0,860.88,10.91,26.45,# data time:4690,pm2.5:6.445,pm10:5.704,O2:0.000,NO2:0.028,SO2:0.000,NH3:10.967
13:37:33,0,0,0,0,0,2700,2200,1,0,0,0,514,0,0,0,0,0.0000000,0.0000000,0.0000000,0.0000000,10.00,38.4062347,-110.7920761,1374.1999512,0.1,277.3,0.8,0.0,0.0,869,128,0,0,860.93,10.93,26.44,# data time:4690,pm2.5:6.445,pm10:5.704,O2:0.000,NO2:0.028,SO2:0.000,NH3:10.967
13:37:34,0,0,0,0,0,2700,2200,1,0,0,0,515,0,0,0,0,0.0000000,0.0000000,0.0000000,0.0000000,10.00,38.4062347,-110.7920761,1374.1999512,0.1,257.3,0.8,0.0,0.0,868,130,0,0,860.85,10.97,26.44,# data time:4690,pm2.5:6.445,pm10:5.704,O2:0.000,NO2:0.028,SO2:0.000,NH3:10.967
13:37:35,0,0,0,0,0,2700,2200,1,0,0,0,514,0,0,0,0,0.0000000,0.0000000,0.0000000,0.0000000,10.00,38.4062347,-110.7920761,1374.1999512,0.0,281.4,0.8,0.0,0.0,868,130,0,0,860.89,10.96,26.44,# data time:4690,pm2.5:6.445,pm10:5.704,O2:0.000,NO2:0.028,SO2:0.000,NH3:10.967
13:37:36,0,0,0,0,0,2700,2200,1,0,0,0,514,0,0,0,0,0.0000000,0.0000000,0.0000000,0.0000000,10.00,38.4062347,-110.7920761,1374.1999512,0.1,271.0,0.8,0.0,0.0,869,130,0,0,861.02,10.93,26.44,# data time:4690,pm2.5:6.445,pm10:5.704,O2:0.000,NO2:0.028,SO2:0.000,NH3:10.967
13:37:37,0,0,0,0,0,2700,2200,1,0,0,0,515,0,0,0,0,0.0000000,0.0000000,0.0000000,0.0000000,10.00,38.4062347,-110.7920761,1374.1999512,0.1,289.4,0.8,0.0,0.0,868,127,0,0,860.95,10.93,26.43,# data time:4690,pm2.5:6.445,pm10:5.704,O2:0.000,NO2:0.028,SO2:0.000,NH3:10.967
13:37:38,0,0,0,0,0,2700,2200,1,0,0,0,515,0,0,0,0,0.0000000,0.0000000,0.0000000,0.0000000,10.00,38.4062347,-110.7920761,1374.1999512,0.1,275.1,0.8,0.0,0.0,868,132,0,0,860.98,10.94,26.43,# data time:4700,pm2.5:6.445,pm10:5.704,O2:0.000,NO2:0.028,SO2:0.000,NH3:10.967
13:37:40,0,0,0,0,0,2700,2200,1,0,0,0,514,0,0,0,0,0.0000000,0.0000000,0.0000000,0.0000000,10.00,38.4062347,-110.7920761,1374.1999512,0.1,299.1,0.8,0.0,0.0,868,128,0,0,860.97,10.97,26.42,# data time:4700,pm2.5:6.445,pm10:5.704,O2:0.000,NO2:0.028,SO2:0.000,NH3:10.967
13:37:41,0,0,0,0,0,2700,2200,1,0,0,0,514,0,0,0,0,0.0000000,0.0000000,0.0000000,0.0000000,10.00,38.4062347,-110.7920761,1374.1999512,0.1,281.9,0.8,0.0,0.0,868,129,0,0,860.89,10.96,26.43,# data time:4700,pm2.5:6.445,pm10:5.704,O2:0.000,NO2:0.028,SO2:0.000,NH3:10.967
13:37:42,0,0,0,0,0,2700,2200,1,0,0,0,514,0,0,0,0,0.0000000,0.0000000,0.0000000,0.0000000,10.00,38.4062347,-110.7920761,1374.1999512,0.1,275.9,0.8,0.0,0.0,868,130,0,0,860.94,10.96,26.42,# data time:4700,pm2.5:6.445,pm10:5.704,O2:0.000,NO2:0.028,SO2:0.000,NH3:10.967
13:37:43,0,0,0,0,0,2700,2200,1,0,0,0,514,0,0,0,0,0.0000000,0.0000000,0.0000000,0.0000000,10.00,38.4062347,-110.7920761,1374.1999512,0.1,278.8,0.8,0.0,0.0,868,129,0,0,860.96,10.93,26.42,# data time:4700,pm2.5:6.445,pm10:5.704,O2:0.000,NO2:0.028,SO2:0.000,NH3:10.967
13:37:44,0,0,0,0,0,2700,2200,1,0,0,0,513,0,0,0,0,0.0000000,0.0000000,0.0000000,0.0000000,10.00,38.4062347,-110.7920761,1374.1999512,0.1,273.4,0.8,0.0,0.0,868,129,0,0,860.91,10.96,26.32,# data time:4700,pm2.5:6.445,pm10:5.704,O2:0.000,NO2:0.028,SO2:0.000,NH3:10.967
13:37:45,0,0,0,0,0,2700,2200,1,0,0,0,514,0,0,0,0,0.0000000,0.0000000,0.0000000,0.0000000,10.00,38.4062347,-110.7920761,1374.0999756,0.1,273.4,0.8,0.0,0.0,868,126,0,0,860.90,10.94,26.36,# data time:4700,pm2.5:6.445,pm10:5.704,O2:0.000,NO2:0.028,SO2:0.000,NH3:10.967
13:37:46,0,0,0,0,0,2700,2200,1,0,0,0,515,0,0,0,0,0.0000000,0.0000000,0.0000000,0.0000000,10.00,38.4062347,-110.7920761,1374.0999756,0.1,269.2,0.8,0.0,0.0,868,128,0,0,860.90,10.97,26.36,# data time:4700,pm2.5:6.445,pm10:5.704,O2:0.000,NO2:0.028,SO2:0.000,NH3:10.967
13:37:47,0,0,0,0,0,2700,2200,1,0,0,0,515,0,0,0,0,0.0000000,0.0000000,0.0000000,0.0000000,10.00,38.4062347,-110.7920761,1374.0999756,0.0,270.4,0.8,0.0,0.0,868,129,0,0,860.91,11.00,26.40,# data time:4700,pm2.5:6.445,pm10:5.704,O2:0.000,NO2:0.028,SO2:0.000,NH3:10.967
13:37:48,0,0,0,0,0,2700,2200,1,0,0,0,514,0,0,0,0,0.0000000,0.0000000,0.0000000,0.0000000,10.00,38.4062347,-110.7920761,1374.0999756,0.0,275.9,0.8,0.0,0.0,868,129,0,0,860.94,10.97,26.40,# data time:4700,pm2.5:6.445,pm10:5.704,O2:0.000,NO2:0.028,SO2:0.000,NH3:10.967
13:37:49,0,0,0,0,0,2700,2200,1,0,0,0,514,0,0,0,0,0.0000000,0.0000000,0.0000000,0.0000000,10.00,38.4062347,-110.7920761,1374.0999756,0.1,290.0,0.8,0.0,0.0,868,127,0,0,860.97,10.96,26.40,# data time:4710,pm2.5:6.445,pm10:5.704,O2:0.000,NO2:0.046,SO2:0.000,NH3:10.741
13:37:50,0,0,0,0,0,2700,2200,1,0,0,0,515,0,0,0,0,0.0000000,0.0000000,0.0000000,0.0000000,10.00,38.4062347,-110.7920761,1374.0999756,0.1,284.8,0.8,0.0,0.0,868,128,0,0,860.95,10.97,26.40,# data time:4710,pm2.5:6.445,pm10:5.704,O2:0.000,NO2:0.046,SO2:0.000,NH3:10.741
13:37:51,0,0,0,0,0,2700,2200,1,0,0,0,514,0,0,0,0,0.0000000,0.0000000,0.0000000,0.0000000,10.00,38.4062347,-110.7920761,1374.0999756,0.0,271.1,0.8,0.0,0.0,868,129,0,0,860.94,10.96,26.40,# data time:4710,pm2.5:6.445,pm10:5.704,O2:0.000,NO2:0.046,SO2:0.000,NH3:10.741
13:37:52,0,0,0,0,0,2700,2200,1,0,0,0,514,0,0,0,0,0.0000000,0.0000000,0.0000000,0.0000000,10.00,38.4062347,-110.7920761,1374.0999756,0.1,260.8,0.8,0.0,0.0,868,126,0,0,860.91,10.99,26.40,# data time:4710,pm2.5:6.445,pm10:5.704,O2:0.000,NO2:0.046,SO2:0.000,NH3:10.741
13:37:53,0,0,0,0,0,2700,2200,1,0,0,0,514,0,0,0,0,0.0000000,0.0000000,0.0000000,0.0000000,10.00,38.4062347,-110.7920761,1374.0999756,0.1,259.1,0.8,0.0,0.0,868,126,0,0,860.89,10.99,26.40,# data time:4710,pm2.5:6.445,pm10:5.704,O2:0.000,NO2:0.046,SO2:0.000,NH3:10.741
13:37:54,0,0,0,0,0,2700,2200,1,0,0,0,514,0,0,0,0,0.0000000,0.0000000,0.0000000,0.0000000,10.00,38.4062347,-110.7920761,1374.0999756,0.1,285.3,0.8,0.0,0.0,868,130,0,0,860.92,11.00,26.40,# data time:4710,pm2.5:6.445,pm10:5.704,O2:0.000,NO2:0.046,SO2:0.000,NH3:10.741
13:37:55,0,0,0,0,0,2700,2200,1,0,0,0,514,0,0,0,0,0.0000000,0.0000000,0.0000000,0.0000000,10.00,38.4062347,-110.7920761,1374.0999756,0.0,275.6,0.8,0.0,0.0,868,132,0,0,860.93,11.00,26.40,# data time:4710,pm2.5:6.445,pm10:5.704,O2:0.000,NO2:0.046,SO2:0.000,NH3:10.741
13:37:56,0,0,0,0,0,2700,2200,1,0,0,0,514,0,0,0,0,0.0000000,0.0000000,0.0000000,0.0000000,10.00,38.4062347,-110.7920761,1374.0999756,0.0,291.7,0.8,0.0,0.0,868,133,0,0,860.83,11.02,26.39,# data time:4710,pm2.5:6.445,pm10:5.704,O2:0.000,NO2:0.046,SO2:0.000,NH3:10.741
13:37:57,0,0,0,0,0,2700,2200,1,0,0,0,514,0,0,0,0,0.0000000,0.0000000,0.0000000,0.0000000,10.00,38.4062347,-110.7920761,1374.0999756,0.1,257.9,0.8,0.0,0.0,868,130,0,0,860.86,10.99,26.39,# data time:4710,pm2.5:6.445,pm10:5.704,O2:0.000,NO2:0.046,SO2:0.000,NH3:10.741
13:37:58,0,0,0,0,0,2700,2200,1,0,0,0,513,0,0,0,0,0.0000000,0.0000000,0.0000000,0.0000000,10.00,38.4062347,-110.7920761,1374.0999756,0.1,276.5,0.8,0.0,0.0,868,129,0,0,860.91,10.97,26.39,# data time:4710,pm2.5:6.445,pm10:5.704,O2:0.000,NO2:0.046,SO2:0.000,NH3:10.741
13:37:59,0,0,0,0,0,2700,2200,1,0,0,0,514,0,0,0,0,0.0000000,0.0000000,0.0000000,0.0000000,10.00,38.4062347,-110.7920761,1374.0999756,0.1,286.1,0.8,0.0,0.0,868,130,0,0,860.88,10.99,26.38,# data time:4720,pm2.5:6.445,pm10:5.704,O2:0.000,NO2:0.046,SO2:0.000,NH3:10.741
13:38:00,0,0,0,0,0,2700,2200,1,0,0,0,514,0,0,0,0,0.0000000,0.0000000,0.0000000,0.0000000,10.00,38.4062347,-110.7920761,1374.0999756,0.1,294.1,0.8,0.0,0.0,868,128,0,0,860.87,10.97,26.38,# data time:4720,pm2.5:6.445,pm10:5.704,O2:0.000,NO2:0.046,SO2:0.000,NH3:10.741
13:38:01,0,0,0,0,0,2700,2200,1,0,0,0,514,0,0,0,0,0.0000000,0.0000000,0.0000000,0.0000000,10.00,38.4062347,-110.7920761,1374.0999756,0.1,297.6,0.8,0.0,0.0,868,128,0,0,860.87,10.97,26.37,# data time:4720,pm2.5:6.445,pm10:5.704,O2:0.000,NO2:0.046,SO2:0.000,NH3:10.741
13:38:02,0,0,0,0,0,2700,2200,1,0,0,0,514,0,0,0,0,0.0000000,0.0000000,0.0000000,0.0000000,10.00,38.4062347,-110.7920761,1374.0999756,0.1,294.9,0.8,0.0,0.0,868,129,0,0,860.83,10.99,26.37,# data time:4720,pm2.5:6.445,pm10:5.704,O2:0.000,NO2:0.046,SO2:0.000,NH3:10.741
13:38:03,0,0,0,0,0,2700,2200,1,0,0,0,513,0,0,0,0,0.0000000,0.0000000,0.0000000,0.0000000,10.00,38.4062386,-110.7920914,1374.0999756,0.1,304.6,0.8,0.0,0.0,868,129,0,0,860.82,10.99,26.38,# data time:4720,pm2.5:6.445,pm10:5.704,O2:0.000,NO2:0.046,SO2:0.000,NH3:10.741
13:38:04,0,0,0,0,0,2700,2200,1,0,0,0,514,0,0,0,0,0.0000000,0.0000000,0.0000000,0.0000000,10.00,38.4062386,-110.7920914,1374.0000000,0.1,303.8,0.8,0.0,0.0,868,129,0,0,860.87,10.96,26.38,# data time:4720,pm2.5:6.445,pm10:5.704,O2:0.000,NO2:0.046,SO2:0.000,NH3:10.741
13:38:05,0,0,0,0,0,2700,2200,1,0,0,0,515,0,0,0,0,0.0000000,0.0000000,0.0000000,0.0000000,10.00,38.4062386,-110.7920914,1374.0000000,0.1,279.5,0.8,0.0,0.0,868,128,0,0,860.92,10.99,26.38,# data time:4720,pm2.5:6.445,pm10:5.704,O2:0.000,NO2:0.046,SO2:0.000,NH3:10.741
13:38:07,0,0,0,0,0,2700,2200,1,0,0,0,514,0,0,0,0,0.0000000,0.0000000,0.0000000,0.0000000,10.00,38.4062386,-110.7920914,1374.0000000,0.1,291.5,0.8,0.0,0.0,868,130,0,0,860.90,10.96,26.37,# data time:4720,pm2.5:6.445,pm10:5.704,O2:0.000,NO2:0.046,SO2:0.000,NH3:10.741
13:38:08,0,0,0,0,0,2700,2200,1,0,0,0,514,0,0,0,0,0.0000000,0.0000000,0.0000000,0.0000000,10.00,38.4062386,-110.7920914,1374.0000000,0.1,287.2,0.8,0.0,0.0,868,131,0,0,860.94,10.97,26.38,# data time:4720,pm2.5:6.445,pm10:5.704,O2:0.000,NO2:0.046,SO2:0.000,NH3:10.741
13:38:09,0,0,0,0,0,2700,2200,1,0,0,0,514,0,0,0,0,0.0000000,0.0000000,0.0000000,0.0000000,10.00,38.4062386,-110.7920914,1374.0000000,0.1,280.8,0.8,0.0,0.0,868,132,0,0,860.92,10.97,26.38,# data time:4730,pm2.5:6.445,pm10:5.704,O2:0.000,NO2:0.028,SO2:0.000,NH3:10.741
13:38:10,0,0,0,0,0,2700,2200,1,0,0,0,514,0,0,0,0,0.0000000,0.0000000,0.0000000,0.0000000,10.00,38.4062386,-110.7920914,1374.0000000,0.1,269.6,0.8,0.0,0.0,868,128,0,0,860.88,10.99,26.37,# data time:4730,pm2.5:6.445,pm10:5.704,O2:0.000,NO2:0.028,SO2:0.000,NH3:10.741
13:38:11,0,0,0,0,0,2700,2200,1,0,0,0,514,0,0,0,0,0.0000000,0.0000000,0.0000000,0.0000000,10.00,38.4062386,-110.7920914,1374.0000000,0.1,272.5,0.8,0.0,0.0,869,129,0,0,860.89,10.97,26.36,# data time:4730,pm2.5:6.445,pm10:5.704,O2:0.000,NO2:0.028,SO2:0.000,NH3:10.741
13:38:12,0,0,0,0,0,2700,2200,1,0,0,0,514,0,0,0,0,0.0000000,0.0000000,0.0000000,0.0000000,10.00,38.4062386,-110.7920914,1374.0000000,0.1,279.3,0.8,0.0,0.0,868,127,0,0,860.89,10.99,26.26,# data time:4730,pm2.5:6.445,pm10:5.704,O2:0.000,NO2:0.028,SO2:0.000,NH3:10.741
13:38:13,0,0,0,0,0,2700,2200,1,0,0,0,514,0,0,0,0,0.0000000,0.0000000,0.0000000,0.0000000,10.00,38.4062386,-110.7920914,1374.0000000,0.1,279.3,0.8,0.0,0.0,868,128,0,0,860.88,10.97,26.30,# data time:4730,pm2.5:6.445,pm10:5.704,O2:0.000,NO2:0.028,SO2:0.000,NH3:10.741
13:38:14,0,0,0,0,0,2700,2200,1,0,0,0,514,0,0,0,0,0.0000000,0.0000000,0.0000000,0.0000000,10.00,38.4062386,-110.7920914,1374.0000000,0.1,279.3,0.8,0.0,0.0,868,128,0,0,860.90,10.99,26.24,# data time:4730,pm2.5:6.445,pm10:5.704,O2:0.000,NO2:0.028,SO2:0.000,NH3:10.741
13:38:15,0,0,0,0,0,2700,2200,1,0,0,0,514,0,0,0,0,0.0000000,0.0000000,0.0000000,0.0000000,10.00,38.4062386,-110.7920914,1374.0000000,0.1,287.1,0.8,0.0,0.0,868,130,0,0,860.90,10.99,26.29,# data time:4730,pm2.5:6.445,pm10:5.704,O2:0.000,NO2:0.028,SO2:0.000,NH3:10.741
