Time, Motor A Speed, Motor A Dir, Motor B Speed, Motor B Dir, Servo Rail Current Sensor, Servo Pos - Arm L, Servo Pos - Arm R, Servo Pos - End, Servo Pos - Hopper, Servo Pos - Lid, Servo Pos - Extra, Servo Current, LED - Front L, LED - Front R, LED - Back L, LED - Back R, IMU Pitch, IMU Roll, IMU Yaw, Compass Heading, GPS Sats, GPS Latitude, GPS Longitude, GPS Altitude, GPS Speed, GPS Angle, GPS HDOP, GPS VDOP, GPS PDOP, Battery, Wind, Comm Xbee Latency, Comm Arduino Latency, Pressure, Humidity, Temperature, uRADMonitor
11:46:15,0,0,0,0,0,2100,2200,8,0,0,0,515,0,0,0,0,0.0000000,0.0000000,0.0000000,0.0000000,8.00,38.4063454,-110.7919998,1355.9000244,0.0,140.4,1.0,0.0,0.0,892,141,0,0,860.02,17.79,33.14,# data time:900,pm2.5:6.445,pm10:5.704,O2:0.000,NO2:0.000,SO2:0.000,NH3:4.630
11:46:16,0,0,0,0,0,2100,2200,8,0,0,0,514,0,0,0,0,0.0000000,0.0000000,0.0000000,0.0000000,8.00,38.4063454,-110.7919998,1355.9000244,0.0,91.6,1.0,0.0,0.0,893,137,0,0,860.02,17.91,33.20,# data time:900,pm2.5:6.445,pm10:5.704,O2:0.000,NO2:0.000,SO2:0.000,NH3:4.630
11:46:17,0,0,0,0,0,2100,2200,8,0,0,0,515,0,0,0,0,0.0000000,0.0000000,0.0000000,0.0000000,8.00,38.4063454,-110.7919998,1355.9000244,0.0,254.8,1.0,0.0,0.0,893,137,0,0,860.04,18.02,33.26,# data time:900,pm2.5:6.445,pm10:5.704,O2:0.000,NO2:0.000,SO2:0.000,NH3:4.630
11:46:18,0,0,0,0,0,2100,2200,8,0,0,0,514,0,0,0,0,0.0000000,0.0000000,0.0000000,0.0000000,8.00,38.4063454,-110.7919998,1355.9000244,0.0,176.5,1.0,0.0,0.0,893,139,0,0,860.08,18.05,33.31,# data time:900,pm2.5:6.445,pm10:5.704,O2:0.000,NO2:0.000,SO2:0.000,NH3:4.630
11:46:19,0,0,0,0,0,2100,2200,8,0,0,0,515,0,0,0,0,0.0000000,0.0000000,0.0000000,0.0000000,8.00,38.4063454,-110.7919998,1355.9000244,0.0,176.0,1.0,0.0,0.0,894,134,0,0,860.04,17.96,33.56,# data time:900,pm2.5:6.445,pm10:5.704,O2:0.000,NO2:0.000,SO2:0.000,NH3:4.630
11:46:20,0,0,0,0,0,2100,2200,8,0,0,0,517,0,0,0,0,0.0000000,0.0000000,0.0000000,0.0000000,8.00,38.4063454,-110.7919998,1356.0000000,0.0,176.0,1.0,0.0,0.0,893,138,0,0,860.06,17.65,33.64,# data time:900,pm2.5:6.445,pm10:5.704,O2:0.000,NO2:0.000,SO2:0.000,NH3:4.630
11:46:21,0,0,0,0,0,2100,2200,8,0,0,0,516,0,0,0,0,0.0000000,0.0000000,0.0000000,0.0000000,8.00,38.4063454,-110.7919998,1356.0000000,0.0,358.6,1.0,0.0,0.0,892,138,0,0,860.06,17.23,33.79,# data time:900,pm2.5:6.445,pm10:5.704,O2:0.000,NO2:0.000,SO2:0.000,NH3:4.630
11:46:22,0,0,0,0,0,2100,2200,8,0,0,0,516,0,0,0,0,0.0000000,0.0000000,0.0000000,0.0000000,8.00,38.4063454,-110.7919998,1356.0000000,0.0,358.6,1.0,0.0,0.0,893,141,0,0,860.06,17.11,33.86,# data time:910,pm2.5:6.445,pm10:5.704,O2:0.000,NO2:0.000,SO2:0.000,NH3:4.630
11:46:23,0,0,0,0,0,2100,2200,8,0,0,0,517,0,0,0,0,0.0000000,0.0000000,0.0000000,0.0000000,8.00,38.4063454,-110.7919998,1356.0000000,0.0,130.5,1.0,0.0,0.0,892,138,0,0,860.08,17.18,33.96,# data time:910,pm2.5:6.445,pm10:5.704,O2:0.000,NO2:0.000,SO2:0.000,NH3:4.630
11:46:24,0,0,0,0,0,2100,2200,8,0,0,0,515,0,0,0,0,0.0000000,0.0000000,0.0000000,0.0000000,8.00,38.4063454,-110.7919998,1356.0000000,0.0,275.3,1.0,0.0,0.0,892,134,0,0,860.08,17.50,34.02,# data time:910,pm2.5:6.445,pm10:5.704,O2:0.000,NO2:0.000,SO2:0.000,NH3:4.630
11:46:25,0,0,0,0,0,2100,2200,8,0,0,0,515,0,0,0,0,0.0000000,0.0000000,0.0000000,0.0000000,8.00,38.4063454,-110.7919998,1356.0000000,0.0,146.8,1.0,0.0,0.0,893,136,0,0,860.10,17.43,34.07,# data time:910,pm2.5:6.445,pm10:5.704,O2:0.000,NO2:0.000,SO2:0.000,NH3:4.630
11:46:26,0,0,0,0,0,2100,2200,8,0,0,0,525,0,0,0,0,0.0000000,0.0000000,0.0000000,0.0000000,8.00,38.4063454,-110.7919998,1356.0000000,0.0,146.6,1.0,0.0,0.0,892,137,0,0,860.13,17.35,34.13,# data time:910,pm2.5:6.445,pm10:5.704,O2:0.000,NO2:0.000,SO2:0.000,NH3:4.630
11:46:27,0,0,0,0,0,2100,2200,8,0,0,0,544,0,0,0,0,0.0000000,0.0000000,0.0000000,0.0000000,8.00,38.4063454,-110.7919846,1356.0000000,0.0,76.9,1.0,0.0,0.0,889,137,0,0,860.12,17.65,34.18,# data time:910,pm2.5:6.445,pm10:5.704,O2:0.000,NO2:0.000,SO2:0.000,NH3:4.630
11:46:28,0,0,0,0,0,2700,2800,9,0,0,0,554,0,0,0,0,0.0000000,0.0000000,0.0000000,0.0000000,8.00,38.4063454,-110.7919846,1356.0000000,0.0,148.2,1.0,0.0,0.0,887,136,0,0,860.15,17.41,34.21,# data time:910,pm2.5:6.445,pm10:5.704,O2:0.000,NO2:0.000,SO2:0.000,NH3:4.630
11:46:29,0,0,0,0,0,2700,2800,9,0,0,0,517,0,0,0,0,0.0000000,0.0000000,0.0000000,0.0000000,8.00,38.4063454,-110.7919846,1356.0000000,0.0,35.8,1.0,0.0,0.0,893,136,0,0,860.10,16.98,34.21,# data time:910,pm2.5:6.445,pm10:5.704,O2:0.000,NO2:0.000,SO2:0.000,NH3:4.630
11:46:30,0,0,0,0,0,2700,2800,9,0,0,0,522,0,0,0,0,0.0000000,0.0000000,0.0000000,0.0000000,8.00,38.4063454,-110.7919846,1356.0000000,0.0,100.5,1.0,0.0,0.0,892,136,0,0,859.69,14.69,34.23,# data time:910,pm2.5:6.445,pm10:5.704,O2:0.000,NO2:0.000,SO2:0.000,NH3:4.630
11:46:31,0,0,0,0,0,2700,2800,9,0,0,0,516,0,0,0,0,0.0000000,0.0000000,0.0000000,0.0000000,8.00,38.4063454,-110.7919846,1356.0000000,0.0,238.2,1.0,0.0,0.0,893,142,0,0,859.86,15.79,34.26,# data time:910,pm2.5:6.445,pm10:5.704,O2:0.000,NO2:0.000,SO2:0.000,NH3:4.630
11:46:32,0,0,0,0,0,2700,2800,9,0,0,0,516,0,0,0,0,0.0000000,0.0000000,0.0000000,0.0000000,8.00,38.4063454,-110.7919846,1356.0000000,0.0,166.3,1.0,0.0,0.0,893,135,0,0,860.16,18.97,34.32,# data time:920,pm2.5:6.445,pm10:5.704,O2:0.000,NO2:0.000,SO2:0.000,NH3:4.630
11:46:33,0,0,0,0,0,2700,2800,9,0,0,0,518,0,0,0,0,0.0000000,0.0000000,0.0000000,0.0000000,8.00,38.4063454,-110.7919846,1356.0000000,0.0,86.1,1.0,0.0,0.0,892,135,0,0,859.88,15.46,34.34,# data time:920,pm2.5:6.445,pm10:5.704,O2:0.000,NO2:0.000,SO2:0.000,NH3:4.630
11:46:34,0,0,0,0,0,2700,2800,9,0,0,0,517,0,0,0,0,0.0000000,0.0000000,0.0000000,0.0000000,8.00,38.4063454,-110.7919846,1356.0000000,0.0,180.3,1.0,0.0,0.0,892,138,0,0,860.09,16.82,34.34,# data time:920,pm2.5:6.445,pm10:5.704,O2:0.000,NO2:0.000,SO2:0.000,NH3:4.630
11:46:35,0,0,0,0,0,2700,2800,9,0,0,0,518,0,0,0,0,0.0000000,0.0000000,0.0000000,0.0000000,8.00,38.4063454,-110.7919846,1356.0000000,0.0,178.2,1.0,0.0,0.0,892,138,0,0,860.08,16.59,34.31,# data time:920,pm2.5:6.445,pm10:5.704,O2:0.000,NO2:0.000,SO2:0.000,NH3:4.630
11:46:36,0,0,0,0,0,2700,2800,9,0,0,0,518,0,0,0,0,0.0000000,0.0000000,0.0000000,0.0000000,7.00,38.4063454,-110.7919846,1356.0000000,0.0,150.2,1.1,0.0,0.0,890,142,0,0,859.97,16.14,34.27,# data time:920,pm2.5:6.445,pm10:5.704,O2:0.000,NO2:0.000,SO2:0.000,NH3:4.630
11:46:38,0,0,0,0,0,2700,2800,9,0,0,0,523,0,0,0,0,0.0000000,0.0000000,0.0000000,0.0000000,8.00,38.4063454,-110.7919846,1356.0000000,0.0,88.3,1.0,0.0,0.0,893,146,0,0,859.98,15.98,34.19,# data time:920,pm2.5:6.445,pm10:5.704,O2:0.000,NO2:0.000,SO2:0.000,NH3:4.630
11:46:39,0,0,0,0,0,2700,2800,9,0,0,0,517,0,0,0,0,0.0000000,0.0000000,0.0000000,0.0000000,8.00,38.4063454,-110.7919846,1356.0000000,0.0,124.6,1.0,0.0,0.0,891,148,0,0,860.05,16.11,34.09,# data time:920,pm2.5:6.445,pm10:5.704,O2:0.000,NO2:0.000,SO2:0.000,NH3:4.630
11:46:40,0,0,0,0,0,2700,2800,9,0,0,0,519,0,0,0,0,0.0000000,0.0000000,0.0000000,0.0000000,8.00,38.4063454,-110.7919846,1356.0000000,0.0,260.3,1.0,0.0,0.0,889,153,0,0,860.14,16.60,33.98,# data time:920,pm2.5:6.445,pm10:5.704,O2:0.000,NO2:0.000,SO2:0.000,NH3:4.630
11:46:41,0,0,0,0,0,2700,2800,9,0,0,0,524,0,0,0,0,0.0000000,0.0000000,0.0000000,0.0000000,8.00,38.4063454,-110.7919846,1356.0000000,0.0,166.0,1.0,0.0,0.0,892,148,0,0,860.18,17.06,33.92,# data time:920,pm2.5:6.445,pm10:5.704,O2:0.000,NO2:0.000,SO2:0.000,NH3:4.630
11:46:42,0,0,0,0,0,2700,2800,9,0,0,0,516,0,0,0,0,0.0000000,0.0000000,0.0000000,0.0000000,8.00,38.4063454,-110.7919846,1356.0000000,0.0,20.1,1.0,0.0,0.0,887,146,0,0,860.14,16.69,33.91,# data time:930,pm2.5:5.640,pm10:4.991,O2:0.000,NO2:0.000,SO2:0.000,NH3:4.630
11:46:43,0,0,0,0,0,2700,2800,9,0,0,0,516,0,0,0,0,0.0000000,0.0000000,0.0000000,0.0000000,8.00,38.4063454,-110.7919846,1356.0000000,0.0,81.9,1.0,0.0,0.0,888,149,0,0,860.07,16.36,33.90,# data time:930,pm2.5:5.640,pm10:4.991,O2:0.000,NO2:0.000,SO2:0.000,NH3:4.630
11:46:44,0,0,0,0,0,2100,2200,10,0,0,0,520,0,0,0,0,0.0000000,0.0000000,0.0000000,0.0000000,8.00,38.4063454,-110.7919846,1356.0000000,0.0,13.6,1.0,0.0,0.0,892,141,0,0,860.06,16.31,33.94,# data time:930,pm2.5:5.640,pm10:4.991,O2:0.000,NO2:0.000,SO2:0.000,NH3:4.630
11:46:45,0,0,0,0,0,2100,2200,10,0,0,0,519,0,0,0,0,0.0000000,0.0000000,0.0000000,0.0000000,8.00,38.4063454,-110.7919846,1356.0000000,0.0,314.2,1.0,0.0,0.0,892,141,0,0,860.11,16.25,33.93,# data time:930,pm2.5:5.640,pm10:4.991,O2:0.000,NO2:0.000,SO2:0.000,NH3:4.630
11:46:46,0,0,0,0,0,2100,2200,10,0,0,0,589,0,0,0,0,0.0000000,0.0000000,0.0000000,0.0000000,8.00,38.4063454,-110.7919846,1356.0000000,0.0,129.4,1.0,0.0,0.0,879,142,0,0,860.20,16.31,33.87,# data time:930,pm2.5:5.640,pm10:4.991,O2:0.000,NO2:0.000,SO2:0.000,NH3:4.630
11:46:47,0,0,0,0,0,2100,2200,10,0,0,0,516,0,0,0,0,0.0000000,0.0000000,0.0000000,0.0000000,8.00,38.4063454,-110.7919846,1356.0000000,0.0,258.7,1.0,0.0,0.0,893,139,0,0,860.16,16.22,33.81,# data time:930,pm2.5:5.640,pm10:4.991,O2:0.000,NO2:0.000,SO2:0.000,NH3:4.630
11:46:48,0,0,0,0,0,2100,2200,10,0,0,0,518,0,0,0,0,0.0000000,0.0000000,0.0000000,0.0000000,7.00,38.4063454,-110.7919846,1356.0000000,0.0,177.1,1.1,0.0,0.0,892,141,0,0,860.11,16.74,33.72,# data time:930,pm2.5:5.640,pm10:4.991,O2:0.000,NO2:0.000,SO2:0.000,NH3:4.630
11:46:49,0,0,0,0,0,2100,2200,10,0,0,0,526,0,0,0,0,0.0000000,0.0000000,0.0000000,0.0000000,8.00,38.4063454,-110.7919846,1356.0000000,0.0,116.5,1.0,0.0,0.0,894,146,0,0,860.07,16.82,33.63,# data time:930,pm2.5:5.640,pm10:4.991,O2:0.000,NO2:0.000,SO2:0.000,NH3:4.630
11:46:50,0,0,0,0,0,2100,2200,10,0,0,0,519,0,0,0,0,0.0000000,0.0000000,0.0000000,0.0000000,8.00,38.4063454,-110.7919846,1356.0000000,0.0,64.1,1.0,0.0,0.0,888,154,0,0,860.02,16.13,33.54,# data time:930,pm2.5:5.640,pm10:4.991,O2:0.000,NO2:0.000,SO2:0.000,NH3:4.630
11:46:51,0,0,0,0,0,2100,2200,10,0,0,0,513,0,0,0,0,0.0000000,0.0000000,0.0000000,0.0000000,7.00,38.4063454,-110.7919846,1356.0000000,0.0,130.5,1.1,0.0,0.0,891,143,0,0,860.06,15.95,33.41,# data time:930,pm2.5:5.640,pm10:4.991,O2:0.000,NO2:0.000,SO2:0.000,NH3:4.630
11:46:52,0,0,0,0,0,2100,2200,10,0,0,0,521,0,0,0,0,0.0000000,0.0000000,0.0000000,0.0000000,7.00,38.4063454,-110.7919846,1356.0000000,0.0,171.4,1.1,0.0,0.0,890,154,0,0,860.10,16.04,33.27,# data time:940,pm2.5:5.640,pm10:4.991,O2:0.000,NO2:0.010,SO2:0.000,NH3:4.630
11:46:53,0,0,0,0,0,2100,2200,10,0,0,0,520,0,0,0,0,0.0000000,0.0000000,0.0000000,0.0000000,8.00,38.4063454,-110.7919846,1356.0000000,0.0,150.0,1.0,0.0,0.0,892,152,0,0,859.98,15.82,33.12,# data time:940,pm2.5:5.640,pm10:4.991,O2:0.000,NO2:0.010,SO2:0.000,NH3:4.630
11:46:54,0,0,0,0,0,2100,2200,10,0,0,0,523,0,0,0,0,0.0000000,0.0000000,0.0000000,0.0000000,8.00,38.4063454,-110.7919846,1356.0000000,0.0,297.8,1.0,0.0,0.0,891,153,0,0,860.04,16.11,32.98,# data time:940,pm2.5:5.640,pm10:4.991,O2:0.000,NO2:0.010,SO2:0.000,NH3:4.630
11:46:55,0,0,0,0,0,2100,2200,10,0,0,0,548,0,0,0,0,0.0000000,0.0000000,0.0000000,0.0000000,8.00,38.4063454,-110.7919846,1356.0000000,0.0,340.9,1.0,0.0,0.0,884,160,0,0,860.06,16.13,32.81,# data time:940,pm2.5:5.640,pm10:4.991,O2:0.000,NO2:0.010,SO2:0.000,NH3:4.630
11:46:56,0,0,0,0,0,2100,2200,10,0,0,0,543,0,0,0,0,0.0000000,0.0000000,0.0000000,0.0000000,8.00,38.4063454,-110.7919846,1356.0999756,0.0,340.8,1.0,0.0,0.0,883,153,0,0,860.03,16.08,32.70,# data time:940,pm2.5:5.640,pm10:4.991,O2:0.000,NO2:0.010,SO2:0.000,NH3:4.630
11:46:57,0,0,0,0,0,2100,2200,10,0,0,0,520,0,0,0,0,0.0000000,0.0000000,0.0000000,0.0000000,8.00,38.4063454,-110.7919846,1356.0999756,0.0,341.6,1.0,0.0,0.0,891,157,0,0,860.12,16.42,32.43,# data time:940,pm2.5:5.640,pm10:4.991,O2:0.000,NO2:0.010,SO2:0.000,NH3:4.630
11:46:58,0,0,0,0,0,2100,2200,10,0,0,0,514,0,0,0,0,0.0000000,0.0000000,0.0000000,0.0000000,8.00,38.4063454,-110.7919846,1356.0999756,0.0,334.1,1.0,0.0,0.0,890,154,0,0,860.15,16.59,32.37,# data time:940,pm2.5:5.640,pm10:4.991,O2:0.000,NO2:0.010,SO2:0.000,NH3:4.630
11:46:59,0,0,0,0,0,1700,1800,11,0,0,0,516,0,0,0,0,0.0000000,0.0000000,0.0000000,0.0000000,8.00,38.4063454,-110.7919846,1356.0999756,0.0,165.4,1.0,0.0,0.0,893,153,0,0,860.20,17.94,32.37,# data time:940,pm2.5:5.640,pm10:4.991,O2:0.000,NO2:0.010,SO2:0.000,NH3:4.630
11:47:00,0,0,0,0,0,1700,1800,11,0,0,0,515,0,0,0,0,0.0000000,0.0000000,0.0000000,0.0000000,8.00,38.4063454,-110.7919846,1356.0999756,0.0,165.4,1.0,0.0,0.0,891,154,0,0,860.14,16.71,32.22,# data time:940,pm2.5:5.640,pm10:4.991,O2:0.000,NO2:0.010,SO2:0.000,NH3:4.630
11:47:01,0,0,0,0,0,1700,1800,11,0,0,0,536,0,0,0,0,0.0000000,0.0000000,0.0000000,0.0000000,8.00,38.4063454,-110.7919846,1356.0999756,0.0,153.1,1.0,0.0,0.0,888,155,0,0,860.21,17.09,32.28,# data time:940,pm2.5:5.640,pm10:4.991,O2:0.000,NO2:0.010,SO2:0.000,NH3:4.630
11:47:02,0,0,0,0,0,1700,1800,11,0,0,0,537,0,0,0,0,0.0000000,0.0000000,0.0000000,0.0000000,7.00,38.4063454,-110.7919846,1356.0999756,0.0,149.8,1.1,0.0,0.0,888,152,0,0,860.19,17.27,32.25,# data time:950,pm2.5:6.445,pm10:5.704,O2:0.000,NO2:0.000,SO2:0.000,NH3:4.630
11:47:03,0,0,0,0,0,1700,1800,11,0,0,0,552,0,0,0,0,0.0000000,0.0000000,0.0000000,0.0000000,8.00,38.4063454,-110.7919846,1356.0999756,0.0,198.9,1.0,0.0,0.0,886,151,0,0,860.25,17.53,32.27,# data time:950,pm2.5:6.445,pm10:5.704,O2:0.000,NO2:0.000,SO2:0.000,NH3:4.630
11:47:04,0,0,0,0,0,1700,1800,11,0,0,0,518,0,0,0,0,0.0000000,0.0000000,0.0000000,0.0000000,8.00,38.4063454,-110.7919846,1356.0999756,0.0,331.2,1.0,0.0,0.0,892,152,0,0,860.23,17.69,32.32,# data time:950,pm2.5:6.445,pm10:5.704,O2:0.000,NO2:0.000,SO2:0.000,NH3:4.630
11:47:05,0,0,0,0,0,1700,1800,11,0,0,0,569,0,0,0,0,0.0000000,0.0000000,0.0000000,0.0000000,8.00,38.4063454,-110.7919846,1356.0999756,0.0,331.9,1.0,0.0,0.0,882,148,0,0,860.18,17.62,32.39,# data time:950,pm2.5:6.445,pm10:5.704,O2:0.000,NO2:0.000,SO2:0.000,NH3:4.630
11:47:06,0,0,0,0,0,1700,1800,11,0,0,0,537,0,0,0,0,0.0000000,0.0000000,0.0000000,0.0000000,8.00,38.4063454,-110.7919846,1356.0999756,0.0,336.7,1.0,0.0,0.0,888,145,0,0,860.19,17.38,32.45,# data time:950,pm2.5:6.445,pm10:5.704,O2:0.000,NO2:0.000,SO2:0.000,NH3:4.630
11:47:07,0,0,0,0,0,1700,1800,11,0,0,0,561,0,0,0,0,0.0000000,0.0000000,0.0000000,0.0000000,8.00,38.4063454,-110.7919846,1356.0999756,0.0,326.7,1.0,0.0,0.0,885,148,0,0,860.20,17.18,32.50,# data time:950,pm2.5:6.445,pm10:5.704,O2:0.000,NO2:0.000,SO2:0.000,NH3:4.630
11:47:08,0,0,0,0,0,1700,1800,11,0,0,0,520,0,0,0,0,0.0000000,0.0000000,0.0000000,0.0000000,8.00,38.4063454,-110.7919846,1356.0999756,0.0,343.7,1.0,0.0,0.0,892,141,0,0,860.31,17.64,32.54,# data time:950,pm2.5:6.445,pm10:5.704,O2:0.000,NO2:0.000,SO2:0.000,NH3:4.630
11:47:09,0,0,0,0,0,1700,1800,11,0,0,0,517,0,0,0,0,0.0000000,0.0000000,0.0000000,0.0000000,8.00,38.4063454,-110.7919846,1356.0999756,0.0,313.7,1.0,0.0,0.0,892,145,0,0,860.25,17.35,32.56,# data time:950,pm2.5:6.445,pm10:5.704,O2:0.000,NO2:0.000,SO2:0.000,NH3:4.630
11:47:10,0,0,0,0,0,1700,1800,11,0,0,0,517,0,0,0,0,0.0000000,0.0000000,0.0000000,0.0000000,8.00,38.4063454,-110.7919846,1356.0999756,0.0,190.8,1.0,0.0,0.0,893,146,0,0,860.27,17.76,32.59,# data time:950,pm2.5:6.445,pm10:5.704,O2:0.000,NO2:0.000,SO2:0.000,NH3:4.630
11:47:11,0,0,0,0,0,1700,1800,11,0,0,0,513,0,0,0,0,0.0000000,0.0000000,0.0000000,0.0000000,8.00,38.4063454,-110.7919846,1356.0999756,0.0,165.9,1.0,0.0,0.0,894,138,0,0,860.20,17.33,32.63,# data time:950,pm2.5:6.445,pm10:5.704,O2:0.000,NO2:0.000,SO2:0.000,NH3:4.630
11:47:12,0,0,0,0,0,1700,1800,11,0,0,0,534,0,0,0,0,0.0000000,0.0000000,0.0000000,0.0000000,8.00,38.4063454,-110.7919846,1356.0999756,0.0,190.1,1.0,0.0,0.0,888,144,0,0,860.22,17.53,32.67,# data time:960,pm2.5:6.445,pm10:5.704,O2:0.000,NO2:0.010,SO2:0.000,NH3:4.404
11:47:13,0,0,0,0,0,2100,2200,12,0,0,0,534,0,0,0,0,0.0000000,0.0000000,0.0000000,0.0000000,8.00,38.4063454,-110.7919846,1356.0999756,0.0,187.7,1.0,0.0,0.0,887,147,0,0,860.26,17.94,32.69,# data time:960,pm2.5:6.445,pm10:5.704,O2:0.000,NO2:0.010,SO2:0.000,NH3:4.404
11:47:14,0,0,0,0,0,2100,2200,12,0,0,0,521,0,0,0,0,0.0000000,0.0000000,0.0000000,0.0000000,8.00,38.4063454,-110.7919846,1356.0999756,0.0,148.9,1.0,0.0,0.0,891,151,0,0,860.07,17.12,32.67,# data time:960,pm2.5:6.445,pm10:5.704,O2:0.000,NO2:0.010,SO2:0.000,NH3:4.404
11:47:15,0,0,0,0,0,2100,2200,12,0,0,0,518,0,0,0,0,0.0000000,0.0000000,0.0000000,0.0000000,8.00,38.4063454,-110.7919846,1356.0999756,0.0,157.7,1.0,0.0,0.0,893,144,0,0,860.12,17.30,32.66,# data time:960,pm2.5:6.445,pm10:5.704,O2:0.000,NO2:0.010,SO2:0.000,NH3:4.404
11:47:16,0,0,0,0,0,2100,2200,12,0,0,0,535,0,0,0,0,0.0000000,0.0000000,0.0000000,0.0000000,8.00,38.4063454,-110.7919846,1356.0999756,0.0,351.5,1.0,0.0,0.0,887,144,0,0,860.13,17.73,32.67,# data time:960,pm2.5:6.445,pm10:5.704,O2:0.000,NO2:0.010,SO2:0.000,NH3:4.404
11:47:18,0,0,0,0,0,2100,2200,12,0,0,0,515,0,0,0,0,0.0000000,0.0000000,0.0000000,0.0000000,8.00,38.4063454,-110.7919846,1356.0999756,0.0,311.2,1.0,0.0,0.0,892,142,0,0,860.15,17.85,32.69,# data time:960,pm2.5:6.445,pm10:5.704,O2:0.000,NO2:0.010,SO2:0.000,NH3:4.404
11:47:19,0,0,0,0,0,2100,2200,12,0,0,0,536,0,0,0,0,0.0000000,0.0000000,0.0000000,0.0000000,8.00,38.4063454,-110.7919846,1356.0999756,0.0,306.2,1.0,0.0,0.0,893,144,0,0,860.18,18.08,32.70,# data time:960,pm2.5:6.445,pm10:5.704,O2:0.000,NO2:0.010,SO2:0.000,NH3:4.404
11:47:20,0,0,0,0,0,2100,2200,12,0,0,0,521,0,0,0,0,0.0000000,0.0000000,0.0000000,0.0000000,8.00,38.4063454,-110.7919846,1356.0999756,0.0,341.3,1.0,0.0,0.0,897,139,0,0,860.14,17.85,32.77,# data time:960,pm2.5:6.445,pm10:5.704,O2:0.000,NO2:0.010,SO2:0.000,NH3:4.404
11:47:21,0,0,0,0,0,2100,2200,12,0,0,0,520,0,0,0,0,0.0000000,0.0000000,0.0000000,0.0000000,8.00,38.4063454,-110.7919846,1356.0999756,0.0,346.0,1.0,0.0,0.0,889,142,0,0,860.02,17.46,32.76,# data time:960,pm2.5:6.445,pm10:5.704,O2:0.000,NO2:0.010,SO2:0.000,NH3:4.404
11:47:22,0,0,0,0,0,2100,2200,12,0,0,0,514,0,0,0,0,0.0000000,0.0000000,0.0000000,0.0000000,8.00,38.4063454,-110.7919846,1356.0999756,0.0,326.1,1.0,0.0,0.0,900,150,0,0,859.91,16.57,32.70,# data time:970,pm2.5:6.445,pm10:5.704,O2:0.000,NO2:0.000,SO2:0.000,NH3:4.630
11:47:23,0,0,0,0,0,2100,2200,12,0,0,0,516,0,0,0,0,0.0000000,0.0000000,0.0000000,0.0000000,8.00,38.4063454,-110.7919846,1356.0999756,0.0,15.1,1.0,0.0,0.0,892,156,0,0,859.97,17.04,32.64,# data time:970,pm2.5:6.445,pm10:5.704,O2:0.000,NO2:0.000,SO2:0.000,NH3:4.630
11:47:24,0,0,0,0,0,2100,2200,12,0,0,0,516,0,0,0,0,0.0000000,0.0000000,0.0000000,0.0000000,8.00,38.4063454,-110.7919846,1356.0999756,0.0,158.9,1.0,0.0,0.0,893,151,0,0,859.99,17.21,32.58,# data time:970,pm2.5:6.445,pm10:5.704,O2:0.000,NO2:0.000,SO2:0.000,NH3:4.630
11:47:25,0,0,0,0,0,2100,2200,12,0,0,0,524,0,0,0,0,0.0000000,0.0000000,0.0000000,0.0000000,8.00,38.4063454,-110.7919846,1356.0999756,0.0,131.9,1.0,0.0,0.0,888,155,0,0,859.90,17.08,32.51,# data time:970,pm2.5:6.445,pm10:5.704,O2:0.000,NO2:0.000,SO2:0.000,NH3:4.630
11:47:26,0,0,0,0,0,2100,2200,12,0,0,0,518,0,0,0,0,0.0000000,0.0000000,0.0000000,0.0000000,8.00,38.4063454,-110.7919846,1356.0999756,0.0,129.7,1.0,0.0,0.0,892,157,0,0,859.85,17.01,32.44,# data time:970,pm2.5:6.445,pm10:5.704,O2:0.000,NO2:0.000,SO2:0.000,NH3:4.630
11:47:27,0,0,0,0,0,2100,2200,12,0,0,0,515,0,0,0,0,0.0000000,0.0000000,0.0000000,0.0000000,8.00,38.4063454,-110.7919846,1356.0999756,0.0,128.4,1.0,0.0,0.0,893,151,0,0,859.91,17.38,32.37,# data time:970,pm2.5:6.445,pm10:5.704,O2:0.000,NO2:0.000,SO2:0.000,NH3:4.630
11:47:28,0,0,0,0,0,2100,2200,12,0,0,0,515,0,0,0,0,0.0000000,0.0000000,0.0000000,0.0000000,8.00,38.4063454,-110.7919846,1356.0999756,0.0,77.0,1.0,0.0,0.0,893,153,0,0,859.88,17.64,32.32,# data time:970,pm2.5:6.445,pm10:5.704,O2:0.000,NO2:0.000,SO2:0.000,NH3:4.630
11:47:29,0,0,0,0,0,2700,1800,13,0,0,0,541,0,0,0,0,0.0000000,0.0000000,0.0000000,0.0000000,8.00,38.4063454,-110.7919846,1356.0999756,0.0,267.2,1.0,0.0,0.0,888,152,0,0,859.89,17.85,32.30,# data time:970,pm2.5:6.445,pm10:5.704,O2:0.000,NO2:0.000,SO2:0.000,NH3:4.630
11:47:30,0,0,0,0,0,2700,1800,13,0,0,0,520,0,0,0,0,0.0000000,0.0000000,0.0000000,0.0000000,8.00,38.4063454,-110.7919846,1356.0999756,0.0,216.0,1.0,0.0,0.0,892,150,0,0,860.12,19.46,32.35,# data time:970,pm2.5:6.445,pm10:5.704,O2:0.000,NO2:0.000,SO2:0.000,NH3:4.630
11:47:31,0,0,0,0,0,2700,1800,13,0,0,0,503,0,0,0,0,0.0000000,0.0000000,0.0000000,0.0000000,8.00,38.4063454,-110.7919846,1356.0999756,0.0,8.2,1.0,0.0,0.0,898,153,0,0,860.00,18.65,32.41,# data time:970,pm2.5:6.445,pm10:5.704,O2:0.000,NO2:0.000,SO2:0.000,NH3:4.630
11:47:32,0,0,0,0,0,2700,1800,13,0,0,0,525,0,0,0,0,0.0000000,0.0000000,0.0000000,0.0000000,8.00,38.4063454,-110.7919846,1356.0999756,0.0,4.2,1.0,0.0,0.0,892,144,0,0,859.95,18.25,32.47,# data time:980,pm2.5:6.445,pm10:5.704,O2:0.000,NO2:0.000,SO2:0.000,NH3:4.630
11:47:33,0,0,0,0,0,2700,1800,13,0,0,0,512,0,0,0,0,0.0000000,0.0000000,0.0000000,0.0000000,8.00,38.4063454,-110.7919846,1356.0999756,0.0,307.4,1.0,0.0,0.0,889,150,0,0,860.05,18.59,32.55,# data time:980,pm2.5:6.445,pm10:5.704,O2:0.000,NO2:0.000,SO2:0.000,NH3:4.630
11:47:34,0,0,0,0,0,2700,1800,13,0,0,0,510,0,0,0,0,0.0000000,0.0000000,0.0000000,0.0000000,8.00,38.4063454,-110.7919846,1356.0999756,0.0,205.6,1.0,0.0,0.0,893,143,0,0,860.06,18.52,32.63,# data time:980,pm2.5:6.445,pm10:5.704,O2:0.000,NO2:0.000,SO2:0.000,NH3:4.630
11:47:35,0,0,0,0,0,2700,1800,13,0,0,0,511,0,0,0,0,0.0000000,0.0000000,0.0000000,0.0000000,8.00,38.4063454,-110.7919846,1356.0999756,0.0,158.6,1.0,0.0,0.0,900,141,0,0,860.05,18.68,32.69,# data time:980,pm2.5:6.445,pm10:5.704,O2:0.000,NO2:0.000,SO2:0.000,NH3:4.630
11:47:36,0,0,0,0,0,2700,1800,13,0,0,0,517,0,0,0,0,0.0000000,0.0000000,0.0000000,0.0000000,8.00,38.4063454,-110.7919846,1356.0999756,0.0,127.4,1.0,0.0,0.0,892,143,0,0,860.09,18.48,32.78,# data time:980,pm2.5:6.445,pm10:5.704,O2:0.000,NO2:0.000,SO2:0.000,NH3:4.630
11:47:37,0,0,0,0,0,2700,1800,13,0,0,0,515,0,0,0,0,0.0000000,0.0000000,0.0000000,0.0000000,8.00,38.4063454,-110.7919846,1356.0999756,0.0,117.2,1.0,0.0,0.0,893,144,0,0,860.07,18.01,32.84,# data time:980,pm2.5:6.445,pm10:5.704,O2:0.000,NO2:0.000,SO2:0.000,NH3:4.630
11:47:38,0,0,0,0,0,2700,1800,13,0,0,0,517,0,0,0,0,0.0000000,0.0000000,0.0000000,0.0000000,8.00,38.4063454,-110.7919846,1356.0999756,0.0,144.2,1.0,0.0,0.0,892,141,0,0,860.03,17.87,32.84,# data time:980,pm2.5:6.445,pm10:5.704,O2:0.000,NO2:0.000,SO2:0.000,NH3:4.630
11:47:39,0,0,0,0,0,2700,1800,13,0,0,0,518,0,0,0,0,0.0000000,0.0000000,0.0000000,0.0000000,8.00,38.4063454,-110.7919846,1356.0999756,0.0,144.2,1.0,0.0,0.0,893,142,0,0,860.00,18.28,32.67,# data time:980,pm2.5:6.445,pm10:5.704,O2:0.000,NO2:0.000,SO2:0.000,NH3:4.630
11:47:40,0,0,0,0,0,2700,1800,13,0,0,0,517,0,0,0,0,0.0000000,0.0000000,0.0000000,0.0000000,8.00,38.4063454,-110.7919846,1356.0999756,0.0,31.1,1.0,0.0,0.0,893,143,0,0,859.98,18.34,32.64,# data time:980,pm2.5:6.445,pm10:5.704,O2:0.000,NO2:0.000,SO2:0.000,NH3:4.630
11:47:41,0,0,0,0,0,2700,1800,13,0,0,0,517,0,0,0,0,0.0000000,0.0000000,0.0000000,0.0000000,8.00,38.4063454,-110.7919846,1356.0999756,0.0,307.1,1.0,0.0,0.0,892,145,0,0,860.01,18.34,32.70,# data time:980,pm2.5:6.445,pm10:5.704,O2:0.000,NO2:0.000,SO2:0.000,NH3:4.630
11:47:42,0,0,0,0,0,2700,1800,13,0,0,0,565,0,0,0,0,0.0000000,0.0000000,0.0000000,0.0000000,8.00,38.4063454,-110.7919846,1356.0999756,0.0,307.1,1.0,0.0,0.0,886,146,0,0,860.05,18.65,32.64,# data time:990,pm2.5:6.445,pm10:5.704,O2:0.000,NO2:0.000,SO2:0.000,NH3:4.630
11:47:43,0,0,0,0,0,2100,2200,14,0,0,0,568,0,0,0,0,0.0000000,0.0000000,0.0000000,0.0000000,8.00,38.4063454,-110.7919846,1356.0999756,0.0,316.7,1.0,0.0,0.0,884,143,0,0,860.06,18.78,32.62,# data time:990,pm2.5:6.445,pm10:5.704,O2:0.000,NO2:0.000,SO2:0.000,NH3:4.630
11:47:44,0,0,0,0,0,2100,2200,14,0,0,0,582,0,0,0,0,0.0000000,0.0000000,0.0000000,0.0000000,8.00,38.4063454,-110.7919846,1356.0999756,0.0,317.5,1.0,0.0,0.0,881,141,0,0,859.99,18.23,32.63,# data time:990,pm2.5:6.445,pm10:5.704,O2:0.000,NO2:0.000,SO2:0.000,NH3:4.630
11:47:45,0,0,0,0,0,2100,2200,14,0,0,0,520,0,0,0,0,0.0000000,0.0000000,0.0000000,0.0000000,8.00,38.4063454,-110.7919846,1356.0999756,0.0,228.9,1.0,0.0,0.0,892,143,0,0,860.06,18.71,32.69,# data time:990,pm2.5:6.445,pm10:5.704,O2:0.000,NO2:0.000,SO2:0.000,NH3:4.630
11:47:46,0,0,0,0,0,2100,2200,14,0,0,0,519,0,0,0,0,0.0000000,0.0000000,0.0000000,0.0000000,8.00,38.4063454,-110.7919846,1356.0999756,0.0,132.6,1.0,0.0,0.0,890,140,0,0,860.06,18.92,32.75,# data time:990,pm2.5:6.445,pm10:5.704,O2:0.000,NO2:0.000,SO2:0.000,NH3:4.630
11:47:47,0,0,0,0,0,2100,2200,14,0,0,0,514,0,0,0,0,0.0000000,0.0000000,0.0000000,0.0000000,8.00,38.4063454,-110.7919846,1356.1999512,0.0,137.9,1.0,0.0,0.0,895,140,0,0,860.04,18.83,32.83,# data time:990,pm2.5:6.445,pm10:5.704,O2:0.000,NO2:0.000,SO2:0.000,NH3:4.630
11:47:48,0,0,0,0,0,2100,2200,14,0,0,0,512,0,0,0,0,0.0000000,0.0000000,0.0000000,0.0000000,8.00,38.4063454,-110.7919846,1356.1999512,0.0,121.8,1.0,0.0,0.0,887,147,0,0,860.09,18.91,32.93,# data time:990,pm2.5:6.445,pm10:5.704,O2:0.000,NO2:0.000,SO2:0.000,NH3:4.630
11:47:49,0,0,0,0,0,2100,2200,14,0,0,0,509,0,0,0,0,0.0000000,0.0000000,0.0000000,0.0000000,8.00,38.4063454,-110.7919846,1356.1999512,0.0,141.7,1.0,0.0,0.0,895,134,0,0,860.07,18.85,33.03,# data time:990,pm2.5:6.445,pm10:5.704,O2:0.000,NO2:0.000,SO2:0.000,NH3:4.630
11:47:50,0,0,0,0,0,2100,2200,14,0,0,0,511,0,0,0,0,0.0000000,0.0000000,0.0000000,0.0000000,8.00,38.4063454,-110.7919846,1356.1999512,0.0,130.0,1.0,0.0,0.0,891,140,0,0,860.04,18.81,33.16,# data time:990,pm2.5:6.445,pm10:5.704,O2:0.000,NO2:0.000,SO2:0.000,NH3:4.630
11:47:51,0,0,0,0,0,2100,2200,14,0,0,0,512,0,0,0,0,0.0000000,0.0000000,0.0000000,0.0000000,8.00,38.4063454,-110.7919846,1356.1999512,0.0,2.7,1.0,0.0,0.0,896,137,0,0,860.06,18.72,33.27,# data time:990,pm2.5:6.445,pm10:5.704,O2:0.000,NO2:0.000,SO2:0.000,NH3:4.630
11:47:52,0,0,0,0,0,2100,2200,14,0,0,0,515,0,0,0,0,0.0000000,0.0000000,0.0000000,0.0000000,8.00,38.4063454,-110.7919846,1356.1999512,0.0,321.8,1.0,0.0,0.0,893,137,0,0,860.04,18.66,33.40,# data time:1000,pm2.5:6.445,pm10:5.704,O2:0.000,NO2:0.010,SO2:0.000,NH3:4.857
11:47:53,0,0,0,0,0,2100,2200,14,0,0,0,515,0,0,0,0,0.0000000,0.0000000,0.0000000,0.0000000,8.00,38.4063454,-110.7919846,1356.1999512,0.0,315.2,1.0,0.0,0.0,894,137,0,0,860.06,18.59,33.54,# data time:1000,pm2.5:6.445,pm10:5.704,O2:0.000,NO2:0.010,SO2:0.000,NH3:4.857
11:47:54,0,0,0,0,0,2100,2200,14,0,0,0,515,0,0,0,0,0.0000000,0.0000000,0.0000000,0.0000000,8.00,38.4063454,-110.7919846,1356.1999512,0.0,295.2,1.0,0.0,0.0,893,137,0,0,860.09,18.56,33.67,# data time:1000,pm2.5:6.445,pm10:5.704,O2:0.000,NO2:0.010,SO2:0.000,NH3:4.857
11:47:56,0,0,0,0,0,2100,2200,14,0,0,0,520,0,0,0,0,0.0000000,0.0000000,0.0000000,0.0000000,8.00,38.4063454,-110.7919846,1356.1999512,0.0,317.2,1.0,0.0,0.0,893,137,0,0,860.11,18.42,33.80,# data time:1000,pm2.5:6.445,pm10:5.704,O2:0.000,NO2:0.010,SO2:0.000,NH3:4.857
11:47:57,0,0,0,0,0,2100,2200,14,0,0,0,521,0,0,0,0,0.0000000,0.0000000,0.0000000,0.0000000,8.00,38.4063454,-110.7919846,1356.1999512,0.0,308.5,1.0,0.0,0.0,891,137,0,0,860.08,18.14,33.90,# data time:1000,pm2.5:6.445,pm10:5.704,O2:0.000,NO2:0.010,SO2:0.000,NH3:4.857
11:47:58,0,0,0,0,0,2100,2200,14,0,0,0,527,0,0,0,0,0.0000000,0.0000000,0.0000000,0.0000000,8.00,38.4063454,-110.7919846,1356.1999512,0.0,265.3,1.0,0.0,0.0,887,133,0,0,860.11,17.87,34.00,# data time:1000,pm2.5:6.445,pm10:5.704,O2:0.000,NO2:0.010,SO2:0.000,NH3:4.857
11:47:59,0,0,0,0,0,1700,2800,15,0,0,0,550,0,0,0,0,0.0000000,0.0000000,0.0000000,0.0000000,8.00,38.4063454,-110.7919846,1356.1999512,0.0,91.1,1.0,0.0,0.0,881,135,0,0,860.12,17.94,34.07,# data time:1000,pm2.5:6.445,pm10:5.704,O2:0.000,NO2:0.010,SO2:0.000,NH3:4.857
11:48:00,0,0,0,0,0,1700,2800,15,0,0,0,518,0,0,0,0,0.0000000,0.0000000,0.0000000,0.0000000,8.00,38.4063454,-110.7919846,1356.1999512,0.0,97.6,1.0,0.0,0.0,892,134,0,0,860.14,18.37,34.12,# data time:1000,pm2.5:6.445,pm10:5.704,O2:0.000,NO2:0.010,SO2:0.000,NH3:4.857
11:48:01,0,0,0,0,0,1700,2800,15,0,0,0,569,0,0,0,0,0.0000000,0.0000000,0.0000000,0.0000000,8.00,38.4063454,-110.7919846,1356.1999512,0.0,69.0,1.0,0.0,0.0,882,138,0,0,860.09,18.23,34.11,# data time:1000,pm2.5:6.445,pm10:5.704,O2:0.000,NO2:0.010,SO2:0.000,NH3:4.857
11:48:02,0,0,0,0,0,1700,2800,15,0,0,0,519,0,0,0,0,0.0000000,0.0000000,0.0000000,0.0000000,8.00,38.4063454,-110.7919846,1356.1999512,0.0,125.6,1.0,0.0,0.0,893,133,0,0,860.13,18.57,34.21,# data time:1010,pm2.5:6.445,pm10:5.704,O2:0.000,NO2:0.000,SO2:0.000,NH3:5.083
11:48:03,0,0,0,0,0,1700,2800,15,0,0,0,569,0,0,0,0,0.0000000,0.0000000,0.0000000,0.0000000,8.00,38.4063454,-110.7919846,1356.1999512,0.0,131.9,1.0,0.0,0.0,883,136,0,0,860.07,18.42,34.32,# data time:1010,pm2.5:6.445,pm10:5.704,O2:0.000,NO2:0.000,SO2:0.000,NH3:5.083
11:48:04,0,0,0,0,0,1700,2800,15,0,0,0,516,0,0,0,0,0.0000000,0.0000000,0.0000000,0.0000000,8.00,38.4063454,-110.7919846,1356.1999512,0.0,42.5,1.0,0.0,0.0,891,137,0,0,860.08,18.65,34.42,# data time:1010,pm2.5:6.445,pm10:5.704,O2:0.000,NO2:0.000,SO2:0.000,NH3:5.083
11:48:05,0,0,0,0,0,1700,2800,15,0,0,0,523,0,0,0,0,0.0000000,0.0000000,0.0000000,0.0000000,8.00,38.4063454,-110.7919846,1356.1999512,0.0,283.9,1.0,0.0,0.0,890,135,0,0,860.07,18.75,34.53,# data time:1010,pm2.5:6.445,pm10:5.704,O2:0.000,NO2:0.000,SO2:0.000,NH3:5.083
11:48:06,0,0,0,0,0,1700,2800,15,0,0,0,520,0,0,0,0,0.0000000,0.0000000,0.0000000,0.0000000,8.00,38.4063454,-110.7919846,1356.1999512,0.0,273.4,1.0,0.0,0.0,893,136,0,0,860.09,18.71,34.65,# data time:1010,pm2.5:6.445,pm10:5.704,O2:0.000,NO2:0.000,SO2:0.000,NH3:5.083
11:48:07,0,0,0,0,0,1700,2800,15,0,0,0,541,0,0,0,0,0.0000000,0.0000000,0.0000000,0.0000000,8.00,38.4063454,-110.7919846,1356.1999512,0.0,269.2,1.0,0.0,0.0,886,135,0,0,860.06,18.46,34.74,# data time:1010,pm2.5:6.445,pm10:5.704,O2:0.000,NO2:0.000,SO2:0.000,NH3:5.083
11:48:08,0,0,0,0,0,1700,2800,15,0,0,0,521,0,0,0,0,0.0000000,0.0000000,0.0000000,0.0000000,8.00,38.4063454,-110.7919846,1356.1999512,0.0,281.1,1.0,0.0,0.0,891,137,0,0,860.08,18.62,34.79,# data time:1010,pm2.5:6.445,pm10:5.704,O2:0.000,NO2:0.000,SO2:0.000,NH3:5.083
11:48:09,0,0,0,0,0,1700,2800,15,0,0,0,544,0,0,0,0,0.0000000,0.0000000,0.0000000,0.0000000,8.00,38.4063454,-110.7919846,1356.1999512,0.0,269.5,1.0,0.0,0.0,886,136,0,0,860.09,18.42,34.89,# data time:1010,pm2.5:6.445,pm10:5.704,O2:0.000,NO2:0.000,SO2:0.000,NH3:5.083
11:48:10,0,0,0,0,0,1700,2800,15,0,0,0,570,0,0,0,0,0.0000000,0.0000000,0.0000000,0.0000000,8.00,38.4063454,-110.7919846,1356.3000488,0.0,210.0,1.0,0.0,0.0,882,136,0,0,860.07,18.33,34.95,# data time:1010,pm2.5:6.445,pm10:5.704,O2:0.000,NO2:0.000,SO2:0.000,NH3:5.083
11:48:11,0,0,0,0,0,1700,2800,15,0,0,0,543,0,0,0,0,0.0000000,0.0000000,0.0000000,0.0000000,8.00,38.4063454,-110.7919846,1356.3000488,0.0,152.0,1.0,0.0,0.0,887,133,0,0,860.13,18.11,35.01,# data time:1010,pm2.5:6.445,pm10:5.704,O2:0.000,NO2:0.000,SO2:0.000,NH3:5.083
11:48:12,0,0,0,0,0,1700,2800,15,0,0,0,517,0,0,0,0,0.0000000,0.0000000,0.0000000,0.0000000,8.00,38.4063454,-110.7919846,1356.3000488,0.0,124.7,1.0,0.0,0.0,893,136,0,0,860.12,18.16,35.12,# data time:1020,pm2.5:6.445,pm10:5.704,O2:0.000,NO2:0.000,SO2:0.000,NH3:5.083
11:48:13,0,0,0,0,0,1700,2800,15,0,0,0,568,0,0,0,0,0.0000000,0.0000000,0.0000000,0.0000000,8.00,38.4063454,-110.7919846,1356.3000488,0.0,139.0,1.0,0.0,0.0,883,136,0,0,860.17,17.96,35.22,# data time:1020,pm2.5:6.445,pm10:5.704,O2:0.000,NO2:0.000,SO2:0.000,NH3:5.083
11:48:14,0,0,0,0,0,2100,2200,0,0,0,0,595,0,0,0,0,0.0000000,0.0000000,0.0000000,0.0000000,8.00,38.4063454,-110.7919846,1356.3000488,0.0,135.9,1.0,0.0,0.0,877,130,0,0,860.16,17.93,35.36,# data time:1020,pm2.5:6.445,pm10:5.704,O2:0.000,NO2:0.000,SO2:0.000,NH3:5.083
11:48:15,0,0,0,0,0,2100,2200,0,0,0,0,516,0,0,0,0,0.0000000,0.0000000,0.0000000,0.0000000,8.00,38.4063454,-110.7919846,1356.3000488,0.0,105.3,1.0,0.0,0.0,892,135,0,0,860.15,17.75,35.50,# data time:1020,pm2.5:6.445,pm10:5.704,O2:0.000,NO2:0.000,SO2:0.000,NH3:5.083
11:48:16,0,0,0,0,0,2100,2200,0,0,0,0,515,0,0,0,0,0.0000000,0.0000000,0.0000000,0.0000000,8.00,38.4063454,-110.7919846,1356.3000488,0.0,268.8,1.0,0.0,0.0,892,135,0,0,860.20,17.65,35.64,# data time:1020,pm2.5:6.445,pm10:5.704,O2:0.000,NO2:0.000,SO2:0.000,NH3:5.083
11:48:17,0,0,0,0,0,2100,2200,0,0,0,0,516,0,0,0,0,0.0000000,0.0000000,0.0000000,0.0000000,8.00,38.4063454,-110.7919846,1356.3000488,0.0,107.4,1.0,0.0,0.0,892,139,0,0,860.15,17.64,35.75,# data time:1020,pm2.5:6.445,pm10:5.704,O2:0.000,NO2:0.000,SO2:0.000,NH3:5.083
11:48:18,0,0,0,0,0,2100,2200,0,0,0,0,515,0,0,0,0,0.0000000,0.0000000,0.0000000,0.0000000,8.00,38.4063454,-110.7919846,1356.3000488,0.0,310.8,1.0,0.0,0.0,892,130,0,0,860.17,17.56,35.84,# data time:1020,pm2.5:6.445,pm10:5.704,O2:0.000,NO2:0.000,SO2:0.000,NH3:5.083
11:48:19,0,0,0,0,0,2100,2200,0,0,0,0,516,0,0,0,0,0.0000000,0.0000000,0.0000000,0.0000000,8.00,38.4063454,-110.7919846,1356.3000488,0.0,11.2,1.0,0.0,0.0,892,130,0,0,860.14,17.23,35.94,# data time:1020,pm2.5:6.445,pm10:5.704,O2:0.000,NO2:0.000,SO2:0.000,NH3:5.083
11:48:20,0,0,0,0,0,2100,2200,0,0,0,0,516,0,0,0,0,0.0000000,0.0000000,0.0000000,0.0000000,8.00,38.4063454,-110.7919846,1356.3000488,0.0,266.7,1.0,0.0,0.0,893,132,0,0,860.21,17.08,36.05,# data time:1020,pm2.5:6.445,pm10:5.704,O2:0.000,NO2:0.000,SO2:0.000,NH3:5.083
11:48:21,0,0,0,0,0,2100,2200,0,0,0,0,520,0,0,0,0,0.0000000,0.0000000,0.0000000,0.0000000,8.00,38.4063454,-110.7919846,1356.3000488,0.0,320.5,1.0,0.0,0.0,891,132,0,0,860.24,16.95,36.23,# data time:1020,pm2.5:6.445,pm10:5.704,O2:0.000,NO2:0.000,SO2:0.000,NH3:5.083
11:48:22,0,0,0,0,0,2100,2200,0,0,0,0,520,0,0,0,0,0.0000000,0.0000000,0.0000000,0.0000000,8.00,38.4063454,-110.7919846,1356.3000488,0.0,320.5,1.0,0.0,0.0,891,132,0,0,860.24,16.95,36.23,# data time:1030,pm2.5:6.445,pm10:5.704,O2:0.000,NO2:0.000,SO2:0.000,NH3:5.083
11:48:23,0,0,0,0,0,2100,2200,0,0,0,0,514,0,0,0,0,0.0000000,0.0000000,0.0000000,0.0000000,8.00,38.4063454,-110.7919846,1356.3000488,0.0,107.7,1.0,0.0,0.0,893,131,0,0,860.23,16.85,36.39,# data time:1030,pm2.5:6.445,pm10:5.704,O2:0.000,NO2:0.000,SO2:0.000,NH3:5.083
11:48:24,0,0,0,0,0,2100,2200,0,0,0,0,577,0,0,0,0,0.0000000,0.0000000,0.0000000,0.0000000,8.00,38.4063454,-110.7919846,1356.3000488,0.0,146.6,1.0,0.0,0.0,878,130,0,0,860.21,16.75,36.50,# data time:1030,pm2.5:6.445,pm10:5.704,O2:0.000,NO2:0.000,SO2:0.000,NH3:5.083
11:48:25,0,0,0,0,0,2100,2200,0,0,0,0,521,0,0,0,0,0.0000000,0.0000000,0.0000000,0.0000000,8.00,38.4063454,-110.7919846,1356.3000488,0.0,64.2,1.0,0.0,0.0,890,131,0,0,860.21,16.69,36.54,# data time:1030,pm2.5:6.445,pm10:5.704,O2:0.000,NO2:0.000,SO2:0.000,NH3:5.083
11:48:26,0,0,0,0,0,2100,2200,0,0,0,0,538,0,0,0,0,0.0000000,0.0000000,0.0000000,0.0000000,8.00,38.4063454,-110.7919846,1356.3000488,0.0,114.1,1.0,0.0,0.0,889,130,0,0,860.22,16.51,36.64,# data time:1030,pm2.5:6.445,pm10:5.704,O2:0.000,NO2:0.000,SO2:0.000,NH3:5.083
11:48:27,0,0,0,0,0,2100,2200,0,0,0,0,517,0,0,0,0,0.0000000,0.0000000,0.0000000,0.0000000,8.00,38.4063454,-110.7919846,1356.3000488,0.0,81.9,1.0,0.0,0.0,892,130,0,0,860.23,16.42,36.74,# data time:1030,pm2.5:6.445,pm10:5.704,O2:0.000,NO2:0.000,SO2:0.000,NH3:5.083
11:48:28,0,0,0,0,0,2700,2200,1,0,0,0,515,0,0,0,0,0.0000000,0.0000000,0.0000000,0.0000000,8.00,38.4063454,-110.7919846,1356.3000488,0.0,200.4,1.0,0.0,0.0,893,128,0,0,860.26,16.37,36.81,# data time:1030,pm2.5:6.445,pm10:5.704,O2:0.000,NO2:0.000,SO2:0.000,NH3:5.083
11:48:29,0,0,0,0,0,2700,2200,1,0,0,0,516,0,0,0,0,0.0000000,0.0000000,0.0000000,0.0000000,8.00,38.4063454,-110.7919846,1356.3000488,0.0,301.4,1.0,0.0,0.0,893,130,0,0,860.24,16.34,36.89,# data time:1030,pm2.5:6.445,pm10:5.704,O2:0.000,NO2:0.000,SO2:0.000,NH3:5.083
11:48:30,0,0,0,0,0,2700,2200,1,0,0,0,516,0,0,0,0,0.0000000,0.0000000,0.0000000,0.0000000,8.00,38.4063454,-110.7919846,1356.3000488,0.0,354.6,1.0,0.0,0.0,891,127,0,0,860.26,16.37,36.98,# data time:1030,pm2.5:6.445,pm10:5.704,O2:0.000,NO2:0.000,SO2:0.000,NH3:5.083
11:48:31,0,0,0,0,0,2700,2200,1,0,0,0,517,0,0,0,0,0.0000000,0.0000000,0.0000000,0.0000000,8.00,38.4063454,-110.7919846,1356.3000488,0.0,343.0,1.0,0.0,0.0,891,128,0,0,860.22,16.19,37.05,# data time:1030,pm2.5:6.445,pm10:5.704,O2:0.000,NO2:0.000,SO2:0.000,NH3:5.083
11:48:32,0,0,0,0,0,2700,2200,1,0,0,0,519,0,0,0,0,0.0000000,0.0000000,0.0000000,0.0000000,8.00,38.4063454,-110.7919846,1356.3000488,0.0,242.6,1.0,0.0,0.0,892,126,0,0,860.26,16.07,37.13,# data time:1040,pm2.5:6.445,pm10:5.704,O2:0.000,NO2:0.000,SO2:0.000,NH3:5.083
11:48:33,0,0,0,0,0,2700,2200,1,0,0,0,521,0,0,0,0,0.0000000,0.0000000,0.0000000,0.0000000,8.00,38.4063454,-110.7919846,1356.3000488,0.0,75.3,1.0,0.0,0.0,892,122,0,0,860.25,15.99,37.17,# data time:1040,pm2.5:6.445,pm10:5.704,O2:0.000,NO2:0.000,SO2:0.000,NH3:5.083
11:48:34,0,0,0,0,0,2700,2200,1,0,0,0,522,0,0,0,0,0.0000000,0.0000000,0.0000000,0.0000000,8.00,38.4063454,-110.7919846,1356.3000488,0.0,217.8,1.0,0.0,0.0,892,126,0,0,860.25,16.02,37.22,# data time:1040,pm2.5:6.445,pm10:5.704,O2:0.000,NO2:0.000,SO2:0.000,NH3:5.083
11:48:35,0,0,0,0,0,2700,2200,1,0,0,0,518,0,0,0,0,0.0000000,0.0000000,0.0000000,0.0000000,8.00,38.4063454,-110.7919846,1356.3000488,0.0,2.5,1.0,0.0,0.0,890,130,0,0,860.21,16.07,37.24,# data time:1040,pm2.5:6.445,pm10:5.704,O2:0.000,NO2:0.000,SO2:0.000,NH3:5.083
11:48:36,0,0,0,0,0,2700,2200,1,0,0,0,516,0,0,0,0,0.0000000,0.0000000,0.0000000,0.0000000,8.00,38.4063454,-110.7919846,1356.3000488,0.0,305.4,1.0,0.0,0.0,892,128,0,0,860.26,16.10,37.37,# data time:1040,pm2.5:6.445,pm10:5.704,O2:0.000,NO2:0.000,SO2:0.000,NH3:5.083
11:48:37,0,0,0,0,0,2700,2200,1,0,0,0,520,0,0,0,0,0.0000000,0.0000000,0.0000000,0.0000000,8.00,38.4063454,-110.7919846,1356.3000488,0.0,279.0,1.0,0.0,0.0,892,131,0,0,860.22,16.08,37.49,# data time:1040,pm2.5:6.445,pm10:5.704,O2:0.000,NO2:0.000,SO2:0.000,NH3:5.083
11:48:38,0,0,0,0,0,2700,2200,1,0,0,0,521,0,0,0,0,0.0000000,0.0000000,0.0000000,0.0000000,8.00,38.4063454,-110.7919846,1356.3000488,0.0,250.1,1.0,0.0,0.0,891,127,0,0,860.24,16.08,37.58,# data time:1040,pm2.5:6.445,pm10:5.704,O2:0.000,NO2:0.000,SO2:0.000,NH3:5.083
11:48:40,0,0,0,0,0,2700,2200,1,0,0,0,517,0,0,0,0,0.0000000,0.0000000,0.0000000,0.0000000,8.00,38.4063454,-110.7919846,1356.3000488,0.0,189.7,1.0,0.0,0.0,892,129,0,0,860.26,16.01,37.72,# data time:1040,pm2.5:6.445,pm10:5.704,O2:0.000,NO2:0.000,SO2:0.000,NH3:5.083
11:48:41,0,0,0,0,0,2700,2200,1,0,0,0,515,0,0,0,0,0.0000000,0.0000000,0.0000000,0.0000000,8.00,38.4063454,-110.7919846,1356.3000488,0.0,284.0,1.0,0.0,0.0,892,128,0,0,860.25,15.92,37.87,# data time:1040,pm2.5:6.445,pm10:5.704,O2:0.000,NO2:0.000,SO2:0.000,NH3:5.083
11:48:41,0,0,0,0,0,2700,2200,1,0,0,0,522,0,0,0,0,0.0000000,0.0000000,0.0000000,0.0000000,7.00,38.4063454,-110.7919846,1356.3000488,0.0,180.4,1.1,0.0,0.0,892,128,0,0,860.30,15.75,37.95,# data time:1050,pm2.5:6.445,pm10:5.704,O2:0.000,NO2:0.000,SO2:0.000,NH3:5.083
11:48:43,0,0,0,0,0,2700,2200,1,0,0,0,515,0,0,0,0,0.0000000,0.0000000,0.0000000,0.0000000,8.00,38.4063454,-110.7919846,1356.3000488,0.0,247.2,1.0,0.0,0.0,891,127,0,0,860.31,15.81,37.97,# data time:1050,pm2.5:6.445,pm10:5.704,O2:0.000,NO2:0.000,SO2:0.000,NH3:5.083
11:48:44,0,0,0,0,0,2100,2200,2,0,0,0,513,0,0,0,0,0.0000000,0.0000000,0.0000000,0.0000000,8.00,38.4063454,-110.7919846,1356.3000488,0.0,21.2,1.0,0.0,0.0,892,141,0,0,860.25,15.85,38.04,# data time:1050,pm2.5:6.445,pm10:5.704,O2:0.000,NO2:0.000,SO2:0.000,NH3:5.083
11:48:45,0,0,0,0,0,2100,2200,2,0,0,0,515,0,0,0,0,0.0000000,0.0000000,0.0000000,0.0000000,8.00,38.4063454,-110.7919846,1356.3000488,0.0,233.7,1.0,0.0,0.0,893,134,0,0,860.27,15.96,38.01,# data time:1050,pm2.5:6.445,pm10:5.704,O2:0.000,NO2:0.000,SO2:0.000,NH3:5.083
11:48:46,0,0,0,0,0,2100,2200,2,0,0,0,514,0,0,0,0,0.0000000,0.0000000,0.0000000,0.0000000,8.00,38.4063454,-110.7919846,1356.4000244,0.0,186.0,1.0,0.0,0.0,891,123,0,0,860.24,15.98,38.05,# data time:1050,pm2.5:6.445,pm10:5.704,O2:0.000,NO2:0.000,SO2:0.000,NH3:5.083
11:48:47,0,0,0,0,0,2100,2200,2,0,0,0,516,0,0,0,0,0.0000000,0.0000000,0.0000000,0.0000000,8.00,38.4063454,-110.7919846,1356.4000244,0.0,251.6,1.0,0.0,0.0,894,121,0,0,860.25,15.99,38.19,# data time:1050,pm2.5:6.445,pm10:5.704,O2:0.000,NO2:0.000,SO2:0.000,NH3:5.083
11:48:48,0,0,0,0,0,2100,2200,2,0,0,0,515,0,0,0,0,0.0000000,0.0000000,0.0000000,0.0000000,8.00,38.4063454,-110.7919846,1356.4000244,0.0,290.3,1.0,0.0,0.0,891,131,0,0,860.29,15.99,38.34,# data time:1050,pm2.5:6.445,pm10:5.704,O2:0.000,NO2:0.000,SO2:0.000,NH3:5.083
11:48:49,0,0,0,0,0,2100,2200,2,0,0,0,515,0,0,0,0,0.0000000,0.0000000,0.0000000,0.0000000,7.00,38.4063454,-110.7919846,1356.4000244,0.0,230.2,1.1,0.0,0.0,892,129,0,0,860.29,15.90,38.46,# data time:1050,pm2.5:6.445,pm10:5.704,O2:0.000,NO2:0.000,SO2:0.000,NH3:5.083
11:48:50,0,0,0,0,0,2100,2200,2,0,0,0,516,0,0,0,0,0.0000000,0.0000000,0.0000000,0.0000000,8.00,38.4063454,-110.7919846,1356.4000244,0.0,179.6,1.0,0.0,0.0,893,128,0,0,860.28,15.70,38.52,# data time:1050,pm2.5:6.445,pm10:5.704,O2:0.000,NO2:0.000,SO2:0.000,NH3:5.083
11:48:51,0,0,0,0,0,2100,2200,2,0,0,0,516,0,0,0,0,0.0000000,0.0000000,0.0000000,0.0000000,8.00,38.4063454,-110.7919846,1356.4000244,0.0,195.0,1.0,0.0,0.0,891,128,0,0,860.29,15.53,38.58,# data time:1050,pm2.5:6.445,pm10:5.704,O2:0.000,NO2:0.000,SO2:0.000,NH3:5.083
11:48:52,0,0,0,0,0,2100,2200,2,0,0,0,515,0,0,0,0,0.0000000,0.0000000,0.0000000,0.0000000,8.00,38.4063454,-110.7919846,1356.4000244,0.0,136.1,1.0,0.0,0.0,893,128,0,0,860.29,15.60,38.66,# data time:1060,pm2.5:6.445,pm10:5.704,O2:0.000,NO2:0.000,SO2:0.000,NH3:5.083
11:48:53,0,0,0,0,0,2100,2200,2,0,0,0,516,0,0,0,0,0.0000000,0.0000000,0.0000000,0.0000000,8.00,38.4063454,-110.7919846,1356.4000244,0.0,259.8,1.0,0.0,0.0,893,124,0,0,860.26,15.61,38.64,# data time:1060,pm2.5:6.445,pm10:5.704,O2:0.000,NO2:0.000,SO2:0.000,NH3:5.083
11:48:54,0,0,0,0,0,2100,2200,2,0,0,0,530,0,0,0,0,0.0000000,0.0000000,0.0000000,0.0000000,7.00,38.4063454,-110.7919846,1356.4000244,0.0,249.1,1.1,0.0,0.0,888,120,0,0,860.30,15.63,38.79,# data time:1060,pm2.5:6.445,pm10:5.704,O2:0.000,NO2:0.000,SO2:0.000,NH3:5.083
11:48:55,0,0,0,0,0,2100,2200,2,0,0,0,518,0,0,0,0,0.0000000,0.0000000,0.0000000,0.0000000,8.00,38.4063454,-110.7919846,1356.4000244,0.0,28.7,1.0,0.0,0.0,894,120,0,0,860.25,15.78,38.91,# data time:1060,pm2.5:6.445,pm10:5.704,O2:0.000,NO2:0.000,SO2:0.000,NH3:5.083
11:48:56,0,0,0,0,0,2100,2200,2,0,0,0,516,0,0,0,0,0.0000000,0.0000000,0.0000000,0.0000000,8.00,38.4063454,-110.7919846,1356.4000244,0.0,256.6,1.0,0.0,0.0,892,135,0,0,860.27,15.78,39.04,# data time:1060,pm2.5:6.445,pm10:5.704,O2:0.000,NO2:0.000,SO2:0.000,NH3:5.083
11:48:57,0,0,0,0,0,2100,2200,2,0,0,0,522,0,0,0,0,0.0000000,0.0000000,0.0000000,0.0000000,7.00,38.4063454,-110.7919846,1356.4000244,0.0,304.3,1.1,0.0,0.0,891,128,0,0,860.26,15.79,39.17,# data time:1060,pm2.5:6.445,pm10:5.704,O2:0.000,NO2:0.000,SO2:0.000,NH3:5.083
11:48:58,0,0,0,0,0,2100,2200,2,0,0,0,514,0,0,0,0,0.0000000,0.0000000,0.0000000,0.0000000,7.00,38.4063454,-110.7919846,1356.4000244,0.0,154.6,1.1,0.0,0.0,892,128,0,0,860.28,15.58,39.26,# data time:1060,pm2.5:6.445,pm10:5.704,O2:0.000,NO2:0.000,SO2:0.000,NH3:5.083
11:48:59,0,0,0,0,0,1700,2200,3,0,0,0,518,0,0,0,0,0.0000000,0.0000000,0.0000000,0.0000000,7.00,38.4063454,-110.7919846,1356.4000244,0.0,130.6,1.1,0.0,0.0,891,129,0,0,860.32,15.53,39.35,# data time:1060,pm2.5:6.445,pm10:5.704,O2:0.000,NO2:0.000,SO2:0.000,NH3:5.083
11:49:00,0,0,0,0,0,1700,2200,3,0,0,0,522,0,0,0,0,0.0000000,0.0000000,0.0000000,0.0000000,7.00,38.4063454,-110.7919846,1356.4000244,0.0,201.9,1.1,0.0,0.0,893,129,0,0,860.31,15.66,39.41,# data time:1060,pm2.5:6.445,pm10:5.704,O2:0.000,NO2:0.000,SO2:0.000,NH3:5.083
11:49:01,0,0,0,0,0,1700,2200,3,0,0,0,519,0,0,0,0,0.0000000,0.0000000,0.0000000,0.0000000,7.00,38.4063454,-110.7919846,1356.4000244,0.0,185.0,1.1,0.0,0.0,893,135,0,0,860.37,15.49,39.37,# data time:1060,pm2.5:6.445,pm10:5.704,O2:0.000,NO2:0.000,SO2:0.000,NH3:5.083
11:49:02,0,0,0,0,0,1700,2200,3,0,0,0,573,0,0,0,0,0.0000000,0.0000000,0.0000000,0.0000000,8.00,38.4063454,-110.7919846,1356.4000244,0.0,5.9,1.0,0.0,0.0,880,122,0,0,860.33,15.31,39.41,# data time:1070,pm2.5:6.445,pm10:5.704,O2:0.000,NO2:0.000,SO2:0.000,NH3:5.083
11:49:03,0,0,0,0,0,1700,2200,3,0,0,0,515,0,0,0,0,0.0000000,0.0000000,0.0000000,0.0000000,7.00,38.4063454,-110.7919846,1356.4000244,0.0,316.8,1.1,0.0,0.0,894,120,0,0,860.39,15.35,39.27,# data time:1070,pm2.5:6.445,pm10:5.704,O2:0.000,NO2:0.000,SO2:0.000,NH3:5.083
11:49:04,0,0,0,0,0,1700,2200,3,0,0,0,516,0,0,0,0,0.0000000,0.0000000,0.0000000,0.0000000,7.00,38.4063454,-110.7919846,1356.4000244,0.0,162.6,1.1,0.0,0.0,893,127,0,0,860.35,15.88,39.15,# data time:1070,pm2.5:6.445,pm10:5.704,O2:0.000,NO2:0.000,SO2:0.000,NH3:5.083
11:49:05,0,0,0,0,0,1700,2200,3,0,0,0,517,0,0,0,0,0.0000000,0.0000000,0.0000000,0.0000000,7.00,38.4063454,-110.7919846,1356.4000244,0.0,358.6,1.1,0.0,0.0,893,121,0,0,860.35,15.87,39.21,# data time:1070,pm2.5:6.445,pm10:5.704,O2:0.000,NO2:0.000,SO2:0.000,NH3:5.083
11:49:06,0,0,0,0,0,1700,2200,3,0,0,0,517,0,0,0,0,0.0000000,0.0000000,0.0000000,0.0000000,7.00,38.4063454,-110.7919846,1356.4000244,0.0,358.6,1.1,0.0,0.0,892,122,0,0,860.36,16.17,38.90,# data time:1070,pm2.5:6.445,pm10:5.704,O2:0.000,NO2:0.000,SO2:0.000,NH3:5.083
11:49:07,0,0,0,0,0,1700,2200,3,0,0,0,558,0,0,0,0,0.0000000,0.0000000,0.0000000,0.0000000,7.00,38.4063454,-110.7919846,1356.4000244,0.0,299.2,1.1,0.0,0.0,886,124,0,0,860.28,16.14,38.78,# data time:1070,pm2.5:6.445,pm10:5.704,O2:0.000,NO2:0.000,SO2:0.000,NH3:5.083
11:49:08,0,0,0,0,0,1700,2200,3,0,0,0,572,0,0,0,0,0.0000000,0.0000000,0.0000000,0.0000000,7.00,38.4063454,-110.7919846,1356.4000244,0.0,235.3,1.1,0.0,0.0,881,124,0,0,860.33,16.30,38.92,# data time:1070,pm2.5:6.445,pm10:5.704,O2:0.000,NO2:0.000,SO2:0.000,NH3:5.083
11:49:09,0,0,0,0,0,1700,2200,3,0,0,0,519,0,0,0,0,0.0000000,0.0000000,0.0000000,0.0000000,7.00,38.4063454,-110.7919846,1356.4000244,0.0,220.7,1.1,0.0,0.0,891,121,0,0,860.31,17.29,38.94,# data time:1070,pm2.5:6.445,pm10:5.704,O2:0.000,NO2:0.000,SO2:0.000,NH3:5.083
11:49:10,0,0,0,0,0,1700,2200,3,0,0,0,517,0,0,0,0,0.0000000,0.0000000,0.0000000,0.0000000,7.00,38.4063454,-110.7919846,1356.4000244,0.0,190.9,1.1,0.0,0.0,891,138,0,0,860.37,17.08,39.05,# data time:1070,pm2.5:6.445,pm10:5.704,O2:0.000,NO2:0.000,SO2:0.000,NH3:5.083
11:49:11,0,0,0,0,0,1700,2200,3,0,0,0,513,0,0,0,0,0.0000000,0.0000000,0.0000000,0.0000000,7.00,38.4063454,-110.7919846,1356.4000244,0.0,25.5,1.1,0.0,0.0,892,127,0,0,860.37,16.95,39.17,# data time:1070,pm2.5:6.445,pm10:5.704,O2:0.000,NO2:0.000,SO2:0.000,NH3:5.083
11:49:12,0,0,0,0,0,1700,2200,3,0,0,0,540,0,0,0,0,0.0000000,0.0000000,0.0000000,0.0000000,7.00,38.4063454,-110.7919846,1356.4000244,0.0,91.5,1.1,0.0,0.0,887,131,0,0,860.38,17.29,39.22,# data time:1080,pm2.5:6.445,pm10:5.704,O2:0.000,NO2:0.000,SO2:0.000,NH3:4.857
11:49:13,0,0,0,0,0,2100,2200,4,0,0,0,516,0,0,0,0,0.0000000,0.0000000,0.0000000,0.0000000,7.00,38.4063454,-110.7919846,1356.5000000,0.0,185.6,1.1,0.0,0.0,891,131,0,0,860.38,17.38,39.25,# data time:1080,pm2.5:6.445,pm10:5.704,O2:0.000,NO2:0.000,SO2:0.000,NH3:4.857
11:49:14,0,0,0,0,0,2100,2200,4,0,0,0,517,0,0,0,0,0.0000000,0.0000000,0.0000000,0.0000000,7.00,38.4063454,-110.7919846,1356.5000000,0.0,154.3,1.1,0.0,0.0,893,136,0,0,860.34,17.37,39.29,# data time:1080,pm2.5:6.445,pm10:5.704,O2:0.000,NO2:0.000,SO2:0.000,NH3:4.857
11:49:15,0,0,0,0,0,2100,2200,4,0,0,0,516,0,0,0,0,0.0000000,0.0000000,0.0000000,0.0000000,7.00,38.4063454,-110.7919846,1356.5000000,0.0,47.2,1.1,0.0,0.0,892,136,0,0,860.22,17.03,39.38,# data time:1080,pm2.5:6.445,pm10:5.704,O2:0.000,NO2:0.000,SO2:0.000,NH3:4.857
11:49:16,0,0,0,0,0,2100,2200,4,0,0,0,520,0,0,0,0,0.0000000,0.0000000,0.0000000,0.0000000,7.00,38.4063454,-110.7919846,1356.5000000,0.0,20.8,1.1,0.0,0.0,892,138,0,0,860.23,17.14,39.36,# data time:1080,pm2.5:6.445,pm10:5.704,O2:0.000,NO2:0.000,SO2:0.000,NH3:4.857
11:49:17,0,0,0,0,0,2100,2200,4,0,0,0,516,0,0,0,0,0.0000000,0.0000000,0.0000000,0.0000000,7.00,38.4063454,-110.7919846,1356.5000000,0.0,205.8,1.1,0.0,0.0,892,141,0,0,860.28,17.29,39.41,# data time:1080,pm2.5:6.445,pm10:5.704,O2:0.000,NO2:0.000,SO2:0.000,NH3:4.857
11:49:18,0,0,0,0,0,2100,2200,4,0,0,0,518,0,0,0,0,0.0000000,0.0000000,0.0000000,0.0000000,7.00,38.4063454,-110.7919846,1356.5000000,0.0,261.9,1.1,0.0,0.0,892,138,0,0,860.29,16.79,39.48,# data time:1080,pm2.5:6.445,pm10:5.704,O2:0.000,NO2:0.000,SO2:0.000,NH3:4.857
11:49:19,0,0,0,0,0,2100,2200,4,0,0,0,515,0,0,0,0,0.0000000,0.0000000,0.0000000,0.0000000,7.00,38.4063454,-110.7919846,1356.5000000,0.0,56.7,1.1,0.0,0.0,892,148,0,0,860.28,16.51,39.56,# data time:1080,pm2.5:6.445,pm10:5.704,O2:0.000,NO2:0.000,SO2:0.000,NH3:4.857
11:49:20,0,0,0,0,0,2100,2200,4,0,0,0,518,0,0,0,0,0.0000000,0.0000000,0.0000000,0.0000000,7.00,38.4063454,-110.7919846,1356.5000000,0.0,71.5,1.1,0.0,0.0,891,140,0,0,860.38,16.17,39.68,# data time:1080,pm2.5:6.445,pm10:5.704,O2:0.000,NO2:0.000,SO2:0.000,NH3:4.857
11:49:21,0,0,0,0,0,2100,2200,4,0,0,0,541,0,0,0,0,0.0000000,0.0000000,0.0000000,0.0000000,7.00,38.4063454,-110.7919846,1356.5000000,0.0,24.3,1.1,0.0,0.0,888,139,0,0,860.36,15.98,39.80,# data time:1090,pm2.5:6.445,pm10:5.704,O2:0.000,NO2:0.000,SO2:0.000,NH3:4.630
11:49:23,0,0,0,0,0,2100,2200,4,0,0,0,515,0,0,0,0,0.0000000,0.0000000,0.0000000,0.0000000,7.00,38.4063454,-110.7919846,1356.5000000,0.0,295.3,1.1,0.0,0.0,893,137,0,0,860.33,16.10,39.89,# data time:1090,pm2.5:6.445,pm10:5.704,O2:0.000,NO2:0.000,SO2:0.000,NH3:4.630
11:49:24,0,0,0,0,0,2100,2200,4,0,0,0,518,0,0,0,0,0.0000000,0.0000000,0.0000000,0.0000000,7.00,38.4063454,-110.7919846,1356.5000000,0.0,260.9,1.1,0.0,0.0,890,134,0,0,860.37,16.07,39.97,# data time:1090,pm2.5:6.445,pm10:5.704,O2:0.000,NO2:0.000,SO2:0.000,NH3:4.630
11:49:25,0,0,0,0,0,2100,2200,4,0,0,0,541,0,0,0,0,0.0000000,0.0000000,0.0000000,0.0000000,7.00,38.4063454,-110.7919846,1356.5000000,0.0,29.2,1.1,0.0,0.0,888,138,0,0,860.42,15.70,40.04,# data time:1090,pm2.5:6.445,pm10:5.704,O2:0.000,NO2:0.000,SO2:0.000,NH3:4.630
11:49:26,0,0,0,0,0,2100,2200,4,0,0,0,516,0,0,0,0,0.0000000,0.0000000,0.0000000,0.0000000,7.00,38.4063454,-110.7919846,1356.5000000,0.0,311.9,1.1,0.0,0.0,892,136,0,0,860.55,14.83,40.03,# data time:1090,pm2.5:6.445,pm10:5.704,O2:0.000,NO2:0.000,SO2:0.000,NH3:4.630
11:49:27,0,0,0,0,0,2100,2200,4,0,0,0,515,0,0,0,0,0.0000000,0.0000000,0.0000000,0.0000000,7.00,38.4063454,-110.7919846,1356.5000000,0.0,300.7,1.1,0.0,0.0,891,135,0,0,860.79,12.54,40.05,# data time:1090,pm2.5:6.445,pm10:5.704,O2:0.000,NO2:0.000,SO2:0.000,NH3:4.630
11:49:28,0,0,0,0,0,2100,2200,4,0,0,0,514,0,0,0,0,0.0000000,0.0000000,0.0000000,0.0000000,7.00,38.4063454,-110.7919846,1356.5000000,0.0,355.9,1.1,0.0,0.0,893,133,0,0,861.42,9.84,39.98,# data time:1090,pm2.5:6.445,pm10:5.704,O2:0.000,NO2:0.000,SO2:0.000,NH3:4.630
11:49:29,0,0,0,0,0,2100,2800,5,0,0,0,516,0,0,0,0,0.0000000,0.0000000,0.0000000,0.0000000,7.00,38.4063454,-110.7919846,1356.5000000,0.0,259.6,1.1,0.0,0.0,892,134,0,0,861.64,8.76,39.83,# data time:1090,pm2.5:6.445,pm10:5.704,O2:0.000,NO2:0.000,SO2:0.000,NH3:4.630
11:49:30,0,0,0,0,0,2100,2800,5,0,0,0,516,0,0,0,0,0.0000000,0.0000000,0.0000000,0.0000000,7.00,38.4063454,-110.7919846,1356.5000000,0.0,203.2,1.1,0.0,0.0,893,135,0,0,861.62,8.71,39.67,# data time:1090,pm2.5:6.445,pm10:5.704,O2:0.000,NO2:0.000,SO2:0.000,NH3:4.630
11:49:31,0,0,0,0,0,2100,2800,5,0,0,0,516,0,0,0,0,0.0000000,0.0000000,0.0000000,0.0000000,7.00,38.4063454,-110.7919846,1356.5000000,0.0,45.1,1.1,0.0,0.0,891,133,0,0,861.71,9.08,39.49,# data time:1090,pm2.5:6.445,pm10:5.704,O2:0.000,NO2:0.000,SO2:0.000,NH3:4.630
11:49:32,0,0,0,0,0,2100,2800,5,0,0,0,515,0,0,0,0,0.0000000,0.0000000,0.0000000,0.0000000,7.00,38.4063454,-110.7919846,1356.5000000,0.0,157.0,1.1,0.0,0.0,893,132,0,0,861.44,8.59,39.31,# data time:1100,pm2.5:6.445,pm10:5.704,O2:0.000,NO2:0.000,SO2:0.000,NH3:4.404
11:49:33,0,0,0,0,0,2100,2800,5,0,0,0,546,0,0,0,0,0.0000000,0.0000000,0.0000000,0.0000000,7.00,38.4063454,-110.7919846,1356.5000000,0.0,199.4,1.1,0.0,0.0,887,134,0,0,861.33,8.42,39.15,# data time:1100,pm2.5:6.445,pm10:5.704,O2:0.000,NO2:0.000,SO2:0.000,NH3:4.404
11:49:34,0,0,0,0,0,2100,2800,5,0,0,0,517,0,0,0,0,0.0000000,0.0000000,0.0000000,0.0000000,8.00,38.4063454,-110.7919846,1356.5000000,0.0,224.4,1.0,0.0,0.0,892,130,0,0,861.45,9.14,39.00,# data time:1100,pm2.5:6.445,pm10:5.704,O2:0.000,NO2:0.000,SO2:0.000,NH3:4.404
11:49:35,0,0,0,0,0,2100,2800,5,0,0,0,515,0,0,0,0,0.0000000,0.0000000,0.0000000,0.0000000,8.00,38.4063454,-110.7919846,1356.5000000,0.1,221.4,1.0,0.0,0.0,892,131,0,0,861.44,8.62,38.81,# data time:1100,pm2.5:6.445,pm10:5.704,O2:0.000,NO2:0.000,SO2:0.000,NH3:4.404
11:49:36,0,0,0,0,0,2100,2800,5,0,0,0,517,0,0,0,0,0.0000000,0.0000000,0.0000000,0.0000000,8.00,38.4063454,-110.7919846,1356.5000000,0.1,227.2,1.0,0.0,0.0,891,127,0,0,861.42,8.76,38.63,# data time:1100,pm2.5:6.445,pm10:5.704,O2:0.000,NO2:0.000,SO2:0.000,NH3:4.404
11:49:37,0,0,0,0,0,2100,2800,5,0,0,0,570,0,0,0,0,0.0000000,0.0000000,0.0000000,0.0000000,8.00,38.4063454,-110.7919846,1356.5000000,0.0,240.1,1.0,0.0,0.0,882,136,0,0,861.43,9.26,38.46,# data time:1100,pm2.5:6.445,pm10:5.704,O2:0.000,NO2:0.000,SO2:0.000,NH3:4.404
11:49:38,0,0,0,0,0,2100,2800,5,0,0,0,515,0,0,0,0,0.0000000,0.0000000,0.0000000,0.0000000,8.00,38.4063454,-110.7919846,1356.5000000,0.0,211.3,1.0,0.0,0.0,892,134,0,0,861.42,8.82,38.24,# data time:1100,pm2.5:6.445,pm10:5.704,O2:0.000,NO2:0.000,SO2:0.000,NH3:4.404
11:49:39,0,0,0,0,0,2100,2800,5,0,0,0,514,0,0,0,0,0.0000000,0.0000000,0.0000000,0.0000000,8.00,38.4063454,-110.7919846,1356.5999756,0.0,293.1,1.0,0.0,0.0,892,137,0,0,861.46,9.09,38.03,# data time:1100,pm2.5:6.445,pm10:5.704,O2:0.000,NO2:0.000,SO2:0.000,NH3:4.404
11:49:40,0,0,0,0,0,2100,2800,5,0,0,0,527,0,0,0,0,0.0000000,0.0000000,0.0000000,0.0000000,8.00,38.4063454,-110.7919846,1356.5999756,0.0,207.2,1.0,0.0,0.0,890,133,0,0,861.37,8.53,37.88,# data time:1100,pm2.5:6.445,pm10:5.704,O2:0.000,NO2:0.000,SO2:0.000,NH3:4.404
11:49:41,0,0,0,0,0,2100,2800,5,0,0,0,515,0,0,0,0,0.0000000,0.0000000,0.0000000,0.0000000,8.00,38.4063454,-110.7919846,1356.5999756,0.0,150.6,1.0,0.0,0.0,891,135,0,0,861.48,9.40,37.75,# data time:1100,pm2.5:6.445,pm10:5.704,O2:0.000,NO2:0.000,SO2:0.000,NH3:4.404
11:49:42,0,0,0,0,0,2100,2800,5,0,0,0,515,0,0,0,0,0.0000000,0.0000000,0.0000000,0.0000000,8.00,38.4063454,-110.7919846,1356.5999756,0.0,197.0,1.0,0.0,0.0,892,137,0,0,861.35,8.71,37.56,# data time:1110,pm2.5:6.445,pm10:5.704,O2:0.000,NO2:0.000,SO2:0.000,NH3:4.630
11:49:43,0,0,0,0,0,2100,2800,5,0,0,0,515,0,0,0,0,0.0000000,0.0000000,0.0000000,0.0000000,8.00,38.4063454,-110.7919846,1356.5999756,0.0,175.2,1.0,0.0,0.0,891,136,0,0,861.61,9.25,37.28,# data time:1110,pm2.5:6.445,pm10:5.704,O2:0.000,NO2:0.000,SO2:0.000,NH3:4.630
11:49:44,0,0,0,0,0,2100,2200,6,0,0,0,515,0,0,0,0,0.0000000,0.0000000,0.0000000,0.0000000,8.00,38.4063454,-110.7919846,1356.5999756,0.0,143.2,1.0,0.0,0.0,893,140,0,0,861.38,9.42,37.07,# data time:1110,pm2.5:6.445,pm10:5.704,O2:0.000,NO2:0.000,SO2:0.000,NH3:4.630
11:49:45,0,0,0,0,0,2100,2200,6,0,0,0,516,0,0,0,0,0.0000000,0.0000000,0.0000000,0.0000000,8.00,38.4063454,-110.7919846,1356.5999756,0.0,149.3,1.0,0.0,0.0,892,145,0,0,861.26,9.42,36.78,# data time:1110,pm2.5:6.445,pm10:5.704,O2:0.000,NO2:0.000,SO2:0.000,NH3:4.630
11:49:46,0,0,0,0,0,2100,2200,6,0,0,0,516,0,0,0,0,0.0000000,0.0000000,0.0000000,0.0000000,8.00,38.4063454,-110.7919846,1356.5999756,0.0,215.1,1.0,0.0,0.0,892,146,0,0,861.24,9.67,36.61,# data time:1110,pm2.5:6.445,pm10:5.704,O2:0.000,NO2:0.000,SO2:0.000,NH3:4.630
11:49:47,0,0,0,0,0,2100,2200,6,0,0,0,515,0,0,0,0,0.0000000,0.0000000,0.0000000,0.0000000,8.00,38.4063454,-110.7919846,1356.5999756,0.1,193.7,1.0,0.0,0.0,892,152,0,0,861.24,9.74,36.50,# data time:1110,pm2.5:6.445,pm10:5.704,O2:0.000,NO2:0.000,SO2:0.000,NH3:4.630
11:49:48,0,0,0,0,0,2100,2200,6,0,0,0,517,0,0,0,0,0.0000000,0.0000000,0.0000000,0.0000000,8.00,38.4063454,-110.7919846,1356.5999756,0.1,193.7,1.0,0.0,0.0,892,151,0,0,861.16,9.78,36.41,# data time:1110,pm2.5:6.445,pm10:5.704,O2:0.000,NO2:0.000,SO2:0.000,NH3:4.630
11:49:49,0,0,0,0,0,2100,2200,6,0,0,0,519,0,0,0,0,0.0000000,0.0000000,0.0000000,0.0000000,8.00,38.4063454,-110.7919846,1356.5999756,0.0,262.0,1.0,0.0,0.0,891,149,0,0,861.16,9.83,36.40,# data time:1110,pm2.5:6.445,pm10:5.704,O2:0.000,NO2:0.000,SO2:0.000,NH3:4.630
11:49:50,0,0,0,0,0,2100,2200,6,0,0,0,516,0,0,0,0,0.0000000,0.0000000,0.0000000,0.0000000,8.00,38.4063454,-110.7919846,1356.5999756,0.0,7.1,1.0,0.0,0.0,892,149,0,0,861.10,9.81,36.33,# data time:1110,pm2.5:6.445,pm10:5.704,O2:0.000,NO2:0.000,SO2:0.000,NH3:4.630
11:49:51,0,0,0,0,0,2100,2200,6,0,0,0,527,0,0,0,0,0.0000000,0.0000000,0.0000000,0.0000000,8.00,38.4063454,-110.7919846,1356.5999756,0.0,86.7,1.0,0.0,0.0,890,150,0,0,861.12,9.87,36.29,# data time:1110,pm2.5:6.445,pm10:5.704,O2:0.000,NO2:0.000,SO2:0.000,NH3:4.630
11:49:52,0,0,0,0,0,2100,2200,6,0,0,0,516,0,0,0,0,0.0000000,0.0000000,0.0000000,0.0000000,8.00,38.4063454,-110.7919846,1356.5999756,0.0,171.5,1.0,0.0,0.0,892,148,0,0,861.19,9.96,36.15,# data time:1120,pm2.5:6.445,pm10:5.704,O2:0.000,NO2:0.010,SO2:0.000,NH3:4.630
11:49:53,0,0,0,0,0,2100,2200,6,0,0,0,514,0,0,0,0,0.0000000,0.0000000,0.0000000,0.0000000,8.00,38.4063454,-110.7919846,1356.5999756,0.0,175.8,1.0,0.0,0.0,891,146,0,0,861.20,10.09,36.01,# data time:1120,pm2.5:6.445,pm10:5.704,O2:0.000,NO2:0.010,SO2:0.000,NH3:4.630
11:49:54,0,0,0,0,0,2100,2200,6,0,0,0,531,0,0,0,0,0.0000000,0.0000000,0.0000000,0.0000000,8.00,38.4063454,-110.7919846,1356.5999756,0.0,171.2,1.0,0.0,0.0,890,141,0,0,861.23,10.15,35.95,# data time:1120,pm2.5:6.445,pm10:5.704,O2:0.000,NO2:0.010,SO2:0.000,NH3:4.630
11:49:55,0,0,0,0,0,2100,2200,6,0,0,0,515,0,0,0,0,0.0000000,0.0000000,0.0000000,0.0000000,8.00,38.4063454,-110.7919846,1356.5999756,0.0,232.7,1.0,0.0,0.0,892,144,0,0,861.29,10.22,35.93,# data time:1120,pm2.5:6.445,pm10:5.704,O2:0.000,NO2:0.010,SO2:0.000,NH3:4.630
11:49:56,0,0,0,0,0,2100,2200,6,0,0,0,514,0,0,0,0,0.0000000,0.0000000,0.0000000,0.0000000,8.00,38.4063454,-110.7919846,1356.5999756,0.0,186.6,1.0,0.0,0.0,894,140,0,0,861.29,10.21,35.88,# data time:1120,pm2.5:6.445,pm10:5.704,O2:0.000,NO2:0.010,SO2:0.000,NH3:4.630
11:49:57,0,0,0,0,0,2100,2200,6,0,0,0,526,0,0,0,0,0.0000000,0.0000000,0.0000000,0.0000000,8.00,38.4063454,-110.7919846,1356.5999756,0.0,167.4,1.0,0.0,0.0,889,138,0,0,861.22,10.21,35.86,# data time:1120,pm2.5:6.445,pm10:5.704,O2:0.000,NO2:0.010,SO2:0.000,NH3:4.630
11:49:58,0,0,0,0,0,2100,1800,7,0,0,0,514,0,0,0,0,0.0000000,0.0000000,0.0000000,0.0000000,8.00,38.4063454,-110.7919846,1356.6999512,0.0,160.2,1.0,0.0,0.0,893,140,0,0,861.28,10.24,35.77,# data time:1120,pm2.5:6.445,pm10:5.704,O2:0.000,NO2:0.010,SO2:0.000,NH3:4.630
11:49:59,0,0,0,0,0,2100,1800,7,0,0,0,515,0,0,0,0,0.0000000,0.0000000,0.0000000,0.0000000,8.00,38.4063454,-110.7919846,1356.6999512,0.0,180.2,1.0,0.0,0.0,892,137,0,0,861.28,10.47,35.71,# data time:1120,pm2.5:6.445,pm10:5.704,O2:0.000,NO2:0.010,SO2:0.000,NH3:4.630
11:50:00,0,0,0,0,0,2100,1800,7,0,0,0,515,0,0,0,0,0.0000000,0.0000000,0.0000000,0.0000000,8.00,38.4063454,-110.7919846,1356.6999512,0.0,73.8,1.0,0.0,0.0,892,137,0,0,861.28,10.32,35.67,# data time:1120,pm2.5:6.445,pm10:5.704,O2:0.000,NO2:0.010,SO2:0.000,NH3:4.630
11:50:01,0,0,0,0,0,2100,1800,7,0,0,0,523,0,0,0,0,0.0000000,0.0000000,0.0000000,0.0000000,8.00,38.4063454,-110.7919846,1356.6999512,0.0,151.4,1.0,0.0,0.0,887,136,0,0,861.31,10.33,35.60,# data time:1130,pm2.5:6.445,pm10:5.704,O2:0.000,NO2:0.000,SO2:0.000,NH3:4.857
11:50:03,0,0,0,0,0,2100,1800,7,0,0,0,514,0,0,0,0,0.0000000,0.0000000,0.0000000,0.0000000,8.00,38.4063454,-110.7919846,1356.6999512,0.0,165.8,1.0,0.0,0.0,893,135,0,0,861.36,10.25,35.49,# data time:1130,pm2.5:6.445,pm10:5.704,O2:0.000,NO2:0.000,SO2:0.000,NH3:4.857
11:50:04,0,0,0,0,0,2100,1800,7,0,0,0,515,0,0,0,0,0.0000000,0.0000000,0.0000000,0.0000000,8.00,38.4063416,-110.7919846,1356.6999512,0.0,122.3,1.0,0.0,0.0,892,136,0,0,861.36,10.45,35.33,# data time:1130,pm2.5:6.445,pm10:5.704,O2:0.000,NO2:0.000,SO2:0.000,NH3:4.857
11:50:05,0,0,0,0,0,2100,1800,7,0,0,0,515,0,0,0,0,0.0000000,0.0000000,0.0000000,0.0000000,8.00,38.4063416,-110.7919846,1356.6999512,0.0,189.7,1.0,0.0,0.0,894,135,0,0,861.42,10.61,35.10,# data time:1130,pm2.5:6.445,pm10:5.704,O2:0.000,NO2:0.000,SO2:0.000,NH3:4.857
