Time, Motor A Speed, Motor A Dir, Motor B Speed, Motor B Dir, Servo Rail Current Sensor, Servo Pos - Arm L, Servo Pos - Arm R, Servo Pos - End, Servo Pos - Hopper, Servo Pos - Lid, Servo Pos - Extra, Servo Current, LED - Front L, LED - Front R, LED - Back L, LED - Back R, IMU Pitch, IMU Roll, IMU Yaw, Compass Heading, GPS Sats, GPS Latitude, GPS Longitude, GPS Altitude, GPS Speed, GPS Angle, GPS HDOP, GPS VDOP, GPS PDOP, Battery, Wind, Comm Xbee Latency, Comm Arduino Latency, Pressure, Humidity, Temperature, uRADMonitor
14:19:23,0,0,0,0,0,2700,2200,1,0,0,0,513,0,0,0,0,0.0000000,0.0000000,0.0000000,0.0000000,9.00,38.4062614,-110.7922440,1363.0999756,0.1,265.6,0.9,0.0,0.0,861,132,0,0,860.54,11.05,26.89,# data time:7200,pm2.5:6.445,pm10:5.704,O2:0.000,NO2:0.000,SO2:0.000,NH3:7.346
14:19:24,0,0,0,0,0,2700,2200,1,0,0,0,514,0,0,0,0,0.0000000,0.0000000,0.0000000,0.0000000,9.00,38.4062614,-110.7922440,1363.0999756,0.1,289.8,0.9,0.0,0.0,861,129,0,0,860.58,11.02,26.95,# data time:7200,pm2.5:6.445,pm10:5.704,O2:0.000,NO2:0.000,SO2:0.000,NH3:7.346
14:19:25,0,0,0,0,0,2700,2200,1,0,0,0,514,0,0,0,0,0.0000000,0.0000000,0.0000000,0.0000000,9.00,38.4062614,-110.7922440,1363.0999756,0.0,268.1,0.9,0.0,0.0,861,128,0,0,860.62,11.03,26.99,# data time:7200,pm2.5:6.445,pm10:5.704,O2:0.000,NO2:0.000,SO2:0.000,NH3:7.346
14:19:26,0,0,0,0,0,2700,2200,1,0,0,0,514,0,0,0,0,0.0000000,0.0000000,0.0000000,0.0000000,9.00,38.4062614,-110.7922440,1363.0999756,0.0,241.2,0.9,0.0,0.0,861,126,0,0,860.61,11.03,27.00,# data time:7200,pm2.5:6.445,pm10:5.704,O2:0.000,NO2:0.000,SO2:0.000,NH3:7.346
14:19:27,0,0,0,0,0,2700,2200,1,0,0,0,514,0,0,0,0,0.0000000,0.0000000,0.0000000,0.0000000,9.00,38.4062614,-110.7922440,1363.0999756,0.0,248.3,0.9,0.0,0.0,860,129,0,0,860.65,11.02,27.00,# data time:7210,pm2.5:6.445,pm10:5.704,O2:0.000,NO2:0.028,SO2:0.000,NH3:7.346
14:19:28,0,0,0,0,0,2700,2200,1,0,0,0,514,0,0,0,0,0.0000000,0.0000000,0.0000000,0.0000000,9.00,38.4062614,-110.7922440,1363.0999756,0.0,289.0,0.9,0.0,0.0,861,127,0,0,860.69,11.05,27.01,# data time:7210,pm2.5:6.445,pm10:5.704,O2:0.000,NO2:0.028,SO2:0.000,NH3:7.346
14:19:30,0,0,0,0,0,2700,2200,1,0,0,0,513,0,0,0,0,0.0000000,0.0000000,0.0000000,0.0000000,9.00,38.4062614,-110.7922440,1363.0999756,0.1,275.9,0.9,0.0,0.0,861,130,0,0,860.77,11.02,27.01,# data time:7210,pm2.5:6.445,pm10:5.704,O2:0.000,NO2:0.028,SO2:0.000,NH3:7.346
14:19:31,0,0,0,0,0,2700,2200,1,0,0,0,514,0,0,0,0,0.0000000,0.0000000,0.0000000,0.0000000,9.00,38.4062614,-110.7922440,1363.0999756,0.1,290.9,0.9,0.0,0.0,861,129,0,0,860.76,11.02,27.01,# data time:7210,pm2.5:6.445,pm10:5.704,O2:0.000,NO2:0.028,SO2:0.000,NH3:7.346
14:19:32,0,0,0,0,0,2700,2200,1,0,0,0,514,0,0,0,0,0.0000000,0.0000000,0.0000000,0.0000000,9.00,38.4062614,-110.7922440,1363.0999756,0.1,301.3,0.9,0.0,0.0,861,128,0,0,860.81,11.02,26.92,# data time:7210,pm2.5:6.445,pm10:5.704,O2:0.000,NO2:0.028,SO2:0.000,NH3:7.346
14:19:33,0,0,0,0,0,2700,2200,1,0,0,0,514,0,0,0,0,0.0000000,0.0000000,0.0000000,0.0000000,9.00,38.4062614,-110.7922440,1363.0999756,0.1,301.3,0.9,0.0,0.0,861,129,0,0,860.68,11.06,26.92,# data time:7210,pm2.5:6.445,pm10:5.704,O2:0.000,NO2:0.028,SO2:0.000,NH3:7.346
14:19:34,0,0,0,0,0,2700,2200,1,0,0,0,514,0,0,0,0,0.0000000,0.0000000,0.0000000,0.0000000,9.00,38.4062614,-110.7922440,1363.0999756,0.1,301.3,0.9,0.0,0.0,861,130,0,0,860.72,11.02,26.91,# data time:7210,pm2.5:6.445,pm10:5.704,O2:0.000,NO2:0.028,SO2:0.000,NH3:7.346
14:19:35,0,0,0,0,0,2700,2200,1,0,0,0,514,0,0,0,0,0.0000000,0.0000000,0.0000000,0.0000000,9.00,38.4062614,-110.7922440,1363.0999756,0.0,297.3,0.9,0.0,0.0,861,133,0,0,860.75,11.00,26.97,# data time:7210,pm2.5:6.445,pm10:5.704,O2:0.000,NO2:0.028,SO2:0.000,NH3:7.346
14:19:36,0,0,0,0,0,2700,2200,1,0,0,0,514,0,0,0,0,0.0000000,0.0000000,0.0000000,0.0000000,9.00,38.4062614,-110.7922440,1363.0999756,0.0,292.8,0.9,0.0,0.0,861,129,0,0,860.74,11.03,27.01,# data time:7210,pm2.5:6.445,pm10:5.704,O2:0.000,NO2:0.028,SO2:0.000,NH3:7.346
14:19:37,0,0,0,0,0,2700,2200,1,0,0,0,514,0,0,0,0,0.0000000,0.0000000,0.0000000,0.0000000,9.00,38.4062614,-110.7922440,1363.0999756,0.1,282.0,0.9,0.0,0.0,860,131,0,0,860.78,11.03,27.02,# data time:7220,pm2.5:6.445,pm10:5.704,O2:0.000,NO2:0.028,SO2:0.000,NH3:7.346
14:19:38,0,0,0,0,0,2700,2200,1,0,0,0,514,0,0,0,0,0.0000000,0.0000000,0.0000000,0.0000000,9.00,38.4062614,-110.7922440,1363.0999756,0.1,286.2,0.9,0.0,0.0,861,130,0,0,860.74,11.02,27.02,# data time:7220,pm2.5:6.445,pm10:5.704,O2:0.000,NO2:0.028,SO2:0.000,NH3:7.346
14:19:39,0,0,0,0,0,2700,2200,1,0,0,0,514,0,0,0,0,0.0000000,0.0000000,0.0000000,0.0000000,9.00,38.4062614,-110.7922440,1363.0999756,0.0,266.3,0.9,0.0,0.0,861,129,0,0,860.77,11.02,27.02,# data time:7220,pm2.5:6.445,pm10:5.704,O2:0.000,NO2:0.028,SO2:0.000,NH3:7.346
14:19:40,0,0,0,0,0,2700,2200,1,0,0,0,514,0,0,0,0,0.0000000,0.0000000,0.0000000,0.0000000,9.00,38.4062614,-110.7922440,1363.0999756,0.0,246.6,0.9,0.0,0.0,861,129,0,0,860.75,11.02,27.02,# data time:7220,pm2.5:6.445,pm10:5.704,O2:0.000,NO2:0.028,SO2:0.000,NH3:7.346
14:19:41,0,0,0,0,0,2700,2200,1,0,0,0,514,0,0,0,0,0.0000000,0.0000000,0.0000000,0.0000000,9.00,38.4062614,-110.7922440,1363.0999756,0.0,307.4,0.9,0.0,0.0,861,130,0,0,860.77,10.99,27.03,# data time:7220,pm2.5:6.445,pm10:5.704,O2:0.000,NO2:0.028,SO2:0.000,NH3:7.346
14:19:42,0,0,0,0,0,2700,2200,1,0,0,0,514,0,0,0,0,0.0000000,0.0000000,0.0000000,0.0000000,9.00,38.4062614,-110.7922440,1363.0999756,0.0,241.8,0.9,0.0,0.0,861,127,0,0,860.78,10.99,27.02,# data time:7220,pm2.5:6.445,pm10:5.704,O2:0.000,NO2:0.028,SO2:0.000,NH3:7.346
14:19:43,0,0,0,0,0,2700,2200,1,0,0,0,514,0,0,0,0,0.0000000,0.0000000,0.0000000,0.0000000,9.00,38.4062614,-110.7922440,1363.0999756,0.1,243.9,0.9,0.0,0.0,861,130,0,0,860.73,10.99,27.02,# data time:7220,pm2.5:6.445,pm10:5.704,O2:0.000,NO2:0.028,SO2:0.000,NH3:7.346
14:19:44,0,0,0,0,0,2700,2200,1,0,0,0,513,0,0,0,0,0.0000000,0.0000000,0.0000000,0.0000000,9.00,38.4062614,-110.7922440,1363.0999756,0.0,276.5,0.9,0.0,0.0,861,129,0,0,860.75,10.97,27.02,# data time:7220,pm2.5:6.445,pm10:5.704,O2:0.000,NO2:0.028,SO2:0.000,NH3:7.346
14:19:45,0,0,0,0,0,2700,2200,1,0,0,0,515,0,0,0,0,0.0000000,0.0000000,0.0000000,0.0000000,9.00,38.4062614,-110.7922440,1363.0999756,0.0,226.9,0.9,0.0,0.0,861,127,0,0,860.74,10.97,27.03,# data time:7220,pm2.5:6.445,pm10:5.704,O2:0.000,NO2:0.028,SO2:0.000,NH3:7.346
14:19:46,0,0,0,0,0,2700,2200,1,0,0,0,514,0,0,0,0,0.0000000,0.0000000,0.0000000,0.0000000,9.00,38.4062614,-110.7922440,1363.0999756,0.0,261.4,0.9,0.0,0.0,861,128,0,0,860.73,10.99,27.03,# data time:7220,pm2.5:6.445,pm10:5.704,O2:0.000,NO2:0.028,SO2:0.000,NH3:7.346
14:19:47,0,0,0,0,0,2700,2200,1,0,0,0,514,0,0,0,0,0.0000000,0.0000000,0.0000000,0.0000000,9.00,38.4062614,-110.7922440,1363.0999756,0.1,258.1,0.9,0.0,0.0,860,129,0,0,860.67,10.99,27.03,# data time:7230,pm2.5:6.445,pm10:5.704,O2:0.000,NO2:0.000,SO2:0.000,NH3:7.346
14:19:48,0,0,0,0,0,2700,2200,1,0,0,0,514,0,0,0,0,0.0000000,0.0000000,0.0000000,0.0000000,9.00,38.4062614,-110.7922440,1363.0999756,0.0,259.8,0.9,0.0,0.0,860,129,0,0,860.69,10.97,27.03,# data time:7230,pm2.5:6.445,pm10:5.704,O2:0.000,NO2:0.000,SO2:0.000,NH3:7.346
14:19:50,0,0,0,0,0,2700,2200,1,0,0,0,514,0,0,0,0,0.0000000,0.0000000,0.0000000,0.0000000,9.00,38.4062614,-110.7922440,1363.0999756,0.1,212.0,0.9,0.0,0.0,861,129,0,0,860.70,10.97,27.02,# data time:7230,pm2.5:6.445,pm10:5.704,O2:0.000,NO2:0.000,SO2:0.000,NH3:7.346
14:19:51,0,0,0,0,0,2700,2200,1,0,0,0,514,0,0,0,0,0.0000000,0.0000000,0.0000000,0.0000000,9.00,38.4062614,-110.7922440,1363.0999756,0.1,215.4,0.9,0.0,0.0,860,128,0,0,860.71,10.94,27.03,# data time:7230,pm2.5:6.445,pm10:5.704,O2:0.000,NO2:0.000,SO2:0.000,NH3:7.346
14:19:52,0,0,0,0,0,2700,2200,1,0,0,0,514,0,0,0,0,0.0000000,0.0000000,0.0000000,0.0000000,9.00,38.4062614,-110.7922440,1363.0999756,0.1,235.3,0.9,0.0,0.0,861,129,0,0,860.78,10.93,27.03,# data time:7230,pm2.5:6.445,pm10:5.704,O2:0.000,NO2:0.000,SO2:0.000,NH3:7.346
14:19:53,0,0,0,0,0,2700,2200,1,0,0,0,513,0,0,0,0,0.0000000,0.0000000,0.0000000,0.0000000,9.00,38.4062614,-110.7922440,1363.0999756,0.1,235.3,0.9,0.0,0.0,861,128,0,0,860.69,10.93,26.93,# data time:7230,pm2.5:6.445,pm10:5.704,O2:0.000,NO2:0.000,SO2:0.000,NH3:7.346
14:19:54,0,0,0,0,0,2700,2200,1,0,0,0,514,0,0,0,0,0.0000000,0.0000000,0.0000000,0.0000000,9.00,38.4062576,-110.7922440,1363.0999756,0.1,235.3,0.9,0.0,0.0,861,128,0,0,860.71,10.94,26.93,# data time:7230,pm2.5:6.445,pm10:5.704,O2:0.000,NO2:0.000,SO2:0.000,NH3:7.346
14:19:55,0,0,0,0,0,2700,2200,1,0,0,0,514,0,0,0,0,0.0000000,0.0000000,0.0000000,0.0000000,9.00,38.4062576,-110.7922440,1363.0999756,0.1,235.3,0.9,0.0,0.0,861,128,0,0,860.79,10.94,26.98,# data time:7230,pm2.5:6.445,pm10:5.704,O2:0.000,NO2:0.000,SO2:0.000,NH3:7.346
14:19:56,0,0,0,0,0,2700,2200,1,0,0,0,515,0,0,0,0,0.0000000,0.0000000,0.0000000,0.0000000,9.00,38.4062576,-110.7922440,1363.0999756,0.0,201.7,0.9,0.0,0.0,861,134,0,0,860.76,10.93,26.99,# data time:7230,pm2.5:6.445,pm10:5.704,O2:0.000,NO2:0.000,SO2:0.000,NH3:7.346
14:19:57,0,0,0,0,0,2700,2200,1,0,0,0,514,0,0,0,0,0.0000000,0.0000000,0.0000000,0.0000000,9.00,38.4062576,-110.7922440,1363.0999756,0.0,232.1,0.9,0.0,0.0,861,129,0,0,860.67,10.94,26.99,# data time:7230,pm2.5:6.445,pm10:5.704,O2:0.000,NO2:0.000,SO2:0.000,NH3:7.346
14:19:58,0,0,0,0,0,2700,2200,1,0,0,0,514,0,0,0,0,0.0000000,0.0000000,0.0000000,0.0000000,9.00,38.4062576,-110.7922440,1363.0999756,0.1,244.0,0.9,0.0,0.0,861,130,0,0,860.69,10.93,27.03,# data time:7240,pm2.5:6.445,pm10:5.704,O2:0.000,NO2:0.063,SO2:0.000,NH3:7.346
14:19:59,0,0,0,0,0,2700,2200,1,0,0,0,514,0,0,0,0,0.0000000,0.0000000,0.0000000,0.0000000,9.00,38.4062576,-110.7922440,1363.0999756,0.1,212.0,0.9,0.0,0.0,861,127,0,0,860.72,10.91,27.04,# data time:7240,pm2.5:6.445,pm10:5.704,O2:0.000,NO2:0.063,SO2:0.000,NH3:7.346
14:20:00,0,0,0,0,0,2700,2200,1,0,0,0,515,0,0,0,0,0.0000000,0.0000000,0.0000000,0.0000000,9.00,38.4062576,-110.7922440,1363.0999756,0.1,225.5,0.9,0.0,0.0,861,126,0,0,860.65,10.91,27.04,# data time:7240,pm2.5:6.445,pm10:5.704,O2:0.000,NO2:0.063,SO2:0.000,NH3:7.346
14:20:01,0,0,0,0,0,2700,2200,1,0,0,0,514,0,0,0,0,0.0000000,0.0000000,0.0000000,0.0000000,9.00,38.4062576,-110.7922440,1363.0999756,0.1,227.0,0.9,0.0,0.0,861,128,0,0,860.66,10.93,27.04,# data time:7240,pm2.5:6.445,pm10:5.704,O2:0.000,NO2:0.063,SO2:0.000,NH3:7.346
14:20:02,0,0,0,0,0,2700,2200,1,0,0,0,514,0,0,0,0,0.0000000,0.0000000,0.0000000,0.0000000,9.00,38.4062576,-110.7922440,1363.0999756,0.1,208.2,0.9,0.0,0.0,861,129,0,0,860.72,10.93,27.05,# data time:7240,pm2.5:6.445,pm10:5.704,O2:0.000,NO2:0.063,SO2:0.000,NH3:7.346
14:20:03,0,0,0,0,0,2700,2200,1,0,0,0,514,0,0,0,0,0.0000000,0.0000000,0.0000000,0.0000000,9.00,38.4062576,-110.7922440,1363.0999756,0.0,223.0,0.9,0.0,0.0,860,129,0,0,860.64,10.97,27.05,# data time:7240,pm2.5:6.445,pm10:5.704,O2:0.000,NO2:0.063,SO2:0.000,NH3:7.346
14:20:04,0,0,0,0,0,2700,2200,1,0,0,0,514,0,0,0,0,0.0000000,0.0000000,0.0000000,0.0000000,9.00,38.4062576,-110.7922440,1363.0999756,0.0,214.7,0.9,0.0,0.0,861,126,0,0,860.64,10.93,27.04,# data time:7240,pm2.5:6.445,pm10:5.704,O2:0.000,NO2:0.063,SO2:0.000,NH3:7.346
14:20:05,0,0,0,0,0,2700,2200,1,0,0,0,514,0,0,0,0,0.0000000,0.0000000,0.0000000,0.0000000,9.00,38.4062576,-110.7922440,1363.0999756,0.0,236.6,0.9,0.0,0.0,861,129,0,0,860.67,10.94,27.05,# data time:7240,pm2.5:6.445,pm10:5.704,O2:0.000,NO2:0.063,SO2:0.000,NH3:7.346
14:20:06,0,0,0,0,0,2700,2200,1,0,0,0,514,0,0,0,0,0.0000000,0.0000000,0.0000000,0.0000000,9.00,38.4062576,-110.7922440,1363.0999756,0.1,211.9,0.9,0.0,0.0,861,131,0,0,860.69,10.96,27.05,# data time:7240,pm2.5:6.445,pm10:5.704,O2:0.000,NO2:0.063,SO2:0.000,NH3:7.346
14:20:07,0,0,0,0,0,2700,2200,1,0,0,0,514,0,0,0,0,0.0000000,0.0000000,0.0000000,0.0000000,9.00,38.4062576,-110.7922440,1363.0999756,0.0,224.9,0.9,0.0,0.0,861,127,0,0,860.74,10.97,27.05,# data time:7250,pm2.5:6.445,pm10:5.704,O2:0.000,NO2:0.028,SO2:0.000,NH3:7.346
14:20:08,0,0,0,0,0,2700,2200,1,0,0,0,515,0,0,0,0,0.0000000,0.0000000,0.0000000,0.0000000,9.00,38.4062576,-110.7922440,1363.0999756,0.1,230.1,0.9,0.0,0.0,860,131,0,0,860.67,10.96,27.05,# data time:7250,pm2.5:6.445,pm10:5.704,O2:0.000,NO2:0.028,SO2:0.000,NH3:7.346
14:20:09,0,0,0,0,0,2700,2200,1,0,0,0,514,0,0,0,0,0.0000000,0.0000000,0.0000000,0.0000000,9.00,38.4062576,-110.7922440,1363.0999756,0.0,217.0,0.9,0.0,0.0,861,129,0,0,860.70,10.96,27.06,# data time:7250,pm2.5:6.445,pm10:5.704,O2:0.000,NO2:0.028,SO2:0.000,NH3:7.346
14:20:10,0,0,0,0,0,2700,2200,1,0,0,0,514,0,0,0,0,0.0000000,0.0000000,0.0000000,0.0000000,9.00,38.4062576,-110.7922440,1363.0999756,0.0,203.6,0.9,0.0,0.0,861,130,0,0,860.76,10.96,27.06,# data time:7250,pm2.5:6.445,pm10:5.704,O2:0.000,NO2:0.028,SO2:0.000,NH3:7.346
14:20:11,0,0,0,0,0,2700,2200,1,0,0,0,514,0,0,0,0,0.0000000,0.0000000,0.0000000,0.0000000,9.00,38.4062576,-110.7922440,1363.1999512,0.1,196.5,0.9,0.0,0.0,860,131,0,0,860.68,10.96,27.06,# data time:7250,pm2.5:6.445,pm10:5.704,O2:0.000,NO2:0.028,SO2:0.000,NH3:7.346
14:20:12,0,0,0,0,0,2700,2200,1,0,0,0,514,0,0,0,0,0.0000000,0.0000000,0.0000000,0.0000000,9.00,38.4062576,-110.7922440,1363.1999512,0.1,198.5,0.9,0.0,0.0,861,130,0,0,860.68,10.99,27.07,# data time:7250,pm2.5:6.445,pm10:5.704,O2:0.000,NO2:0.028,SO2:0.000,NH3:7.346
14:20:13,0,0,0,0,0,2700,2200,1,0,0,0,514,0,0,0,0,0.0000000,0.0000000,0.0000000,0.0000000,9.00,38.4062576,-110.7922440,1363.1999512,0.1,224.8,0.9,0.0,0.0,861,129,0,0,860.71,10.99,27.06,# data time:7250,pm2.5:6.445,pm10:5.704,O2:0.000,NO2:0.028,SO2:0.000,NH3:7.346
14:20:15,0,0,0,0,0,2700,2200,1,0,0,0,515,0,0,0,0,0.0000000,0.0000000,0.0000000,0.0000000,9.00,38.4062576,-110.7922440,1363.1999512,0.1,216.9,0.9,0.0,0.0,861,130,0,0,860.73,10.97,27.07,# data time:7250,pm2.5:6.445,pm10:5.704,O2:0.000,NO2:0.028,SO2:0.000,NH3:7.346
14:20:16,0,0,0,0,0,2700,2200,1,0,0,0,515,0,0,0,0,0.0000000,0.0000000,0.0000000,0.0000000,9.00,38.4062576,-110.7922440,1363.1999512,0.0,214.4,0.9,0.0,0.0,862,129,0,0,860.62,10.96,26.98,# data time:7250,pm2.5:6.445,pm10:5.704,O2:0.000,NO2:0.028,SO2:0.000,NH3:7.346
14:20:17,0,0,0,0,0,2700,2200,1,0,0,0,515,0,0,0,0,0.0000000,0.0000000,0.0000000,0.0000000,9.00,38.4062576,-110.7922440,1363.1999512,0.0,214.4,0.9,0.0,0.0,862,131,0,0,860.63,10.96,26.97,# data time:7250,pm2.5:6.445,pm10:5.704,O2:0.000,NO2:0.028,SO2:0.000,NH3:7.346
14:20:18,0,0,0,0,0,2700,2200,1,0,0,0,514,0,0,0,0,0.0000000,0.0000000,0.0000000,0.0000000,9.00,38.4062576,-110.7922440,1363.1999512,0.0,214.4,0.9,0.0,0.0,861,130,0,0,860.71,10.96,27.02,# data time:7260,pm2.5:6.445,pm10:5.704,O2:0.000,NO2:0.028,SO2:0.000,NH3:7.346
14:20:19,0,0,0,0,0,2700,2200,1,0,0,0,514,0,0,0,0,0.0000000,0.0000000,0.0000000,0.0000000,9.00,38.4062576,-110.7922440,1363.1999512,0.0,86.4,0.9,0.0,0.0,860,127,0,0,860.71,10.96,27.03,# data time:7260,pm2.5:6.445,pm10:5.704,O2:0.000,NO2:0.028,SO2:0.000,NH3:7.346
14:20:20,0,0,0,0,0,2700,2200,1,0,0,0,514,0,0,0,0,0.0000000,0.0000000,0.0000000,0.0000000,9.00,38.4062576,-110.7922440,1363.1999512,0.0,151.1,0.9,0.0,0.0,861,135,0,0,860.72,10.93,27.07,# data time:7260,pm2.5:6.445,pm10:5.704,O2:0.000,NO2:0.028,SO2:0.000,NH3:7.346
14:20:21,0,0,0,0,0,2700,2200,1,0,0,0,514,0,0,0,0,0.0000000,0.0000000,0.0000000,0.0000000,9.00,38.4062576,-110.7922440,1363.1999512,0.0,173.0,0.9,0.0,0.0,860,128,0,0,860.71,10.96,27.08,# data time:7260,pm2.5:6.445,pm10:5.704,O2:0.000,NO2:0.028,SO2:0.000,NH3:7.346
14:20:22,0,0,0,0,0,2700,2200,1,0,0,0,514,0,0,0,0,0.0000000,0.0000000,0.0000000,0.0000000,9.00,38.4062576,-110.7922440,1363.1999512,0.0,316.9,0.9,0.0,0.0,861,130,0,0,860.75,10.96,27.08,# data time:7260,pm2.5:6.445,pm10:5.704,O2:0.000,NO2:0.028,SO2:0.000,NH3:7.346
14:20:23,0,0,0,0,0,2700,2200,1,0,0,0,515,0,0,0,0,0.0000000,0.0000000,0.0000000,0.0000000,9.00,38.4062576,-110.7922440,1363.1999512,0.0,182.0,0.9,0.0,0.0,861,129,0,0,860.73,10.94,27.08,# data time:7260,pm2.5:6.445,pm10:5.704,O2:0.000,NO2:0.028,SO2:0.000,NH3:7.346
14:20:24,0,0,0,0,0,2700,2200,1,0,0,0,514,0,0,0,0,0.0000000,0.0000000,0.0000000,0.0000000,9.00,38.4062576,-110.7922440,1363.1999512,0.0,211.4,0.9,0.0,0.0,861,127,0,0,860.78,10.94,27.08,# data time:7260,pm2.5:6.445,pm10:5.704,O2:0.000,NO2:0.028,SO2:0.000,NH3:7.346
14:20:25,0,0,0,0,0,2700,2200,1,0,0,0,515,0,0,0,0,0.0000000,0.0000000,0.0000000,0.0000000,9.00,38.4062576,-110.7922440,1363.1999512,0.0,203.9,0.9,0.0,0.0,861,130,0,0,860.74,10.91,27.08,# data time:7260,pm2.5:6.445,pm10:5.704,O2:0.000,NO2:0.028,SO2:0.000,NH3:7.346
14:20:26,0,0,0,0,0,2700,2200,1,0,0,0,514,0,0,0,0,0.0000000,0.0000000,0.0000000,0.0000000,9.00,38.4062576,-110.7922440,1363.1999512,0.0,220.9,0.9,0.0,0.0,861,126,0,0,860.65,10.93,27.08,# data time:7260,pm2.5:6.445,pm10:5.704,O2:0.000,NO2:0.028,SO2:0.000,NH3:7.346
14:20:27,0,0,0,0,0,2700,2200,1,0,0,0,514,0,0,0,0,0.0000000,0.0000000,0.0000000,0.0000000,9.00,38.4062576,-110.7922440,1363.1999512,0.0,230.6,0.9,0.0,0.0,861,129,0,0,860.68,10.93,27.08,# data time:7270,pm2.5:6.445,pm10:5.704,O2:0.000,NO2:0.046,SO2:0.000,NH3:7.346
14:20:28,0,0,0,0,0,2700,2200,1,0,0,0,514,0,0,0,0,0.0000000,0.0000000,0.0000000,0.0000000,9.00,38.4062576,-110.7922440,1363.1999512,0.1,229.8,0.9,0.0,0.0,861,132,0,0,860.76,10.93,27.09,# data time:7270,pm2.5:6.445,pm10:5.704,O2:0.000,NO2:0.046,SO2:0.000,NH3:7.346
14:20:29,0,0,0,0,0,2700,2200,1,0,0,0,514,0,0,0,0,0.0000000,0.0000000,0.0000000,0.0000000,9.00,38.4062576,-110.7922440,1363.1999512,0.1,233.2,0.9,0.0,0.0,861,129,0,0,860.72,10.96,27.09,# data time:7270,pm2.5:6.445,pm10:5.704,O2:0.000,NO2:0.046,SO2:0.000,NH3:7.346
14:20:30,0,0,0,0,0,2700,2200,1,0,0,0,514,0,0,0,0,0.0000000,0.0000000,0.0000000,0.0000000,9.00,38.4062576,-110.7922440,1363.1999512,0.1,227.9,0.9,0.0,0.0,860,130,0,0,860.82,10.93,27.09,# data time:7270,pm2.5:6.445,pm10:5.704,O2:0.000,NO2:0.046,SO2:0.000,NH3:7.346
14:20:31,0,0,0,0,0,2700,2200,1,0,0,0,514,0,0,0,0,0.0000000,0.0000000,0.0000000,0.0000000,9.00,38.4062576,-110.7922440,1363.1999512,0.0,216.1,0.9,0.0,0.0,860,126,0,0,860.67,10.90,27.09,# data time:7270,pm2.5:6.445,pm10:5.704,O2:0.000,NO2:0.046,SO2:0.000,NH3:7.346
14:20:32,0,0,0,0,0,2700,2200,1,0,0,0,514,0,0,0,0,0.0000000,0.0000000,0.0000000,0.0000000,9.00,38.4062576,-110.7922440,1363.1999512,0.0,268.3,0.9,0.0,0.0,861,127,0,0,860.82,10.93,27.09,# data time:7270,pm2.5:6.445,pm10:5.704,O2:0.000,NO2:0.046,SO2:0.000,NH3:7.346
14:20:33,0,0,0,0,0,2700,2200,1,0,0,0,514,0,0,0,0,0.0000000,0.0000000,0.0000000,0.0000000,9.00,38.4062576,-110.7922440,1363.1999512,0.1,182.3,0.9,0.0,0.0,860,129,0,0,860.70,10.94,27.10,# data time:7270,pm2.5:6.445,pm10:5.704,O2:0.000,NO2:0.046,SO2:0.000,NH3:7.346
14:20:34,0,0,0,0,0,2700,2200,1,0,0,0,514,0,0,0,0,0.0000000,0.0000000,0.0000000,0.0000000,9.00,38.4062576,-110.7922440,1363.1999512,0.1,205.8,0.9,0.0,0.0,860,130,0,0,860.75,10.93,27.10,# data time:7270,pm2.5:6.445,pm10:5.704,O2:0.000,NO2:0.046,SO2:0.000,NH3:7.346
14:20:35,0,0,0,0,0,2700,2200,1,0,0,0,514,0,0,0,0,0.0000000,0.0000000,0.0000000,0.0000000,9.00,38.4062576,-110.7922440,1363.1999512,0.0,208.1,0.9,0.0,0.0,861,128,0,0,860.77,10.94,27.10,# data time:7270,pm2.5:6.445,pm10:5.704,O2:0.000,NO2:0.046,SO2:0.000,NH3:7.346
14:20:36,0,0,0,0,0,2700,2200,1,0,0,0,514,0,0,0,0,0.0000000,0.0000000,0.0000000,0.0000000,9.00,38.4062576,-110.7922440,1363.1999512,0.1,223.5,0.9,0.0,0.0,861,131,0,0,860.78,10.91,27.10,# data time:7270,pm2.5:6.445,pm10:5.704,O2:0.000,NO2:0.046,SO2:0.000,NH3:7.346
14:20:38,0,0,0,0,0,2700,2200,1,0,0,0,514,0,0,0,0,0.0000000,0.0000000,0.0000000,0.0000000,9.00,38.4062576,-110.7922440,1363.1999512,0.0,244.5,0.9,0.0,0.0,861,129,0,0,860.67,10.94,27.10,# data time:7280,pm2.5:6.445,pm10:5.704,O2:0.000,NO2:0.046,SO2:0.000,NH3:7.346
14:20:39,0,0,0,0,0,2700,2200,1,0,0,0,514,0,0,0,0,0.0000000,0.0000000,0.0000000,0.0000000,9.00,38.4062576,-110.7922440,1363.1999512,0.0,244.7,0.9,0.0,0.0,860,130,0,0,860.67,10.93,27.11,# data time:7280,pm2.5:6.445,pm10:5.704,O2:0.000,NO2:0.046,SO2:0.000,NH3:7.346
14:20:40,0,0,0,0,0,2700,2200,1,0,0,0,513,0,0,0,0,0.0000000,0.0000000,0.0000000,0.0000000,9.00,38.4062576,-110.7922440,1363.1999512,0.0,207.4,0.9,0.0,0.0,861,129,0,0,860.64,10.94,27.02,# data time:7280,pm2.5:6.445,pm10:5.704,O2:0.000,NO2:0.046,SO2:0.000,NH3:7.346
14:20:41,0,0,0,0,0,2700,2200,1,0,0,0,515,0,0,0,0,0.0000000,0.0000000,0.0000000,0.0000000,9.00,38.4062576,-110.7922440,1363.1999512,0.0,207.4,0.9,0.0,0.0,861,131,0,0,860.63,10.93,27.01,# data time:7280,pm2.5:6.445,pm10:5.704,O2:0.000,NO2:0.046,SO2:0.000,NH3:7.346
14:20:42,0,0,0,0,0,2700,2200,1,0,0,0,513,0,0,0,0,0.0000000,0.0000000,0.0000000,0.0000000,9.00,38.4062576,-110.7922440,1363.1999512,0.0,207.4,0.9,0.0,0.0,861,133,0,0,860.59,10.94,27.01,# data time:7280,pm2.5:6.445,pm10:5.704,O2:0.000,NO2:0.046,SO2:0.000,NH3:7.346
14:20:43,0,0,0,0,0,2700,2200,1,0,0,0,514,0,0,0,0,0.0000000,0.0000000,0.0000000,0.0000000,9.00,38.4062576,-110.7922440,1363.3000488,0.0,207.4,0.9,0.0,0.0,860,129,0,0,860.66,10.91,27.01,# data time:7280,pm2.5:6.445,pm10:5.704,O2:0.000,NO2:0.046,SO2:0.000,NH3:7.346
14:20:44,0,0,0,0,0,2700,2200,1,0,0,0,514,0,0,0,0,0.0000000,0.0000000,0.0000000,0.0000000,9.00,38.4062576,-110.7922440,1363.3000488,0.0,271.3,0.9,0.0,0.0,861,127,0,0,860.65,10.91,27.06,# data time:7280,pm2.5:6.445,pm10:5.704,O2:0.000,NO2:0.046,SO2:0.000,NH3:7.346
14:20:45,0,0,0,0,0,2700,2200,1,0,0,0,514,0,0,0,0,0.0000000,0.0000000,0.0000000,0.0000000,9.00,38.4062576,-110.7922440,1363.3000488,0.0,260.2,0.9,0.0,0.0,861,129,0,0,860.63,10.91,27.11,# data time:7280,pm2.5:6.445,pm10:5.704,O2:0.000,NO2:0.046,SO2:0.000,NH3:7.346
14:20:46,0,0,0,0,0,2700,2200,1,0,0,0,515,0,0,0,0,0.0000000,0.0000000,0.0000000,0.0000000,9.00,38.4062576,-110.7922440,1363.3000488,0.0,285.4,0.9,0.0,0.0,861,129,0,0,860.81,10.91,27.11,# data time:7280,pm2.5:6.445,pm10:5.704,O2:0.000,NO2:0.046,SO2:0.000,NH3:7.346
14:20:47,0,0,0,0,0,2700,2200,1,0,0,0,514,0,0,0,0,0.0000000,0.0000000,0.0000000,0.0000000,9.00,38.4062576,-110.7922440,1363.3000488,0.0,265.9,0.9,0.0,0.0,861,130,0,0,860.72,10.96,27.12,# data time:7290,pm2.5:6.445,pm10:5.704,O2:0.000,NO2:0.046,SO2:0.000,NH3:7.346
14:20:48,0,0,0,0,0,2700,2200,1,0,0,0,515,0,0,0,0,0.0000000,0.0000000,0.0000000,0.0000000,9.00,38.4062576,-110.7922440,1363.3000488,0.0,271.8,0.9,0.0,0.0,861,129,0,0,860.86,10.91,27.11,# data time:7290,pm2.5:6.445,pm10:5.704,O2:0.000,NO2:0.046,SO2:0.000,NH3:7.346
14:20:49,0,0,0,0,0,2700,2200,1,0,0,0,514,0,0,0,0,0.0000000,0.0000000,0.0000000,0.0000000,9.00,38.4062576,-110.7922440,1363.3000488,0.0,227.9,0.9,0.0,0.0,860,128,0,0,860.93,10.93,27.11,# data time:7290,pm2.5:6.445,pm10:5.704,O2:0.000,NO2:0.046,SO2:0.000,NH3:7.346
14:20:50,0,0,0,0,0,2700,2200,1,0,0,0,515,0,0,0,0,0.0000000,0.0000000,0.0000000,0.0000000,9.00,38.4062576,-110.7922440,1363.3000488,0.0,272.8,0.9,0.0,0.0,860,130,0,0,860.80,10.91,27.11,# data time:7290,pm2.5:6.445,pm10:5.704,O2:0.000,NO2:0.046,SO2:0.000,NH3:7.346
14:20:51,0,0,0,0,0,2700,2200,1,0,0,0,514,0,0,0,0,0.0000000,0.0000000,0.0000000,0.0000000,9.00,38.4062576,-110.7922440,1363.4000244,0.0,259.9,0.9,0.0,0.0,860,128,0,0,860.89,10.94,27.11,# data time:7290,pm2.5:6.445,pm10:5.704,O2:0.000,NO2:0.046,SO2:0.000,NH3:7.346
14:20:52,0,0,0,0,0,2700,2200,1,0,0,0,514,0,0,0,0,0.0000000,0.0000000,0.0000000,0.0000000,9.00,38.4062576,-110.7922440,1363.4000244,0.0,253.5,0.9,0.0,0.0,861,128,0,0,860.93,10.91,27.12,# data time:7290,pm2.5:6.445,pm10:5.704,O2:0.000,NO2:0.046,SO2:0.000,NH3:7.346
14:20:53,0,0,0,0,0,2700,2200,1,0,0,0,514,0,0,0,0,0.0000000,0.0000000,0.0000000,0.0000000,9.00,38.4062576,-110.7922440,1363.4000244,0.0,263.6,0.9,0.0,0.0,860,128,0,0,860.65,10.90,27.12,# data time:7290,pm2.5:6.445,pm10:5.704,O2:0.000,NO2:0.046,SO2:0.000,NH3:7.346
14:20:54,0,0,0,0,0,2700,2200,1,0,0,0,515,0,0,0,0,0.0000000,0.0000000,0.0000000,0.0000000,9.00,38.4062576,-110.7922440,1363.4000244,0.0,255.4,0.9,0.0,0.0,860,127,0,0,860.72,10.93,27.12,# data time:7290,pm2.5:6.445,pm10:5.704,O2:0.000,NO2:0.046,SO2:0.000,NH3:7.346
14:20:55,0,0,0,0,0,2700,2200,1,0,0,0,514,0,0,0,0,0.0000000,0.0000000,0.0000000,0.0000000,9.00,38.4062576,-110.7922440,1363.4000244,0.1,192.6,0.9,0.0,0.0,861,129,0,0,860.76,10.94,27.12,# data time:7290,pm2.5:6.445,pm10:5.704,O2:0.000,NO2:0.046,SO2:0.000,NH3:7.346
14:20:56,0,0,0,0,0,2700,2200,1,0,0,0,514,0,0,0,0,0.0000000,0.0000000,0.0000000,0.0000000,9.00,38.4062576,-110.7922440,1363.4000244,0.0,192.9,0.9,0.0,0.0,860,129,0,0,860.99,10.90,27.12,# data time:7290,pm2.5:6.445,pm10:5.704,O2:0.000,NO2:0.046,SO2:0.000,NH3:7.346
14:20:57,0,0,0,0,0,2700,2200,1,0,0,0,514,0,0,0,0,0.0000000,0.0000000,0.0000000,0.0000000,9.00,38.4062576,-110.7922440,1363.4000244,0.0,196.3,0.9,0.0,0.0,860,133,0,0,860.77,10.90,27.12,# data time:7300,pm2.5:6.445,pm10:5.704,O2:0.000,NO2:0.028,SO2:0.000,NH3:7.346
14:20:58,0,0,0,0,0,2700,2200,1,0,0,0,514,0,0,0,0,0.0000000,0.0000000,0.0000000,0.0000000,9.00,38.4062576,-110.7922440,1363.4000244,0.0,345.8,0.9,0.0,0.0,860,131,0,0,860.88,10.86,27.13,# data time:7300,pm2.5:6.445,pm10:5.704,O2:0.000,NO2:0.028,SO2:0.000,NH3:7.346
14:20:59,0,0,0,0,0,2700,2200,1,0,0,0,513,0,0,0,0,0.0000000,0.0000000,0.0000000,0.0000000,9.00,38.4062576,-110.7922440,1363.4000244,0.0,213.8,0.9,0.0,0.0,860,129,0,0,860.68,10.90,27.13,# data time:7300,pm2.5:6.445,pm10:5.704,O2:0.000,NO2:0.028,SO2:0.000,NH3:7.346
14:21:00,0,0,0,0,0,2700,2200,1,0,0,0,514,0,0,0,0,0.0000000,0.0000000,0.0000000,0.0000000,9.00,38.4062576,-110.7922440,1363.4000244,0.0,255.6,0.9,0.0,0.0,861,128,0,0,860.74,10.88,27.13,# data time:7300,pm2.5:6.445,pm10:5.704,O2:0.000,NO2:0.028,SO2:0.000,NH3:7.346
14:21:02,0,0,0,0,0,2700,2200,1,0,0,0,514,0,0,0,0,0.0000000,0.0000000,0.0000000,0.0000000,9.00,38.4062576,-110.7922440,1363.5000000,0.0,348.1,0.9,0.0,0.0,859,133,0,0,860.80,10.86,27.13,# data time:7300,pm2.5:6.445,pm10:5.704,O2:0.000,NO2:0.028,SO2:0.000,NH3:7.346
14:21:03,0,0,0,0,0,2700,2200,1,0,0,0,514,0,0,0,0,0.0000000,0.0000000,0.0000000,0.0000000,9.00,38.4062576,-110.7922440,1363.5000000,0.0,350.5,0.9,0.0,0.0,861,129,0,0,860.78,10.85,27.13,# data time:7300,pm2.5:6.445,pm10:5.704,O2:0.000,NO2:0.028,SO2:0.000,NH3:7.346
14:21:04,0,0,0,0,0,2700,2200,1,0,0,0,515,0,0,0,0,0.0000000,0.0000000,0.0000000,0.0000000,9.00,38.4062576,-110.7922440,1363.5000000,0.0,50.4,0.9,0.0,0.0,861,132,0,0,860.83,10.90,27.13,# data time:7300,pm2.5:6.445,pm10:5.704,O2:0.000,NO2:0.028,SO2:0.000,NH3:7.346
14:21:05,0,0,0,0,0,2700,2200,1,0,0,0,514,0,0,0,0,0.0000000,0.0000000,0.0000000,0.0000000,9.00,38.4062576,-110.7922440,1363.5000000,0.0,131.3,0.9,0.0,0.0,860,131,0,0,860.76,10.90,27.09,# data time:7300,pm2.5:6.445,pm10:5.704,O2:0.000,NO2:0.028,SO2:0.000,NH3:7.346
14:21:06,0,0,0,0,0,2700,2200,1,0,0,0,514,0,0,0,0,0.0000000,0.0000000,0.0000000,0.0000000,9.00,38.4062576,-110.7922440,1363.5000000,0.0,309.5,0.9,0.0,0.0,860,127,0,0,860.73,10.90,27.13,# data time:7300,pm2.5:6.445,pm10:5.704,O2:0.000,NO2:0.028,SO2:0.000,NH3:7.346
14:21:08,0,0,0,0,0,2700,2200,1,0,0,0,514,0,0,0,0,0.0000000,0.0000000,0.0000000,0.0000000,9.00,38.4062576,-110.7922440,1363.5999756,0.0,286.0,0.9,0.0,0.0,861,129,0,0,860.61,10.88,27.09,# data time:7310,pm2.5:6.445,pm10:5.704,O2:0.000,NO2:0.028,SO
14:21:09,0,0,0,0,0,2700,2200,1,0,0,0,513,0,0,0,0,0.0000000,0.0000000,0.0000000,0.0000000,9.00,38.4062576,-110.7922440,1363.5999756,0.0,116.7,0.9,0.0,0.0,861,130,0,0,860.65,10.91,27.12,# data time:7310,pm2.5:6.445,pm10:5.704,O2:0.000,NO2:0.028,SO
14:21:10,0,0,0,0,0,2700,2200,1,0,0,0,514,0,0,0,0,0.0000000,0.0000000,0.0000000,0.0000000,9.00,38.4062576,-110.7922440,1363.5999756,0.0,185.5,0.9,0.0,0.0,861,130,0,0,860.63,10.88,27.12,# data time:7310,pm2.5:6.445,pm10:5.704,O2:0.000,NO2:0.028,SO
14:21:11,0,0,0,0,0,2700,2200,1,0,0,0,514,0,0,0,0,0.0000000,0.0000000,0.0000000,0.0000000,9.00,38.4062576,-110.7922440,1363.5999756,0.0,19.9,0.9,0.0,0.0,861,129,0,0,860.59,10.90,27.13,# data time:7310,pm2.5:6.445,pm10:5.704,O2:0.000,NO2:0.028,SO
14:21:12,0,0,0,0,0,2700,2200,1,0,0,0,514,0,0,0,0,0.0000000,0.0000000,0.0000000,0.0000000,9.00,38.4062576,-110.7922440,1363.5999756,0.0,112.1,0.9,0.0,0.0,861,128,0,0,860.56,10.90,27.13,# data time:7310,pm2.5:6.445,pm10:5.704,O2:0.000,NO2:0.028,SO
14:21:13,0,0,0,0,0,2700,2200,1,0,0,0,514,0,0,0,0,0.0000000,0.0000000,0.0000000,0.0000000,9.00,38.4062576,-110.7922440,1363.5999756,0.0,198.4,0.9,0.0,0.0,861,127,0,0,860.64,10.91,27.13,# data time:7310,pm2.5:6.445,pm10:5.704,O2:0.000,NO2:0.028,SO
14:21:14,0,0,0,0,0,2700,2200,1,0,0,0,514,0,0,0,0,0.0000000,0.0000000,0.0000000,0.0000000,9.00,38.4062576,-110.7922440,1363.5999756,0.0,179.4,0.9,0.0,0.0,861,130,0,0,860.70,10.91,27.14,# data time:7310,pm2.5:6.445,pm10:5.704,O2:0.000,NO2:0.028,SO
14:21:15,0,0,0,0,0,2700,2200,1,0,0,0,514,0,0,0,0,0.0000000,0.0000000,0.0000000,0.0000000,9.00,38.4062576,-110.7922440,1363.5999756,0.0,238.9,0.9,0.0,0.0,860,128,0,0,860.69,10.91,27.13,# data time:7310,pm2.5:6.445,pm10:5.704,O2:0.000,NO2:0.028,SO
14:21:16,0,0,0,0,0,2700,2200,1,0,0,0,514,0,0,0,0,0.0000000,0.0000000,0.0000000,0.0000000,9.00,38.4062576,-110.7922440,1363.5999756,0.0,248.9,0.9,0.0,0.0,860,132,0,0,860.69,10.88,27.14,# data time:7310,pm2.5:6.445,pm10:5.704,O2:0.000,NO2:0.028,SO
14:21:17,0,0,0,0,0,2700,2200,1,0,0,0,514,0,0,0,0,0.0000000,0.0000000,0.0000000,0.0000000,9.00,38.4062576,-110.7922440,1363.5999756,0.0,205.1,0.9,0.0,0.0,861,129,0,0,860.82,10.88,27.13,# data time:7320,pm2.5:6.445,pm10:5.704,O2:0.000,NO2:0.010,SO2:0.000,NH3:7.346
14:21:18,0,0,0,0,0,2700,2200,1,0,0,0,515,0,0,0,0,0.0000000,0.0000000,0.0000000,0.0000000,9.00,38.4062576,-110.7922440,1363.6999512,0.0,288.6,0.9,0.0,0.0,860,131,0,0,860.66,10.86,27.14,# data time:7320,pm2.5:6.445,pm10:5.704,O2:0.000,NO2:0.010,SO2:0.000,NH3:7.346
14:21:19,0,0,0,0,0,2700,2200,1,0,0,0,514,0,0,0,0,0.0000000,0.0000000,0.0000000,0.0000000,9.00,38.4062576,-110.7922440,1363.6999512,0.0,180.8,0.9,0.0,0.0,861,127,0,0,860.71,10.86,27.14,# data time:7320,pm2.5:6.445,pm10:5.704,O2:0.000,NO2:0.010,SO2:0.000,NH3:7.346
14:21:20,0,0,0,0,0,2700,2200,1,0,0,0,514,0,0,0,0,0.0000000,0.0000000,0.0000000,0.0000000,9.00,38.4062576,-110.7922440,1363.6999512,0.0,5.6,0.9,0.0,0.0,861,130,0,0,860.65,10.88,27.14,# data time:7320,pm2.5:6.445,pm10:5.704,O2:0.000,NO2:0.010,SO2:0.000,NH3:7.346
14:21:21,0,0,0,0,0,2700,2200,1,0,0,0,514,0,0,0,0,0.0000000,0.0000000,0.0000000,0.0000000,9.00,38.4062576,-110.7922440,1363.6999512,0.0,284.8,0.9,0.0,0.0,860,131,0,0,860.68,10.88,27.14,# data time:7320,pm2.5:6.445,pm10:5.704,O2:0.000,NO2:0.010,SO2:0.000,NH3:7.346
14:21:22,0,0,0,0,0,2700,2200,1,0,0,0,514,0,0,0,0,0.0000000,0.0000000,0.0000000,0.0000000,9.00,38.4062576,-110.7922440,1363.6999512,0.0,125.8,0.9,0.0,0.0,861,129,0,0,860.70,10.83,27.14,# data time:7320,pm2.5:6.445,pm10:5.704,O2:0.000,NO2:0.010,SO2:0.000,NH3:7.346
14:21:23,0,0,0,0,0,2700,2200,1,0,0,0,515,0,0,0,0,0.0000000,0.0000000,0.0000000,0.0000000,9.00,38.4062576,-110.7922440,1363.6999512,0.0,134.0,0.9,0.0,0.0,860,128,0,0,860.73,10.86,27.14,# data time:7320,pm2.5:6.445,pm10:5.704,O2:0.000,NO2:0.010,SO2:0.000,NH3:7.346
14:21:25,0,0,0,0,0,2700,2200,1,0,0,0,515,0,0,0,0,0.0000000,0.0000000,0.0000000,0.0000000,9.00,38.4062576,-110.7922440,1363.6999512,0.0,125.7,0.9,0.0,0.0,861,128,0,0,860.94,10.83,27.14,# data time:7320,pm2.5:6.445,pm10:5.704,O2:0.000,NO2:0.010,SO2:0.000,NH3:7.346
14:21:26,0,0,0,0,0,2700,2200,1,0,0,0,514,0,0,0,0,0.0000000,0.0000000,0.0000000,0.0000000,9.00,38.4062576,-110.7922440,1363.8000488,0.0,90.3,0.9,0.0,0.0,861,129,0,0,860.68,10.88,27.14,# data time:7320,pm2.5:6.445,pm10:5.704,O2:0.000,NO2:0.010,SO2:0.000,NH3:7.346
14:21:27,0,0,0,0,0,2700,2200,1,0,0,0,515,0,0,0,0,0.0000000,0.0000000,0.0000000,0.0000000,9.00,38.4062576,-110.7922440,1363.8000488,0.0,192.1,0.9,0.0,0.0,860,129,0,0,860.75,10.86,27.09,# data time:7320,pm2.5:6.445,pm10:5.704,O2:0.000,NO2:0.010,SO2:0.000,NH3:7.346
14:21:28,0,0,0,0,0,2700,2200,1,0,0,0,514,0,0,0,0,0.0000000,0.0000000,0.0000000,0.0000000,9.00,38.4062576,-110.7922440,1363.8000488,0.0,101.4,0.9,0.0,0.0,861,127,0,0,860.74,10.88,27.04,# data time:7330,pm2.5:6.445,pm10:5.704,O2:0.000,NO2:0.046,SO2:0.000,NH3:7.346
14:21:29,0,0,0,0,0,2700,2200,1,0,0,0,514,0,0,0,0,0.0000000,0.0000000,0.0000000,0.0000000,9.00,38.4062576,-110.7922440,1363.8000488,0.0,101.4,0.9,0.0,0.0,861,129,0,0,860.73,10.88,27.09,# data time:7330,pm2.5:6.445,pm10:5.704,O2:0.000,NO2:0.046,SO2:0.000,NH3:7.346
14:21:30,0,0,0,0,0,2700,2200,1,0,0,0,514,0,0,0,0,0.0000000,0.0000000,0.0000000,0.0000000,9.00,38.4062576,-110.7922440,1363.8000488,0.0,152.9,0.9,0.0,0.0,861,127,0,0,860.74,10.85,27.09,# data time:7330,pm2.5:6.445,pm10:5.704,O2:0.000,NO2:0.046,SO2:0.000,NH3:7.346
14:21:31,0,0,0,0,0,2700,2200,1,0,0,0,514,0,0,0,0,0.0000000,0.0000000,0.0000000,0.0000000,9.00,38.4062576,-110.7922440,1363.8000488,0.0,145.6,0.9,0.0,0.0,860,128,0,0,860.89,10.91,27.13,# data time:7330,pm2.5:6.445,pm10:5.704,O2:0.000,NO2:0.046,SO2:0.000,NH3:7.346
14:21:32,0,0,0,0,0,2700,2200,1,0,0,0,515,0,0,0,0,0.0000000,0.0000000,0.0000000,0.0000000,9.00,38.4062576,-110.7922440,1363.8000488,0.0,10.9,0.9,0.0,0.0,861,129,0,0,860.72,10.91,27.13,# data time:7330,pm2.5:6.445,pm10:5.704,O2:0.000,NO2:0.046,SO2:0.000,NH3:7.346
14:21:33,0,0,0,0,0,2700,2200,1,0,0,0,514,0,0,0,0,0.0000000,0.0000000,0.0000000,0.0000000,9.00,38.4062576,-110.7922440,1363.8000488,0.0,113.6,0.9,0.0,0.0,861,128,0,0,860.66,10.90,27.13,# data time:7330,pm2.5:6.445,pm10:5.704,O2:0.000,NO2:0.046,SO2:0.000,NH3:7.346
14:21:34,0,0,0,0,0,2700,2200,1,0,0,0,514,0,0,0,0,0.0000000,0.0000000,0.0000000,0.0000000,9.00,38.4062576,-110.7922440,1363.8000488,0.0,143.9,0.9,0.0,0.0,861,128,0,0,860.66,10.90,27.14,# data time:7330,pm2.5:6.445,pm10:5.704,O2:0.000,NO2:0.046,SO2:0.000,NH3:7.346
14:21:35,0,0,0,0,0,2700,2200,1,0,0,0,514,0,0,0,0,0.0000000,0.0000000,0.0000000,0.0000000,9.00,38.4062576,-110.7922440,1363.9000244,0.0,212.1,0.9,0.0,0.0,860,130,0,0,860.64,10.90,27.14,# data time:7330,pm2.5:6.445,pm10:5.704,O2:0.000,NO2:0.046,SO2:0.000,NH3:7.346
14:21:36,0,0,0,0,0,2700,2200,1,0,0,0,514,0,0,0,0,0.0000000,0.0000000,0.0000000,0.0000000,9.00,38.4062576,-110.7922440,1363.9000244,0.1,1.7,0.9,0.0,0.0,861,130,0,0,860.66,10.90,27.14,# data time:7330,pm2.5:6.445,pm10:5.704,O2:0.000,NO2:0.046,SO2:0.000,NH3:7.346
14:21:37,0,0,0,0,0,2700,2200,1,0,0,0,514,0,0,0,0,0.0000000,0.0000000,0.0000000,0.0000000,9.00,38.4062576,-110.7922440,1363.9000244,0.0,327.9,0.9,0.0,0.0,860,130,0,0,860.61,10.91,27.13,# data time:7340,pm2.5:6.445,pm10:5.704,O2:0.000,NO2:0.046,SO2:0.000,NH3:7.346
14:21:38,0,0,0,0,0,2700,2200,1,0,0,0,513,0,0,0,0,0.0000000,0.0000000,0.0000000,0.0000000,9.00,38.4062576,-110.7922440,1363.9000244,0.0,21.1,0.9,0.0,0.0,861,128,0,0,860.67,10.90,27.14,# data time:7340,pm2.5:6.445,pm10:5.704,O2:0.000,NO2:0.046,SO2:0.000,NH3:7.346
14:21:39,0,0,0,0,0,2700,2200,1,0,0,0,514,0,0,0,0,0.0000000,0.0000000,0.0000000,0.0000000,9.00,38.4062576,-110.7922440,1363.9000244,0.0,170.7,0.9,0.0,0.0,861,129,0,0,860.64,10.90,27.13,# data time:7340,pm2.5:6.445,pm10:5.704,O2:0.000,NO2:0.046,SO2:0.000,NH3:7.346
14:21:40,0,0,0,0,0,2700,2200,1,0,0,0,514,0,0,0,0,0.0000000,0.0000000,0.0000000,0.0000000,9.00,38.4062576,-110.7922440,1363.9000244,0.0,238.9,0.9,0.0,0.0,861,133,0,0,860.67,10.91,27.14,# data time:7340,pm2.5:6.445,pm10:5.704,O2:0.000,NO2:0.046,SO2:0.000,NH3:7.346
14:21:41,0,0,0,0,0,2700,2200,1,0,0,0,514,0,0,0,0,0.0000000,0.0000000,0.0000000,0.0000000,9.00,38.4062576,-110.7922440,1363.9000244,0.0,150.1,0.9,0.0,0.0,860,127,0,0,860.65,10.90,27.13,# data time:7340,pm2.5:6.445,pm10:5.704,O2:0.000,NO2:0.046,SO2:0.000,NH3:7.346
14:21:42,0,0,0,0,0,2700,2200,1,0,0,0,514,0,0,0,0,0.0000000,0.0000000,0.0000000,0.0000000,9.00,38.4062576,-110.7922440,1363.9000244,0.0,334.5,0.9,0.0,0.0,860,132,0,0,860.65,10.90,27.13,# data time:7340,pm2.5:6.445,pm10:5.704,O2:0.000,NO2:0.046,SO2:0.000,NH3:7.346
14:21:43,0,0,0,0,0,2700,2200,1,0,0,0,514,0,0,0,0,0.0000000,0.0000000,0.0000000,0.0000000,9.00,38.4062576,-110.7922440,1363.9000244,0.0,38.2,0.9,0.0,0.0,860,128,0,0,860.71,10.88,27.13,# data time:7340,pm2.5:6.445,pm10:5.704,O2:0.000,NO2:0.046,SO2:0.000,NH3:7.346
14:21:44,0,0,0,0,0,2700,2200,1,0,0,0,514,0,0,0,0,0.0000000,0.0000000,0.0000000,0.0000000,9.00,38.4062576,-110.7922440,1363.9000244,0.0,268.0,0.9,0.0,0.0,860,131,0,0,860.66,10.88,27.13,# data time:7340,pm2.5:6.445,pm10:5.704,O2:0.000,NO2:0.046,SO2:0.000,NH3:7.346
14:21:45,0,0,0,0,0,2700,2200,1,0,0,0,514,0,0,0,0,0.0000000,0.0000000,0.0000000,0.0000000,9.00,38.4062576,-110.7922440,1363.9000244,0.0,312.1,0.9,0.0,0.0,861,130,0,0,860.61,10.90,27.14,# data time:7340,pm2.5:6.445,pm10:5.704,O2:0.000,NO2:0.046,SO2:0.000,NH3:7.346
14:21:46,0,0,0,0,0,2700,2200,1,0,0,0,514,0,0,0,0,0.0000000,0.0000000,0.0000000,0.0000000,9.00,38.4062576,-110.7922440,1364.0000000,0.0,7.1,0.9,0.0,0.0,861,132,0,0,860.74,10.91,27.13,# data time:7340,pm2.5:6.445,pm10:5.704,O2:0.000,NO2:0.046,SO2:0.000,NH3:7.346
14:21:47,0,0,0,0,0,2700,2200,1,0,0,0,514,0,0,0,0,0.0000000,0.0000000,0.0000000,0.0000000,9.00,38.4062576,-110.7922440,1364.0000000,0.0,334.3,0.9,0.0,0.0,861,129,0,0,860.69,10.91,27.13,# data time:7350,pm2.5:6.445,pm10:5.704,O2:0.000,NO2:0.046,SO2:0.000,NH3:7.346
14:21:48,0,0,0,0,0,2700,2200,1,0,0,0,513,0,0,0,0,0.0000000,0.0000000,0.0000000,0.0000000,9.00,38.4062576,-110.7922440,1364.0000000,0.0,320.7,0.9,0.0,0.0,860,129,0,0,860.77,10.91,27.13,# data time:7350,pm2.5:6.445,pm10:5.704,O2:0.000,NO2:0.046,SO2:0.000,NH3:7.346
14:21:50,0,0,0,0,0,2700,2200,1,0,0,0,513,0,0,0,0,0.0000000,0.0000000,0.0000000,0.0000000,9.00,38.4062576,-110.7922440,1364.0000000,0.0,358.3,0.9,0.0,0.0,860,129,0,0,860.76,10.90,27.13,# data time:7350,pm2.5:6.445,pm10:5.704,O2:0.000,NO2:0.046,SO2:0.000,NH3:7.346
14:21:51,0,0,0,0,0,2700,2200,1,0,0,0,514,0,0,0,0,0.0000000,0.0000000,0.0000000,0.0000000,9.00,38.4062576,-110.7922440,1364.0000000,0.0,224.8,0.9,0.0,0.0,860,130,0,0,860.65,10.88,27.03,# data time:7350,pm2.5:6.445,pm10:5.704,O2:0.000,NO2:0.046,SO2:0.000,NH3:7.346
14:21:52,0,0,0,0,0,2700,2200,1,0,0,0,514,0,0,0,0,0.0000000,0.0000000,0.0000000,0.0000000,9.00,38.4062576,-110.7922440,1364.0000000,0.0,224.8,0.9,0.0,0.0,861,130,0,0,860.67,10.91,27.09,# data time:7350,pm2.5:6.445,pm10:5.704,O2:0.000,NO2:0.046,SO2:0.000,NH3:7.346
14:21:53,0,0,0,0,0,2700,2200,1,0,0,0,514,0,0,0,0,0.0000000,0.0000000,0.0000000,0.0000000,9.00,38.4062576,-110.7922440,1364.0000000,0.0,224.8,0.9,0.0,0.0,861,129,0,0,860.58,10.90,27.04,# data time:7350,pm2.5:6.445,pm10:5.704,O2:0.000,NO2:0.046,SO2:0.000,NH3:7.346
14:21:54,0,0,0,0,0,2700,2200,1,0,0,0,514,0,0,0,0,0.0000000,0.0000000,0.0000000,0.0000000,9.00,38.4062576,-110.7922440,1364.0000000,0.0,342.0,0.9,0.0,0.0,861,130,0,0,860.69,10.91,27.09,# data time:7350,pm2.5:6.445,pm10:5.704,O2:0.000,NO2:0.046,SO2:0.000,NH3:7.346
14:21:55,0,0,0,0,0,2700,2200,1,0,0,0,513,0,0,0,0,0.0000000,0.0000000,0.0000000,0.0000000,9.00,38.4062576,-110.7922440,1364.0000000,0.0,269.9,0.9,0.0,0.0,861,130,0,0,860.78,10.88,27.13,# data time:7350,pm2.5:6.445,pm10:5.704,O2:0.000,NO2:0.046,SO2:0.000,NH3:7.346
14:21:56,0,0,0,0,0,2700,2200,1,0,0,0,513,0,0,0,0,0.0000000,0.0000000,0.0000000,0.0000000,9.00,38.4062576,-110.7922440,1364.0000000,0.0,274.3,0.9,0.0,0.0,861,131,0,0,860.82,10.88,27.13,# data time:7350,pm2.5:6.445,pm10:5.704,O2:0.000,NO2:0.046,SO2:0.000,NH3:7.346
14:21:57,0,0,0,0,0,2700,2200,1,0,0,0,515,0,0,0,0,0.0000000,0.0000000,0.0000000,0.0000000,9.00,38.4062576,-110.7922440,1364.0000000,0.0,314.5,0.9,0.0,0.0,860,129,0,0,860.74,10.90,27.13,# data time:7360,pm2.5:6.445,pm10:5.704,O2:0.000,NO2:0.028,SO2:0.000,NH3:7.346
14:21:58,0,0,0,0,0,2700,2200,1,0,0,0,514,0,0,0,0,0.0000000,0.0000000,0.0000000,0.0000000,9.00,38.4062576,-110.7922440,1364.0000000,0.0,315.0,0.9,0.0,0.0,860,129,0,0,860.85,10.91,27.13,# data time:7360,pm2.5:6.445,pm10:5.704,O2:0.000,NO2:0.028,SO2:0.000,NH3:7.346
14:21:59,0,0,0,0,0,2700,2200,1,0,0,0,514,0,0,0,0,0.0000000,0.0000000,0.0000000,0.0000000,9.00,38.4062576,-110.7922440,1364.0000000,0.0,198.4,0.9,0.0,0.0,860,129,0,0,860.77,10.91,27.13,# data time:7360,pm2.5:6.445,pm10:5.704,O2:0.000,NO2:0.028,SO2:0.000,NH3:7.346
14:22:00,0,0,0,0,0,2700,2200,1,0,0,0,514,0,0,0,0,0.0000000,0.0000000,0.0000000,0.0000000,9.00,38.4062576,-110.7922440,1364.0000000,0.0,289.9,0.9,0.0,0.0,860,125,0,0,860.70,10.90,27.13,# data time:7360,pm2.5:6.445,pm10:5.704,O2:0.000,NO2:0.028,SO2:0.000,NH3:7.346
14:22:01,0,0,0,0,0,2700,2200,1,0,0,0,514,0,0,0,0,0.0000000,0.0000000,0.0000000,0.0000000,9.00,38.4062576,-110.7922440,1364.0000000,0.0,274.0,0.9,0.0,0.0,860,127,0,0,860.72,10.91,27.13,# data time:7360,pm2.5:6.445,pm10:5.704,O2:0.000,NO2:0.028,SO2:0.000,NH3:7.346
14:22:02,0,0,0,0,0,2700,2200,1,0,0,0,514,0,0,0,0,0.0000000,0.0000000,0.0000000,0.0000000,9.00,38.4062576,-110.7922440,1364.0000000,0.0,138.5,0.9,0.0,0.0,860,129,0,0,860.76,10.93,27.13,# data time:7360,pm2.5:6.445,pm10:5.704,O2:0.000,NO2:0.028,SO2:0.000,NH3:7.346
14:22:03,0,0,0,0,0,2700,2200,1,0,0,0,514,0,0,0,0,0.0000000,0.0000000,0.0000000,0.0000000,9.00,38.4062576,-110.7922440,1364.0000000,0.0,255.0,0.9,0.0,0.0,861,129,0,0,860.72,10.91,27.14,# data time:7360,pm2.5:6.445,pm10:5.704,O2:0.000,NO2:0.028,SO2:0.000,NH3:7.346
14:22:04,0,0,0,0,0,2700,2200,1,0,0,0,514,0,0,0,0,0.0000000,0.0000000,0.0000000,0.0000000,9.00,38.4062576,-110.7922440,1363.9000244,0.0,292.0,0.9,0.0,0.0,861,128,0,0,860.72,10.86,27.13,# data time:7360,pm2.5:6.445,pm10:5.704,O2:0.000,NO2:0.028,SO2:0.000,NH3:7.346
14:22:05,0,0,0,0,0,2700,2200,1,0,0,0,514,0,0,0,0,0.0000000,0.0000000,0.0000000,0.0000000,9.00,38.4062576,-110.7922440,1363.9000244,0.0,286.8,0.9,0.0,0.0,860,130,0,0,860.72,10.88,27.14,# data time:7360,pm2.5:6.445,pm10:5.704,O2:0.000,NO2:0.028,SO2:0.000,NH3:7.346
14:22:06,0,0,0,0,0,2700,2200,1,0,0,0,514,0,0,0,0,0.0000000,0.0000000,0.0000000,0.0000000,9.00,38.4062576,-110.7922440,1363.9000244,0.0,356.1,0.9,0.0,0.0,860,125,0,0,860.67,10.88,27.14,# data time:7360,pm2.5:6.445,pm10:5.704,O2:0.000,NO2:0.028,SO2:0.000,NH3:7.346
14:22:07,0,0,0,0,0,2700,2200,1,0,0,0,514,0,0,0,0,0.0000000,0.0000000,0.0000000,0.0000000,9.00,38.4062576,-110.7922440,1363.9000244,0.0,265.5,0.9,0.0,0.0,861,129,0,0,860.62,10.91,27.13,# data time:7370,pm2.5:6.445,pm10:5.704,O2:0.000,NO2:0.028,SO2::7.346
14:22:08,0,0,0,0,0,2700,2200,1,0,0,0,514,0,0,0,0,0.0000000,0.0000000,0.0000000,0.0000000,9.00,38.4062576,-110.7922440,1363.9000244,0.0,279.8,0.9,0.0,0.0,861,128,0,0,860.73,10.90,27.13,# data time:7370,pm2.5:6.445,pm10:5.704,O2:0.000,NO2:0.028,SO2::7.346
14:22:09,0,0,0,0,0,2700,2200,1,0,0,0,514,0,0,0,0,0.0000000,0.0000000,0.0000000,0.0000000,9.00,38.4062576,-110.7922440,1363.8000488,0.0,106.6,0.9,0.0,0.0,861,130,0,0,860.68,10.91,27.13,# data time:7370,pm2.5:6.445,pm10:5.704,O2:0.000,NO2:0.028,SO2::7.346
14:22:10,0,0,0,0,0,2700,2200,1,0,0,0,514,0,0,0,0,0.0000000,0.0000000,0.0000000,0.0000000,9.00,38.4062576,-110.7922440,1363.8000488,0.0,241.3,0.9,0.0,0.0,860,129,0,0,860.64,10.88,27.13,# data time:7370,pm2.5:6.445,pm10:5.704,O2:0.000,NO2:0.028,SO2::7.346
14:22:11,0,0,0,0,0,2700,2200,1,0,0,0,513,0,0,0,0,0.0000000,0.0000000,0.0000000,0.0000000,9.00,38.4062576,-110.7922440,1363.8000488,0.0,62.8,0.9,0.0,0.0,860,128,0,0,860.58,10.90,27.14,# data time:7370,pm2.5:6.445,pm10:5.704,O2:0.000,NO2:0.028,SO2::7.346
14:22:13,0,0,0,0,0,2700,2200,1,0,0,0,514,0,0,0,0,0.0000000,0.0000000,0.0000000,0.0000000,9.00,38.4062576,-110.7922440,1363.8000488,0.0,226.7,0.9,0.0,0.0,861,130,0,0,860.55,10.90,27.13,# data time:7370,pm2.5:6.445,pm10:5.704,O2:0.000,NO2:0.028,SO2::7.346
14:22:14,0,0,0,0,0,2700,2200,1,0,0,0,514,0,0,0,0,0.0000000,0.0000000,0.0000000,0.0000000,9.00,38.4062576,-110.7922440,1363.8000488,0.0,267.9,0.9,0.0,0.0,860,129,0,0,860.56,10.91,27.08,# data time:7370,pm2.5:6.445,pm10:5.704,O2:0.000,NO2:0.028,SO2::7.346
14:22:15,0,0,0,0,0,2700,2200,1,0,0,0,514,0,0,0,0,0.0000000,0.0000000,0.0000000,0.0000000,9.00,38.4062576,-110.7922440,1363.8000488,0.0,195.8,0.9,0.0,0.0,860,131,0,0,860.53,10.88,27.05,# data time:7370,pm2.5:6.445,pm10:5.704,O2:0.000,NO2:0.028,SO2::7.346
14:22:16,0,0,0,0,0,2700,2200,1,0,0,0,513,0,0,0,0,0.0000000,0.0000000,0.0000000,0.0000000,9.00,38.4062576,-110.7922440,1363.8000488,0.0,195.8,0.9,0.0,0.0,859,130,0,0,860.62,10.88,27.09,# data time:7370,pm2.5:6.445,pm10:5.704,O2:0.000,NO2:0.028,SO2::7.346
14:22:17,0,0,0,0,0,2700,2200,1,0,0,0,514,0,0,0,0,0.0000000,0.0000000,0.0000000,0.0000000,9.00,38.4062576,-110.7922440,1363.8000488,0.0,53.0,0.9,0.0,0.0,860,131,0,0,860.65,10.91,27.09,# data time:7370,pm2.5:6.445,pm10:5.704,O2:0.000,NO2:0.028,SO2::7.346
14:22:18,0,0,0,0,0,2700,2200,1,0,0,0,514,0,0,0,0,0.0000000,0.0000000,0.0000000,0.0000000,9.00,38.4062576,-110.7922440,1363.8000488,0.1,51.3,0.9,0.0,0.0,861,130,0,0,860.69,10.90,27.13,# data time:7380,pm2.5:6.445,pm10:5.704,O2:0.000,NO2:0.028,SO
14:22:19,0,0,0,0,0,2700,2200,1,0,0,0,514,0,0,0,0,0.0000000,0.0000000,0.0000000,0.0000000,9.00,38.4062576,-110.7922440,1363.8000488,0.1,35.7,0.9,0.0,0.0,860,129,0,0,860.69,10.93,27.14,# data time:7380,pm2.5:6.445,pm10:5.704,O2:0.000,NO2:0.028,SO
14:22:20,0,0,0,0,0,2700,2200,1,0,0,0,513,0,0,0,0,0.0000000,0.0000000,0.0000000,0.0000000,9.00,38.4062576,-110.7922440,1363.6999512,0.1,44.0,0.9,0.0,0.0,860,131,0,0,860.62,10.90,27.14,# data time:7380,pm2.5:6.445,pm10:5.704,O2:0.000,NO2:0.028,SO
14:22:21,0,0,0,0,0,2700,2200,1,0,0,0,513,0,0,0,0,0.0000000,0.0000000,0.0000000,0.0000000,9.00,38.4062576,-110.7922440,1363.6999512,0.0,59.0,0.9,0.0,0.0,861,130,0,0,860.69,10.88,27.14,# data time:7380,pm2.5:6.445,pm10:5.704,O2:0.000,NO2:0.028,SO
14:22:22,0,0,0,0,0,2700,2200,1,0,0,0,514,0,0,0,0,0.0000000,0.0000000,0.0000000,0.0000000,9.00,38.4062576,-110.7922440,1363.6999512,0.0,53.7,0.9,0.0,0.0,861,127,0,0,860.66,10.86,27.13,# data time:7380,pm2.5:6.445,pm10:5.704,O2:0.000,NO2:0.028,SO
14:22:23,0,0,0,0,0,2700,2200,1,0,0,0,514,0,0,0,0,0.0000000,0.0000000,0.0000000,0.0000000,9.00,38.4062576,-110.7922440,1363.6999512,0.1,306.9,0.9,0.0,0.0,861,127,0,0,860.69,10.86,27.13,# data time:7380,pm2.5:6.445,pm10:5.704,O2:0.000,NO2:0.028,SO
14:22:24,0,0,0,0,0,2700,2200,1,0,0,0,514,0,0,0,0,0.0000000,0.0000000,0.0000000,0.0000000,9.00,38.4062576,-110.7922440,1363.6999512,0.0,30.0,0.9,0.0,0.0,860,129,0,0,860.64,10.88,27.13,# data time:7380,pm2.5:6.445,pm10:5.704,O2:0.000,NO2:0.028,SO
14:22:25,0,0,0,0,0,2700,2200,1,0,0,0,514,0,0,0,0,0.0000000,0.0000000,0.0000000,0.0000000,9.00,38.4062576,-110.7922440,1363.6999512,0.1,58.3,0.9,0.0,0.0,860,130,0,0,860.70,10.86,27.13,# data time:7380,pm2.5:6.445,pm10:5.704,O2:0.000,NO2:0.028,SO
14:22:26,0,0,0,0,0,2700,2200,1,0,0,0,514,0,0,0,0,0.0000000,0.0000000,0.0000000,0.0000000,9.00,38.4062576,-110.7922440,1363.6999512,0.0,50.0,0.9,0.0,0.0,860,130,0,0,860.67,10.86,27.12,# data time:7380,pm2.5:6.445,pm10:5.704,O2:0.000,NO2:0.028,SO
14:22:27,0,0,0,0,0,2700,2200,1,0,0,0,515,0,0,0,0,0.0000000,0.0000000,0.0000000,0.0000000,9.00,38.4062576,-110.7922440,1363.6999512,0.0,55.4,0.9,0.0,0.0,860,129,0,0,860.57,10.83,27.12,# data time:7390,pm2.5:6.445,pm10:5.704,O2:0.000,NO2:0.000,SO
14:22:28,0,0,0,0,0,2700,2200,1,0,0,0,514,0,0,0,0,0.0000000,0.0000000,0.0000000,0.0000000,9.00,38.4062576,-110.7922440,1363.6999512,0.0,40.7,0.9,0.0,0.0,860,128,0,0,860.56,10.88,27.13,# data time:7390,pm2.5:6.445,pm10:5.704,O2:0.000,NO2:0.000,SO
14:22:29,0,0,0,0,0,2700,2200,1,0,0,0,514,0,0,0,0,0.0000000,0.0000000,0.0000000,0.0000000,9.00,38.4062576,-110.7922440,1363.6999512,0.0,97.6,0.9,0.0,0.0,861,128,0,0,860.51,10.86,27.12,# data time:7390,pm2.5:6.445,pm10:5.704,O2:0.000,NO2:0.000,SO
14:22:30,0,0,0,0,0,2700,2200,1,0,0,0,513,0,0,0,0,0.0000000,0.0000000,0.0000000,0.0000000,9.00,38.4062576,-110.7922440,1363.5999756,0.0,359.7,0.9,0.0,0.0,861,130,0,0,860.52,10.85,27.12,# data time:7390,pm2.5:6.445,pm10:5.704,O2:0.000,NO2:0.000,SO
14:22:31,0,0,0,0,0,2700,2200,1,0,0,0,514,0,0,0,0,0.0000000,0.0000000,0.0000000,0.0000000,9.00,38.4062576,-110.7922440,1363.5999756,0.0,25.9,0.9,0.0,0.0,860,128,0,0,860.61,10.86,27.12,# data time:7390,pm2.5:6.445,pm10:5.704,O2:0.000,NO2:0.000,SO
14:22:32,0,0,0,0,0,2700,2200,1,0,0,0,515,0,0,0,0,0.0000000,0.0000000,0.0000000,0.0000000,9.00,38.4062576,-110.7922440,1363.5999756,0.0,56.8,0.9,0.0,0.0,860,130,0,0,860.59,10.86,27.13,# data time:7390,pm2.5:6.445,pm10:5.704,O2:0.000,NO2:0.000,SO
14:22:33,0,0,0,0,0,2700,2200,1,0,0,0,514,0,0,0,0,0.0000000,0.0000000,0.0000000,0.0000000,9.00,38.4062576,-110.7922440,1363.5999756,0.0,19.0,0.9,0.0,0.0,860,129,0,0,860.60,10.90,27.13,# data time:7390,pm2.5:6.445,pm10:5.704,O2:0.000,NO2:0.000,SO
14:22:34,0,0,0,0,0,2700,2200,1,0,0,0,514,0,0,0,0,0.0000000,0.0000000,0.0000000,0.0000000,9.00,38.4062576,-110.7922440,1363.5999756,0.1,46.5,0.9,0.0,0.0,860,127,0,0,860.64,10.88,27.13,# data time:7390,pm2.5:6.445,pm10:5.704,O2:0.000,NO2:0.000,SO
14:22:36,0,0,0,0,0,2700,2200,1,0,0,0,514,0,0,0,0,0.0000000,0.0000000,0.0000000,0.0000000,9.00,38.4062576,-110.7922440,1363.5000000,0.0,20.9,0.9,0.0,0.0,861,132,0,0,860.68,10.88,27.13,# data time:7390,pm2.5:6.445,pm10:5.704,O2:0.000,NO2:0.000,SO
14:22:37,0,0,0,0,0,2700,2200,1,0,0,0,514,0,0,0,0,0.0000000,0.0000000,0.0000000,0.0000000,9.00,38.4062576,-110.7922440,1363.5000000,0.0,7.7,0.9,0.0,0.0,861,130,0,0,860.57,10.88,27.13,# data time:7390,pm2.5:6.445,pm10:5.704,O2:0.000,NO2:0.000,SO
14:22:38,0,0,0,0,0,2700,2200,1,0,0,0,514,0,0,0,0,0.0000000,0.0000000,0.0000000,0.0000000,9.00,38.4062576,-110.7922440,1363.5000000,0.1,50.4,0.9,0.0,0.0,860,127,0,0,860.59,10.85,27.07,# data time:7400,pm2.5:6.445,pm10:5.704,O2:0.000,NO2:0.000,SO2:0.000,NH3:7.346
14:22:39,0,0,0,0,0,2700,2200,1,0,0,0,514,0,0,0,0,0.0000000,0.0000000,0.0000000,0.0000000,9.00,38.4062576,-110.7922440,1363.5000000,0.1,59.8,0.9,0.0,0.0,861,127,0,0,860.58,10.88,27.04,# data time:7400,pm2.5:6.445,pm10:5.704,O2:0.000,NO2:0.000,SO2:0.000,NH3:7.346
14:22:40,0,0,0,0,0,2700,2200,1,0,0,0,514,0,0,0,0,0.0000000,0.0000000,0.0000000,0.0000000,9.00,38.4062576,-110.7922440,1363.5000000,0.1,59.8,0.9,0.0,0.0,860,130,0,0,860.56,10.85,27.07,# data time:7400,pm2.5:6.445,pm10:5.704,O2:0.000,NO2:0.000,SO2:0.000,NH3:7.346
14:22:41,0,0,0,0,0,2700,2200,1,0,0,0,514,0,0,0,0,0.0000000,0.0000000,0.0000000,0.0000000,9.00,38.4062576,-110.7922440,1363.4000244,0.1,51.8,0.9,0.0,0.0,861,132,0,0,860.63,10.88,27.08,# data time:7400,pm2.5:6.445,pm10:5.704,O2:0.000,NO2:0.000,SO2:0.000,NH3:7.346
14:22:42,0,0,0,0,0,2700,2200,1,0,0,0,514,0,0,0,0,0.0000000,0.0000000,0.0000000,0.0000000,9.00,38.4062576,-110.7922440,1363.4000244,0.0,97.1,0.9,0.0,0.0,861,133,0,0,860.65,10.86,27.11,# data time:7400,pm2.5:6.445,pm10:5.704,O2:0.000,NO2:0.000,SO2:0.000,NH3:7.346
14:22:43,0,0,0,0,0,2700,2200,1,0,0,0,514,0,0,0,0,0.0000000,0.0000000,0.0000000,0.0000000,9.00,38.4062576,-110.7922440,1363.4000244,0.0,61.7,0.9,0.0,0.0,860,129,0,0,860.65,10.86,27.12,# data time:7400,pm2.5:6.445,pm10:5.704,O2:0.000,NO2:0.000,SO2:0.000,NH3:7.346
14:22:44,0,0,0,0,0,2700,2200,1,0,0,0,514,0,0,0,0,0.0000000,0.0000000,0.0000000,0.0000000,9.00,38.4062576,-110.7922440,1363.4000244,0.1,50.5,0.9,0.0,0.0,860,126,0,0,860.53,10.85,27.12,# data time:7400,pm2.5:6.445,pm10:5.704,O2:0.000,NO2:0.000,SO2:0.000,NH3:7.346
14:22:45,0,0,0,0,0,2700,2200,1,0,0,0,515,0,0,0,0,0.0000000,0.0000000,0.0000000,0.0000000,9.00,38.4062576,-110.7922440,1363.4000244,0.0,59.3,0.9,0.0,0.0,860,130,0,0,860.68,10.86,27.12,# data time:7400,pm2.5:6.445,pm10:5.704,O2:0.000,NO2:0.000,SO2:0.000,NH3:7.346
14:22:46,0,0,0,0,0,2700,2200,1,0,0,0,515,0,0,0,0,0.0000000,0.0000000,0.0000000,0.0000000,9.00,38.4062576,-110.7922440,1363.3000488,0.1,68.1,0.9,0.0,0.0,860,129,0,0,860.72,10.85,27.11,# data time:7400,pm2.5:6.445,pm10:5.704,O2:0.000,NO2:0.000,SO2:0.000,NH3:7.346
14:22:47,0,0,0,0,0,2700,2200,1,0,0,0,514,0,0,0,0,0.0000000,0.0000000,0.0000000,0.0000000,9.00,38.4062576,-110.7922440,1363.3000488,0.1,60.8,0.9,0.0,0.0,860,128,0,0,860.76,10.86,27.11,# data time:7410,pm2.5:6.445,pm10:5.704,O2:0.000,NO2:0.000,SO2:00,NH3:7.346
14:22:48,0,0,0,0,0,2700,2200,1,0,0,0,515,0,0,0,0,0.0000000,0.0000000,0.0000000,0.0000000,9.00,38.4062576,-110.7922440,1363.3000488,0.0,58.5,0.9,0.0,0.0,860,128,0,0,860.72,10.83,27.11,# data time:7410,pm2.5:6.445,pm10:5.704,O2:0.000,NO2:0.000,SO2:00,NH3:7.346
14:22:49,0,0,0,0,0,2700,2200,1,0,0,0,514,0,0,0,0,0.0000000,0.0000000,0.0000000,0.0000000,9.00,38.4062576,-110.7922440,1363.3000488,0.0,58.0,0.9,0.0,0.0,861,131,0,0,860.64,10.82,27.12,# data time:7410,pm2.5:6.445,pm10:5.704,O2:0.000,NO2:0.000,SO2:00,NH3:7.346
14:22:50,0,0,0,0,0,2700,2200,1,0,0,0,514,0,0,0,0,0.0000000,0.0000000,0.0000000,0.0000000,9.00,38.4062576,-110.7922440,1363.1999512,0.0,52.0,0.9,0.0,0.0,861,131,0,0,860.70,10.86,27.12,# data time:7410,pm2.5:6.445,pm10:5.704,O2:0.000,NO2:0.000,SO2:00,NH3:7.346
14:22:51,0,0,0,0,0,2700,2200,1,0,0,0,514,0,0,0,0,0.0000000,0.0000000,0.0000000,0.0000000,9.00,38.4062576,-110.7922440,1363.1999512,0.0,11.6,0.9,0.0,0.0,860,130,0,0,860.67,10.85,27.11,# data time:7410,pm2.5:6.445,pm10:5.704,O2:0.000,NO2:0.000,SO2:00,NH3:7.346
14:22:52,0,0,0,0,0,2700,2200,1,0,0,0,515,0,0,0,0,0.0000000,0.0000000,0.0000000,0.0000000,9.00,38.4062576,-110.7922440,1363.1999512,0.0,48.0,0.9,0.0,0.0,860,128,0,0,860.59,10.85,27.12,# data time:7410,pm2.5:6.445,pm10:5.704,O2:0.000,NO2:0.000,SO2:00,NH3:7.346
14:22:53,0,0,0,0,0,2700,2200,1,0,0,0,514,0,0,0,0,0.0000000,0.0000000,0.0000000,0.0000000,9.00,38.4062614,-110.7922440,1363.1999512,0.1,37.9,0.9,0.0,0.0,861,133,0,0,860.60,10.83,27.12,# data time:7410,pm2.5:6.445,pm10:5.704,O2:0.000,NO2:0.000,SO2:00,NH3:7.346
14:22:54,0,0,0,0,0,2700,2200,1,0,0,0,514,0,0,0,0,0.0000000,0.0000000,0.0000000,0.0000000,9.00,38.4062614,-110.7922440,1363.0999756,0.0,51.4,0.9,0.0,0.0,860,130,0,0,860.60,10.86,27.12,# data time:7410,pm2.5:6.445,pm10:5.704,O2:0.000,NO2:0.000,SO2:00,NH3:7.346
14:22:55,0,0,0,0,0,2700,2200,1,0,0,0,515,0,0,0,0,0.0000000,0.0000000,0.0000000,0.0000000,9.00,38.4062614,-110.7922440,1363.0999756,0.0,48.9,0.9,0.0,0.0,861,129,0,0,860.59,10.86,27.12,# data time:7410,pm2.5:6.445,pm10:5.704,O2:0.000,NO2:0.000,SO2:00,NH3:7.346
14:22:56,0,0,0,0,0,2700,2200,1,0,0,0,515,0,0,0,0,0.0000000,0.0000000,0.0000000,0.0000000,9.00,38.4062614,-110.7922440,1363.0999756,0.0,58.5,0.9,0.0,0.0,860,130,0,0,860.56,10.88,27.12,# data time:7410,pm2.5:6.445,pm10:5.704,O2:0.000,NO2:0.000,SO2:00,NH3:7.346
14:22:57,0,0,0,0,0,2700,2200,1,0,0,0,514,0,0,0,0,0.0000000,0.0000000,0.0000000,0.0000000,9.00,38.4062614,-110.7922440,1363.0999756,0.0,67.3,0.9,0.0,0.0,860,124,0,0,860.67,10.88,27.12,# data time:7420,pm2.5:6.445,pm10:5.704,O2:0.000,NO2:0.010,SO2:0.000,NH3:7.346
14:22:58,0,0,0,0,0,2700,2200,1,0,0,0,514,0,0,0,0,0.0000000,0.0000000,0.0000000,0.0000000,9.00,38.4062614,-110.7922440,1363.0000000,0.0,33.2,0.9,0.0,0.0,860,130,0,0,860.69,10.88,27.12,# data time:7420,pm2.5:6.445,pm10:5.704,O2:0.000,NO2:0.010,SO2:0.000,NH3:7.346
14:23:00,0,0,0,0,0,2700,2200,1,0,0,0,514,0,0,0,0,0.0000000,0.0000000,0.0000000,0.0000000,8.00,38.4062614,-110.7922440,1363.0000000,0.0,55.7,1.0,0.0,0.0,860,128,0,0,860.60,10.86,27.12,# data time:7420,pm2.5:6.445,pm10:5.704,O2:0.000,NO2:0.010,SO2:0.000,NH3:7.346
14:23:01,0,0,0,0,0,2700,2200,1,0,0,0,514,0,0,0,0,0.0000000,0.0000000,0.0000000,0.0000000,8.00,38.4062614,-110.7922440,1363.0000000,0.0,38.4,1.0,0.0,0.0,859,130,0,0,860.61,10.88,27.03,# data time:7420,pm2.5:6.445,pm10:5.704,O2:0.000,NO2:0.010,SO2:0.000,NH3:7.346
14:23:02,0,0,0,0,0,2700,2200,1,0,0,0,513,0,0,0,0,0.0000000,0.0000000,0.0000000,0.0000000,8.00,38.4062614,-110.7922440,1363.0000000,0.0,38.4,1.0,0.0,0.0,860,127,0,0,860.57,10.88,27.07,# data time:7420,pm2.5:6.445,pm10:5.704,O2:0.000,NO2:0.010,SO2:0.000,NH3:7.346
14:23:03,0,0,0,0,0,2700,2200,1,0,0,0,514,0,0,0,0,0.0000000,0.0000000,0.0000000,0.0000000,8.00,38.4062614,-110.7922440,1363.0000000,0.0,38.4,1.0,0.0,0.0,860,130,0,0,860.53,10.88,27.02,# data time:7420,pm2.5:6.445,pm10:5.704,O2:0.000,NO2:0.010,SO2:0.000,NH3:7.346
14:23:04,0,0,0,0,0,2700,2200,1,0,0,0,515,0,0,0,0,0.0000000,0.0000000,0.0000000,0.0000000,8.00,38.4062614,-110.7922440,1362.9000244,0.0,49.7,1.0,0.0,0.0,860,130,0,0,860.66,10.85,27.07,# data time:7420,pm2.5:6.445,pm10:5.704,O2:0.000,NO2:0.010,SO2:0.000,NH3:7.346
14:23:05,0,0,0,0,0,2700,2200,1,0,0,0,514,0,0,0,0,0.0000000,0.0000000,0.0000000,0.0000000,8.00,38.4062614,-110.7922440,1362.9000244,0.0,48.2,1.0,0.0,0.0,860,128,0,0,860.54,10.88,27.11,# data time:7420,pm2.5:6.445,pm10:5.704,O2:0.000,NO2:0.010,SO2:0.000,NH3:7.346
14:23:06,0,0,0,0,0,2700,2200,1,0,0,0,514,0,0,0,0,0.0000000,0.0000000,0.0000000,0.0000000,8.00,38.4062614,-110.7922440,1362.9000244,0.1,95.2,1.0,0.0,0.0,860,129,0,0,860.56,10.90,27.11,# data time:7420,pm2.5:6.445,pm10:5.704,O2:0.000,NO2:0.010,SO2:0.000,NH3:7.346
14:23:07,0,0,0,0,0,2700,2200,1,0,0,0,514,0,0,0,0,0.0000000,0.0000000,0.0000000,0.0000000,8.00,38.4062614,-110.7922440,1362.9000244,0.0,68.2,1.0,0.0,0.0,860,131,0,0,860.72,10.86,27.12,# data time:7430,pm2.5:6.445,pm10:5.704,O2:0.000,NO2:0.046,SO
14:23:08,0,0,0,0,0,2700,2200,1,0,0,0,514,0,0,0,0,0.0000000,0.0000000,0.0000000,0.0000000,8.00,38.4062614,-110.7922440,1362.8000488,0.0,57.7,1.0,0.0,0.0,860,127,0,0,860.65,10.88,27.11,# data time:7430,pm2.5:6.445,pm10:5.704,O2:0.000,NO2:0.046,SO
14:23:09,0,0,0,0,0,2700,2200,1,0,0,0,514,0,0,0,0,0.0000000,0.0000000,0.0000000,0.0000000,8.00,38.4062614,-110.7922440,1362.8000488,0.0,66.6,1.0,0.0,0.0,860,130,0,0,860.73,10.88,27.12,# data time:7430,pm2.5:6.445,pm10:5.704,O2:0.000,NO2:0.046,SO
14:23:10,0,0,0,0,0,2700,2200,1,0,0,0,515,0,0,0,0,0.0000000,0.0000000,0.0000000,0.0000000,9.00,38.4062614,-110.7922440,1362.8000488,0.0,6.1,0.9,0.0,0.0,860,128,0,0,860.77,10.86,27.12,# data time:7430,pm2.5:6.445,pm10:5.704,O2:0.000,NO2:0.046,SO
14:23:11,0,0,0,0,0,2700,2200,1,0,0,0,515,0,0,0,0,0.0000000,0.0000000,0.0000000,0.0000000,9.00,38.4062614,-110.7922440,1362.8000488,0.0,47.1,0.9,0.0,0.0,860,128,0,0,860.73,10.85,27.12,# data time:7430,pm2.5:6.445,pm10:5.704,O2:0.000,NO2:0.046,SO
14:23:12,0,0,0,0,0,2700,2200,1,0,0,0,514,0,0,0,0,0.0000000,0.0000000,0.0000000,0.0000000,9.00,38.4062614,-110.7922440,1362.8000488,0.0,51.2,0.9,0.0,0.0,860,132,0,0,860.97,10.86,27.12,# data time:7430,pm2.5:6.445,pm10:5.704,O2:0.000,NO2:0.046,SO
14:23:13,0,0,0,0,0,2700,2200,1,0,0,0,514,0,0,0,0,0.0000000,0.0000000,0.0000000,0.0000000,9.00,38.4062614,-110.7922440,1362.6999512,0.0,35.1,0.9,0.0,0.0,860,127,0,0,860.88,10.88,27.12,# data time:7430,pm2.5:6.445,pm10:5.704,O2:0.000,NO2:0.046,SO
14:23:14,0,0,0,0,0,2700,2200,1,0,0,0,514,0,0,0,0,0.0000000,0.0000000,0.0000000,0.0000000,9.00,38.4062614,-110.7922440,1362.6999512,0.1,38.8,0.9,0.0,0.0,860,128,0,0,861.08,10.90,27.12,# data time:7430,pm2.5:6.445,pm10:5.704,O2:0.000,NO2:0.046,SO
14:23:15,0,0,0,0,0,2700,2200,1,0,0,0,514,0,0,0,0,0.0000000,0.0000000,0.0000000,0.0000000,9.00,38.4062614,-110.7922440,1362.6999512,0.0,82.0,0.9,0.0,0.0,860,129,0,0,860.84,10.90,27.11,# data time:7430,pm2.5:6.445,pm10:5.704,O2:0.000,NO2:0.046,SO
14:23:16,0,0,0,0,0,2700,2200,1,0,0,0,514,0,0,0,0,0.0000000,0.0000000,0.0000000,0.0000000,9.00,38.4062614,-110.7922440,1362.6999512,0.1,77.7,0.9,0.0,0.0,860,128,0,0,860.89,10.90,27.11,# data time:7430,pm2.5:6.445,pm10:5.704,O2:0.000,NO2:0.046,SO
14:23:17,0,0,0,0,0,2700,2200,1,0,0,0,514,0,0,0,0,0.0000000,0.0000000,0.0000000,0.0000000,9.00,38.4062614,-110.7922440,1362.6999512,0.0,37.0,0.9,0.0,0.0,860,129,0,0,860.68,10.88,27.07,# data time:7440,pm2.5:6.445,pm10:5.704,O2:0.000,NO2:0.000,SO2:0.000,NH3:7.346
14:23:18,0,0,0,0,0,2700,2200,1,0,0,0,515,0,0,0,0,0.0000000,0.0000000,0.0000000,0.0000000,9.00,38.4062614,-110.7922440,1362.6999512,0.1,69.1,0.9,0.0,0.0,860,129,0,0,860.67,10.86,27.12,# data time:7440,pm2.5:6.445,pm10:5.704,O2:0.000,NO2:0.000,SO2:0.000,NH3:7.346
14:23:19,0,0,0,0,0,2700,2200,1,0,0,0,515,0,0,0,0,0.0000000,0.0000000,0.0000000,0.0000000,9.00,38.4062614,-110.7922440,1362.5999756,0.0,36.7,0.9,0.0,0.0,860,129,0,0,860.59,10.88,27.11,# data time:7440,pm2.5:6.445,pm10:5.704,O2:0.000,NO2:0.000,SO2:0.000,NH3:7.346
14:23:20,0,0,0,0,0,2700,2200,1,0,0,0,515,0,0,0,0,0.0000000,0.0000000,0.0000000,0.0000000,9.00,38.4062614,-110.7922440,1362.5999756,0.0,36.8,0.9,0.0,0.0,860,129,0,0,860.65,10.90,27.11,# data time:7440,pm2.5:6.445,pm10:5.704,O2:0.000,NO2:0.000,SO2:0.000,NH3:7.346
14:23:21,0,0,0,0,0,2700,2200,1,0,0,0,514,0,0,0,0,0.0000000,0.0000000,0.0000000,0.0000000,9.00,38.4062614,-110.7922440,1362.5999756,0.0,348.9,0.9,0.0,0.0,860,130,0,0,860.62,10.90,27.11,# data time:7440,pm2.5:6.445,pm10:5.704,O2:0.000,NO2:0.000,SO2:0.000,NH3:7.346
