Time, Motor A Speed, Motor A Dir, Motor B Speed, Motor B Dir, Servo Rail Current Sensor, Servo Pos - Arm L, Servo Pos - Arm R, Servo Pos - End, Servo Pos - Hopper, Servo Pos - Lid, Servo Pos - Extra, Servo Current, LED - Front L, LED - Front R, LED - Back L, LED - Back R, IMU Pitch, IMU Roll, IMU Yaw, Compass Heading, GPS Sats, GPS Latitude, GPS Longitude, GPS Altitude, GPS Speed, GPS Angle, GPS HDOP, GPS VDOP, GPS PDOP, Battery, Wind, Comm Xbee Latency, Comm Arduino Latency, Pressure, Humidity, Temperature, uRADMonitor
10:22:49,0,0,0,0,0,0,0,0,0,0,0,0,0,0,0,0,0.0000000,0.0000000,0.0000000,0.0000000,0.00,0.0000000,0.0000000,0.0000000,0.0,0.0,0.0,0.0,0.0,0,0,0,0,0.00,0.00,0.00,0
10:22:50,0,0,0,0,0,0,0,0,0,0,0,518,0,0,0,0,0.0000000,0.0000000,0.0000000,0.0000000,8.00,38.4063492,-110.7921677,1368.0999756,0.2,328.2,1.1,0.0,0.0,901,127,0,0,862.94,19.93,22.29,0
10:22:51,0,0,0,0,0,0,0,0,0,0,0,528,0,0,0,0,0.0000000,0.0000000,0.0000000,0.0000000,8.00,38.4063492,-110.7921677,1368.0999756,0.2,336.2,1.0,0.0,0.0,901,126,0,0,862.96,19.87,22.34,0
10:22:52,0,0,0,0,0,0,0,0,0,0,0,519,0,0,0,0,0.0000000,0.0000000,0.0000000,0.0000000,8.00,38.4063492,-110.7921677,1368.0999756,0.2,312.9,1.0,0.0,0.0,902,129,0,0,863.01,19.88,22.35,0
10:22:53,0,0,0,0,0,0,0,0,0,0,0,528,0,0,0,0,0.0000000,0.0000000,0.0000000,0.0000000,8.00,38.4063492,-110.7921677,1368.0999756,0.2,291.8,1.0,0.0,0.0,902,125,0,0,862.97,19.87,22.35,0
10:22:54,0,0,0,0,0,0,0,0,0,0,0,532,0,0,0,0,0.0000000,0.0000000,0.0000000,0.0000000,8.00,38.4063492,-110.7921677,1368.0999756,0.3,262.3,1.0,0.0,0.0,901,129,0,0,862.89,19.85,22.36,0
10:22:55,0,0,0,0,0,0,0,0,0,0,0,527,0,0,0,0,0.0000000,0.0000000,0.0000000,0.0000000,8.00,38.4063492,-110.7921677,1368.0999756,0.3,243.4,1.0,0.0,0.0,901,115,0,0,862.99,19.87,22.35,0
10:22:56,0,0,0,0,0,0,0,0,0,0,0,514,0,0,0,0,0.0000000,0.0000000,0.0000000,0.0000000,8.00,38.4063492,-110.7921677,1368.0999756,0.2,232.4,1.0,0.0,0.0,904,127,0,0,862.98,19.84,22.36,0
10:22:57,0,0,0,0,0,0,0,0,0,0,0,515,0,0,0,0,0.0000000,0.0000000,0.0000000,0.0000000,8.00,38.4063492,-110.7921677,1368.0999756,0.2,222.9,1.0,0.0,0.0,904,128,0,0,863.00,19.91,22.36,0
10:22:58,0,0,0,0,0,0,0,0,0,0,0,516,0,0,0,0,0.0000000,0.0000000,0.0000000,0.0000000,8.00,38.4063492,-110.7921677,1368.0999756,0.1,198.7,1.0,0.0,0.0,903,126,0,0,863.01,19.94,22.36,# data time:520,pm2.5:6.445,pm10:5.704,O2:0.000,NO2:0.000,SO2:0.000,NH3:3.725
10:22:59,0,0,0,0,0,0,0,0,0,0,0,522,0,0,0,0,0.0000000,0.0000000,0.0000000,0.0000000,8.00,38.4063454,-110.7921677,1368.0000000,0.1,213.4,1.0,0.0,0.0,901,125,0,0,862.95,20.04,22.36,# data time:520,pm2.5:6.445,pm10:5.704,O2:0.000,NO2:0.000,SO2:0.000,NH3:3.725
10:23:00,0,0,0,0,0,0,0,0,0,0,0,515,0,0,0,0,0.0000000,0.0000000,0.0000000,0.0000000,8.00,38.4063416,-110.7921677,1367.9000244,0.1,229.9,1.0,0.0,0.0,903,124,0,0,862.97,20.08,22.37,# data time:520,pm2.5:6.445,pm10:5.704,O2:0.000,NO2:0.000,SO2:0.000,NH3:3.725
10:23:01,0,0,0,0,0,0,0,0,0,0,0,519,0,0,0,0,0.0000000,0.0000000,0.0000000,0.0000000,8.00,38.4063377,-110.7921677,1367.9000244,0.1,238.0,1.0,0.0,0.0,901,126,0,0,862.97,20.14,22.37,# data time:520,pm2.5:6.445,pm10:5.704,O2:0.000,NO2:0.000,SO2:0.000,NH3:3.725
10:23:02,0,0,0,0,0,0,0,0,0,0,0,525,0,0,0,0,0.0000000,0.0000000,0.0000000,0.0000000,8.00,38.4063339,-110.7921829,1367.8000488,0.2,239.6,1.0,0.0,0.0,901,129,0,0,863.00,20.22,22.38,# data time:520,pm2.5:6.445,pm10:5.704,O2:0.000,NO2:0.000,SO2:0.000,NH3:3.725
10:23:03,0,0,0,0,0,0,0,0,0,0,0,520,0,0,0,0,0.0000000,0.0000000,0.0000000,0.0000000,8.00,38.4063301,-110.7921829,1367.8000488,0.2,230.4,1.0,0.0,0.0,901,128,0,0,862.96,20.22,22.39,# data time:520,pm2.5:6.445,pm10:5.704,O2:0.000,NO2:0.000,SO2:0.000,NH3:3.725
10:23:04,0,0,0,0,0,0,0,0,0,0,0,514,0,0,0,0,0.0000000,0.0000000,0.0000000,0.0000000,8.00,38.4063301,-110.7921677,1367.8000488,0.2,229.6,1.0,0.0,0.0,904,126,0,0,862.95,20.23,22.38,# data time:520,pm2.5:6.445,pm10:5.704,O2:0.000,NO2:0.000,SO2:0.000,NH3:3.725
10:23:05,0,0,0,0,0,0,0,0,0,0,0,518,0,0,0,0,0.0000000,0.0000000,0.0000000,0.0000000,8.00,38.4063301,-110.7921677,1367.8000488,0.2,227.2,1.0,0.0,0.0,902,124,0,0,862.98,20.22,22.38,# data time:520,pm2.5:6.445,pm10:5.704,O2:0.000,NO2:0.000,SO2:0.000,NH3:3.725
10:23:06,0,0,0,0,0,0,0,0,0,0,0,518,0,0,0,0,0.0000000,0.0000000,0.0000000,0.0000000,8.00,38.4063301,-110.7921677,1367.8000488,0.2,187.8,1.0,0.0,0.0,902,127,0,0,862.95,20.16,22.39,# data time:520,pm2.5:6.445,pm10:5.704,O2:0.000,NO2:0.000,SO2:0.000,NH3:3.725
10:23:07,0,0,0,0,0,0,0,0,0,0,0,515,0,0,0,0,0.0000000,0.0000000,0.0000000,0.0000000,8.00,38.4063263,-110.7921677,1367.8000488,0.1,164.9,1.0,0.0,0.0,903,129,0,0,862.94,20.08,22.39,# data time:530,pm2.5:6.445,pm10:5.704,O2:0.000,NO2:0.000,SO2:0.000,NH3:3.725
10:23:08,0,0,0,0,0,0,0,0,0,0,0,515,0,0,0,0,0.0000000,0.0000000,0.0000000,0.0000000,8.00,38.4063263,-110.7921677,1367.8000488,0.2,171.1,1.0,0.0,0.0,904,126,0,0,862.95,20.07,22.39,# data time:530,pm2.5:6.445,pm10:5.704,O2:0.000,NO2:0.000,SO2:0.000,NH3:3.725
10:23:09,0,0,0,0,0,0,0,0,0,0,0,514,0,0,0,0,0.0000000,0.0000000,0.0000000,0.0000000,8.00,38.4063263,-110.7921677,1367.8000488,0.1,186.5,1.0,0.0,0.0,903,127,0,0,862.98,20.00,22.39,# data time:530,pm2.5:6.445,pm10:5.704,O2:0.000,NO2:0.000,SO2:0.000,NH3:3.725
10:23:10,0,0,0,0,0,0,0,0,0,0,0,515,0,0,0,0,0.0000000,0.0000000,0.0000000,0.0000000,8.00,38.4063263,-110.7921677,1367.8000488,0.1,182.2,1.0,0.0,0.0,904,126,0,0,862.99,19.94,22.39,# data time:530,pm2.5:6.445,pm10:5.704,O2:0.000,NO2:0.000,SO2:0.000,NH3:3.725
10:23:11,0,0,0,0,0,0,0,0,0,0,0,515,0,0,0,0,0.0000000,0.0000000,0.0000000,0.0000000,8.00,38.4063263,-110.7921677,1367.8000488,0.2,212.1,1.0,0.0,0.0,904,128,0,0,862.99,19.88,22.39,# data time:530,pm2.5:6.445,pm10:5.704,O2:0.000,NO2:0.000,SO2:0.000,NH3:3.725
10:23:12,0,0,0,0,0,0,0,0,0,0,0,515,0,0,0,0,0.0000000,0.0000000,0.0000000,0.0000000,8.00,38.4063225,-110.7921677,1367.8000488,0.2,235.4,1.0,0.0,0.0,904,125,0,0,862.97,19.82,22.39,# data time:530,pm2.5:6.445,pm10:5.704,O2:0.000,NO2:0.000,SO2:0.000,NH3:3.725
10:23:13,0,0,0,0,0,0,0,0,0,0,0,515,0,0,0,0,0.0000000,0.0000000,0.0000000,0.0000000,8.00,38.4063225,-110.7921677,1367.8000488,0.3,249.4,1.0,0.0,0.0,904,128,0,0,862.95,19.84,22.39,# data time:530,pm2.5:6.445,pm10:5.704,O2:0.000,NO2:0.000,SO2:0.000,NH3:3.725
10:23:14,0,0,0,0,0,0,0,0,0,0,0,516,0,0,0,0,0.0000000,0.0000000,0.0000000,0.0000000,8.00,38.4063225,-110.7921677,1367.8000488,0.3,248.4,1.0,0.0,0.0,903,125,0,0,862.95,19.82,22.39,# data time:530,pm2.5:6.445,pm10:5.704,O2:0.000,NO2:0.000,SO2:0.000,NH3:3.725
10:23:15,0,0,0,0,0,0,0,0,0,0,0,515,0,0,0,0,0.0000000,0.0000000,0.0000000,0.0000000,8.00,38.4063225,-110.7921829,1367.8000488,0.4,249.6,1.0,0.0,0.0,903,128,0,0,862.95,19.79,22.34,# data time:530,pm2.5:6.445,pm10:5.704,O2:0.000,NO2:0.000,SO2:0.000,NH3:3.725
10:23:16,0,0,0,0,0,0,0,0,0,0,0,515,0,0,0,0,0.0000000,0.0000000,0.0000000,0.0000000,8.00,38.4063225,-110.7921829,1367.8000488,0.3,239.9,1.0,0.0,0.0,904,119,0,0,862.98,19.81,22.40,# data time:530,pm2.5:6.445,pm10:5.704,O2:0.000,NO2:0.000,SO2:0.000,NH3:3.725
10:23:17,0,0,0,0,0,0,0,0,0,0,0,515,0,0,0,0,0.0000000,0.0000000,0.0000000,0.0000000,8.00,38.4063187,-110.7921829,1367.8000488,0.3,239.9,1.0,0.0,0.0,904,125,0,0,862.89,19.87,22.31,# data time:540,pm2.5:6.445,pm10:5.704,O2:0.000,NO2:0.000,SO2:0.000,NH3:3.725
10:23:18,0,0,0,0,0,0,0,0,0,0,0,514,0,0,0,0,0.0000000,0.0000000,0.0000000,0.0000000,8.00,38.4063187,-110.7921829,1367.8000488,0.2,239.8,1.0,0.0,0.0,904,131,0,0,862.96,19.90,22.31,# data time:540,pm2.5:6.445,pm10:5.704,O2:0.000,NO2:0.000,SO2:0.000,NH3:3.725
10:23:19,0,0,0,0,0,0,0,0,0,0,0,516,0,0,0,0,0.0000000,0.0000000,0.0000000,0.0000000,8.00,38.4063187,-110.7921829,1367.8000488,0.2,239.8,1.0,0.0,0.0,904,129,0,0,862.93,19.90,22.31,# data time:540,pm2.5:6.445,pm10:5.704,O2:0.000,NO2:0.000,SO2:0.000,NH3:3.725
10:23:20,0,0,0,0,0,0,0,0,0,0,0,515,0,0,0,0,0.0000000,0.0000000,0.0000000,0.0000000,8.00,38.4063187,-110.7921829,1367.8000488,0.4,218.8,1.0,0.0,0.0,904,127,0,0,862.94,19.91,22.37,# data time:540,pm2.5:6.445,pm10:5.704,O2:0.000,NO2:0.000,SO2:0.000,NH3:3.725
10:23:22,0,0,0,0,0,0,0,0,0,0,0,515,0,0,0,0,0.0000000,0.0000000,0.0000000,0.0000000,8.00,38.4063148,-110.7921829,1367.8000488,0.2,231.3,1.0,0.0,0.0,903,129,0,0,862.97,19.91,22.37,# data time:540,pm2.5:6.445,pm10:5.704,O2:0.000,NO2:0.000,SO2:0.000,NH3:3.725
10:23:23,0,0,0,0,0,0,0,0,0,0,0,515,0,0,0,0,0.0000000,0.0000000,0.0000000,0.0000000,8.00,38.4063148,-110.7921906,1367.8000488,0.2,221.0,1.0,0.0,0.0,904,128,0,0,862.98,19.91,22.41,# data time:540,pm2.5:6.445,pm10:5.704,O2:0.000,NO2:0.000,SO2:0.000,NH3:3.725
10:23:24,0,0,0,0,0,0,0,0,0,0,0,516,0,0,0,0,0.0000000,0.0000000,0.0000000,0.0000000,8.00,38.4063148,-110.7921906,1367.8000488,0.2,236.2,1.0,0.0,0.0,903,126,0,0,862.95,19.91,22.41,# data time:540,pm2.5:6.445,pm10:5.704,O2:0.000,NO2:0.000,SO2:0.000,NH3:3.725
10:23:25,0,0,0,0,0,0,0,0,0,0,0,516,0,0,0,0,0.0000000,0.0000000,0.0000000,0.0000000,8.00,38.4063148,-110.7921906,1367.8000488,0.3,247.4,1.0,0.0,0.0,904,126,0,0,863.00,19.88,22.42,# data time:540,pm2.5:6.445,pm10:5.704,O2:0.000,NO2:0.000,SO2:0.000,NH3:3.725
10:23:26,0,0,0,0,0,0,0,0,0,0,0,517,0,0,0,0,0.0000000,0.0000000,0.0000000,0.0000000,8.00,38.4063110,-110.7921906,1367.6999512,0.5,249.4,1.0,0.0,0.0,904,123,0,0,863.00,19.90,22.42,# data time:540,pm2.5:6.445,pm10:5.704,O2:0.000,NO2:0.000,SO2:0.000,NH3:3.725
10:23:27,0,0,0,0,0,0,0,0,0,0,0,515,0,0,0,0,0.0000000,0.0000000,0.0000000,0.0000000,8.00,38.4063110,-110.7921906,1367.6999512,0.5,243.4,1.0,0.0,0.0,904,127,0,0,862.93,19.90,22.42,# data time:540,pm2.5:6.445,pm10:5.704,O2:0.000,NO2:0.000,SO2:0.000,NH3:3.725
10:23:28,0,0,0,0,0,0,0,0,0,0,0,516,0,0,0,0,0.0000000,0.0000000,0.0000000,0.0000000,8.00,38.4063110,-110.7921906,1367.6999512,0.4,224.9,1.0,0.0,0.0,904,127,0,0,862.98,19.90,22.43,# data time:550,pm2.5:6.445,pm10:5.704,O2:0.000,NO2:0.000,SO2:0.000,NH3:3.952
10:23:29,0,0,0,0,0,0,0,0,0,0,0,514,0,0,0,0,0.0000000,0.0000000,0.0000000,0.0000000,8.00,38.4063072,-110.7921906,1367.6999512,0.5,222.2,1.0,0.0,0.0,904,128,0,0,862.93,19.88,22.43,# data time:550,pm2.5:6.445,pm10:5.704,O2:0.000,NO2:0.000,SO2:0.000,NH3:3.952
10:23:30,0,0,0,0,0,0,0,0,0,0,0,515,0,0,0,0,0.0000000,0.0000000,0.0000000,0.0000000,8.00,38.4063034,-110.7922058,1367.8000488,0.5,223.8,1.0,0.0,0.0,904,128,0,0,862.95,19.87,22.43,# data time:550,pm2.5:6.445,pm10:5.704,O2:0.000,NO2:0.000,SO2:0.000,NH3:3.952
10:23:31,0,0,0,0,0,0,0,0,0,0,0,516,0,0,0,0,0.0000000,0.0000000,0.0000000,0.0000000,8.00,38.4063034,-110.7922058,1367.8000488,0.4,220.7,1.0,0.0,0.0,904,128,0,0,862.93,19.84,22.43,# data time:550,pm2.5:6.445,pm10:5.704,O2:0.000,NO2:0.000,SO2:0.000,NH3:3.952
10:23:32,0,0,0,0,0,0,0,0,0,0,0,517,0,0,0,0,0.0000000,0.0000000,0.0000000,0.0000000,8.00,38.4062996,-110.7922058,1367.8000488,0.3,233.9,1.0,0.0,0.0,904,132,0,0,862.99,19.85,22.44,# data time:550,pm2.5:6.445,pm10:5.704,O2:0.000,NO2:0.000,SO2:0.000,NH3:3.952
10:23:33,0,0,0,0,0,0,0,0,0,0,0,515,0,0,0,0,0.0000000,0.0000000,0.0000000,0.0000000,8.00,38.4062996,-110.7922058,1367.8000488,0.4,232.0,1.0,0.0,0.0,904,126,0,0,863.00,19.85,22.44,# data time:550,pm2.5:6.445,pm10:5.704,O2:0.000,NO2:0.000,SO2:0.000,NH3:3.952
10:23:34,0,0,0,0,0,0,0,0,0,0,0,516,0,0,0,0,0.0000000,0.0000000,0.0000000,0.0000000,8.00,38.4062996,-110.7922058,1367.8000488,0.5,224.9,1.0,0.0,0.0,904,127,0,0,862.93,19.84,22.44,# data time:550,pm2.5:6.445,pm10:5.704,O2:0.000,NO2:0.000,SO2:0.000,NH3:3.952
10:23:35,0,0,0,0,0,0,0,0,0,0,0,515,0,0,0,0,0.0000000,0.0000000,0.0000000,0.0000000,8.00,38.4062958,-110.7922058,1367.8000488,0.6,219.0,1.0,0.0,0.0,904,128,0,0,862.99,19.85,22.44,# data time:550,pm2.5:6.445,pm10:5.704,O2:0.000,NO2:0.000,SO2:0.000,NH3:3.952
10:23:36,0,0,0,0,0,0,0,0,0,0,0,515,0,0,0,0,0.0000000,0.0000000,0.0000000,0.0000000,8.00,38.4062958,-110.7922211,1367.8000488,0.5,203.8,1.0,0.0,0.0,904,128,0,0,862.95,19.84,22.44,# data time:550,pm2.5:6.445,pm10:5.704,O2:0.000,NO2:0.000,SO2:0.000,NH3:3.952
10:23:37,0,0,0,0,0,0,0,0,0,0,0,515,0,0,0,0,0.0000000,0.0000000,0.0000000,0.0000000,8.00,38.4062958,-110.7922211,1367.8000488,0.5,200.4,1.0,0.0,0.0,903,127,0,0,863.00,19.88,22.44,# data time:550,pm2.5:6.445,pm10:5.704,O2:0.000,NO2:0.000,SO2:0.000,NH3:3.952
