Time, Motor A Speed, Motor A Dir, Motor B Speed, Motor B Dir, Servo Rail Current Sensor, Servo Pos - Arm L, Servo Pos - Arm R, Servo Pos - End, Servo Pos - Hopper, Servo Pos - Lid, Servo Pos - Extra, Servo Current, LED - Front L, LED - Front R, LED - Back L, LED - Back R, IMU Pitch, IMU Roll, IMU Yaw, Compass Heading, GPS Sats, GPS Latitude, GPS Longitude, GPS Altitude, GPS Speed, GPS Angle, GPS HDOP, GPS VDOP, GPS PDOP, Battery, Wind, Comm Xbee Latency, Comm Arduino Latency, Pressure, Humidity, Temperature, uRADMonitor
15:34:23,0,0,0,0,0,1700,1800,11,0,0,0,513,0,0,0,0,0.0000000,0.0000000,0.0000000,0.0000000,7.00,38.4062462,-110.7920761,1339.5000000,0.1,134.6,1.4,0.0,0.0,848,129,0,0,859.58,9.96,27.55,# data time:11700,pm2.5:5.640,pm10:4.991,O2:0.000,NO2:0.046,SO2:0.000,NH3:7.799
15:34:24,0,0,0,0,0,1700,1800,11,0,0,0,515,0,0,0,0,0.0000000,0.0000000,0.0000000,0.0000000,7.00,38.4062462,-110.7920761,1339.5000000,0.0,134.6,1.4,0.0,0.0,848,133,0,0,859.63,9.96,27.54,# data time:11710,pm2.5:6.445,pm10:5.704,O2:0.000,NO2:0.028,SO2:0.000,NH3:7.799
15:34:25,0,0,0,0,0,1700,1800,11,0,0,0,514,0,0,0,0,0.0000000,0.0000000,0.0000000,0.0000000,7.00,38.4062462,-110.7920761,1339.5000000,0.1,132.8,1.4,0.0,0.0,847,128,0,0,859.64,10.00,27.54,# data time:11710,pm2.5:6.445,pm10:5.704,O2:0.000,NO2:0.028,SO2:0.000,NH3:7.799
15:34:26,0,0,0,0,0,1700,1800,11,0,0,0,514,0,0,0,0,0.0000000,0.0000000,0.0000000,0.0000000,7.00,38.4062462,-110.7920761,1339.5000000,0.1,132.0,1.4,0.0,0.0,848,135,0,0,859.61,9.96,27.54,# data time:11710,pm2.5:6.445,pm10:5.704,O2:0.000,NO2:0.028,SO2:0.000,NH3:7.799
15:34:27,0,0,0,0,0,1700,1800,11,0,0,0,514,0,0,0,0,0.0000000,0.0000000,0.0000000,0.0000000,7.00,38.4062462,-110.7920761,1339.5000000,0.1,119.3,1.4,0.0,0.0,847,129,0,0,859.60,10.04,27.54,# data time:11710,pm2.5:6.445,pm10:5.704,O2:0.000,NO2:0.028,SO2:0.000,NH3:7.799
15:34:28,0,0,0,0,0,1700,1800,11,0,0,0,514,0,0,0,0,0.0000000,0.0000000,0.0000000,0.0000000,7.00,38.4062462,-110.7920761,1339.5000000,0.1,137.1,1.4,0.0,0.0,848,131,0,0,859.57,10.10,27.46,# data time:11710,pm2.5:6.445,pm10:5.704,O2:0.000,NO2:0.028,SO2:0.000,NH3:7.799
15:34:29,0,0,0,0,0,1700,1800,11,0,0,0,514,0,0,0,0,0.0000000,0.0000000,0.0000000,0.0000000,7.00,38.4062462,-110.7920761,1339.4000244,0.1,137.1,1.4,0.0,0.0,848,129,0,0,859.60,10.12,27.52,# data time:11710,pm2.5:6.445,pm10:5.704,O2:0.000,NO2:0.028,SO2:0.000,NH3:7.799
15:34:30,0,0,0,0,0,2100,2200,12,0,0,0,514,0,0,0,0,0.0000000,0.0000000,0.0000000,0.0000000,7.00,38.4062462,-110.7920761,1339.4000244,0.1,137.1,1.4,0.0,0.0,848,129,0,0,859.54,10.09,27.47,# data time:11710,pm2.5:6.445,pm10:5.704,O2:0.000,NO2:0.028,SO2:0.000,NH3:7.799
15:34:31,0,0,0,0,0,2100,2200,12,0,0,0,514,0,0,0,0,0.0000000,0.0000000,0.0000000,0.0000000,7.00,38.4062462,-110.7920761,1339.4000244,0.0,90.9,1.4,0.0,0.0,847,129,0,0,859.61,10.04,27.51,# data time:11710,pm2.5:6.445,pm10:5.704,O2:0.000,NO2:0.028,SO2:0.000,NH3:7.799
15:34:32,0,0,0,0,0,2100,2200,12,0,0,0,514,0,0,0,0,0.0000000,0.0000000,0.0000000,0.0000000,7.00,38.4062462,-110.7920761,1339.4000244,0.0,104.4,1.4,0.0,0.0,848,128,0,0,859.56,10.04,27.55,# data time:11710,pm2.5:6.445,pm10:5.704,O2:0.000,NO2:0.028,SO2:0.000,NH3:7.799
15:34:34,0,0,0,0,0,2100,2200,12,0,0,0,514,0,0,0,0,0.0000000,0.0000000,0.0000000,0.0000000,7.00,38.4062462,-110.7920761,1339.4000244,0.0,98.0,1.4,0.0,0.0,848,129,0,0,859.53,10.03,27.55,# data time:11710,pm2.5:6.445,pm10:5.704,O2:0.000,NO2:0.028,SO2:0.000,NH3:7.799
15:34:35,0,0,0,0,0,2100,2200,12,0,0,0,514,0,0,0,0,0.0000000,0.0000000,0.0000000,0.0000000,7.00,38.4062462,-110.7920761,1339.4000244,0.1,128.1,1.4,0.0,0.0,848,128,0,0,859.56,10.00,27.56,# data time:11720,pm2.5:6.445,pm10:5.704,O2:0.000,NO2:0.046,SO2:0.000,NH3:7.799
15:34:36,0,0,0,0,0,2100,2200,12,0,0,0,514,0,0,0,0,0.0000000,0.0000000,0.0000000,0.0000000,7.00,38.4062462,-110.7920761,1339.4000244,0.0,127.3,1.4,0.0,0.0,848,127,0,0,859.56,9.98,27.56,# data time:11720,pm2.5:6.445,pm10:5.704,O2:0.000,NO2:0.046,SO2:0.000,NH3:7.799
15:34:37,0,0,0,0,0,2100,2200,12,0,0,0,514,0,0,0,0,0.0000000,0.0000000,0.0000000,0.0000000,7.00,38.4062462,-110.7920761,1339.4000244,0.0,85.6,1.4,0.0,0.0,848,128,0,0,859.54,9.96,27.56,# data time:11720,pm2.5:6.445,pm10:5.704,O2:0.000,NO2:0.046,SO2:0.000,NH3:7.799
15:34:38,0,0,0,0,0,2100,2200,12,0,0,0,514,0,0,0,0,0.0000000,0.0000000,0.0000000,0.0000000,7.00,38.4062462,-110.7920761,1339.4000244,0.0,44.8,1.4,0.0,0.0,848,130,0,0,859.53,9.92,27.56,# data time:11720,pm2.5:6.445,pm10:5.704,O2:0.000,NO2:0.046,SO2:0.000,NH3:7.799
15:34:39,0,0,0,0,0,2100,2200,12,0,0,0,514,0,0,0,0,0.0000000,0.0000000,0.0000000,0.0000000,7.00,38.4062462,-110.7920761,1339.4000244,0.1,133.7,1.4,0.0,0.0,847,128,0,0,859.56,9.90,27.56,# data time:11720,pm2.5:6.445,pm10:5.704,O2:0.000,NO2:0.046,SO2:0.000,NH3:7.799
15:34:40,0,0,0,0,0,2100,2200,12,0,0,0,514,0,0,0,0,0.0000000,0.0000000,0.0000000,0.0000000,7.00,38.4062462,-110.7920761,1339.3000488,0.0,116.8,1.4,0.0,0.0,848,127,0,0,859.54,9.90,27.56,# data time:11720,pm2.5:6.445,pm10:5.704,O2:0.000,NO2:0.046,SO2:0.000,NH3:7.799
15:34:41,0,0,0,0,0,2100,2200,12,0,0,0,514,0,0,0,0,0.0000000,0.0000000,0.0000000,0.0000000,7.00,38.4062462,-110.7920761,1339.3000488,0.1,146.6,1.4,0.0,0.0,848,128,0,0,859.57,9.90,27.56,# data time:11720,pm2.5:6.445,pm10:5.704,O2:0.000,NO2:0.046,SO2:0.000,NH3:7.799
15:34:42,0,0,0,0,0,2100,2200,12,0,0,0,514,0,0,0,0,0.0000000,0.0000000,0.0000000,0.0000000,7.00,38.4062424,-110.7920761,1339.3000488,0.0,161.2,1.4,0.0,0.0,847,126,0,0,859.53,9.89,27.56,# data time:11720,pm2.5:6.445,pm10:5.704,O2:0.000,NO2:0.046,SO2:0.000,NH3:7.799
15:34:43,0,0,0,0,0,2100,2200,12,0,0,0,515,0,0,0,0,0.0000000,0.0000000,0.0000000,0.0000000,7.00,38.4062424,-110.7920761,1339.3000488,0.0,199.7,1.4,0.0,0.0,847,128,0,0,859.57,9.90,27.56,# data time:11720,pm2.5:6.445,pm10:5.704,O2:0.000,NO2:0.046,SO2:0.000,NH3:7.799
15:34:44,0,0,0,0,0,2100,2200,12,0,0,0,514,0,0,0,0,0.0000000,0.0000000,0.0000000,0.0000000,7.00,38.4062424,-110.7920761,1339.3000488,0.0,321.0,1.4,0.0,0.0,848,131,0,0,859.63,9.87,27.56,# data time:11720,pm2.5:6.445,pm10:5.704,O2:0.000,NO2:0.046,SO2:0.000,NH3:7.799
15:34:45,0,0,0,0,0,2700,1800,13,0,0,0,514,0,0,0,0,0.0000000,0.0000000,0.0000000,0.0000000,7.00,38.4062424,-110.7920761,1339.3000488,0.0,133.6,1.4,0.0,0.0,847,128,0,0,859.58,9.86,27.56,# data time:11730,pm2.5:6.445,pm10:5.704,O2:0.000,NO2:0.028,SO2:0.000,NH3:7.799
15:34:46,0,0,0,0,0,2700,1800,13,0,0,0,514,0,0,0,0,0.0000000,0.0000000,0.0000000,0.0000000,7.00,38.4062424,-110.7920761,1339.3000488,0.1,145.8,1.4,0.0,0.0,847,127,0,0,859.63,9.84,27.57,# data time:11730,pm2.5:6.445,pm10:5.704,O2:0.000,NO2:0.028,SO2:0.000,NH3:7.799
15:34:47,0,0,0,0,0,2700,1800,13,0,0,0,514,0,0,0,0,0.0000000,0.0000000,0.0000000,0.0000000,7.00,38.4062424,-110.7920761,1339.3000488,0.0,224.0,1.4,0.0,0.0,847,131,0,0,859.69,9.84,27.57,# data time:11730,pm2.5:6.445,pm10:5.704,O2:0.000,NO2:0.028,SO2:0.000,NH3:7.799
15:34:48,0,0,0,0,0,2700,1800,13,0,0,0,514,0,0,0,0,0.0000000,0.0000000,0.0000000,0.0000000,7.00,38.4062424,-110.7920761,1339.1999512,0.0,115.4,1.4,0.0,0.0,847,126,0,0,859.63,9.89,27.57,# data time:11730,pm2.5:6.445,pm10:5.704,O2:0.000,NO2:0.028,SO2:0.000,NH3:7.799
15:34:49,0,0,0,0,0,2700,1800,13,0,0,0,514,0,0,0,0,0.0000000,0.0000000,0.0000000,0.0000000,7.00,38.4062424,-110.7920761,1339.1999512,0.1,129.1,1.4,0.0,0.0,848,129,0,0,859.60,9.86,27.57,# data time:11730,pm2.5:6.445,pm10:5.704,O2:0.000,NO2:0.028,SO2:0.000,NH3:7.799
15:34:50,0,0,0,0,0,2700,1800,13,0,0,0,514,0,0,0,0,0.0000000,0.0000000,0.0000000,0.0000000,7.00,38.4062424,-110.7920761,1339.1999512,0.1,292.4,1.4,0.0,0.0,847,129,0,0,859.58,9.87,27.57,# data time:11730,pm2.5:6.445,pm10:5.704,O2:0.000,NO2:0.028,SO2:0.000,NH3:7.799
15:34:51,0,0,0,0,0,2700,1800,13,0,0,0,514,0,0,0,0,0.0000000,0.0000000,0.0000000,0.0000000,7.00,38.4062424,-110.7920761,1339.1999512,0.0,178.8,1.4,0.0,0.0,848,128,0,0,859.63,9.87,27.57,# data time:11730,pm2.5:6.445,pm10:5.704,O2:0.000,NO2:0.028,SO2:0.000,NH3:7.799
15:34:52,0,0,0,0,0,2700,1800,13,0,0,0,513,0,0,0,0,0.0000000,0.0000000,0.0000000,0.0000000,7.00,38.4062424,-110.7920761,1339.1999512,0.1,138.6,1.4,0.0,0.0,848,131,0,0,859.63,9.87,27.50,# data time:11730,pm2.5:6.445,pm10:5.704,O2:0.000,NO2:0.028,SO2:0.000,NH3:7.799
15:34:53,0,0,0,0,0,2700,1800,13,0,0,0,513,0,0,0,0,0.0000000,0.0000000,0.0000000,0.0000000,7.00,38.4062424,-110.7920761,1339.1999512,0.1,138.6,1.4,0.0,0.0,848,124,0,0,859.58,9.90,27.49,# data time:11730,pm2.5:6.445,pm10:5.704,O2:0.000,NO2:0.028,SO2:0.000,NH3:7.799
15:34:54,0,0,0,0,0,2700,1800,13,0,0,0,515,0,0,0,0,0.0000000,0.0000000,0.0000000,0.0000000,7.00,38.4062424,-110.7920761,1339.1999512,0.1,138.6,1.4,0.0,0.0,848,130,0,0,859.59,9.87,27.52,# data time:11740,pm2.5:6.445,pm10:5.704,O2:0.000,NO2:0.028,SO2:0.000,NH3:7.799
15:34:55,0,0,0,0,0,2700,1800,13,0,0,0,514,0,0,0,0,0.0000000,0.0000000,0.0000000,0.0000000,7.00,38.4062424,-110.7920761,1339.0999756,0.1,138.6,1.4,0.0,0.0,848,130,0,0,859.56,9.87,27.48,# data time:11740,pm2.5:6.445,pm10:5.704,O2:0.000,NO2:0.028,SO2:0.000,NH3:7.799
15:34:56,0,0,0,0,0,2700,1800,13,0,0,0,514,0,0,0,0,0.0000000,0.0000000,0.0000000,0.0000000,7.00,38.4062424,-110.7920761,1339.0999756,0.0,309.7,1.4,0.0,0.0,847,129,0,0,859.62,9.90,27.55,# data time:11740,pm2.5:6.445,pm10:5.704,O2:0.000,NO2:0.028,SO2:0.000,NH3:7.799
15:34:57,0,0,0,0,0,2700,1800,13,0,0,0,514,0,0,0,0,0.0000000,0.0000000,0.0000000,0.0000000,7.00,38.4062424,-110.7920761,1339.0999756,0.0,78.4,1.4,0.0,0.0,848,126,0,0,859.63,9.86,27.55,# data time:11740,pm2.5:6.445,pm10:5.704,O2:0.000,NO2:0.028,SO2:0.000,NH3:7.799
15:34:59,0,0,0,0,0,2700,1800,13,0,0,0,514,0,0,0,0,0.0000000,0.0000000,0.0000000,0.0000000,7.00,38.4062424,-110.7920761,1339.0999756,0.0,120.6,1.4,0.0,0.0,848,130,0,0,859.59,9.86,27.55,# data time:11740,pm2.5:6.445,pm10:5.704,O2:0.000,NO2:0.028,SO2:0.000,NH3:7.799
15:35:00,0,0,0,0,0,2700,1800,13,0,0,0,514,0,0,0,0,0.0000000,0.0000000,0.0000000,0.0000000,7.00,38.4062424,-110.7920761,1339.0999756,0.0,268.6,1.4,0.0,0.0,847,129,0,0,859.63,9.87,27.56,# data time:11740,pm2.5:6.445,pm10:5.704,O2:0.000,NO2:0.028,SO2:0.000,NH3:7.799
15:35:01,0,0,0,0,0,2100,2200,14,0,0,0,514,0,0,0,0,0.0000000,0.0000000,0.0000000,0.0000000,7.00,38.4062424,-110.7920761,1339.0999756,0.0,86.4,1.4,0.0,0.0,847,132,0,0,859.60,9.86,27.56,# data time:11740,pm2.5:6.445,pm10:5.704,O2:0.000,NO2:0.028,SO2:0.000,NH3:7.799
15:35:02,0,0,0,0,0,2100,2200,14,0,0,0,514,0,0,0,0,0.0000000,0.0000000,0.0000000,0.0000000,7.00,38.4062424,-110.7920761,1339.0999756,0.0,293.2,1.4,0.0,0.0,847,127,0,0,859.62,9.84,27.57,# data time:11740,pm2.5:6.445,pm10:5.704,O2:0.000,NO2:0.028,SO2:0.000,NH3:7.799
15:35:03,0,0,0,0,0,2100,2200,14,0,0,0,515,0,0,0,0,0.0000000,0.0000000,0.0000000,0.0000000,7.00,38.4062424,-110.7920761,1339.0999756,0.0,229.4,1.4,0.0,0.0,847,129,0,0,859.61,9.86,27.56,# data time:11740,pm2.5:6.445,pm10:5.704,O2:0.000,NO2:0.028,SO2:0.000,NH3:7.799
15:35:04,0,0,0,0,0,2100,2200,14,0,0,0,513,0,0,0,0,0.0000000,0.0000000,0.0000000,0.0000000,7.00,38.4062424,-110.7920761,1339.0999756,0.0,42.5,1.4,0.0,0.0,847,127,0,0,859.60,9.87,27.57,# data time:11740,pm2.5:6.445,pm10:5.704,O2:0.000,NO2:0.028,SO2:0.000,NH3:7.799
15:35:05,0,0,0,0,0,2100,2200,14,0,0,0,514,0,0,0,0,0.0000000,0.0000000,0.0000000,0.0000000,7.00,38.4062424,-110.7920761,1339.0999756,0.0,359.6,1.4,0.0,0.0,846,132,0,0,859.65,9.84,27.57,# data time:11750,pm2.5:5.640,pm10:4.991,O2:0.000,NO2:0.028,SO2:0.000,NH3:7.799
15:35:06,0,0,0,0,0,2100,2200,14,0,0,0,514,0,0,0,0,0.0000000,0.0000000,0.0000000,0.0000000,7.00,38.4062424,-110.7920761,1339.0000000,0.0,346.7,1.4,0.0,0.0,847,129,0,0,859.60,9.84,27.56,# data time:11750,pm2.5:5.640,pm10:4.991,O2:0.000,NO2:0.028,SO2:0.000,NH3:7.799
15:35:07,0,0,0,0,0,2100,2200,14,0,0,0,514,0,0,0,0,0.0000000,0.0000000,0.0000000,0.0000000,7.00,38.4062424,-110.7920761,1339.0000000,0.0,7.9,1.4,0.0,0.0,847,127,0,0,859.65,9.81,27.57,# data time:11750,pm2.5:5.640,pm10:4.991,O2:0.000,NO2:0.028,SO2:0.000,NH3:7.799
15:35:08,0,0,0,0,0,2100,2200,14,0,0,0,514,0,0,0,0,0.0000000,0.0000000,0.0000000,0.0000000,7.00,38.4062424,-110.7920761,1339.0000000,0.0,0.6,1.4,0.0,0.0,847,128,0,0,859.62,9.83,27.56,# data time:11750,pm2.5:5.640,pm10:4.991,O2:0.000,NO2:0.028,SO2:0.000,NH3:7.799
15:35:09,0,0,0,0,0,2100,2200,14,0,0,0,514,0,0,0,0,0.0000000,0.0000000,0.0000000,0.0000000,7.00,38.4062424,-110.7920761,1339.0000000,0.0,85.8,1.4,0.0,0.0,848,127,0,0,859.64,9.81,27.57,# data time:11750,pm2.5:5.640,pm10:4.991,O2:0.000,NO2:0.028,SO2:0.000,NH3:7.799
15:35:10,0,0,0,0,0,2100,2200,14,0,0,0,514,0,0,0,0,0.0000000,0.0000000,0.0000000,0.0000000,7.00,38.4062424,-110.7920761,1339.0000000,0.0,78.2,1.4,0.0,0.0,848,129,0,0,859.60,9.80,27.57,# data time:11750,pm2.5:5.640,pm10:4.991,O2:0.000,NO2:0.028,SO2:0.000,NH3:7.799
15:35:11,0,0,0,0,0,2100,2200,14,0,0,0,514,0,0,0,0,0.0000000,0.0000000,0.0000000,0.0000000,7.00,38.4062424,-110.7920761,1339.0000000,0.0,322.4,1.4,0.0,0.0,848,130,0,0,859.54,9.81,27.58,# data time:11750,pm2.5:5.640,pm10:4.991,O2:0.000,NO2:0.028,SO2:0.000,NH3:7.799
15:35:12,0,0,0,0,0,2100,2200,14,0,0,0,514,0,0,0,0,0.0000000,0.0000000,0.0000000,0.0000000,7.00,38.4062424,-110.7920761,1339.0000000,0.0,65.6,1.4,0.0,0.0,847,127,0,0,859.59,9.81,27.58,# data time:11750,pm2.5:5.640,pm10:4.991,O2:0.000,NO2:0.028,SO2:0.000,NH3:7.799
15:35:13,0,0,0,0,0,2100,2200,14,0,0,0,514,0,0,0,0,0.0000000,0.0000000,0.0000000,0.0000000,7.00,38.4062424,-110.7920761,1339.0000000,0.0,4.6,1.4,0.0,0.0,847,128,0,0,859.62,9.81,27.58,# data time:11750,pm2.5:5.640,pm10:4.991,O2:0.000,NO2:0.028,SO2:0.000,NH3:7.799
15:35:14,0,0,0,0,0,2100,2200,14,0,0,0,514,0,0,0,0,0.0000000,0.0000000,0.0000000,0.0000000,7.00,38.4062424,-110.7920761,1338.9000244,0.1,316.9,1.3,0.0,0.0,848,128,0,0,859.59,9.81,27.58,# data time:11760,pm2.5:6.445,pm10:5.704,O2:0.000,NO2:0.028,SO2:0.000,NH3:7.799
15:35:15,0,0,0,0,0,1700,2800,15,0,0,0,514,0,0,0,0,0.0000000,0.0000000,0.0000000,0.0000000,7.00,38.4062424,-110.7920761,1338.9000244,0.0,243.2,1.4,0.0,0.0,847,127,0,0,859.59,9.83,27.58,# data time:11760,pm2.5:6.445,pm10:5.704,O2:0.000,NO2:0.028,SO2:0.000,NH3:7.799
15:35:16,0,0,0,0,0,1700,2800,15,0,0,0,514,0,0,0,0,0.0000000,0.0000000,0.0000000,0.0000000,7.00,38.4062424,-110.7920761,1338.9000244,0.1,291.5,1.3,0.0,0.0,847,128,0,0,859.57,9.81,27.49,# data time:11760,pm2.5:6.445,pm10:5.704,O2:0.000,NO2:0.028,SO2:0.000,NH3:7.799
15:35:17,0,0,0,0,0,1700,2800,15,0,0,0,515,0,0,0,0,0.0000000,0.0000000,0.0000000,0.0000000,7.00,38.4062424,-110.7920761,1338.9000244,0.1,291.5,1.3,0.0,0.0,848,128,0,0,859.57,9.81,27.47,# data time:11760,pm2.5:6.445,pm10:5.704,O2:0.000,NO2:0.028,SO2:0.000,NH3:7.799
15:35:18,0,0,0,0,0,1700,2800,15,0,0,0,514,0,0,0,0,0.0000000,0.0000000,0.0000000,0.0000000,7.00,38.4062424,-110.7920761,1338.9000244,0.1,291.5,1.3,0.0,0.0,847,126,0,0,859.61,9.80,27.51,# data time:11760,pm2.5:6.445,pm10:5.704,O2:0.000,NO2:0.028,SO2:0.000,NH3:7.799
15:35:19,0,0,0,0,0,1700,2800,15,0,0,0,513,0,0,0,0,0.0000000,0.0000000,0.0000000,0.0000000,7.00,38.4062424,-110.7920761,1338.9000244,0.1,291.5,1.3,0.0,0.0,847,129,0,0,859.58,9.80,27.47,# data time:11760,pm2.5:6.445,pm10:5.704,O2:0.000,NO2:0.028,SO2:0.000,NH3:7.799
15:35:20,0,0,0,0,0,1700,2800,15,0,0,0,514,0,0,0,0,0.0000000,0.0000000,0.0000000,0.0000000,7.00,38.4062424,-110.7920761,1338.9000244,0.1,315.5,1.3,0.0,0.0,847,130,0,0,859.59,9.83,27.52,# data time:11760,pm2.5:6.445,pm10:5.704,O2:0.000,NO2:0.028,SO2:0.000,NH3:7.799
15:35:21,0,0,0,0,0,1700,2800,15,0,0,0,514,0,0,0,0,0.0000000,0.0000000,0.0000000,0.0000000,7.00,38.4062424,-110.7920761,1338.9000244,0.1,297.4,1.3,0.0,0.0,848,131,0,0,859.54,9.78,27.54,# data time:11760,pm2.5:6.445,pm10:5.704,O2:0.000,NO2:0.028,SO2:0.000,NH3:7.799
15:35:23,0,0,0,0,0,1700,2800,15,0,0,0,514,0,0,0,0,0.0000000,0.0000000,0.0000000,0.0000000,7.00,38.4062462,-110.7920761,1338.9000244,0.1,317.2,1.3,0.0,0.0,847,129,0,0,859.53,9.78,27.54,# data time:11760,pm2.5:6.445,pm10:5.704,O2:0.000,NO2:0.028,SO2:0.000,NH3:7.799
15:35:24,0,0,0,0,0,1700,2800,15,0,0,0,514,0,0,0,0,0.0000000,0.0000000,0.0000000,0.0000000,7.00,38.4062462,-110.7920761,1338.9000244,0.1,338.0,1.3,0.0,0.0,848,127,0,0,859.51,9.78,27.54,# data time:11760,pm2.5:6.445,pm10:5.704,O2:0.000,NO2:0.028,SO2:0.000,NH3:7.799
15:35:25,0,0,0,0,0,1700,2800,15,0,0,0,513,0,0,0,0,0.0000000,0.0000000,0.0000000,0.0000000,7.00,38.4062462,-110.7920761,1338.9000244,0.1,350.6,1.3,0.0,0.0,847,128,0,0,859.55,9.80,27.54,# data time:11770,pm2.5:6.445,pm10:5.704,O2:0.000,NO2:0.028,SO2:0.000,NH3:7.799
15:35:26,0,0,0,0,0,1700,2800,15,0,0,0,514,0,0,0,0,0.0000000,0.0000000,0.0000000,0.0000000,7.00,38.4062462,-110.7920761,1338.9000244,0.0,36.5,1.3,0.0,0.0,847,128,0,0,859.59,9.78,27.54,# data time:11770,pm2.5:6.445,pm10:5.704,O2:0.000,NO2:0.028,SO2:0.000,NH3:7.799
15:35:27,0,0,0,0,0,1700,2800,15,0,0,0,514,0,0,0,0,0.0000000,0.0000000,0.0000000,0.0000000,7.00,38.4062462,-110.7920761,1338.9000244,0.0,39.5,1.3,0.0,0.0,847,126,0,0,859.56,9.78,27.54,# data time:11770,pm2.5:6.445,pm10:5.704,O2:0.000,NO2:0.028,SO2:0.000,NH3:7.799
15:35:28,0,0,0,0,0,1700,2800,15,0,0,0,514,0,0,0,0,0.0000000,0.0000000,0.0000000,0.0000000,7.00,38.4062462,-110.7920761,1338.9000244,0.1,333.7,1.4,0.0,0.0,847,131,0,0,859.58,9.77,27.55,# data time:11770,pm2.5:6.445,pm10:5.704,O2:0.000,NO2:0.028,SO2:0.000,NH3:7.799
15:35:29,0,0,0,0,0,1700,2800,15,0,0,0,514,0,0,0,0,0.0000000,0.0000000,0.0000000,0.0000000,7.00,38.4062462,-110.7920761,1338.9000244,0.1,318.3,1.4,0.0,0.0,847,131,0,0,859.56,9.75,27.55,# data time:11770,pm2.5:6.445,pm10:5.704,O2:0.000,NO2:0.028,SO2:0.000,NH3:7.799
15:35:30,0,0,0,0,0,2100,2200,0,0,0,0,514,0,0,0,0,0.0000000,0.0000000,0.0000000,0.0000000,7.00,38.4062462,-110.7920761,1338.9000244,0.1,330.7,1.4,0.0,0.0,847,128,0,0,859.52,9.81,27.55,# data time:11770,pm2.5:6.445,pm10:5.704,O2:0.000,NO2:0.028,SO2:0.000,NH3:7.799
15:35:31,0,0,0,0,0,2100,2200,0,0,0,0,514,0,0,0,0,0.0000000,0.0000000,0.0000000,0.0000000,7.00,38.4062462,-110.7920761,1338.9000244,0.1,328.2,1.4,0.0,0.0,847,131,0,0,859.54,9.78,27.55,# data time:11770,pm2.5:6.445,pm10:5.704,O2:0.000,NO2:0.028,SO2:0.000,NH3:7.799
15:35:32,0,0,0,0,0,2100,2200,0,0,0,0,514,0,0,0,0,0.0000000,0.0000000,0.0000000,0.0000000,7.00,38.4062462,-110.7920761,1338.9000244,0.0,346.4,1.4,0.0,0.0,847,128,0,0,859.53,9.80,27.55,# data time:11770,pm2.5:6.445,pm10:5.704,O2:0.000,NO2:0.028,SO2:0.000,NH3:7.799
15:35:33,0,0,0,0,0,2100,2200,0,0,0,0,515,0,0,0,0,0.0000000,0.0000000,0.0000000,0.0000000,7.00,38.4062462,-110.7920761,1338.9000244,0.0,264.6,1.4,0.0,0.0,847,131,0,0,859.60,9.78,27.56,# data time:11770,pm2.5:6.445,pm10:5.704,O2:0.000,NO2:0.028,SO2:0.000,NH3:7.799
15:35:34,0,0,0,0,0,2100,2200,0,0,0,0,514,0,0,0,0,0.0000000,0.0000000,0.0000000,0.0000000,7.00,38.4062462,-110.7920761,1338.9000244,0.0,281.0,1.4,0.0,0.0,847,129,0,0,859.56,9.81,27.55,# data time:11770,pm2.5:6.445,pm10:5.704,O2:0.000,NO2:0.028,SO2:0.000,NH3:7.799
15:35:35,0,0,0,0,0,2100,2200,0,0,0,0,515,0,0,0,0,0.0000000,0.0000000,0.0000000,0.0000000,7.00,38.4062462,-110.7920761,1338.9000244,0.0,48.5,1.4,0.0,0.0,847,129,0,0,859.54,9.81,27.56,# data time:11780,pm2.5:6.445,pm10:5.704,O2:0.000,NO2:0.010,SO2,NH3:7.799
15:35:36,0,0,0,0,0,2100,2200,0,0,0,0,515,0,0,0,0,0.0000000,0.0000000,0.0000000,0.0000000,7.00,38.4062462,-110.7920761,1338.9000244,0.0,325.9,1.4,0.0,0.0,848,127,0,0,859.55,9.80,27.56,# data time:11780,pm2.5:6.445,pm10:5.704,O2:0.000,NO2:0.010,SO2,NH3:7.799
15:35:37,0,0,0,0,0,2100,2200,0,0,0,0,514,0,0,0,0,0.0000000,0.0000000,0.0000000,0.0000000,7.00,38.4062462,-110.7920761,1338.8000488,0.0,330.6,1.4,0.0,0.0,847,129,0,0,859.57,9.81,27.55,# data time:11780,pm2.5:6.445,pm10:5.704,O2:0.000,NO2:0.010,SO2,NH3:7.799
15:35:38,0,0,0,0,0,2100,2200,0,0,0,0,514,0,0,0,0,0.0000000,0.0000000,0.0000000,0.0000000,7.00,38.4062462,-110.7920761,1338.8000488,0.1,305.6,1.4,0.0,0.0,847,132,0,0,859.58,9.83,27.55,# data time:11780,pm2.5:6.445,pm10:5.704,O2:0.000,NO2:0.010,SO2,NH3:7.799
15:35:39,0,0,0,0,0,2100,2200,0,0,0,0,513,0,0,0,0,0.0000000,0.0000000,0.0000000,0.0000000,7.00,38.4062462,-110.7920761,1338.8000488,0.0,317.0,1.4,0.0,0.0,847,128,0,0,859.55,9.84,27.55,# data time:11780,pm2.5:6.445,pm10:5.704,O2:0.000,NO2:0.010,SO2,NH3:7.799
15:35:40,0,0,0,0,0,2100,2200,0,0,0,0,514,0,0,0,0,0.0000000,0.0000000,0.0000000,0.0000000,7.00,38.4062462,-110.7920761,1338.8000488,0.0,218.1,1.4,0.0,0.0,847,128,0,0,859.56,9.83,27.56,# data time:11780,pm2.5:6.445,pm10:5.704,O2:0.000,NO2:0.010,SO2,NH3:7.799
15:35:41,0,0,0,0,0,2100,2200,0,0,0,0,514,0,0,0,0,0.0000000,0.0000000,0.0000000,0.0000000,7.00,38.4062462,-110.7920761,1338.8000488,0.0,274.9,1.4,0.0,0.0,846,127,0,0,859.48,9.83,27.48,# data time:11780,pm2.5:6.445,pm10:5.704,O2:0.000,NO2:0.010,SO2,NH3:7.799
15:35:42,0,0,0,0,0,2100,2200,0,0,0,0,514,0,0,0,0,0.0000000,0.0000000,0.0000000,0.0000000,7.00,38.4062462,-110.7920761,1338.8000488,0.0,274.9,1.4,0.0,0.0,848,131,0,0,859.55,9.81,27.51,# data time:11780,pm2.5:6.445,pm10:5.704,O2:0.000,NO2:0.010,SO2,NH3:7.799
15:35:43,0,0,0,0,0,2100,2200,0,0,0,0,514,0,0,0,0,0.0000000,0.0000000,0.0000000,0.0000000,7.00,38.4062462,-110.7920761,1338.8000488,0.0,274.9,1.4,0.0,0.0,847,129,0,0,859.49,9.81,27.47,# data time:11780,pm2.5:6.445,pm10:5.704,O2:0.000,NO2:0.010,SO2,NH3:7.799
15:35:44,0,0,0,0,0,2100,2200,0,0,0,0,514,0,0,0,0,0.0000000,0.0000000,0.0000000,0.0000000,7.00,38.4062462,-110.7920761,1338.8000488,0.0,1.7,1.4,0.0,0.0,848,131,0,0,859.49,9.80,27.51,# data time:11790,pm2.5:6.445,pm10:5.704,O2:0.000,NO2:0.028,SO2:0.000,NH3:7.799
15:35:45,0,0,0,0,0,2700,2200,1,0,0,0,514,0,0,0,0,0.0000000,0.0000000,0.0000000,0.0000000,7.00,38.4062462,-110.7920761,1338.8000488,0.0,314.2,1.4,0.0,0.0,847,128,0,0,859.51,9.81,27.52,# data time:11790,pm2.5:6.445,pm10:5.704,O2:0.000,NO2:0.028,SO2:0.000,NH3:7.799
15:35:46,0,0,0,0,0,2700,2200,1,0,0,0,514,0,0,0,0,0.0000000,0.0000000,0.0000000,0.0000000,7.00,38.4062462,-110.7920761,1338.8000488,0.0,265.7,1.4,0.0,0.0,846,130,0,0,859.57,9.80,27.55,# data time:11790,pm2.5:6.445,pm10:5.704,O2:0.000,NO2:0.028,SO2:0.000,NH3:7.799
15:35:48,0,0,0,0,0,2700,2200,1,0,0,0,514,0,0,0,0,0.0000000,0.0000000,0.0000000,0.0000000,7.00,38.4062462,-110.7920761,1338.6999512,0.0,246.5,1.4,0.0,0.0,847,131,0,0,859.56,9.83,27.56,# data time:11790,pm2.5:6.445,pm10:5.704,O2:0.000,NO2:0.028,SO2:0.000,NH3:7.799
15:35:49,0,0,0,0,0,2700,2200,1,0,0,0,515,0,0,0,0,0.0000000,0.0000000,0.0000000,0.0000000,7.00,38.4062462,-110.7920761,1338.6999512,0.0,242.2,1.4,0.0,0.0,847,131,0,0,859.56,9.81,27.56,# data time:11790,pm2.5:6.445,pm10:5.704,O2:0.000,NO2:0.028,SO2:0.000,NH3:7.799
15:35:50,0,0,0,0,0,2700,2200,1,0,0,0,514,0,0,0,0,0.0000000,0.0000000,0.0000000,0.0000000,7.00,38.4062462,-110.7920761,1338.6999512,0.0,118.0,1.4,0.0,0.0,847,126,0,0,859.55,9.83,27.56,# data time:11790,pm2.5:6.445,pm10:5.704,O2:0.000,NO2:0.028,SO2:0.000,NH3:7.799
15:35:51,0,0,0,0,0,2700,2200,1,0,0,0,514,0,0,0,0,0.0000000,0.0000000,0.0000000,0.0000000,7.00,38.4062462,-110.7920761,1338.6999512,0.0,287.9,1.4,0.0,0.0,847,130,0,0,859.55,9.83,27.56,# data time:11790,pm2.5:6.445,pm10:5.704,O2:0.000,NO2:0.028,SO2:0.000,NH3:7.799
15:35:52,0,0,0,0,0,2700,2200,1,0,0,0,514,0,0,0,0,0.0000000,0.0000000,0.0000000,0.0000000,7.00,38.4062462,-110.7920761,1338.6999512,0.0,316.3,1.4,0.0,0.0,847,129,0,0,859.59,9.81,27.56,# data time:11790,pm2.5:6.445,pm10:5.704,O2:0.000,NO2:0.028,SO2:0.000,NH3:7.799
15:35:53,0,0,0,0,0,2700,2200,1,0,0,0,514,0,0,0,0,0.0000000,0.0000000,0.0000000,0.0000000,7.00,38.4062462,-110.7920761,1338.6999512,0.1,312.0,1.4,0.0,0.0,848,130,0,0,859.58,9.81,27.56,# data time:11790,pm2.5:6.445,pm10:5.704,O2:0.000,NO2:0.028,SO2:0.000,NH3:7.799
15:35:54,0,0,0,0,0,2700,2200,1,0,0,0,514,0,0,0,0,0.0000000,0.0000000,0.0000000,0.0000000,7.00,38.4062462,-110.7920761,1338.6999512,0.1,301.2,1.4,0.0,0.0,847,130,0,0,859.59,9.80,27.57,# data time:11790,pm2.5:6.445,pm10:5.704,O2:0.000,NO2:0.028,SO2:0.000,NH3:7.799
15:35:55,0,0,0,0,0,2700,2200,1,0,0,0,514,0,0,0,0,0.0000000,0.0000000,0.0000000,0.0000000,7.00,38.4062462,-110.7920761,1338.6999512,0.0,328.7,1.4,0.0,0.0,847,130,0,0,859.59,9.81,27.57,# data time:11800,pm2.5:6.445,pm10:5.704,O2:0.000,NO2:0.010,SO2:0.000,NH3:7.572
15:35:56,0,0,0,0,0,2700,2200,1,0,0,0,514,0,0,0,0,0.0000000,0.0000000,0.0000000,0.0000000,7.00,38.4062462,-110.7920761,1338.6999512,0.1,330.8,1.4,0.0,0.0,847,130,0,0,859.60,9.78,27.56,# data time:11800,pm2.5:6.445,pm10:5.704,O2:0.000,NO2:0.010,SO2:0.000,NH3:7.572
15:35:57,0,0,0,0,0,2700,2200,1,0,0,0,515,0,0,0,0,0.0000000,0.0000000,0.0000000,0.0000000,7.00,38.4062462,-110.7920761,1338.6999512,0.0,347.2,1.4,0.0,0.0,848,127,0,0,859.55,9.80,27.55,# data time:11800,pm2.5:6.445,pm10:5.704,O2:0.000,NO2:0.010,SO2:0.000,NH3:7.572
15:35:58,0,0,0,0,0,2700,2200,1,0,0,0,514,0,0,0,0,0.0000000,0.0000000,0.0000000,0.0000000,7.00,38.4062462,-110.7920761,1338.6999512,0.0,204.4,1.4,0.0,0.0,847,129,0,0,859.55,9.75,27.54,# data time:11800,pm2.5:6.445,pm10:5.704,O2:0.000,NO2:0.010,SO2:0.000,NH3:7.572
15:35:59,0,0,0,0,0,2700,2200,1,0,0,0,514,0,0,0,0,0.0000000,0.0000000,0.0000000,0.0000000,7.00,38.4062462,-110.7920761,1338.5999756,0.0,226.7,1.4,0.0,0.0,848,132,0,0,859.53,9.81,27.54,# data time:11800,pm2.5:6.445,pm10:5.704,O2:0.000,NO2:0.010,SO2:0.000,NH3:7.572
15:36:00,0,0,0,0,0,2100,2200,2,0,0,0,514,0,0,0,0,0.0000000,0.0000000,0.0000000,0.0000000,7.00,38.4062462,-110.7920761,1338.5999756,0.0,194.1,1.4,0.0,0.0,848,128,0,0,859.55,9.80,27.54,# data time:11800,pm2.5:6.445,pm10:5.704,O2:0.000,NO2:0.010,SO2:0.000,NH3:7.572
15:36:01,0,0,0,0,0,2100,2200,2,0,0,0,514,0,0,0,0,0.0000000,0.0000000,0.0000000,0.0000000,7.00,38.4062462,-110.7920761,1338.5999756,0.0,163.1,1.4,0.0,0.0,848,129,0,0,859.53,9.81,27.55,# data time:11800,pm2.5:6.445,pm10:5.704,O2:0.000,NO2:0.010,SO2:0.000,NH3:7.572
15:36:02,0,0,0,0,0,2100,2200,2,0,0,0,514,0,0,0,0,0.0000000,0.0000000,0.0000000,0.0000000,7.00,38.4062462,-110.7920761,1338.5999756,0.0,292.3,1.4,0.0,0.0,847,129,0,0,859.57,9.78,27.55,# data time:11800,pm2.5:6.445,pm10:5.704,O2:0.000,NO2:0.010,SO2:0.000,NH3:7.572
15:36:03,0,0,0,0,0,2100,2200,2,0,0,0,514,0,0,0,0,0.0000000,0.0000000,0.0000000,0.0000000,7.00,38.4062462,-110.7920761,1338.5999756,0.0,331.6,1.4,0.0,0.0,847,125,0,0,859.63,9.81,27.55,# data time:11800,pm2.5:6.445,pm10:5.704,O2:0.000,NO2:0.010,SO2:0.000,NH3:7.572
15:36:04,0,0,0,0,0,2100,2200,2,0,0,0,514,0,0,0,0,0.0000000,0.0000000,0.0000000,0.0000000,7.00,38.4062462,-110.7920761,1338.5999756,0.1,337.1,1.4,0.0,0.0,847,129,0,0,859.60,9.80,27.55,# data time:11810,pm2.5:6.445,pm10:5.704,O2:0.000,NO2:0.081,SO2:0.000,NH3:7.799
15:36:05,0,0,0,0,0,2100,2200,2,0,0,0,514,0,0,0,0,0.0000000,0.0000000,0.0000000,0.0000000,7.00,38.4062462,-110.7920761,1338.5999756,0.0,334.9,1.4,0.0,0.0,847,127,0,0,859.59,9.84,27.54,# data time:11810,pm2.5:6.445,pm10:5.704,O2:0.000,NO2:0.081,SO2:0.000,NH3:7.799
15:36:06,0,0,0,0,0,2100,2200,2,0,0,0,514,0,0,0,0,0.0000000,0.0000000,0.0000000,0.0000000,7.00,38.4062462,-110.7920761,1338.5999756,0.0,305.3,1.4,0.0,0.0,847,131,0,0,859.59,9.84,27.47,# data time:11810,pm2.5:6.445,pm10:5.704,O2:0.000,NO2:0.081,SO2:0.000,NH3:7.799
15:36:07,0,0,0,0,0,2100,2200,2,0,0,0,514,0,0,0,0,0.0000000,0.0000000,0.0000000,0.0000000,7.00,38.4062462,-110.7920761,1338.5999756,0.0,305.3,1.4,0.0,0.0,847,136,0,0,859.55,9.86,27.45,# data time:11810,pm2.5:6.445,pm10:5.704,O2:0.000,NO2:0.081,SO2:0.000,NH3:7.799
15:36:08,0,0,0,0,0,2100,2200,2,0,0,0,514,0,0,0,0,0.0000000,0.0000000,0.0000000,0.0000000,7.00,38.4062462,-110.7920761,1338.5000000,0.0,305.3,1.4,0.0,0.0,847,128,0,0,859.55,9.86,27.49,# data time:11810,pm2.5:6.445,pm10:5.704,O2:0.000,NO2:0.081,SO2:0.000,NH3:7.799
15:36:09,0,0,0,0,0,2100,2200,2,0,0,0,514,0,0,0,0,0.0000000,0.0000000,0.0000000,0.0000000,7.00,38.4062462,-110.7920761,1338.5000000,0.0,313.8,1.4,0.0,0.0,847,132,0,0,859.53,9.86,27.53,# data time:11810,pm2.5:6.445,pm10:5.704,O2:0.000,NO2:0.081,SO2:0.000,NH3:7.799
15:36:10,0,0,0,0,0,2100,2200,2,0,0,0,514,0,0,0,0,0.0000000,0.0000000,0.0000000,0.0000000,7.00,38.4062462,-110.7920761,1338.5000000,0.0,286.4,1.4,0.0,0.0,847,130,0,0,859.57,9.87,27.54,# data time:11810,pm2.5:6.445,pm10:5.704,O2:0.000,NO2:0.081,SO2:0.000,NH3:7.799
15:36:12,0,0,0,0,0,2100,2200,2,0,0,0,514,0,0,0,0,0.0000000,0.0000000,0.0000000,0.0000000,7.00,38.4062462,-110.7920761,1338.5000000,0.0,279.9,1.3,0.0,0.0,847,129,0,0,859.55,9.87,27.54,# data time:11810,pm2.5:6.445,pm10:5.704,O2:0.000,NO2:0.081,SO2:0.000,NH3:7.799
15:36:13,0,0,0,0,0,2100,2200,2,0,0,0,514,0,0,0,0,0.0000000,0.0000000,0.0000000,0.0000000,7.00,38.4062462,-110.7920761,1338.5000000,0.0,350.2,1.3,0.0,0.0,847,128,0,0,859.56,9.84,27.53,# data time:11810,pm2.5:6.445,pm10:5.704,O2:0.000,NO2:0.081,SO2:0.000,NH3:7.799
15:36:14,0,0,0,0,0,2100,2200,2,0,0,0,515,0,0,0,0,0.0000000,0.0000000,0.0000000,0.0000000,7.00,38.4062462,-110.7920761,1338.5000000,0.0,132.0,1.4,0.0,0.0,847,127,0,0,859.51,9.86,27.54,# data time:11810,pm2.5:6.445,pm10:5.704,O2:0.000,NO2:0.081,SO2:0.000,NH3:7.799
15:36:15,0,0,0,0,0,1700,2200,3,0,0,0,514,0,0,0,0,0.0000000,0.0000000,0.0000000,0.0000000,7.00,38.4062462,-110.7920761,1338.5000000,0.0,100.6,1.3,0.0,0.0,847,133,0,0,859.57,9.86,27.54,# data time:11820,pm2.5:6.445,pm10:5.704,O2:0.000,NO2:0.028,SO2:0.000,NH3:7.799
15:36:16,0,0,0,0,0,1700,2200,3,0,0,0,515,0,0,0,0,0.0000000,0.0000000,0.0000000,0.0000000,7.00,38.4062462,-110.7920761,1338.5000000,0.1,329.6,1.3,0.0,0.0,847,128,0,0,859.53,9.84,27.54,# data time:11820,pm2.5:6.445,pm10:5.704,O2:0.000,NO2:0.028,SO2:0.000,NH3:7.799
15:36:17,0,0,0,0,0,1700,2200,3,0,0,0,514,0,0,0,0,0.0000000,0.0000000,0.0000000,0.0000000,7.00,38.4062462,-110.7920761,1338.5000000,0.1,321.1,1.4,0.0,0.0,847,129,0,0,859.57,9.84,27.55,# data time:11820,pm2.5:6.445,pm10:5.704,O2:0.000,NO2:0.028,SO2:0.000,NH3:7.799
15:36:18,0,0,0,0,0,1700,2200,3,0,0,0,514,0,0,0,0,0.0000000,0.0000000,0.0000000,0.0000000,7.00,38.4062462,-110.7920761,1338.5000000,0.0,353.7,1.3,0.0,0.0,847,128,0,0,859.59,9.84,27.55,# data time:11820,pm2.5:6.445,pm10:5.704,O2:0.000,NO2:0.028,SO2:0.000,NH3:7.799
15:36:19,0,0,0,0,0,1700,2200,3,0,0,0,515,0,0,0,0,0.0000000,0.0000000,0.0000000,0.0000000,7.00,38.4062462,-110.7920761,1338.5000000,0.0,74.8,1.3,0.0,0.0,847,131,0,0,859.55,9.86,27.55,# data time:11820,pm2.5:6.445,pm10:5.704,O2:0.000,NO2:0.028,SO2:0.000,NH3:7.799
15:36:20,0,0,0,0,0,1700,2200,3,0,0,0,515,0,0,0,0,0.0000000,0.0000000,0.0000000,0.0000000,7.00,38.4062462,-110.7920761,1338.5000000,0.0,147.3,1.3,0.0,0.0,847,129,0,0,859.55,9.84,27.56,# data time:11820,pm2.5:6.445,pm10:5.704,O2:0.000,NO2:0.028,SO2:0.000,NH3:7.799
15:36:21,0,0,0,0,0,1700,2200,3,0,0,0,514,0,0,0,0,0.0000000,0.0000000,0.0000000,0.0000000,7.00,38.4062462,-110.7920761,1338.5000000,0.0,54.4,1.3,0.0,0.0,847,130,0,0,859.52,9.86,27.55,# data time:11820,pm2.5:6.445,pm10:5.704,O2:0.000,NO2:0.028,SO2:0.000,NH3:7.799
15:36:22,0,0,0,0,0,1700,2200,3,0,0,0,514,0,0,0,0,0.0000000,0.0000000,0.0000000,0.0000000,7.00,38.4062462,-110.7920761,1338.4000244,0.0,321.1,1.3,0.0,0.0,847,130,0,0,859.52,9.83,27.55,# data time:11820,pm2.5:6.445,pm10:5.704,O2:0.000,NO2:0.028,SO2:0.000,NH3:7.799
15:36:23,0,0,0,0,0,1700,2200,3,0,0,0,514,0,0,0,0,0.0000000,0.0000000,0.0000000,0.0000000,7.00,38.4062462,-110.7920761,1338.4000244,0.1,317.3,1.3,0.0,0.0,847,132,0,0,859.59,9.83,27.53,# data time:11820,pm2.5:6.445,pm10:5.704,O2:0.000,NO2:0.028,SO2:0.000,NH3:7.799
15:36:24,0,0,0,0,0,1700,2200,3,0,0,0,514,0,0,0,0,0.0000000,0.0000000,0.0000000,0.0000000,7.00,38.4062462,-110.7920761,1338.4000244,0.0,34.0,1.4,0.0,0.0,847,130,0,0,859.54,9.86,27.53,# data time:11830,pm2.5:6.445,pm10:5.704,O2:0.000,NO2:0.046,SO2:0.000,NH3:7.799
15:36:25,0,0,0,0,0,1700,2200,3,0,0,0,513,0,0,0,0,0.0000000,0.0000000,0.0000000,0.0000000,7.00,38.4062500,-110.7920761,1338.4000244,0.0,330.5,1.3,0.0,0.0,847,129,0,0,859.54,9.83,27.53,# data time:11830,pm2.5:6.445,pm10:5.704,O2:0.000,NO2:0.046,SO2:0.000,NH3:7.799
15:36:26,0,0,0,0,0,1700,2200,3,0,0,0,514,0,0,0,0,0.0000000,0.0000000,0.0000000,0.0000000,7.00,38.4062500,-110.7920761,1338.4000244,0.0,305.3,1.3,0.0,0.0,847,135,0,0,859.49,9.84,27.53,# data time:11830,pm2.5:6.445,pm10:5.704,O2:0.000,NO2:0.046,SO2:0.000,NH3:7.799
15:36:27,0,0,0,0,0,1700,2200,3,0,0,0,514,0,0,0,0,0.0000000,0.0000000,0.0000000,0.0000000,7.00,38.4062500,-110.7920761,1338.4000244,0.0,315.5,1.3,0.0,0.0,847,132,0,0,859.51,9.81,27.45,# data time:11830,pm2.5:6.445,pm10:5.704,O2:0.000,NO2:0.046,SO2:0.000,NH3:7.799
15:36:28,0,0,0,0,0,1700,2200,3,0,0,0,514,0,0,0,0,0.0000000,0.0000000,0.0000000,0.0000000,7.00,38.4062500,-110.7920761,1338.4000244,0.0,315.5,1.3,0.0,0.0,847,131,0,0,859.51,9.86,27.44,# data time:11830,pm2.5:6.445,pm10:5.704,O2:0.000,NO2:0.046,SO2:0.000,NH3:7.799
15:36:29,0,0,0,0,0,1700,2200,3,0,0,0,514,0,0,0,0,0.0000000,0.0000000,0.0000000,0.0000000,7.00,38.4062500,-110.7920761,1338.3000488,0.0,315.5,1.3,0.0,0.0,847,132,0,0,859.46,9.86,27.44,# data time:11830,pm2.5:6.445,pm10:5.704,O2:0.000,NO2:0.046,SO2:0.000,NH3:7.799
15:36:30,0,0,0,0,0,2100,2200,4,0,0,0,514,0,0,0,0,0.0000000,0.0000000,0.0000000,0.0000000,7.00,38.4062500,-110.7920761,1338.3000488,0.0,315.5,1.3,0.0,0.0,847,128,0,0,859.46,9.81,27.44,# data time:11830,pm2.5:6.445,pm10:5.704,O2:0.000,NO2:0.046,SO2:0.000,NH3:7.799
15:36:31,0,0,0,0,0,2100,2200,4,0,0,0,515,0,0,0,0,0.0000000,0.0000000,0.0000000,0.0000000,7.00,38.4062500,-110.7920761,1338.3000488,0.0,311.5,1.3,0.0,0.0,846,129,0,0,859.57,9.80,27.52,# data time:11830,pm2.5:6.445,pm10:5.704,O2:0.000,NO2:0.046,SO2:0.000,NH3:7.799
15:36:33,0,0,0,0,0,2100,2200,4,0,0,0,514,0,0,0,0,0.0000000,0.0000000,0.0000000,0.0000000,7.00,38.4062500,-110.7920761,1338.3000488,0.1,311.1,1.3,0.0,0.0,847,128,0,0,859.54,9.80,27.52,# data time:11830,pm2.5:6.445,pm10:5.704,O2:0.000,NO2:0.046,SO2:0.000,NH3:7.799
15:36:34,0,0,0,0,0,2100,2200,4,0,0,0,515,0,0,0,0,0.0000000,0.0000000,0.0000000,0.0000000,7.00,38.4062500,-110.7920761,1338.3000488,0.0,126.1,1.3,0.0,0.0,847,131,0,0,859.54,9.78,27.52,# data time:11830,pm2.5:6.445,pm10:5.704,O2:0.000,NO2:0.046,SO2:0.000,NH3:7.799
15:36:35,0,0,0,0,0,2100,2200,4,0,0,0,514,0,0,0,0,0.0000000,0.0000000,0.0000000,0.0000000,7.00,38.4062500,-110.7920761,1338.3000488,0.0,113.9,1.3,0.0,0.0,847,128,0,0,859.54,9.77,27.52,# data time:11840,pm2.5:6.445,pm10:5.704,O2:0.000,NO2:0.010,SO2:0.000,NH3:7.799
15:36:36,0,0,0,0,0,2100,2200,4,0,0,0,515,0,0,0,0,0.0000000,0.0000000,0.0000000,0.0000000,7.00,38.4062500,-110.7920761,1338.3000488,0.1,307.1,1.3,0.0,0.0,847,129,0,0,859.58,9.77,27.52,# data time:11840,pm2.5:6.445,pm10:5.704,O2:0.000,NO2:0.010,SO2:0.000,NH3:7.799
15:36:37,0,0,0,0,0,2100,2200,4,0,0,0,514,0,0,0,0,0.0000000,0.0000000,0.0000000,0.0000000,7.00,38.4062500,-110.7920761,1338.1999512,0.1,309.3,1.3,0.0,0.0,847,127,0,0,859.56,9.77,27.51,# data time:11840,pm2.5:6.445,pm10:5.704,O2:0.000,NO2:0.010,SO2:0.000,NH3:7.799
15:36:38,0,0,0,0,0,2100,2200,4,0,0,0,515,0,0,0,0,0.0000000,0.0000000,0.0000000,0.0000000,7.00,38.4062500,-110.7920761,1338.1999512,0.0,154.4,1.3,0.0,0.0,847,128,0,0,859.55,9.80,27.52,# data time:11840,pm2.5:6.445,pm10:5.704,O2:0.000,NO2:0.010,SO2:0.000,NH3:7.799
15:36:39,0,0,0,0,0,2100,2200,4,0,0,0,513,0,0,0,0,0.0000000,0.0000000,0.0000000,0.0000000,7.00,38.4062500,-110.7920761,1338.1999512,0.0,122.4,1.3,0.0,0.0,847,129,0,0,859.55,9.80,27.52,# data time:11840,pm2.5:6.445,pm10:5.704,O2:0.000,NO2:0.010,SO2:0.000,NH3:7.799
15:36:40,0,0,0,0,0,2100,2200,4,0,0,0,513,0,0,0,0,0.0000000,0.0000000,0.0000000,0.0000000,7.00,38.4062500,-110.7920761,1338.1999512,0.1,324.5,1.3,0.0,0.0,847,128,0,0,859.52,9.83,27.52,# data time:11840,pm2.5:6.445,pm10:5.704,O2:0.000,NO2:0.010,SO2:0.000,NH3:7.799
15:36:41,0,0,0,0,0,2100,2200,4,0,0,0,513,0,0,0,0,0.0000000,0.0000000,0.0000000,0.0000000,7.00,38.4062500,-110.7920761,1338.1999512,0.1,358.8,1.3,0.0,0.0,847,132,0,0,859.50,9.83,27.53,# data time:11840,pm2.5:6.445,pm10:5.704,O2:0.000,NO2:0.010,SO2:0.000,NH3:7.799
15:36:42,0,0,0,0,0,2100,2200,4,0,0,0,514,0,0,0,0,0.0000000,0.0000000,0.0000000,0.0000000,7.00,38.4062500,-110.7920761,1338.1999512,0.1,347.2,1.3,0.0,0.0,847,131,0,0,859.50,9.83,27.53,# data time:11840,pm2.5:6.445,pm10:5.704,O2:0.000,NO2:0.010,SO2:0.000,NH3:7.799
15:36:43,0,0,0,0,0,2100,2200,4,0,0,0,513,0,0,0,0,0.0000000,0.0000000,0.0000000,0.0000000,7.00,38.4062500,-110.7920761,1338.1999512,0.0,18.6,1.3,0.0,0.0,847,129,0,0,859.54,9.83,27.53,# data time:11840,pm2.5:6.445,pm10:5.704,O2:0.000,NO2:0.010,SO2:0.000,NH3:7.799
15:36:44,0,0,0,0,0,2100,2200,4,0,0,0,514,0,0,0,0,0.0000000,0.0000000,0.0000000,0.0000000,7.00,38.4062500,-110.7920761,1338.0999756,0.0,353.3,1.3,0.0,0.0,847,129,0,0,859.52,9.83,27.53,# data time:11850,pm2.5:6.445,pm10:5.704,O2:0.000,NO2:0.010,SO2:0.000,NH3:7.799
15:36:45,0,0,0,0,0,2100,2800,5,0,0,0,514,0,0,0,0,0.0000000,0.0000000,0.0000000,0.0000000,7.00,38.4062500,-110.7920761,1338.0999756,0.1,337.0,1.3,0.0,0.0,847,127,0,0,859.52,9.84,27.53,# data time:11850,pm2.5:6.445,pm10:5.704,O2:0.000,NO2:0.010,SO2:0.000,NH3:7.799
15:36:46,0,0,0,0,0,2100,2800,5,0,0,0,514,0,0,0,0,0.0000000,0.0000000,0.0000000,0.0000000,7.00,38.4062500,-110.7920761,1338.0999756,0.1,340.1,1.3,0.0,0.0,847,125,0,0,859.53,9.81,27.54,# data time:11850,pm2.5:6.445,pm10:5.704,O2:0.000,NO2:0.010,SO2:0.000,NH3:7.799
15:36:47,0,0,0,0,0,2100,2800,5,0,0,0,514,0,0,0,0,0.0000000,0.0000000,0.0000000,0.0000000,7.00,38.4062500,-110.7920761,1338.0999756,0.1,29.5,1.3,0.0,0.0,847,129,0,0,859.48,9.84,27.54,# data time:11850,pm2.5:6.445,pm10:5.704,O2:0.000,NO2:0.010,SO2:0.000,NH3:7.799
15:36:48,0,0,0,0,0,2100,2800,5,0,0,0,514,0,0,0,0,0.0000000,0.0000000,0.0000000,0.0000000,7.00,38.4062500,-110.7920761,1338.0999756,0.0,313.1,1.3,0.0,0.0,847,128,0,0,859.46,9.86,27.46,# data time:11850,pm2.5:6.445,pm10:5.704,O2:0.000,NO2:0.010,SO2:0.000,NH3:7.799
15:36:49,0,0,0,0,0,2100,2800,5,0,0,0,514,0,0,0,0,0.0000000,0.0000000,0.0000000,0.0000000,7.00,38.4062500,-110.7920761,1338.0999756,0.0,313.1,1.3,0.0,0.0,847,129,0,0,859.46,9.87,27.50,# data time:11850,pm2.5:6.445,pm10:5.704,O2:0.000,NO2:0.010,SO2:0.000,NH3:7.799
15:36:50,0,0,0,0,0,2100,2800,5,0,0,0,515,0,0,0,0,0.0000000,0.0000000,0.0000000,0.0000000,7.00,38.4062500,-110.7920761,1338.0999756,0.0,313.1,1.3,0.0,0.0,847,128,0,0,859.50,9.86,27.45,# data time:11850,pm2.5:6.445,pm10:5.704,O2:0.000,NO2:0.010,SO2:0.000,NH3:7.799
15:36:51,0,0,0,0,0,2100,2800,5,0,0,0,514,0,0,0,0,0.0000000,0.0000000,0.0000000,0.0000000,7.00,38.4062500,-110.7920761,1338.0999756,0.1,233.9,1.3,0.0,0.0,847,129,0,0,859.49,9.84,27.50,# data time:11850,pm2.5:6.445,pm10:5.704,O2:0.000,NO2:0.010,SO2:0.000,NH3:7.799
15:36:52,0,0,0,0,0,2100,2800,5,0,0,0,514,0,0,0,0,0.0000000,0.0000000,0.0000000,0.0000000,7.00,38.4062500,-110.7920761,1338.0999756,0.0,241.2,1.3,0.0,0.0,847,127,0,0,859.47,9.87,27.53,# data time:11850,pm2.5:6.445,pm10:5.704,O2:0.000,NO2:0.010,SO2:0.000,NH3:7.799
15:36:54,0,0,0,0,0,2100,2800,5,0,0,0,515,0,0,0,0,0.0000000,0.0000000,0.0000000,0.0000000,7.00,38.4062500,-110.7920761,1338.0999756,0.0,235.0,1.3,0.0,0.0,847,128,0,0,859.48,9.81,27.53,# data time:11850,pm2.5:6.445,pm10:5.704,O2:0.000,NO2:0.010,SO2:0.000,NH3:7.799
15:36:55,0,0,0,0,0,2100,2800,5,0,0,0,514,0,0,0,0,0.0000000,0.0000000,0.0000000,0.0000000,7.00,38.4062500,-110.7920761,1338.0999756,0.0,251.0,1.3,0.0,0.0,847,131,0,0,859.48,9.83,27.54,# data time:11860,pm2.5:6.445,pm10:5.704,O2:0.000,NO2:0.000,SO2:0.000,NH3:7.799
15:36:56,0,0,0,0,0,2100,2800,5,0,0,0,514,0,0,0,0,0.0000000,0.0000000,0.0000000,0.0000000,7.00,38.4062500,-110.7920761,1338.0000000,0.0,235.9,1.3,0.0,0.0,847,131,0,0,859.49,9.83,27.54,# data time:11860,pm2.5:6.445,pm10:5.704,O2:0.000,NO2:0.000,SO2:0.000,NH3:7.799
15:36:57,0,0,0,0,0,2100,2800,5,0,0,0,514,0,0,0,0,0.0000000,0.0000000,0.0000000,0.0000000,7.00,38.4062500,-110.7920761,1338.0000000,0.0,220.6,1.3,0.0,0.0,846,125,0,0,859.47,9.81,27.54,# data time:11860,pm2.5:6.445,pm10:5.704,O2:0.000,NO2:0.000,SO2:0.000,NH3:7.799
15:36:58,0,0,0,0,0,2100,2800,5,0,0,0,513,0,0,0,0,0.0000000,0.0000000,0.0000000,0.0000000,7.00,38.4062500,-110.7920761,1338.0000000,0.0,232.0,1.3,0.0,0.0,847,128,0,0,859.43,9.86,27.54,# data time:11860,pm2.5:6.445,pm10:5.704,O2:0.000,NO2:0.000,SO2:0.000,NH3:7.799
15:36:59,0,0,0,0,0,2100,2800,5,0,0,0,514,0,0,0,0,0.0000000,0.0000000,0.0000000,0.0000000,7.00,38.4062500,-110.7920761,1338.0000000,0.0,247.0,1.3,0.0,0.0,847,127,0,0,859.48,9.84,27.54,# data time:11860,pm2.5:6.445,pm10:5.704,O2:0.000,NO2:0.000,SO2:0.000,NH3:7.799
15:37:00,0,0,0,0,0,2100,2200,6,0,0,0,515,0,0,0,0,0.0000000,0.0000000,0.0000000,0.0000000,7.00,38.4062500,-110.7920761,1338.0000000,0.0,244.7,1.3,0.0,0.0,846,128,0,0,859.47,9.83,27.54,# data time:11860,pm2.5:6.445,pm10:5.704,O2:0.000,NO2:0.000,SO2:0.000,NH3:7.799
15:37:01,0,0,0,0,0,2100,2200,6,0,0,0,514,0,0,0,0,0.0000000,0.0000000,0.0000000,0.0000000,7.00,38.4062500,-110.7920761,1338.0000000,0.0,164.7,1.3,0.0,0.0,847,130,0,0,859.50,9.86,27.55,# data time:11860,pm2.5:6.445,pm10:5.704,O2:0.000,NO2:0.000,SO2:0.000,NH3:7.799
15:37:02,0,0,0,0,0,2100,2200,6,0,0,0,514,0,0,0,0,0.0000000,0.0000000,0.0000000,0.0000000,7.00,38.4062500,-110.7920761,1338.0000000,0.0,237.5,1.3,0.0,0.0,847,127,0,0,859.49,9.87,27.55,# data time:11860,pm2.5:6.445,pm10:5.704,O2:0.000,NO2:0.000,SO2:0.000,NH3:7.799
15:37:03,0,0,0,0,0,2100,2200,6,0,0,0,515,0,0,0,0,0.0000000,0.0000000,0.0000000,0.0000000,7.00,38.4062500,-110.7920761,1338.0000000,0.0,217.7,1.3,0.0,0.0,847,132,0,0,859.50,9.83,27.55,# data time:11860,pm2.5:6.445,pm10:5.704,O2:0.000,NO2:0.000,SO2:0.000,NH3:7.799
15:37:04,0,0,0,0,0,2100,2200,6,0,0,0,514,0,0,0,0,0.0000000,0.0000000,0.0000000,0.0000000,7.00,38.4062500,-110.7920761,1338.0000000,0.0,314.1,1.3,0.0,0.0,847,132,0,0,859.50,9.83,27.55,# data time:11870,pm2.5:6.445,pm10:5.704,O2:0.000,NO2:0.028,SO2:0.000,NH3:7.799
15:37:05,0,0,0,0,0,2100,2200,6,0,0,0,514,0,0,0,0,0.0000000,0.0000000,0.0000000,0.0000000,7.00,38.4062500,-110.7920761,1338.0000000,0.0,345.3,1.3,0.0,0.0,847,130,0,0,859.51,9.83,27.55,# data time:11870,pm2.5:6.445,pm10:5.704,O2:0.000,NO2:0.028,SO2:0.000,NH3:7.799
15:37:06,0,0,0,0,0,2100,2200,6,0,0,0,514,0,0,0,0,0.0000000,0.0000000,0.0000000,0.0000000,7.00,38.4062500,-110.7920761,1338.0000000,0.0,66.3,1.3,0.0,0.0,847,130,0,0,859.48,9.86,27.55,# data time:11870,pm2.5:6.445,pm10:5.704,O2:0.000,NO2:0.028,SO2:0.000,NH3:7.799
15:37:07,0,0,0,0,0,2100,2200,6,0,0,0,514,0,0,0,0,0.0000000,0.0000000,0.0000000,0.0000000,7.00,38.4062500,-110.7920761,1338.0000000,0.0,136.2,1.3,0.0,0.0,847,128,0,0,859.50,9.80,27.55,# data time:11870,pm2.5:6.445,pm10:5.704,O2:0.000,NO2:0.028,SO2:0.000,NH3:7.799
15:37:08,0,0,0,0,0,2100,2200,6,0,0,0,514,0,0,0,0,0.0000000,0.0000000,0.0000000,0.0000000,7.00,38.4062500,-110.7920761,1338.0000000,0.0,317.2,1.3,0.0,0.0,847,129,0,0,859.52,9.83,27.55,# data time:11870,pm2.5:6.445,pm10:5.704,O2:0.000,NO2:0.028,SO2:0.000,NH3:7.799
15:37:09,0,0,0,0,0,2100,2200,6,0,0,0,513,0,0,0,0,0.0000000,0.0000000,0.0000000,0.0000000,7.00,38.4062500,-110.7920761,1338.0000000,0.0,193.5,1.3,0.0,0.0,847,128,0,0,859.51,9.86,27.46,# data time:11870,pm2.5:6.445,pm10:5.704,O2:0.000,NO2:0.028,SO2:0.000,NH3:7.799
15:37:10,0,0,0,0,0,2100,2200,6,0,0,0,514,0,0,0,0,0.0000000,0.0000000,0.0000000,0.0000000,7.00,38.4062500,-110.7920761,1338.0000000,0.0,193.5,1.3,0.0,0.0,847,128,0,0,859.45,9.83,27.46,# data time:11870,pm2.5:6.445,pm10:5.704,O2:0.000,NO2:0.028,SO2:0.000,NH3:7.799
15:37:11,0,0,0,0,0,2100,2200,6,0,0,0,514,0,0,0,0,0.0000000,0.0000000,0.0000000,0.0000000,7.00,38.4062500,-110.7920761,1338.0000000,0.0,193.5,1.3,0.0,0.0,847,124,0,0,859.47,9.84,27.46,# data time:11870,pm2.5:6.445,pm10:5.704,O2:0.000,NO2:0.028,SO2:0.000,NH3:7.799
15:37:12,0,0,0,0,0,2100,2200,6,0,0,0,514,0,0,0,0,0.0000000,0.0000000,0.0000000,0.0000000,7.00,38.4062500,-110.7920761,1338.0000000,0.1,337.0,1.3,0.0,0.0,846,130,0,0,859.49,9.87,27.51,# data time:11870,pm2.5:6.445,pm10:5.704,O2:0.000,NO2:0.028,SO2:0.000,NH3:7.799
15:37:13,0,0,0,0,0,2100,2200,6,0,0,0,514,0,0,0,0,0.0000000,0.0000000,0.0000000,0.0000000,7.00,38.4062500,-110.7920761,1338.0000000,0.1,296.1,1.3,0.0,0.0,847,129,0,0,859.51,9.84,27.54,# data time:11870,pm2.5:6.445,pm10:5.704,O2:0.000,NO2:0.028,SO2:0.000,NH3:7.799
15:37:15,0,0,0,0,0,2100,2200,6,0,0,0,515,0,0,0,0,0.0000000,0.0000000,0.0000000,0.0000000,7.00,38.4062500,-110.7920761,1338.0000000,0.0,300.5,1.3,0.0,0.0,847,131,0,0,859.50,9.81,27.55,# data time:11880,pm2.5:6.445,pm10:5.704,O2:0.000,NO2:0.046,SO2:0.000,NH3:7.799
15:37:16,0,0,0,0,0,2100,1800,7,0,0,0,514,0,0,0,0,0.0000000,0.0000000,0.0000000,0.0000000,7.00,38.4062500,-110.7920761,1337.9000244,0.0,296.1,1.3,0.0,0.0,846,127,0,0,859.53,9.83,27.55,# data time:11880,pm2.5:6.445,pm10:5.704,O2:0.000,NO2:0.046,SO2:0.000,NH3:7.799
15:37:17,0,0,0,0,0,2100,1800,7,0,0,0,514,0,0,0,0,0.0000000,0.0000000,0.0000000,0.0000000,7.00,38.4062500,-110.7920914,1337.9000244,0.1,277.8,1.3,0.0,0.0,847,132,0,0,859.58,9.81,27.55,# data time:11880,pm2.5:6.445,pm10:5.704,O2:0.000,NO2:0.046,SO2:0.000,NH3:7.799
15:37:18,0,0,0,0,0,2100,1800,7,0,0,0,514,0,0,0,0,0.0000000,0.0000000,0.0000000,0.0000000,7.00,38.4062500,-110.7920914,1337.9000244,0.1,302.8,1.3,0.0,0.0,846,128,0,0,859.54,9.81,27.55,# data time:11880,pm2.5:6.445,pm10:5.704,O2:0.000,NO2:0.046,SO2:0.000,NH3:7.799
15:37:19,0,0,0,0,0,2100,1800,7,0,0,0,513,0,0,0,0,0.0000000,0.0000000,0.0000000,0.0000000,7.00,38.4062500,-110.7920914,1337.9000244,0.0,297.6,1.3,0.0,0.0,846,129,0,0,859.50,9.80,27.55,# data time:11880,pm2.5:6.445,pm10:5.704,O2:0.000,NO2:0.046,SO2:0.000,NH3:7.799
15:37:20,0,0,0,0,0,2100,1800,7,0,0,0,514,0,0,0,0,0.0000000,0.0000000,0.0000000,0.0000000,7.00,38.4062500,-110.7920914,1337.9000244,0.0,322.3,1.3,0.0,0.0,847,134,0,0,859.58,9.80,27.55,# data time:11880,pm2.5:6.445,pm10:5.704,O2:0.000,NO2:0.046,SO2:0.000,NH3:7.799
15:37:21,0,0,0,0,0,2100,1800,7,0,0,0,514,0,0,0,0,0.0000000,0.0000000,0.0000000,0.0000000,7.00,38.4062500,-110.7920914,1337.9000244,0.0,303.2,1.3,0.0,0.0,846,126,0,0,859.50,9.77,27.54,# data time:11880,pm2.5:6.445,pm10:5.704,O2:0.000,NO2:0.046,SO2:0.000,NH3:7.799
15:37:22,0,0,0,0,0,2100,1800,7,0,0,0,515,0,0,0,0,0.0000000,0.0000000,0.0000000,0.0000000,7.00,38.4062500,-110.7920914,1337.9000244,0.1,264.9,1.3,0.0,0.0,847,129,0,0,859.52,9.75,27.54,# data time:11880,pm2.5:6.445,pm10:5.704,O2:0.000,NO2:0.046,SO2:0.000,NH3:7.799
15:37:23,0,0,0,0,0,2100,1800,7,0,0,0,514,0,0,0,0,0.0000000,0.0000000,0.0000000,0.0000000,7.00,38.4062500,-110.7920914,1337.9000244,0.0,154.3,1.3,0.0,0.0,847,133,0,0,859.52,9.75,27.53,# data time:11880,pm2.5:6.445,pm10:5.704,O2:0.000,NO2:0.046,SO2:0.000,NH3:7.799
15:37:24,0,0,0,0,0,2100,1800,7,0,0,0,515,0,0,0,0,0.0000000,0.0000000,0.0000000,0.0000000,7.00,38.4062500,-110.7920914,1337.9000244,0.0,220.3,1.3,0.0,0.0,846,128,0,0,859.48,9.75,27.53,# data time:11880,pm2.5:6.445,pm10:5.704,O2:0.000,NO2:0.046,SO2:0.000,NH3:7.799
15:37:25,0,0,0,0,0,2100,1800,7,0,0,0,514,0,0,0,0,0.0000000,0.0000000,0.0000000,0.0000000,7.00,38.4062500,-110.7920914,1337.9000244,0.0,192.9,1.3,0.0,0.0,847,130,0,0,859.52,9.77,27.54,# data time:11890,pm2.5:6.445,pm10:5.704,O2:0.000,NO2:0.046,S
15:37:26,0,0,0,0,0,2100,1800,7,0,0,0,513,0,0,0,0,0.0000000,0.0000000,0.0000000,0.0000000,7.00,38.4062500,-110.7920914,1337.9000244,0.0,110.8,1.3,0.0,0.0,847,130,0,0,859.55,9.80,27.54,# data time:11890,pm2.5:6.445,pm10:5.704,O2:0.000,NO2:0.046,S
15:37:27,0,0,0,0,0,2100,1800,7,0,0,0,514,0,0,0,0,0.0000000,0.0000000,0.0000000,0.0000000,7.00,38.4062500,-110.7920914,1337.8000488,0.1,253.9,1.3,0.0,0.0,847,128,0,0,859.56,9.80,27.55,# data time:11890,pm2.5:6.445,pm10:5.704,O2:0.000,NO2:0.046,S
15:37:28,0,0,0,0,0,2100,1800,7,0,0,0,514,0,0,0,0,0.0000000,0.0000000,0.0000000,0.0000000,7.00,38.4062500,-110.7920914,1337.8000488,0.1,262.6,1.3,0.0,0.0,847,129,0,0,859.54,9.81,27.55,# data time:11890,pm2.5:6.445,pm10:5.704,O2:0.000,NO2:0.046,S
15:37:29,0,0,0,0,0,2100,1800,7,0,0,0,514,0,0,0,0,0.0000000,0.0000000,0.0000000,0.0000000,7.00,38.4062500,-110.7920914,1337.8000488,0.1,262.1,1.3,0.0,0.0,846,131,0,0,859.53,9.81,27.55,# data time:11890,pm2.5:6.445,pm10:5.704,O2:0.000,NO2:0.046,S
15:37:30,0,0,0,0,0,2100,2200,8,0,0,0,515,0,0,0,0,0.0000000,0.0000000,0.0000000,0.0000000,7.00,38.4062500,-110.7920914,1337.8000488,0.6,71.3,1.3,0.0,0.0,847,128,0,0,859.53,9.84,27.55,# data time:11890,pm2.5:6.445,pm10:5.704,O2:0.000,NO2:0.046,S
15:37:31,0,0,0,0,0,2100,2200,8,0,0,0,513,0,0,0,0,0.0000000,0.0000000,0.0000000,0.0000000,7.00,38.4062500,-110.7920761,1337.8000488,0.6,131.1,1.3,0.0,0.0,847,131,0,0,859.54,9.81,27.56,# data time:11890,pm2.5:6.445,pm10:5.704,O2:0.000,NO2:0.046,S
15:37:32,0,0,0,0,0,2100,2200,8,0,0,0,514,0,0,0,0,0.0000000,0.0000000,0.0000000,0.0000000,7.00,38.4062500,-110.7920761,1337.8000488,0.2,154.4,1.3,0.0,0.0,847,129,0,0,859.51,9.86,27.56,# data time:11890,pm2.5:6.445,pm10:5.704,O2:0.000,NO2:0.046,S
15:37:33,0,0,0,0,0,2100,2200,8,0,0,0,514,0,0,0,0,0.0000000,0.0000000,0.0000000,0.0000000,7.00,38.4062500,-110.7920761,1337.8000488,0.3,314.6,1.3,0.0,0.0,847,131,0,0,859.48,9.84,27.49,# data time:11890,pm2.5:6.445,pm10:5.704,O2:0.000,NO2:0.046,S
15:37:34,0,0,0,0,0,2100,2200,8,0,0,0,514,0,0,0,0,0.0000000,0.0000000,0.0000000,0.0000000,7.00,38.4062500,-110.7920761,1337.8000488,0.3,314.6,1.3,0.0,0.0,847,128,0,0,859.44,9.84,27.48,# data time:11900,pm2.5:6.445,pm10:5.704,O2:0.000,NO2:0.000,SO2:0.000,NH3:7.799
15:37:35,0,0,0,0,0,2100,2200,8,0,0,0,514,0,0,0,0,0.0000000,0.0000000,0.0000000,0.0000000,7.00,38.4062424,-110.7920990,1337.1999512,0.3,314.6,1.3,0.0,0.0,847,129,0,0,859.50,9.83,27.52,# data time:11900,pm2.5:6.445,pm10:5.704,O2:0.000,NO2:0.000,SO2:0.000,NH3:7.799
15:37:36,0,0,0,0,0,2100,2200,8,0,0,0,514,0,0,0,0,0.0000000,0.0000000,0.0000000,0.0000000,7.00,38.4062424,-110.7921143,1336.8000488,0.2,31.2,1.3,0.0,0.0,847,131,0,0,859.45,9.87,27.53,# data time:11900,pm2.5:6.445,pm10:5.704,O2:0.000,NO2:0.000,SO2:0.000,NH3:7.799
15:37:38,0,0,0,0,0,2100,2200,8,0,0,0,514,0,0,0,0,0.0000000,0.0000000,0.0000000,0.0000000,7.00,38.4062462,-110.7921143,1336.6999512,0.1,88.4,1.3,0.0,0.0,846,126,0,0,859.47,9.89,27.56,# data time:11900,pm2.5:6.445,pm10:5.704,O2:0.000,NO2:0.000,SO2:0.000,NH3:7.799
15:37:39,0,0,0,0,0,2100,2200,8,0,0,0,514,0,0,0,0,0.0000000,0.0000000,0.0000000,0.0000000,7.00,38.4062462,-110.7921295,1335.9000244,0.2,32.1,1.3,0.0,0.0,846,129,0,0,859.39,9.87,27.57,# data time:11900,pm2.5:6.445,pm10:5.704,O2:0.000,NO2:0.000,SO2:0.000,NH3:7.799
15:37:40,0,0,0,0,0,2100,2200,8,0,0,0,515,0,0,0,0,0.0000000,0.0000000,0.0000000,0.0000000,7.00,38.4062462,-110.7921143,1336.4000244,0.4,15.9,1.3,0.0,0.0,846,129,0,0,859.53,9.86,27.57,# data time:11900,pm2.5:6.445,pm10:5.704,O2:0.000,NO2:0.000,SO2:0.000,NH3:7.799
15:37:41,0,0,0,0,0,2100,2200,8,0,0,0,514,0,0,0,0,0.0000000,0.0000000,0.0000000,0.0000000,7.00,38.4062500,-110.7921143,1336.4000244,0.5,230.6,1.3,0.0,0.0,847,131,0,0,859.47,9.86,27.58,# data time:11900,pm2.5:6.445,pm10:5.704,O2:0.000,NO2:0.000,SO2:0.000,NH3:7.799
15:37:42,0,0,0,0,0,2100,2200,8,0,0,0,514,0,0,0,0,0.0000000,0.0000000,0.0000000,0.0000000,7.00,38.4062462,-110.7921143,1336.4000244,0.1,313.6,1.3,0.0,0.0,846,129,0,0,859.49,9.84,27.58,# data time:11900,pm2.5:6.445,pm10:5.704,O2:0.000,NO2:0.000,SO2:0.000,NH3:7.799
15:37:43,0,0,0,0,0,2100,2200,8,0,0,0,513,0,0,0,0,0.0000000,0.0000000,0.0000000,0.0000000,7.00,38.4062500,-110.7921143,1336.4000244,0.3,11.6,1.3,0.0,0.0,846,128,0,0,859.51,9.84,27.57,# data time:11900,pm2.5:6.445,pm10:5.704,O2:0.000,NO2:0.000,SO2:0.000,NH3:7.799
15:37:44,0,0,0,0,0,2100,2200,8,0,0,0,514,0,0,0,0,0.0000000,0.0000000,0.0000000,0.0000000,7.00,38.4062500,-110.7921143,1336.4000244,0.1,294.9,1.3,0.0,0.0,847,132,0,0,859.49,9.86,27.57,# data time:11900,pm2.5:6.445,pm10:5.704,O2:0.000,NO2:0.000,SO2:0.000,NH3:7.799
15:37:45,0,0,0,0,0,2700,2800,9,0,0,0,514,0,0,0,0,0.0000000,0.0000000,0.0000000,0.0000000,7.00,38.4062500,-110.7921143,1336.4000244,0.4,197.7,1.3,0.0,0.0,847,127,0,0,859.44,9.86,27.57,# data time:11910,pm2.5:6.445,pm10:5.704,O2:0.000,NO2:0.028,SO2:0.000,NH3:7.799
15:37:46,0,0,0,0,0,2700,2800,9,0,0,0,514,0,0,0,0,0.0000000,0.0000000,0.0000000,0.0000000,7.00,38.4062500,-110.7921295,1336.4000244,0.2,129.8,1.3,0.0,0.0,846,131,0,0,859.47,9.81,27.57,# data time:11910,pm2.5:6.445,pm10:5.704,O2:0.000,NO2:0.028,SO2:0.000,NH3:7.799
15:37:47,0,0,0,0,0,2700,2800,9,0,0,0,514,0,0,0,0,0.0000000,0.0000000,0.0000000,0.0000000,7.00,38.4062462,-110.7921143,1336.4000244,0.1,307.6,1.3,0.0,0.0,847,129,0,0,859.48,9.84,27.58,# data time:11910,pm2.5:6.445,pm10:5.704,O2:0.000,NO2:0.028,SO2:0.000,NH3:7.799
15:37:48,0,0,0,0,0,2700,2800,9,0,0,0,514,0,0,0,0,0.0000000,0.0000000,0.0000000,0.0000000,7.00,38.4062462,-110.7921295,1336.4000244,0.2,222.1,1.3,0.0,0.0,847,132,0,0,859.42,9.80,27.57,# data time:11910,pm2.5:6.445,pm10:5.704,O2:0.000,NO2:0.028,SO2:0.000,NH3:7.799
15:37:49,0,0,0,0,0,2700,2800,9,0,0,0,514,0,0,0,0,0.0000000,0.0000000,0.0000000,0.0000000,7.00,38.4062462,-110.7921295,1336.4000244,0.2,247.3,1.3,0.0,0.0,846,129,0,0,859.52,9.78,27.58,# data time:11910,pm2.5:6.445,pm10:5.704,O2:0.000,NO2:0.028,SO2:0.000,NH3:7.799
15:37:50,0,0,0,0,0,2700,2800,9,0,0,0,514,0,0,0,0,0.0000000,0.0000000,0.0000000,0.0000000,7.00,38.4062462,-110.7921295,1336.4000244,0.2,261.4,1.3,0.0,0.0,846,131,0,0,859.51,9.80,27.59,# data time:11910,pm2.5:6.445,pm10:5.704,O2:0.000,NO2:0.028,SO2:0.000,NH3:7.799
15:37:51,0,0,0,0,0,2700,2800,9,0,0,0,514,0,0,0,0,0.0000000,0.0000000,0.0000000,0.0000000,7.00,38.4062462,-110.7921295,1336.4000244,0.3,276.5,1.3,0.0,0.0,846,128,0,0,859.49,9.81,27.58,# data time:11910,pm2.5:6.445,pm10:5.704,O2:0.000,NO2:0.028,SO2:0.000,NH3:7.799
15:37:52,0,0,0,0,0,2700,2800,9,0,0,0,514,0,0,0,0,0.0000000,0.0000000,0.0000000,0.0000000,7.00,38.4062462,-110.7921295,1336.5000000,0.5,8.2,1.3,0.0,0.0,847,130,0,0,859.43,9.80,27.58,# data time:11910,pm2.5:6.445,pm10:5.704,O2:0.000,NO2:0.028,SO2:0.000,NH3:7.799
15:37:53,0,0,0,0,0,2700,2800,9,0,0,0,514,0,0,0,0,0.0000000,0.0000000,0.0000000,0.0000000,7.00,38.4062500,-110.7921295,1336.5000000,0.3,339.6,1.3,0.0,0.0,847,129,0,0,859.46,9.81,27.59,# data time:11910,pm2.5:6.445,pm10:5.704,O2:0.000,NO2:0.028,SO2:0.000,NH3:7.799
15:37:54,0,0,0,0,0,2700,2800,9,0,0,0,514,0,0,0,0,0.0000000,0.0000000,0.0000000,0.0000000,7.00,38.4062500,-110.7921295,1336.5000000,0.6,27.3,1.3,0.0,0.0,847,130,0,0,859.45,9.83,27.59,# data time:11920,pm2.5:6.445,pm10:5.704,O2:0.000,NO2:0.046,SO2:0.000,NH3:7.799
15:37:55,0,0,0,0,0,2700,2800,9,0,0,0,514,0,0,0,0,0.0000000,0.0000000,0.0000000,0.0000000,7.00,38.4062500,-110.7921295,1336.5999756,0.3,359.5,1.3,0.0,0.0,846,129,0,0,859.45,9.84,27.59,# data time:11920,pm2.5:6.445,pm10:5.704,O2:0.000,NO2:0.046,SO2:0.000,NH3:7.799
15:37:56,0,0,0,0,0,2700,2800,9,0,0,0,514,0,0,0,0,0.0000000,0.0000000,0.0000000,0.0000000,7.00,38.4062424,-110.7921371,1336.5999756,0.1,39.6,1.3,0.0,0.0,846,125,0,0,859.41,9.81,27.54,# data time:11920,pm2.5:6.445,pm10:5.704,O2:0.000,NO2:0.046,SO2:0.000,NH3:7.799
15:37:57,0,0,0,0,0,2700,2800,9,0,0,0,514,0,0,0,0,0.0000000,0.0000000,0.0000000,0.0000000,7.00,38.4062424,-110.7921371,1336.5999756,0.1,39.6,1.3,0.0,0.0,846,127,0,0,859.40,9.81,27.50,# data time:11920,pm2.5:6.445,pm10:5.704,O2:0.000,NO2:0.046,SO2:0.000,NH3:7.799
15:37:58,0,0,0,0,0,2700,2800,9,0,0,0,515,0,0,0,0,0.0000000,0.0000000,0.0000000,0.0000000,7.00,38.4062309,-110.7921371,1337.0000000,0.1,39.6,1.3,0.0,0.0,846,130,0,0,859.41,9.83,27.54,# data time:11920,pm2.5:6.445,pm10:5.704,O2:0.000,NO2:0.046,SO2:0.000,NH3:7.799
15:37:59,0,0,0,0,0,2700,2800,9,0,0,0,514,0,0,0,0,0.0000000,0.0000000,0.0000000,0.0000000,7.00,38.4062233,-110.7921371,1336.9000244,0.3,153.2,1.3,0.0,0.0,846,129,0,0,859.42,9.80,27.54,# data time:11920,pm2.5:6.445,pm10:5.704,O2:0.000,NO2:0.046,SO2:0.000,NH3:7.799
15:38:00,0,0,0,0,0,2100,2200,10,0,0,0,514,0,0,0,0,0.0000000,0.0000000,0.0000000,0.0000000,7.00,38.4062195,-110.7921524,1336.9000244,0.4,174.6,1.3,0.0,0.0,846,125,0,0,859.43,9.81,27.58,# data time:11920,pm2.5:6.445,pm10:5.704,O2:0.000,NO2:0.046,SO2:0.000,NH3:7.799
15:38:02,0,0,0,0,0,2100,2200,10,0,0,0,514,0,0,0,0,0.0000000,0.0000000,0.0000000,0.0000000,7.00,38.4062119,-110.7921524,1336.9000244,0.6,181.9,1.3,0.0,0.0,846,129,0,0,859.39,9.86,27.59,# data time:11920,pm2.5:6.445,pm10:5.704,O2:0.000,NO2:0.046,SO2:0.000,NH3:7.799
15:38:03,0,0,0,0,0,2100,2200,10,0,0,0,514,0,0,0,0,0.0000000,0.0000000,0.0000000,0.0000000,7.00,38.4062080,-110.7921524,1336.9000244,0.5,185.1,1.3,0.0,0.0,846,129,0,0,859.51,9.86,27.59,# data time:11920,pm2.5:6.445,pm10:5.704,O2:0.000,NO2:0.046,SO2:0.000,NH3:7.799
15:38:04,0,0,0,0,0,2100,2200,10,0,0,0,514,0,0,0,0,0.0000000,0.0000000,0.0000000,0.0000000,7.00,38.4062080,-110.7921524,1336.9000244,0.7,165.1,1.3,0.0,0.0,846,128,0,0,859.46,9.86,27.59,# data time:11920,pm2.5:6.445,pm10:5.704,O2:0.000,NO2:0.046,SO2:0.000,NH3:7.799
15:38:05,0,0,0,0,0,2100,2200,10,0,0,0,514,0,0,0,0,0.0000000,0.0000000,0.0000000,0.0000000,7.00,38.4062004,-110.7921677,1336.4000244,0.6,191.6,1.3,0.0,0.0,846,129,0,0,859.44,9.86,27.58,# data time:11930,pm2.5:5.640,pm10:4.991,O2:0.000,NO2:0.010,SO2:0.000,NH3:7.799
15:38:06,0,0,0,0,0,2100,2200,10,0,0,0,515,0,0,0,0,0.0000000,0.0000000,0.0000000,0.0000000,7.00,38.4062004,-110.7921677,1336.1999512,0.6,173.6,1.3,0.0,0.0,847,126,0,0,859.41,9.83,27.59,# data time:11930,pm2.5:5.640,pm10:4.991,O2:0.000,NO2:0.010,SO2:0.000,NH3:7.799
15:38:07,0,0,0,0,0,2100,2200,10,0,0,0,514,0,0,0,0,0.0000000,0.0000000,0.0000000,0.0000000,7.00,38.4061966,-110.7921677,1336.1999512,0.6,161.4,1.3,0.0,0.0,846,125,0,0,859.41,9.84,27.59,# data time:11930,pm2.5:5.640,pm10:4.991,O2:0.000,NO2:0.010,SO2:0.000,NH3:7.799
15:38:08,0,0,0,0,0,2100,2200,10,0,0,0,514,0,0,0,0,0.0000000,0.0000000,0.0000000,0.0000000,7.00,38.4061890,-110.7921677,1336.0999756,0.6,167.4,1.3,0.0,0.0,846,128,0,0,859.38,9.83,27.59,# data time:11930,pm2.5:5.640,pm10:4.991,O2:0.000,NO2:0.010,SO2:0.000,NH3:7.799
15:38:09,0,0,0,0,0,2100,2200,10,0,0,0,514,0,0,0,0,0.0000000,0.0000000,0.0000000,0.0000000,7.00,38.4061852,-110.7921829,1335.5000000,0.9,176.1,1.3,0.0,0.0,846,126,0,0,859.46,9.83,27.58,# data time:11930,pm2.5:5.640,pm10:4.991,O2:0.000,NO2:0.010,SO2:0.000,NH3:7.799
15:38:10,0,0,0,0,0,2100,2200,10,0,0,0,514,0,0,0,0,0.0000000,0.0000000,0.0000000,0.0000000,7.00,38.4061813,-110.7921829,1335.5000000,0.6,182.0,1.3,0.0,0.0,846,131,0,0,859.45,9.83,27.58,# data time:11930,pm2.5:5.640,pm10:4.991,O2:0.000,NO2:0.010,SO2:0.000,NH3:7.799
15:38:11,0,0,0,0,0,2100,2200,10,0,0,0,514,0,0,0,0,0.0000000,0.0000000,0.0000000,0.0000000,7.00,38.4061775,-110.7921829,1335.5000000,0.5,206.8,1.3,0.0,0.0,847,130,0,0,859.41,9.80,27.58,# data time:11930,pm2.5:5.640,pm10:4.991,O2:0.000,NO2:0.010,SO2:0.000,NH3:7.799
15:38:12,0,0,0,0,0,2100,2200,10,0,0,0,515,0,0,0,0,0.0000000,0.0000000,0.0000000,0.0000000,7.00,38.4061699,-110.7921906,1335.5999756,0.5,189.9,1.3,0.0,0.0,846,132,0,0,859.44,9.83,27.58,# data time:11930,pm2.5:5.640,pm10:4.991,O2:0.000,NO2:0.010,SO2:0.000,NH3:7.799
15:38:13,0,0,0,0,0,2100,2200,10,0,0,0,514,0,0,0,0,0.0000000,0.0000000,0.0000000,0.0000000,7.00,38.4061699,-110.7921906,1335.5999756,0.2,148.3,1.3,0.0,0.0,847,127,0,0,859.42,9.78,27.58,# data time:11930,pm2.5:5.640,pm10:4.991,O2:0.000,NO2:0.010,SO2:0.000,NH3:7.799
15:38:14,0,0,0,0,0,2100,2200,10,0,0,0,514,0,0,0,0,0.0000000,0.0000000,0.0000000,0.0000000,7.00,38.4061699,-110.7921906,1335.5999756,0.4,80.5,1.3,0.0,0.0,847,129,0,0,859.44,9.80,27.59,# data time:11940,pm2.5:6.445,pm10:5.704,O2:0.000,NO2:0.046,SO2:0.000,NH3:7.799
15:38:15,0,0,0,0,0,1700,1800,11,0,0,0,514,0,0,0,0,0.0000000,0.0000000,0.0000000,0.0000000,7.00,38.4061699,-110.7921906,1335.5999756,0.4,275.0,1.3,0.0,0.0,847,131,0,0,859.41,9.81,27.58,# data time:11940,pm2.5:6.445,pm10:5.704,O2:0.000,NO2:0.046,SO2:0.000,NH3:7.799
15:38:16,0,0,0,0,0,1700,1800,11,0,0,0,514,0,0,0,0,0.0000000,0.0000000,0.0000000,0.0000000,7.00,38.4061699,-110.7921906,1335.5999756,0.3,172.6,1.3,0.0,0.0,846,129,0,0,859.48,9.80,27.59,# data time:11940,pm2.5:6.445,pm10:5.704,O2:0.000,NO2:0.046,SO2:0.000,NH3:7.799
15:38:17,0,0,0,0,0,1700,1800,11,0,0,0,514,0,0,0,0,0.0000000,0.0000000,0.0000000,0.0000000,7.00,38.4061661,-110.7921906,1335.5999756,0.3,129.3,1.3,0.0,0.0,847,129,0,0,859.48,9.80,27.59,# data time:11940,pm2.5:6.445,pm10:5.704,O2:0.000,NO2:0.046,SO2:0.000,NH3:7.799
