Time, Motor A Speed, Motor A Dir, Motor B Speed, Motor B Dir, Servo Rail Current Sensor, Servo Pos - Arm L, Servo Pos - Arm R, Servo Pos - End, Servo Pos - Hopper, Servo Pos - Lid, Servo Pos - Extra, Servo Current, LED - Front L, LED - Front R, LED - Back L, LED - Back R, IMU Pitch, IMU Roll, IMU Yaw, Compass Heading, GPS Sats, GPS Latitude, GPS Longitude, GPS Altitude, GPS Speed, GPS Angle, GPS HDOP, GPS VDOP, GPS PDOP, Battery, Wind, Comm Xbee Latency, Comm Arduino Latency, Pressure, Humidity, Temperature, uRADMonitor
12:49:23,0,0,0,0,0,2700,2200,1,0,0,0,514,0,0,0,0,0.0000000,0.0000000,0.0000000,0.0000000,7.00,38.3988037,-110.7920990,1348.6999512,0.0,309.5,1.2,0.0,0.0,881,137,0,0,862.11,18.31,20.45,# data time:1800,pm2.5:6.445,pm10:5.704,O2:0.000,NO2:0.000,SO2:0.000,NH3:7.572
12:49:24,0,0,0,0,0,2700,2200,1,0,0,0,515,0,0,0,0,0.0000000,0.0000000,0.0000000,0.0000000,7.00,38.3988037,-110.7920990,1348.6999512,0.0,315.0,1.2,0.0,0.0,880,135,0,0,862.18,18.30,20.50,# data time:1800,pm2.5:6.445,pm10:5.704,O2:0.000,NO2:0.000,SO2:0.000,NH3:7.572
12:49:26,0,0,0,0,0,2700,2200,1,0,0,0,514,0,0,0,0,0.0000000,0.0000000,0.0000000,0.0000000,7.00,38.3988037,-110.7920990,1348.6999512,0.0,313.7,1.2,0.0,0.0,880,136,0,0,862.21,18.30,20.48,# data time:1800,pm2.5:6.445,pm10:5.704,O2:0.000,NO2:0.000,SO2:0.000,NH3:7.572
12:49:27,0,0,0,0,0,2700,2200,1,0,0,0,515,0,0,0,0,0.0000000,0.0000000,0.0000000,0.0000000,7.00,38.3988037,-110.7920990,1348.6999512,0.0,313.1,1.2,0.0,0.0,880,135,0,0,862.25,18.28,20.43,# data time:1800,pm2.5:6.445,pm10:5.704,O2:0.000,NO2:0.000,SO2:0.000,NH3:7.572
12:49:28,0,0,0,0,0,2700,2200,1,0,0,0,514,0,0,0,0,0.0000000,0.0000000,0.0000000,0.0000000,7.00,38.3988037,-110.7920990,1348.6999512,0.0,47.5,1.2,0.0,0.0,880,129,0,0,862.17,18.36,20.39,# data time:1800,pm2.5:6.445,pm10:5.704,O2:0.000,NO2:0.000,SO2:0.000,NH3:7.572
12:49:29,0,0,0,0,0,2700,2200,1,0,0,0,515,0,0,0,0,0.0000000,0.0000000,0.0000000,0.0000000,7.00,38.3988037,-110.7920990,1348.6999512,0.0,103.5,1.2,0.0,0.0,880,133,0,0,862.15,18.39,20.24,# data time:1800,pm2.5:6.445,pm10:5.704,O2:0.000,NO2:0.000,SO2:0.000,NH3:7.572
12:49:30,0,0,0,0,0,2700,2200,1,0,0,0,515,0,0,0,0,0.0000000,0.0000000,0.0000000,0.0000000,7.00,38.3988037,-110.7920990,1348.6999512,0.0,103.5,1.2,0.0,0.0,880,128,0,0,862.10,18.48,20.21,# data time:1800,pm2.5:6.445,pm10:5.704,O2:0.000,NO2:0.000,SO2:0.000,NH3:7.572
12:49:31,0,0,0,0,0,2700,2200,1,0,0,0,514,0,0,0,0,0.0000000,0.0000000,0.0000000,0.0000000,7.00,38.3988037,-110.7920990,1348.6999512,0.0,103.5,1.2,0.0,0.0,880,130,0,0,862.12,18.57,20.28,# data time:1810,pm2.5:5.640,pm10:4.991,O2:0.000,NO2:0.000,SO2:0.000,NH3:7.572
12:49:32,0,0,0,0,0,2700,2200,1,0,0,0,515,0,0,0,0,0.0000000,0.0000000,0.0000000,0.0000000,7.00,38.3988037,-110.7920990,1348.6999512,0.0,140.7,1.2,0.0,0.0,880,131,0,0,862.15,18.56,20.26,# data time:1810,pm2.5:5.640,pm10:4.991,O2:0.000,NO2:0.000,SO2:0.000,NH3:7.572
12:49:33,0,0,0,0,0,2700,2200,1,0,0,0,515,0,0,0,0,0.0000000,0.0000000,0.0000000,0.0000000,7.00,38.3988037,-110.7920990,1348.6999512,0.0,328.5,1.2,0.0,0.0,880,126,0,0,862.18,18.60,20.26,# data time:1810,pm2.5:5.640,pm10:4.991,O2:0.000,NO2:0.000,SO2:0.000,NH3:7.572
12:49:34,0,0,0,0,0,2700,2200,1,0,0,0,515,0,0,0,0,0.0000000,0.0000000,0.0000000,0.0000000,7.00,38.3988037,-110.7920990,1348.6999512,0.0,344.9,1.2,0.0,0.0,880,128,0,0,862.20,18.62,20.24,# data time:1810,pm2.5:5.640,pm10:4.991,O2:0.000,NO2:0.000,SO2:0.000,NH3:7.572
12:49:35,0,0,0,0,0,2700,2200,1,0,0,0,515,0,0,0,0,0.0000000,0.0000000,0.0000000,0.0000000,7.00,38.3988037,-110.7920990,1348.6999512,0.0,312.3,1.2,0.0,0.0,880,128,0,0,862.22,18.65,20.21,# data time:1810,pm2.5:5.640,pm10:4.991,O2:0.000,NO2:0.000,SO2:0.000,NH3:7.572
12:49:36,0,0,0,0,0,2700,2200,1,0,0,0,514,0,0,0,0,0.0000000,0.0000000,0.0000000,0.0000000,7.00,38.3988037,-110.7920990,1348.6999512,0.0,304.4,1.2,0.0,0.0,880,130,0,0,862.17,18.68,20.17,# data time:1810,pm2.5:5.640,pm10:4.991,O2:0.000,NO2:0.000,SO2:0.000,NH3:7.572
12:49:37,0,0,0,0,0,2700,2200,1,0,0,0,514,0,0,0,0,0.0000000,0.0000000,0.0000000,0.0000000,7.00,38.3988037,-110.7920990,1348.6999512,0.0,316.9,1.2,0.0,0.0,879,131,0,0,862.24,18.71,20.16,# data time:1810,pm2.5:5.640,pm10:4.991,O2:0.000,NO2:0.000,SO2:0.000,NH3:7.572
12:49:38,0,0,0,0,0,2700,2200,1,0,0,0,514,0,0,0,0,0.0000000,0.0000000,0.0000000,0.0000000,7.00,38.3988037,-110.7920990,1348.6999512,0.0,21.6,1.2,0.0,0.0,880,129,0,0,862.18,18.80,20.15,# data time:1810,pm2.5:5.640,pm10:4.991,O2:0.000,NO2:0.000,SO2:0.000,NH3:7.572
12:49:39,0,0,0,0,0,2700,2200,1,0,0,0,514,0,0,0,0,0.0000000,0.0000000,0.0000000,0.0000000,7.00,38.3988037,-110.7920990,1348.6999512,0.0,12.8,1.2,0.0,0.0,880,130,0,0,862.24,18.81,20.18,# data time:1810,pm2.5:5.640,pm10:4.991,O2:0.000,NO2:0.000,SO2:0.000,NH3:7.572
12:49:40,0,0,0,0,0,2700,2200,1,0,0,0,514,0,0,0,0,0.0000000,0.0000000,0.0000000,0.0000000,7.00,38.3988037,-110.7920990,1348.6999512,0.0,187.9,1.2,0.0,0.0,880,131,0,0,862.20,18.83,20.20,# data time:1820,pm2.5:6.445,pm10:5.704,O2:0.000,NO2:0.000,SO2:0.000,NH3:7.572
12:49:41,0,0,0,0,0,2700,2200,1,0,0,0,515,0,0,0,0,0.0000000,0.0000000,0.0000000,0.0000000,7.00,38.3988037,-110.7920990,1348.6999512,0.0,223.3,1.2,0.0,0.0,879,137,0,0,862.15,18.88,20.22,# data time:1820,pm2.5:6.445,pm10:5.704,O2:0.000,NO2:0.000,SO2:0.000,NH3:7.572
12:49:42,0,0,0,0,0,2700,2200,1,0,0,0,515,0,0,0,0,0.0000000,0.0000000,0.0000000,0.0000000,7.00,38.3988037,-110.7920990,1348.6999512,0.0,197.1,1.2,0.0,0.0,880,147,0,0,862.23,18.85,20.21,# data time:1820,pm2.5:6.445,pm10:5.704,O2:0.000,NO2:0.000,SO2:0.000,NH3:7.572
12:49:43,0,0,0,0,0,2700,2200,1,0,0,0,515,0,0,0,0,0.0000000,0.0000000,0.0000000,0.0000000,7.00,38.3988037,-110.7920990,1348.6999512,0.0,173.6,1.2,0.0,0.0,880,148,0,0,862.18,18.80,20.21,# data time:1820,pm2.5:6.445,pm10:5.704,O2:0.000,NO2:0.000,SO2:0.000,NH3:7.572
12:49:44,0,0,0,0,0,2700,2200,1,0,0,0,515,0,0,0,0,0.0000000,0.0000000,0.0000000,0.0000000,7.00,38.3988037,-110.7920990,1348.6999512,0.0,279.1,1.2,0.0,0.0,880,143,0,0,862.30,18.75,20.25,# data time:1820,pm2.5:6.445,pm10:5.704,O2:0.000,NO2:0.000,SO2:0.000,NH3:7.572
12:49:45,0,0,0,0,0,2700,2200,1,0,0,0,515,0,0,0,0,0.0000000,0.0000000,0.0000000,0.0000000,7.00,38.3988037,-110.7920990,1348.6999512,0.0,182.8,1.2,0.0,0.0,880,144,0,0,862.28,18.74,20.29,# data time:1820,pm2.5:6.445,pm10:5.704,O2:0.000,NO2:0.000,SO2:0.000,NH3:7.572
12:49:46,0,0,0,0,0,2700,2200,1,0,0,0,515,0,0,0,0,0.0000000,0.0000000,0.0000000,0.0000000,7.00,38.3988037,-110.7920990,1348.6999512,0.0,293.1,1.2,0.0,0.0,880,146,0,0,862.26,18.71,20.31,# data time:1820,pm2.5:6.445,pm10:5.704,O2:0.000,NO2:0.000,SO2:0.000,NH3:7.572
12:49:47,0,0,0,0,0,2700,2200,1,0,0,0,515,0,0,0,0,0.0000000,0.0000000,0.0000000,0.0000000,7.00,38.3988037,-110.7920990,1348.6999512,0.0,114.3,1.2,0.0,0.0,879,146,0,0,862.21,18.66,20.32,# data time:1820,pm2.5:6.445,pm10:5.704,O2:0.000,NO2:0.000,SO2:0.000,NH3:7.572
12:49:48,0,0,0,0,0,2700,2200,1,0,0,0,513,0,0,0,0,0.0000000,0.0000000,0.0000000,0.0000000,7.00,38.3988037,-110.7920990,1348.6999512,0.0,126.3,1.2,0.0,0.0,880,145,0,0,862.19,18.62,20.35,# data time:1820,pm2.5:6.445,pm10:5.704,O2:0.000,NO2:0.000,SO2:0.000,NH3:7.572
12:49:49,0,0,0,0,0,2700,2200,1,0,0,0,515,0,0,0,0,0.0000000,0.0000000,0.0000000,0.0000000,7.00,38.3988037,-110.7920990,1348.6999512,0.0,94.7,1.2,0.0,0.0,880,148,0,0,862.27,18.57,20.37,# data time:1820,pm2.5:6.445,pm10:5.704,O2:0.000,NO2:0.000,SO2:0.000,NH3:7.572
12:49:50,0,0,0,0,0,2700,2200,1,0,0,0,514,0,0,0,0,0.0000000,0.0000000,0.0000000,0.0000000,7.00,38.3988037,-110.7920990,1348.6999512,0.0,179.3,1.2,0.0,0.0,880,144,0,0,862.28,18.54,20.37,# data time:1830,pm2.5:6.445,pm10:5.704,O2:0.000,NO2:0.000,SO2:0.000,NH3:7.572
12:49:52,0,0,0,0,0,2700,2200,1,0,0,0,514,0,0,0,0,0.0000000,0.0000000,0.0000000,0.0000000,7.00,38.3988037,-110.7920990,1348.6999512,0.0,333.5,1.2,0.0,0.0,880,144,0,0,862.28,18.49,20.40,# data time:1830,pm2.5:6.445,pm10:5.704,O2:0.000,NO2:0.000,SO2:0.000,NH3:7.572
12:49:53,0,0,0,0,0,2700,2200,1,0,0,0,514,0,0,0,0,0.0000000,0.0000000,0.0000000,0.0000000,7.00,38.3988037,-110.7920990,1348.6999512,0.0,153.4,1.2,0.0,0.0,880,140,0,0,862.29,18.54,20.43,# data time:1830,pm2.5:6.445,pm10:5.704,O2:0.000,NO2:0.000,SO2:0.000,NH3:7.572
12:49:54,0,0,0,0,0,2700,2200,1,0,0,0,515,0,0,0,0,0.0000000,0.0000000,0.0000000,0.0000000,7.00,38.3988037,-110.7920990,1348.6999512,0.0,134.9,1.2,0.0,0.0,880,139,0,0,862.27,18.59,20.48,# data time:1830,pm2.5:6.445,pm10:5.704,O2:0.000,NO2:0.000,SO2:0.000,NH3:7.572
12:49:55,0,0,0,0,0,2700,2200,1,0,0,0,515,0,0,0,0,0.0000000,0.0000000,0.0000000,0.0000000,7.00,38.3988037,-110.7920990,1348.6999512,0.0,98.0,1.2,0.0,0.0,880,136,0,0,862.23,18.52,20.53,# data time:1830,pm2.5:6.445,pm10:5.704,O2:0.000,NO2:0.000,SO2:0.000,NH3:7.572
12:49:56,0,0,0,0,0,2700,2200,1,0,0,0,515,0,0,0,0,0.0000000,0.0000000,0.0000000,0.0000000,7.00,38.3988037,-110.7920990,1348.6999512,0.0,186.0,1.2,0.0,0.0,879,136,0,0,862.28,18.43,20.52,# data time:1830,pm2.5:6.445,pm10:5.704,O2:0.000,NO2:0.000,SO2:0.000,NH3:7.572
12:49:57,0,0,0,0,0,2700,2200,1,0,0,0,514,0,0,0,0,0.0000000,0.0000000,0.0000000,0.0000000,7.00,38.3988037,-110.7920990,1348.6999512,0.0,186.0,1.2,0.0,0.0,880,136,0,0,862.21,18.39,20.56,# data time:1830,pm2.5:6.445,pm10:5.704,O2:0.000,NO2:0.000,SO2:0.000,NH3:7.572
12:49:58,0,0,0,0,0,2700,2200,1,0,0,0,514,0,0,0,0,0.0000000,0.0000000,0.0000000,0.0000000,7.00,38.3987999,-110.7920990,1348.6999512,0.0,186.0,1.2,0.0,0.0,880,141,0,0,862.21,18.30,20.65,# data time:1830,pm2.5:6.445,pm10:5.704,O2:0.000,NO2:0.000,SO2:0.000,NH3:7.572
12:49:59,0,0,0,0,0,2700,2200,1,0,0,0,515,0,0,0,0,0.0000000,0.0000000,0.0000000,0.0000000,7.00,38.3987999,-110.7920990,1348.6999512,0.0,168.1,1.2,0.0,0.0,880,138,0,0,862.31,18.22,20.69,# data time:1830,pm2.5:6.445,pm10:5.704,O2:0.000,NO2:0.000,SO2:0.000,NH3:7.572
12:50:00,0,0,0,0,0,2700,2200,1,0,0,0,514,0,0,0,0,0.0000000,0.0000000,0.0000000,0.0000000,7.00,38.3987999,-110.7920990,1348.6999512,0.0,208.6,1.2,0.0,0.0,880,135,0,0,862.27,18.08,20.76,# data time:1830,pm2.5:6.445,pm10:5.704,O2:0.000,NO2:0.000,SO2:0.000,NH3:7.572
12:50:01,0,0,0,0,0,2700,2200,1,0,0,0,514,0,0,0,0,0.0000000,0.0000000,0.0000000,0.0000000,7.00,38.3987999,-110.7920990,1348.6999512,0.0,357.9,1.2,0.0,0.0,880,133,0,0,862.27,18.01,20.79,# data time:1840,pm2.5:6.445,pm10:5.704,O2:0.000,NO2:0.000,SO2:0.000,NH3:7.572
12:50:02,0,0,0,0,0,2700,2200,1,0,0,0,515,0,0,0,0,0.0000000,0.0000000,0.0000000,0.0000000,7.00,38.3987999,-110.7920990,1348.6999512,0.0,353.8,1.2,0.0,0.0,880,137,0,0,862.33,17.96,20.82,# data time:1840,pm2.5:6.445,pm10:5.704,O2:0.000,NO2:0.000,SO2:0.000,NH3:7.572
12:50:03,0,0,0,0,0,2700,2200,1,0,0,0,514,0,0,0,0,0.0000000,0.0000000,0.0000000,0.0000000,7.00,38.3987999,-110.7920990,1348.6999512,0.0,180.4,1.2,0.0,0.0,880,133,0,0,862.29,17.90,20.84,# data time:1840,pm2.5:6.445,pm10:5.704,O2:0.000,NO2:0.000,SO2:0.000,NH3:7.572
12:50:04,0,0,0,0,0,2700,2200,1,0,0,0,514,0,0,0,0,0.0000000,0.0000000,0.0000000,0.0000000,7.00,38.3987999,-110.7920990,1348.6999512,0.0,246.2,1.2,0.0,0.0,879,132,0,0,862.29,17.84,20.82,# data time:1840,pm2.5:6.445,pm10:5.704,O2:0.000,NO2:0.000,SO2:0.000,NH3:7.572
12:50:05,0,0,0,0,0,2700,2200,1,0,0,0,514,0,0,0,0,0.0000000,0.0000000,0.0000000,0.0000000,7.00,38.3987999,-110.7920990,1348.6999512,0.0,154.1,1.2,0.0,0.0,880,131,0,0,862.29,17.82,20.78,# data time:1840,pm2.5:6.445,pm10:5.704,O2:0.000,NO2:0.000,SO2:0.000,NH3:7.572
12:50:06,0,0,0,0,0,2700,2200,1,0,0,0,515,0,0,0,0,0.0000000,0.0000000,0.0000000,0.0000000,7.00,38.3987999,-110.7920990,1348.6999512,0.0,312.7,1.2,0.0,0.0,880,132,0,0,862.29,17.84,20.79,# data time:1840,pm2.5:6.445,pm10:5.704,O2:0.000,NO2:0.000,SO2:0.000,NH3:7.572
12:50:07,0,0,0,0,0,2700,2200,1,0,0,0,514,0,0,0,0,0.0000000,0.0000000,0.0000000,0.0000000,7.00,38.3987999,-110.7920990,1348.6999512,0.0,153.6,1.2,0.0,0.0,880,131,0,0,862.24,17.76,20.81,# data time:1840,pm2.5:6.445,pm10:5.704,O2:0.000,NO2:0.000,SO2:0.000,NH3:7.572
12:50:08,0,0,0,0,0,2700,2200,1,0,0,0,515,0,0,0,0,0.0000000,0.0000000,0.0000000,0.0000000,7.00,38.3987999,-110.7920990,1348.8000488,0.0,80.1,1.2,0.0,0.0,880,135,0,0,862.27,17.72,20.84,# data time:1840,pm2.5:6.445,pm10:5.704,O2:0.000,NO2:0.000,SO2:0.000,NH3:7.572
12:50:09,0,0,0,0,0,2700,2200,1,0,0,0,516,0,0,0,0,0.0000000,0.0000000,0.0000000,0.0000000,7.00,38.3987999,-110.7920990,1348.8000488,0.0,195.5,1.2,0.0,0.0,880,133,0,0,862.19,17.70,20.87,# data time:1840,pm2.5:6.445,pm10:5.704,O2:0.000,NO2:0.000,SO2:0.000,NH3:7.572
12:50:10,0,0,0,0,0,2700,2200,1,0,0,0,514,0,0,0,0,0.0000000,0.0000000,0.0000000,0.0000000,7.00,38.3987999,-110.7920990,1348.8000488,0.0,194.3,1.2,0.0,0.0,880,136,0,0,862.27,17.69,20.88,# data time:1850,pm2.5:6.445,pm10:5.704,O2:0.000,NO2:0.000,SO2:0.000,NH3:7.346
12:50:11,0,0,0,0,0,2700,2200,1,0,0,0,514,0,0,0,0,0.0000000,0.0000000,0.0000000,0.0000000,7.00,38.3987999,-110.7920990,1348.8000488,0.0,138.2,1.2,0.0,0.0,880,136,0,0,862.20,17.67,20.90,# data time:1850,pm2.5:6.445,pm10:5.704,O2:0.000,NO2:0.000,SO2:0.000,NH3:7.346
12:50:12,0,0,0,0,0,2700,2200,1,0,0,0,514,0,0,0,0,0.0000000,0.0000000,0.0000000,0.0000000,7.00,38.3987999,-110.7920990,1348.8000488,0.0,159.6,1.2,0.0,0.0,880,137,0,0,862.17,17.65,20.92,# data time:1850,pm2.5:6.445,pm10:5.704,O2:0.000,NO2:0.000,SO2:0.000,NH3:7.346
12:50:13,0,0,0,0,0,2700,2200,1,0,0,0,514,0,0,0,0,0.0000000,0.0000000,0.0000000,0.0000000,7.00,38.3987999,-110.7920990,1348.8000488,0.0,207.7,1.2,0.0,0.0,879,136,0,0,862.22,17.59,20.93,# data time:1850,pm2.5:6.445,pm10:5.704,O2:0.000,NO2:0.000,SO2:0.000,NH3:7.346
12:50:14,0,0,0,0,0,2700,2200,1,0,0,0,515,0,0,0,0,0.0000000,0.0000000,0.0000000,0.0000000,7.00,38.3987999,-110.7920990,1348.8000488,0.0,161.3,1.2,0.0,0.0,880,138,0,0,862.27,17.58,20.95,# data time:1850,pm2.5:6.445,pm10:5.704,O2:0.000,NO2:0.000,SO2:0.000,NH3:7.346
12:50:15,0,0,0,0,0,2700,2200,1,0,0,0,513,0,0,0,0,0.0000000,0.0000000,0.0000000,0.0000000,7.00,38.3987999,-110.7920990,1348.8000488,0.0,335.0,1.2,0.0,0.0,880,126,0,0,862.27,17.53,20.95,# data time:1850,pm2.5:6.445,pm10:5.704,O2:0.000,NO2:0.000,SO2:0.000,NH3:7.346
12:50:16,0,0,0,0,0,2700,2200,1,0,0,0,514,0,0,0,0,0.0000000,0.0000000,0.0000000,0.0000000,7.00,38.3987999,-110.7920990,1348.8000488,0.0,338.9,1.2,0.0,0.0,880,141,0,0,862.27,17.62,20.94,# data time:1850,pm2.5:6.445,pm10:5.704,O2:0.000,NO2:0.000,SO2:0.000,NH3:7.346
12:50:18,0,0,0,0,0,2700,2200,1,0,0,0,515,0,0,0,0,0.0000000,0.0000000,0.0000000,0.0000000,7.00,38.3987999,-110.7920990,1348.6999512,0.0,321.6,1.2,0.0,0.0,880,142,0,0,862.20,17.64,20.89,# data time:1850,pm2.5:6.445,pm10:5.704,O2:0.000,NO2:0.000,SO2:0.000,NH3:7.346
12:50:19,0,0,0,0,0,2700,2200,1,0,0,0,514,0,0,0,0,0.0000000,0.0000000,0.0000000,0.0000000,7.00,38.3987999,-110.7920990,1348.6999512,0.0,342.4,1.2,0.0,0.0,880,144,0,0,862.25,17.69,20.81,# data time:1850,pm2.5:6.445,pm10:5.704,O2:0.000,NO2:0.000,SO2:0.000,NH3:7.346
12:50:20,0,0,0,0,0,2700,2200,1,0,0,0,514,0,0,0,0,0.0000000,0.0000000,0.0000000,0.0000000,7.00,38.3987999,-110.7920990,1348.6999512,0.0,342.8,1.2,0.0,0.0,880,139,0,0,862.14,17.67,20.73,# data time:1850,pm2.5:6.445,pm10:5.704,O2:0.000,NO2:0.000,SO2:0.000,NH3:7.346
12:50:21,0,0,0,0,0,2700,2200,1,0,0,0,515,0,0,0,0,0.0000000,0.0000000,0.0000000,0.0000000,8.00,38.3987999,-110.7920990,1348.6999512,0.0,312.4,0.9,0.0,0.0,880,141,0,0,862.37,17.70,20.71,# data time:1860,pm2.5:6.445,pm10:5.704,O2:0.000,NO2:0.010,SO2:0.000,NH3:7.346
12:50:22,0,0,0,0,0,2700,2200,1,0,0,0,514,0,0,0,0,0.0000000,0.0000000,0.0000000,0.0000000,8.00,38.3987999,-110.7920990,1348.6999512,0.0,201.2,0.9,0.0,0.0,880,164,0,0,862.26,17.72,20.61,# data time:1860,pm2.5:6.445,pm10:5.704,O2:0.000,NO2:0.010,SO2:0.000,NH3:7.346
12:50:23,0,0,0,0,0,2700,2200,1,0,0,0,513,0,0,0,0,0.0000000,0.0000000,0.0000000,0.0000000,8.00,38.3987999,-110.7920990,1348.6999512,0.0,201.2,0.9,0.0,0.0,880,155,0,0,862.22,17.72,20.65,# data time:1860,pm2.5:6.445,pm10:5.704,O2:0.000,NO2:0.010,SO2:0.000,NH3:7.346
12:50:24,0,0,0,0,0,2700,2200,1,0,0,0,514,0,0,0,0,0.0000000,0.0000000,0.0000000,0.0000000,8.00,38.3987999,-110.7920990,1348.6999512,0.0,201.2,0.9,0.0,0.0,880,150,0,0,862.23,17.65,20.69,# data time:1860,pm2.5:6.445,pm10:5.704,O2:0.000,NO2:0.010,SO2:0.000,NH3:7.346
12:50:25,0,0,0,0,0,2700,2200,1,0,0,0,514,0,0,0,0,0.0000000,0.0000000,0.0000000,0.0000000,7.00,38.3987999,-110.7920990,1348.6999512,0.0,201.2,1.2,0.0,0.0,880,148,0,0,862.24,17.61,20.79,# data time:1860,pm2.5:6.445,pm10:5.704,O2:0.000,NO2:0.010,SO2:0.000,NH3:7.346
12:50:26,0,0,0,0,0,2700,2200,1,0,0,0,514,0,0,0,0,0.0000000,0.0000000,0.0000000,0.0000000,7.00,38.3987999,-110.7920990,1348.6999512,0.0,95.3,1.2,0.0,0.0,880,152,0,0,862.24,17.55,20.82,# data time:1860,pm2.5:6.445,pm10:5.704,O2:0.000,NO2:0.010,SO2:0.000,NH3:7.346
12:50:27,0,0,0,0,0,2700,2200,1,0,0,0,514,0,0,0,0,0.0000000,0.0000000,0.0000000,0.0000000,7.00,38.3988037,-110.7920990,1348.6999512,0.0,8.8,1.2,0.0,0.0,880,147,0,0,862.28,17.50,20.86,# data time:1860,pm2.5:6.445,pm10:5.704,O2:0.000,NO2:0.010,SO2:0.000,NH3:7.346
12:50:28,0,0,0,0,0,2700,2200,1,0,0,0,514,0,0,0,0,0.0000000,0.0000000,0.0000000,0.0000000,7.00,38.3988037,-110.7920990,1348.6999512,0.0,10.2,1.2,0.0,0.0,880,143,0,0,862.18,17.49,20.83,# data time:1860,pm2.5:6.445,pm10:5.704,O2:0.000,NO2:0.010,SO2:0.000,NH3:7.346
12:50:29,0,0,0,0,0,2700,2200,1,0,0,0,514,0,0,0,0,0.0000000,0.0000000,0.0000000,0.0000000,7.00,38.3988037,-110.7920990,1348.6999512,0.0,92.5,1.2,0.0,0.0,880,133,0,0,862.26,17.49,20.84,# data time:1860,pm2.5:6.445,pm10:5.704,O2:0.000,NO2:0.010,SO2:0.000,NH3:7.346
12:50:30,0,0,0,0,0,2700,2200,1,0,0,0,514,0,0,0,0,0.0000000,0.0000000,0.0000000,0.0000000,7.00,38.3988037,-110.7920990,1348.6999512,0.0,7.6,1.2,0.0,0.0,880,159,0,0,862.17,17.35,20.81,# data time:1870,pm2.5:6.445,pm10:5.704,O2:0.000,NO2:0.000,SO2:0.000,NH3:7.346
12:50:31,0,0,0,0,0,2700,2200,1,0,0,0,515,0,0,0,0,0.0000000,0.0000000,0.0000000,0.0000000,7.00,38.3988037,-110.7920990,1348.6999512,0.0,37.8,1.2,0.0,0.0,880,154,0,0,862.27,17.40,20.81,# data time:1870,pm2.5:6.445,pm10:5.704,O2:0.000,NO2:0.000,SO2:0.000,NH3:7.346
12:50:32,0,0,0,0,0,2700,2200,1,0,0,0,515,0,0,0,0,0.0000000,0.0000000,0.0000000,0.0000000,7.00,38.3988037,-110.7920990,1348.6999512,0.0,91.6,1.2,0.0,0.0,879,151,0,0,862.21,17.41,20.80,# data time:1870,pm2.5:6.445,pm10:5.704,O2:0.000,NO2:0.000,SO2:0.000,NH3:7.346
12:50:33,0,0,0,0,0,2700,2200,1,0,0,0,514,0,0,0,0,0.0000000,0.0000000,0.0000000,0.0000000,7.00,38.3988037,-110.7920990,1348.6999512,0.0,156.8,1.2,0.0,0.0,880,151,0,0,862.17,17.41,20.83,# data time:1870,pm2.5:6.445,pm10:5.704,O2:0.000,NO2:0.000,SO2:0.000,NH3:7.346
12:50:34,0,0,0,0,0,2700,2200,1,0,0,0,515,0,0,0,0,0.0000000,0.0000000,0.0000000,0.0000000,7.00,38.3988037,-110.7920990,1348.6999512,0.0,170.8,1.2,0.0,0.0,880,145,0,0,862.33,17.47,20.82,# data time:1870,pm2.5:6.445,pm10:5.704,O2:0.000,NO2:0.000,SO2:0.000,NH3:7.346
12:50:35,0,0,0,0,0,2700,2200,1,0,0,0,515,0,0,0,0,0.0000000,0.0000000,0.0000000,0.0000000,7.00,38.3988037,-110.7920990,1348.6999512,0.0,184.8,1.2,0.0,0.0,880,144,0,0,862.23,17.41,20.83,# data time:1870,pm2.5:6.445,pm10:5.704,O2:0.000,NO2:0.000,SO2:0.000,NH3:7.346
12:50:36,0,0,0,0,0,2700,2200,1,0,0,0,515,0,0,0,0,0.0000000,0.0000000,0.0000000,0.0000000,7.00,38.3988037,-110.7920990,1348.6999512,0.0,162.8,1.2,0.0,0.0,879,143,0,0,862.20,17.41,20.86,# data time:1870,pm2.5:6.445,pm10:5.704,O2:0.000,NO2:0.000,SO2:0.000,NH3:7.346
12:50:37,0,0,0,0,0,2700,2200,1,0,0,0,515,0,0,0,0,0.0000000,0.0000000,0.0000000,0.0000000,7.00,38.3988037,-110.7920990,1348.6999512,0.0,147.8,1.2,0.0,0.0,880,123,0,0,862.20,17.38,20.89,# data time:1870,pm2.5:6.445,pm10:5.704,O2:0.000,NO2:0.000,SO2:0.000,NH3:7.346
12:50:38,0,0,0,0,0,2700,2200,1,0,0,0,515,0,0,0,0,0.0000000,0.0000000,0.0000000,0.0000000,7.00,38.3988037,-110.7920990,1348.6999512,0.0,186.7,1.2,0.0,0.0,879,133,0,0,862.22,17.33,20.91,# data time:1870,pm2.5:6.445,pm10:5.704,O2:0.000,NO2:0.000,SO2:0.000,NH3:7.346
12:50:39,0,0,0,0,0,2700,2200,1,0,0,0,515,0,0,0,0,0.0000000,0.0000000,0.0000000,0.0000000,7.00,38.3988037,-110.7920990,1348.6999512,0.0,336.2,1.2,0.0,0.0,880,140,0,0,862.23,17.30,20.93,# data time:1870,pm2.5:6.445,pm10:5.704,O2:0.000,NO2:0.000,SO2:0.000,NH3:7.346
12:50:40,0,0,0,0,0,2700,2200,1,0,0,0,514,0,0,0,0,0.0000000,0.0000000,0.0000000,0.0000000,7.00,38.3988037,-110.7920990,1348.6999512,0.0,323.6,1.2,0.0,0.0,880,133,0,0,862.21,17.29,20.95,# data time:1880,pm2.5:6.445,pm10:5.704,O2:0.000,NO2:0.010,SO2:0.000,NH3:7.346
12:50:41,0,0,0,0,0,2700,2200,1,0,0,0,514,0,0,0,0,0.0000000,0.0000000,0.0000000,0.0000000,7.00,38.3988037,-110.7920990,1348.6999512,0.0,78.4,1.2,0.0,0.0,880,137,0,0,862.25,17.27,20.96,# data time:1880,pm2.5:6.445,pm10:5.704,O2:0.000,NO2:0.010,SO2:0.000,NH3:7.346
12:50:43,0,0,0,0,0,2700,2200,1,0,0,0,514,0,0,0,0,0.0000000,0.0000000,0.0000000,0.0000000,7.00,38.3988037,-110.7920990,1348.6999512,0.0,3.4,1.2,0.0,0.0,879,136,0,0,862.12,17.26,20.99,# data time:1880,pm2.5:6.445,pm10:5.704,O2:0.000,NO2:0.010,SO2:0.000,NH3:7.346
12:50:44,0,0,0,0,0,2700,2200,1,0,0,0,514,0,0,0,0,0.0000000,0.0000000,0.0000000,0.0000000,7.00,38.3987999,-110.7920990,1348.6999512,0.0,101.1,1.2,0.0,0.0,881,137,0,0,862.18,17.11,21.01,# data time:1880,pm2.5:6.445,pm10:5.704,O2:0.000,NO2:0.010,SO2:0.000,NH3:7.346
12:50:45,0,0,0,0,0,2700,2200,1,0,0,0,514,0,0,0,0,0.0000000,0.0000000,0.0000000,0.0000000,7.00,38.3987999,-110.7920990,1348.6999512,0.0,22.1,1.2,0.0,0.0,879,139,0,0,862.21,17.12,20.98,# data time:1880,pm2.5:6.445,pm10:5.704,O2:0.000,NO2:0.010,SO2:0.000,NH3:7.346
12:50:46,0,0,0,0,0,2700,2200,1,0,0,0,514,0,0,0,0,0.0000000,0.0000000,0.0000000,0.0000000,7.00,38.3987999,-110.7920990,1348.6999512,0.0,163.2,1.2,0.0,0.0,879,137,0,0,862.12,17.11,20.93,# data time:1880,pm2.5:6.445,pm10:5.704,O2:0.000,NO2:0.010,SO2:0.000,NH3:7.346
12:50:47,0,0,0,0,0,2700,2200,1,0,0,0,515,0,0,0,0,0.0000000,0.0000000,0.0000000,0.0000000,7.00,38.3987999,-110.7920990,1348.6999512,0.0,146.6,1.2,0.0,0.0,880,136,0,0,862.18,17.17,20.89,# data time:1880,pm2.5:6.445,pm10:5.704,O2:0.000,NO2:0.010,SO2:0.000,NH3:7.346
12:50:48,0,0,0,0,0,2700,2200,1,0,0,0,514,0,0,0,0,0.0000000,0.0000000,0.0000000,0.0000000,7.00,38.3987999,-110.7920990,1348.6999512,0.0,179.6,1.2,0.0,0.0,880,132,0,0,862.15,17.20,20.82,# data time:1880,pm2.5:6.445,pm10:5.704,O2:0.000,NO2:0.010,SO2:0.000,NH3:7.346
12:50:49,0,0,0,0,0,2700,2200,1,0,0,0,514,0,0,0,0,0.0000000,0.0000000,0.0000000,0.0000000,7.00,38.3987999,-110.7920990,1348.6999512,0.0,150.5,1.2,0.0,0.0,880,128,0,0,862.21,17.27,20.69,# data time:1880,pm2.5:6.445,pm10:5.704,O2:0.000,NO2:0.010,SO2:0.000,NH3:7.346
12:50:50,0,0,0,0,0,2700,2200,1,0,0,0,515,0,0,0,0,0.0000000,0.0000000,0.0000000,0.0000000,7.00,38.3987999,-110.7920990,1348.6999512,0.0,163.5,1.2,0.0,0.0,880,130,0,0,862.13,17.38,20.74,# data time:1880,pm2.5:6.445,pm10:5.704,O2:0.000,NO2:0.010,SO2:0.000,NH3:7.346
12:50:51,0,0,0,0,0,2700,2200,1,0,0,0,515,0,0,0,0,0.0000000,0.0000000,0.0000000,0.0000000,7.00,38.3987999,-110.7920990,1348.6999512,0.0,163.5,1.2,0.0,0.0,880,129,0,0,862.13,17.37,20.72,# data time:1890,pm2.5:6.445,pm10:5.704,O2:0.000,NO2:0.000,SO2:0.000,NH3:7.346
12:50:52,0,0,0,0,0,2700,2200,1,0,0,0,514,0,0,0,0,0.0000000,0.0000000,0.0000000,0.0000000,7.00,38.3987999,-110.7920990,1348.6999512,0.0,359.2,1.2,0.0,0.0,880,136,0,0,862.16,17.43,20.81,# data time:1890,pm2.5:6.445,pm10:5.704,O2:0.000,NO2:0.000,SO2:0.000,NH3:7.346
12:50:53,0,0,0,0,0,2700,2200,1,0,0,0,515,0,0,0,0,0.0000000,0.0000000,0.0000000,0.0000000,7.00,38.3987999,-110.7920990,1348.6999512,0.0,334.5,1.2,0.0,0.0,879,134,0,0,862.21,17.55,20.87,# data time:1890,pm2.5:6.445,pm10:5.704,O2:0.000,NO2:0.000,SO2:0.000,NH3:7.346
12:50:54,0,0,0,0,0,2700,2200,1,0,0,0,515,0,0,0,0,0.0000000,0.0000000,0.0000000,0.0000000,7.00,38.3987999,-110.7920990,1348.6999512,0.0,179.5,1.2,0.0,0.0,880,167,0,0,862.23,17.61,20.81,# data time:1890,pm2.5:6.445,pm10:5.704,O2:0.000,NO2:0.000,SO2:0.000,NH3:7.346
12:50:55,0,0,0,0,0,2700,2200,1,0,0,0,514,0,0,0,0,0.0000000,0.0000000,0.0000000,0.0000000,8.00,38.3987999,-110.7920990,1348.6999512,0.0,199.3,0.9,0.0,0.0,879,172,0,0,862.08,17.50,20.75,# data time:1890,pm2.5:6.445,pm10:5.704,O2:0.000,NO2:0.000,SO2:0.000,NH3:7.346
12:50:56,0,0,0,0,0,2700,2200,1,0,0,0,514,0,0,0,0,0.0000000,0.0000000,0.0000000,0.0000000,8.00,38.3987999,-110.7920990,1348.6999512,0.0,191.8,0.9,0.0,0.0,879,182,0,0,862.20,17.73,20.73,# data time:1890,pm2.5:6.445,pm10:5.704,O2:0.000,NO2:0.000,SO2:0.000,NH3:7.346
12:50:57,0,0,0,0,0,2700,2200,1,0,0,0,515,0,0,0,0,0.0000000,0.0000000,0.0000000,0.0000000,8.00,38.3987999,-110.7920990,1348.6999512,0.0,156.0,0.9,0.0,0.0,880,182,0,0,862.25,17.84,20.64,# data time:1890,pm2.5:6.445,pm10:5.704,O2:0.000,NO2:0.000,SO2:0.000,NH3:7.346
12:50:58,0,0,0,0,0,2700,2200,1,0,0,0,514,0,0,0,0,0.0000000,0.0000000,0.0000000,0.0000000,8.00,38.3987999,-110.7920990,1348.6999512,0.0,75.9,0.9,0.0,0.0,880,170,0,0,862.04,17.90,20.44,# data time:1890,pm2.5:6.445,pm10:5.704,O2:0.000,NO2:0.000,SO2:0.000,NH3:7.346
12:50:59,0,0,0,0,0,2700,2200,1,0,0,0,515,0,0,0,0,0.0000000,0.0000000,0.0000000,0.0000000,8.00,38.3987999,-110.7920990,1348.6999512,0.0,358.9,0.9,0.0,0.0,880,156,0,0,862.02,18.11,20.30,# data time:1890,pm2.5:6.445,pm10:5.704,O2:0.000,NO2:0.000,SO2:0.000,NH3:7.346
12:51:00,0,0,0,0,0,2700,2200,1,0,0,0,514,0,0,0,0,0.0000000,0.0000000,0.0000000,0.0000000,8.00,38.3987999,-110.7920990,1348.6999512,0.0,24.1,0.9,0.0,0.0,879,153,0,0,862.05,18.17,20.27,# data time:1900,pm2.5:6.445,pm10:5.704,O2:0.000,NO2:0.000,SO2:0.000,NH3:7.346
12:51:01,0,0,0,0,0,2700,2200,1,0,0,0,514,0,0,0,0,0.0000000,0.0000000,0.0000000,0.0000000,8.00,38.3987999,-110.7920990,1348.6999512,0.0,43.4,0.9,0.0,0.0,880,143,0,0,862.10,18.22,20.21,# data time:1900,pm2.5:6.445,pm10:5.704,O2:0.000,NO2:0.000,SO2:0.000,NH3:7.346
12:51:02,0,0,0,0,0,2700,2200,1,0,0,0,515,0,0,0,0,0.0000000,0.0000000,0.0000000,0.0000000,8.00,38.3987999,-110.7920990,1348.6999512,0.1,50.5,0.9,0.0,0.0,880,143,0,0,862.12,18.20,20.15,# data time:1900,pm2.5:6.445,pm10:5.704,O2:0.000,NO2:0.000,SO2:0.000,NH3:7.346
12:51:03,0,0,0,0,0,2700,2200,1,0,0,0,515,0,0,0,0,0.0000000,0.0000000,0.0000000,0.0000000,8.00,38.3987999,-110.7920990,1348.6999512,0.1,44.4,0.9,0.0,0.0,879,136,0,0,862.04,18.20,20.10,# data time:1900,pm2.5:6.445,pm10:5.704,O2:0.000,NO2:0.000,SO2:0.000,NH3:7.346
12:51:04,0,0,0,0,0,2700,2200,1,0,0,0,515,0,0,0,0,0.0000000,0.0000000,0.0000000,0.0000000,8.00,38.3987999,-110.7920990,1348.6999512,0.1,57.0,0.9,0.0,0.0,880,146,0,0,862.13,18.23,20.12,# data time:1900,pm2.5:6.445,pm10:5.704,O2:0.000,NO2:0.000,SO2:0.000,NH3:7.346
12:51:05,0,0,0,0,0,2700,2200,1,0,0,0,514,0,0,0,0,0.0000000,0.0000000,0.0000000,0.0000000,8.00,38.3987999,-110.7920990,1348.6999512,0.0,95.0,0.9,0.0,0.0,880,143,0,0,862.17,18.22,20.07,# data time:1900,pm2.5:6.445,pm10:5.704,O2:0.000,NO2:0.000,SO2:0.000,NH3:7.346
12:51:06,0,0,0,0,0,2700,2200,1,0,0,0,514,0,0,0,0,0.0000000,0.0000000,0.0000000,0.0000000,8.00,38.3987999,-110.7920990,1348.6999512,0.0,212.5,0.9,0.0,0.0,880,141,0,0,862.22,18.22,20.06,# data time:1900,pm2.5:6.445,pm10:5.704,O2:0.000,NO2:0.000,SO2:0.000,NH3:7.346
12:51:07,0,0,0,0,0,2700,2200,1,0,0,0,514,0,0,0,0,0.0000000,0.0000000,0.0000000,0.0000000,8.00,38.3987999,-110.7920990,1348.6999512,0.0,206.8,0.9,0.0,0.0,880,148,0,0,862.23,18.19,20.09,# data time:1900,pm2.5:6.445,pm10:5.704,O2:0.000,NO2:0.000,SO2:0.000,NH3:7.346
12:51:08,0,0,0,0,0,2700,2200,1,0,0,0,514,0,0,0,0,0.0000000,0.0000000,0.0000000,0.0000000,8.00,38.3987999,-110.7920990,1348.6999512,0.0,230.5,0.9,0.0,0.0,879,156,0,0,862.23,18.16,20.13,# data time:1900,pm2.5:6.445,pm10:5.704,O2:0.000,NO2:0.000,SO2:0.000,NH3:7.346
12:51:09,0,0,0,0,0,2700,2200,1,0,0,0,515,0,0,0,0,0.0000000,0.0000000,0.0000000,0.0000000,8.00,38.3987999,-110.7920990,1348.6999512,0.0,170.3,0.9,0.0,0.0,879,147,0,0,862.24,18.11,20.15,# data time:1900,pm2.5:6.445,pm10:5.704,O2:0.000,NO2:0.000,SO2:0.000,NH3:7.346
12:51:10,0,0,0,0,0,2700,2200,1,0,0,0,514,0,0,0,0,0.0000000,0.0000000,0.0000000,0.0000000,8.00,38.3987999,-110.7920990,1348.6999512,0.0,57.1,0.9,0.0,0.0,880,145,0,0,862.22,18.11,20.18,# data time:1910,pm2.5:6.445,pm10:5.704,O2:0.000,NO2:0.010,SO2:0.000,NH3:7.120
12:51:11,0,0,0,0,0,2700,2200,1,0,0,0,514,0,0,0,0,0.0000000,0.0000000,0.0000000,0.0000000,8.00,38.3987999,-110.7920990,1348.6999512,0.0,31.3,0.9,0.0,0.0,879,154,0,0,862.19,18.10,20.23,# data time:1910,pm2.5:6.445,pm10:5.704,O2:0.000,NO2:0.010,SO2:0.000,NH3:7.120
12:51:13,0,0,0,0,0,2700,2200,1,0,0,0,515,0,0,0,0,0.0000000,0.0000000,0.0000000,0.0000000,8.00,38.3987999,-110.7920990,1348.6999512,0.0,86.3,0.9,0.0,0.0,879,148,0,0,862.17,18.05,20.27,# data time:1910,pm2.5:6.445,pm10:5.704,O2:0.000,NO2:0.010,SO2:0.000,NH3:7.120
12:51:14,0,0,0,0,0,2700,2200,1,0,0,0,514,0,0,0,0,0.0000000,0.0000000,0.0000000,0.0000000,8.00,38.3987999,-110.7920990,1348.6999512,0.0,24.7,0.9,0.0,0.0,880,151,0,0,862.21,18.05,20.31,# data time:1910,pm2.5:6.445,pm10:5.704,O2:0.000,NO2:0.010,SO2:0.000,NH3:7.120
12:51:15,0,0,0,0,0,2700,2200,1,0,0,0,515,0,0,0,0,0.0000000,0.0000000,0.0000000,0.0000000,8.00,38.3987999,-110.7920990,1348.6999512,0.0,20.4,0.9,0.0,0.0,879,146,0,0,862.15,18.01,20.35,# data time:1910,pm2.5:6.445,pm10:5.704,O2:0.000,NO2:0.010,SO2:0.000,NH3:7.120
12:51:16,0,0,0,0,0,2700,2200,1,0,0,0,515,0,0,0,0,0.0000000,0.0000000,0.0000000,0.0000000,8.00,38.3987999,-110.7920990,1348.6999512,0.0,355.5,0.9,0.0,0.0,879,150,0,0,862.14,17.88,20.31,# data time:1910,pm2.5:6.445,pm10:5.704,O2:0.000,NO2:0.010,SO2:0.000,NH3:7.120
12:51:17,0,0,0,0,0,2700,2200,1,0,0,0,515,0,0,0,0,0.0000000,0.0000000,0.0000000,0.0000000,8.00,38.3987999,-110.7920990,1348.6999512,0.0,355.5,0.9,0.0,0.0,879,146,0,0,862.17,17.87,20.39,# data time:1910,pm2.5:6.445,pm10:5.704,O2:0.000,NO2:0.010,SO2:0.000,NH3:7.120
12:51:18,0,0,0,0,0,2700,2200,1,0,0,0,514,0,0,0,0,0.0000000,0.0000000,0.0000000,0.0000000,8.00,38.3987999,-110.7920990,1348.6999512,0.0,355.5,0.9,0.0,0.0,880,148,0,0,862.13,17.84,20.37,# data time:1910,pm2.5:6.445,pm10:5.704,O2:0.000,NO2:0.010,SO2:0.000,NH3:7.120
12:51:19,0,0,0,0,0,2700,2200,1,0,0,0,514,0,0,0,0,0.0000000,0.0000000,0.0000000,0.0000000,8.00,38.3987999,-110.7920990,1348.6999512,0.0,305.3,0.9,0.0,0.0,879,142,0,0,862.21,17.79,20.50,# data time:1910,pm2.5:6.445,pm10:5.704,O2:0.000,NO2:0.010,SO2:0.000,NH3:7.120
12:51:20,0,0,0,0,0,2700,2200,1,0,0,0,514,0,0,0,0,0.0000000,0.0000000,0.0000000,0.0000000,8.00,38.3987999,-110.7920990,1348.6999512,0.0,323.3,0.9,0.0,0.0,879,138,0,0,862.22,17.78,20.53,# data time:1910,pm2.5:6.445,pm10:5.704,O2:0.000,NO2:0.010,SO2:0.000,NH3:7.120
12:51:21,0,0,0,0,0,2700,2200,1,0,0,0,514,0,0,0,0,0.0000000,0.0000000,0.0000000,0.0000000,8.00,38.3987999,-110.7920990,1348.6999512,0.0,174.6,0.9,0.0,0.0,880,129,0,0,862.18,17.78,20.56,# data time:1920,pm2.5:6.445,pm10:5.704,O2:0.000,NO2:0.000,SO2:0.000,NH3:7.120
12:51:22,0,0,0,0,0,2700,2200,1,0,0,0,515,0,0,0,0,0.0000000,0.0000000,0.0000000,0.0000000,8.00,38.3987999,-110.7920990,1348.6999512,0.0,154.3,0.9,0.0,0.0,880,153,0,0,862.24,17.73,20.59,# data time:1920,pm2.5:6.445,pm10:5.704,O2:0.000,NO2:0.000,SO2:0.000,NH3:7.120
12:51:23,0,0,0,0,0,2700,2200,1,0,0,0,515,0,0,0,0,0.0000000,0.0000000,0.0000000,0.0000000,8.00,38.3987999,-110.7920990,1348.6999512,0.0,163.6,0.9,0.0,0.0,879,148,0,0,862.19,17.69,20.61,# data time:1920,pm2.5:6.445,pm10:5.704,O2:0.000,NO2:0.000,SO2:0.000,NH3:7.120
12:51:24,0,0,0,0,0,2700,2200,1,0,0,0,515,0,0,0,0,0.0000000,0.0000000,0.0000000,0.0000000,8.00,38.3987999,-110.7920990,1348.6999512,0.0,156.1,0.9,0.0,0.0,879,151,0,0,862.17,17.62,20.65,# data time:1920,pm2.5:6.445,pm10:5.704,O2:0.000,NO2:0.000,SO2:0.000,NH3:7.120
12:51:25,0,0,0,0,0,2700,2200,1,0,0,0,514,0,0,0,0,0.0000000,0.0000000,0.0000000,0.0000000,8.00,38.3987999,-110.7920990,1348.6999512,0.0,132.8,0.9,0.0,0.0,880,147,0,0,862.21,17.64,20.69,# data time:1920,pm2.5:6.445,pm10:5.704,O2:0.000,NO2:0.000,SO2:0.000,NH3:7.120
12:51:26,0,0,0,0,0,2700,2200,1,0,0,0,514,0,0,0,0,0.0000000,0.0000000,0.0000000,0.0000000,8.00,38.3987999,-110.7920990,1348.6999512,0.0,149.2,0.9,0.0,0.0,879,147,0,0,862.26,17.72,20.73,# data time:1920,pm2.5:6.445,pm10:5.704,O2:0.000,NO2:0.000,SO2:0.000,NH3:7.120
12:51:27,0,0,0,0,0,2700,2200,1,0,0,0,515,0,0,0,0,0.0000000,0.0000000,0.0000000,0.0000000,8.00,38.3987999,-110.7920990,1348.6999512,0.0,351.5,0.9,0.0,0.0,879,154,0,0,862.23,17.69,20.79,# data time:1920,pm2.5:6.445,pm10:5.704,O2:0.000,NO2:0.000,SO2:0.000,NH3:7.120
12:51:28,0,0,0,0,0,2700,2200,1,0,0,0,514,0,0,0,0,0.0000000,0.0000000,0.0000000,0.0000000,8.00,38.3987999,-110.7920990,1348.6999512,0.0,323.2,0.9,0.0,0.0,879,162,0,0,862.19,17.61,20.84,# data time:1920,pm2.5:6.445,pm10:5.704,O2:0.000,NO2:0.000,SO2:0.000,NH3:7.120
12:51:29,0,0,0,0,0,2700,2200,1,0,0,0,514,0,0,0,0,0.0000000,0.0000000,0.0000000,0.0000000,8.00,38.3987999,-110.7920990,1348.6999512,0.0,314.2,0.9,0.0,0.0,880,165,0,0,862.18,17.56,20.88,# data time:1920,pm2.5:6.445,pm10:5.704,O2:0.000,NO2:0.000,SO2:0.000,NH3:7.120
12:51:30,0,0,0,0,0,2700,2200,1,0,0,0,514,0,0,0,0,0.0000000,0.0000000,0.0000000,0.0000000,8.00,38.3987999,-110.7920990,1348.6999512,0.0,308.1,0.9,0.0,0.0,879,170,0,0,862.22,17.46,20.93,# data time:1930,pm2.5:6.445,pm10:5.704,O2:0.000,NO2:0.000,SO2:0.000,NH3:7.346
12:51:31,0,0,0,0,0,2700,2200,1,0,0,0,513,0,0,0,0,0.0000000,0.0000000,0.0000000,0.0000000,8.00,38.3987999,-110.7920990,1348.6999512,0.0,311.3,0.9,0.0,0.0,879,159,0,0,862.20,17.44,20.97,# data time:1930,pm2.5:6.445,pm10:5.704,O2:0.000,NO2:0.000,SO2:0.000,NH3:7.346
12:51:32,0,0,0,0,0,2700,2200,1,0,0,0,514,0,0,0,0,0.0000000,0.0000000,0.0000000,0.0000000,8.00,38.3987999,-110.7920990,1348.6999512,0.0,318.6,0.9,0.0,0.0,879,150,0,0,862.26,17.44,21.01,# data time:1930,pm2.5:6.445,pm10:5.704,O2:0.000,NO2:0.000,SO2:0.000,NH3:7.346
12:51:33,0,0,0,0,0,2700,2200,1,0,0,0,515,0,0,0,0,0.0000000,0.0000000,0.0000000,0.0000000,8.00,38.3987999,-110.7920990,1348.6999512,0.0,323.4,0.9,0.0,0.0,879,157,0,0,862.12,17.38,21.05,# data time:1930,pm2.5:6.445,pm10:5.704,O2:0.000,NO2:0.000,SO2:0.000,NH3:7.346
12:51:34,0,0,0,0,0,2700,2200,1,0,0,0,514,0,0,0,0,0.0000000,0.0000000,0.0000000,0.0000000,8.00,38.3987999,-110.7920990,1348.6999512,0.0,317.6,0.9,0.0,0.0,880,152,0,0,862.15,17.32,21.10,# data time:1930,pm2.5:6.445,pm10:5.704,O2:0.000,NO2:0.000,SO2:0.000,NH3:7.346
12:51:35,0,0,0,0,0,2700,2200,1,0,0,0,514,0,0,0,0,0.0000000,0.0000000,0.0000000,0.0000000,8.00,38.3987999,-110.7920990,1348.6999512,0.0,358.6,0.9,0.0,0.0,879,145,0,0,862.17,17.21,21.12,# data time:1930,pm2.5:6.445,pm10:5.704,O2:0.000,NO2:0.000,SO2:0.000,NH3:7.346
12:51:36,0,0,0,0,0,2700,2200,1,0,0,0,514,0,0,0,0,0.0000000,0.0000000,0.0000000,0.0000000,8.00,38.3987999,-110.7920990,1348.6999512,0.0,308.7,0.9,0.0,0.0,879,138,0,0,862.24,17.27,21.15,# data time:1930,pm2.5:6.445,pm10:5.704,O2:0.000,NO2:0.000,SO2:0.000,NH3:7.346
12:51:37,0,0,0,0,0,2700,2200,1,0,0,0,515,0,0,0,0,0.0000000,0.0000000,0.0000000,0.0000000,8.00,38.3987999,-110.7920990,1348.6999512,0.0,334.1,0.9,0.0,0.0,879,177,0,0,862.17,17.24,21.12,# data time:1930,pm2.5:6.445,pm10:5.704,O2:0.000,NO2:0.000,SO2:0.000,NH3:7.346
12:51:38,0,0,0,0,0,2700,2200,1,0,0,0,514,0,0,0,0,0.0000000,0.0000000,0.0000000,0.0000000,8.00,38.3987999,-110.7920990,1348.6999512,0.0,321.9,0.9,0.0,0.0,879,194,0,0,862.15,17.21,21.07,# data time:1930,pm2.5:6.445,pm10:5.704,O2:0.000,NO2:0.000,SO2:0.000,NH3:7.346
12:51:39,0,0,0,0,0,2700,2200,1,0,0,0,514,0,0,0,0,0.0000000,0.0000000,0.0000000,0.0000000,8.00,38.3987999,-110.7920990,1348.6999512,0.0,249.1,0.9,0.0,0.0,879,186,0,0,862.27,17.18,20.99,# data time:1930,pm2.5:6.445,pm10:5.704,O2:0.000,NO2:0.000,SO2:0.000,NH3:7.346
12:51:41,0,0,0,0,0,2700,2200,1,0,0,0,515,0,0,0,0,0.0000000,0.0000000,0.0000000,0.0000000,8.00,38.3987999,-110.7920990,1348.6999512,0.0,165.5,0.9,0.0,0.0,879,176,0,0,862.17,17.18,20.92,# data time:1940,pm2.5:6.445,pm10:5.704,O2:0.000,NO2:0.000,SO2:0.000,NH3:7.346
12:51:42,0,0,0,0,0,2700,2200,1,0,0,0,515,0,0,0,0,0.0000000,0.0000000,0.0000000,0.0000000,8.00,38.3987999,-110.7920990,1348.6999512,0.0,155.1,0.9,0.0,0.0,879,173,0,0,862.20,17.23,20.89,# data time:1940,pm2.5:6.445,pm10:5.704,O2:0.000,NO2:0.000,SO2:0.000,NH3:7.346
12:51:43,0,0,0,0,0,2700,2200,1,0,0,0,514,0,0,0,0,0.0000000,0.0000000,0.0000000,0.0000000,8.00,38.3987999,-110.7920990,1348.6999512,0.0,356.7,0.9,0.0,0.0,879,175,0,0,862.18,17.27,20.76,# data time:1940,pm2.5:6.445,pm10:5.704,O2:0.000,NO2:0.000,SO2:0.000,NH3:7.346
12:51:44,0,0,0,0,0,2700,2200,1,0,0,0,514,0,0,0,0,0.0000000,0.0000000,0.0000000,0.0000000,8.00,38.3987999,-110.7920990,1348.6999512,0.0,40.7,0.9,0.0,0.0,879,176,0,0,862.20,17.30,20.74,# data time:1940,pm2.5:6.445,pm10:5.704,O2:0.000,NO2:0.000,SO2:0.000,NH3:7.346
12:51:45,0,0,0,0,0,2700,2200,1,0,0,0,515,0,0,0,0,0.0000000,0.0000000,0.0000000,0.0000000,8.00,38.3987999,-110.7920990,1348.6999512,0.0,40.7,0.9,0.0,0.0,880,156,0,0,862.17,17.23,20.81,# data time:1940,pm2.5:6.445,pm10:5.704,O2:0.000,NO2:0.000,SO2:0.000,NH3:7.346
12:51:46,0,0,0,0,0,2700,2200,1,0,0,0,514,0,0,0,0,0.0000000,0.0000000,0.0000000,0.0000000,8.00,38.3987999,-110.7920990,1348.6999512,0.0,40.7,0.9,0.0,0.0,879,149,0,0,862.06,17.26,20.78,# data time:1940,pm2.5:6.445,pm10:5.704,O2:0.000,NO2:0.000,SO2:0.000,NH3:7.346
12:51:47,0,0,0,0,0,2700,2200,1,0,0,0,514,0,0,0,0,0.0000000,0.0000000,0.0000000,0.0000000,8.00,38.3987999,-110.7920990,1348.6999512,0.0,176.3,0.9,0.0,0.0,879,142,0,0,862.16,17.29,20.91,# data time:1940,pm2.5:6.445,pm10:5.704,O2:0.000,NO2:0.000,SO2:0.000,NH3:7.346
12:51:48,0,0,0,0,0,2700,2200,1,0,0,0,514,0,0,0,0,0.0000000,0.0000000,0.0000000,0.0000000,8.00,38.3987999,-110.7920990,1348.6999512,0.0,156.3,0.9,0.0,0.0,879,138,0,0,862.13,17.24,20.95,# data time:1940,pm2.5:6.445,pm10:5.704,O2:0.000,NO2:0.000,SO2:0.000,NH3:7.346
12:51:49,0,0,0,0,0,2700,2200,1,0,0,0,514,0,0,0,0,0.0000000,0.0000000,0.0000000,0.0000000,8.00,38.3987999,-110.7920990,1348.6999512,0.0,193.1,0.9,0.0,0.0,879,139,0,0,862.22,17.24,21.02,# data time:1940,pm2.5:6.445,pm10:5.704,O2:0.000,NO2:0.000,SO2:0.000,NH3:7.346
12:51:50,0,0,0,0,0,2700,2200,1,0,0,0,514,0,0,0,0,0.0000000,0.0000000,0.0000000,0.0000000,8.00,38.3987999,-110.7920990,1348.6999512,0.0,159.5,0.9,0.0,0.0,879,138,0,0,862.16,17.21,21.07,# data time:1950,pm2.5:6.445,pm10:5.704,O2:0.000,NO2:0.000,SO2:0.000,NH3:7.346
12:51:51,0,0,0,0,0,2700,2200,1,0,0,0,514,0,0,0,0,0.0000000,0.0000000,0.0000000,0.0000000,8.00,38.3987999,-110.7920990,1348.6999512,0.0,164.6,0.9,0.0,0.0,879,137,0,0,862.19,17.18,21.11,# data time:1950,pm2.5:6.445,pm10:5.704,O2:0.000,NO2:0.000,SO2:0.000,NH3:7.346
12:51:52,0,0,0,0,0,2700,2200,1,0,0,0,515,0,0,0,0,0.0000000,0.0000000,0.0000000,0.0000000,8.00,38.3987999,-110.7920990,1348.6999512,0.0,264.1,0.9,0.0,0.0,879,135,0,0,862.14,17.15,21.15,# data time:1950,pm2.5:6.445,pm10:5.704,O2:0.000,NO2:0.000,SO2:0.000,NH3:7.346
12:51:53,0,0,0,0,0,2700,2200,1,0,0,0,515,0,0,0,0,0.0000000,0.0000000,0.0000000,0.0000000,8.00,38.3987999,-110.7920990,1348.6999512,0.0,122.1,0.9,0.0,0.0,879,136,0,0,862.24,17.14,21.17,# data time:1950,pm2.5:6.445,pm10:5.704,O2:0.000,NO2:0.000,SO2:0.000,NH3:7.346
12:51:54,0,0,0,0,0,2700,2200,1,0,0,0,514,0,0,0,0,0.0000000,0.0000000,0.0000000,0.0000000,8.00,38.3987999,-110.7920990,1348.6999512,0.0,163.6,0.9,0.0,0.0,879,136,0,0,862.18,17.09,21.18,# data time:1950,pm2.5:6.445,pm10:5.704,O2:0.000,NO2:0.000,SO2:0.000,NH3:7.346
12:51:55,0,0,0,0,0,2700,2200,1,0,0,0,514,0,0,0,0,0.0000000,0.0000000,0.0000000,0.0000000,8.00,38.3987999,-110.7920990,1348.6999512,0.0,198.8,0.9,0.0,0.0,879,136,0,0,862.18,17.11,21.21,# data time:1950,pm2.5:6.445,pm10:5.704,O2:0.000,NO2:0.000,SO2:0.000,NH3:7.346
12:51:56,0,0,0,0,0,2700,2200,1,0,0,0,514,0,0,0,0,0.0000000,0.0000000,0.0000000,0.0000000,8.00,38.3987999,-110.7920990,1348.5999756,0.0,162.7,0.9,0.0,0.0,879,140,0,0,862.20,17.08,21.24,# data time:1950,pm2.5:6.445,pm10:5.704,O2:0.000,NO2:0.000,SO2:0.000,NH3:7.346
12:51:57,0,0,0,0,0,2700,2200,1,0,0,0,514,0,0,0,0,0.0000000,0.0000000,0.0000000,0.0000000,8.00,38.3987999,-110.7920990,1348.5999756,0.0,177.6,0.9,0.0,0.0,879,138,0,0,862.18,17.09,21.28,# data time:1950,pm2.5:6.445,pm10:5.704,O2:0.000,NO2:0.000,SO2:0.000,NH3:7.346
12:51:58,0,0,0,0,0,2700,2200,1,0,0,0,514,0,0,0,0,0.0000000,0.0000000,0.0000000,0.0000000,8.00,38.3987999,-110.7920990,1348.5999756,0.0,148.3,0.9,0.0,0.0,879,137,0,0,862.22,17.09,21.30,# data time:1950,pm2.5:6.445,pm10:5.704,O2:0.000,NO2:0.000,SO2:0.000,NH3:7.346
12:51:59,0,0,0,0,0,2700,2200,1,0,0,0,514,0,0,0,0,0.0000000,0.0000000,0.0000000,0.0000000,8.00,38.3987999,-110.7920990,1348.5999756,0.0,148.8,0.9,0.0,0.0,879,134,0,0,862.23,17.06,21.32,# data time:1950,pm2.5:6.445,pm10:5.704,O2:0.000,NO2:0.000,SO2:0.000,NH3:7.346
12:52:00,0,0,0,0,0,2700,2200,1,0,0,0,514,0,0,0,0,0.0000000,0.0000000,0.0000000,0.0000000,8.00,38.3987999,-110.7920990,1348.5999756,0.0,181.1,0.9,0.0,0.0,879,142,0,0,862.21,17.06,21.34,# data time:1960,pm2.5:5.640,pm10:4.991,O2:0.000,NO2:0.010,SO2:0.000,NH3:7.346
12:52:01,0,0,0,0,0,2700,2200,1,0,0,0,514,0,0,0,0,0.0000000,0.0000000,0.0000000,0.0000000,8.00,38.3987999,-110.7920990,1348.5999756,0.0,145.6,0.9,0.0,0.0,879,135,0,0,862.15,16.95,21.36,# data time:1960,pm2.5:5.640,pm10:4.991,O2:0.000,NO2:0.010,SO2:0.000,NH3:7.346
12:52:02,0,0,0,0,0,2700,2200,1,0,0,0,514,0,0,0,0,0.0000000,0.0000000,0.0000000,0.0000000,8.00,38.3987999,-110.7920990,1348.5999756,0.0,177.4,0.9,0.0,0.0,880,131,0,0,862.29,16.97,21.38,# data time:1960,pm2.5:5.640,pm10:4.991,O2:0.000,NO2:0.010,SO2:0.000,NH3:7.346
12:52:04,0,0,0,0,0,2700,2200,1,0,0,0,514,0,0,0,0,0.0000000,0.0000000,0.0000000,0.0000000,8.00,38.3987999,-110.7920990,1348.5999756,0.0,153.8,0.9,0.0,0.0,880,136,0,0,862.25,16.97,21.39,# data time:1960,pm2.5:5.640,pm10:4.991,O2:0.000,NO2:0.010,SO2:0.000,NH3:7.346
12:52:05,0,0,0,0,0,2700,2200,1,0,0,0,515,0,0,0,0,0.0000000,0.0000000,0.0000000,0.0000000,8.00,38.3987999,-110.7920990,1348.5999756,0.0,97.2,0.9,0.0,0.0,879,134,0,0,862.21,16.94,21.40,# data time:1960,pm2.5:5.640,pm10:4.991,O2:0.000,NO2:0.010,SO2:0.000,NH3:7.346
12:52:06,0,0,0,0,0,2700,2200,1,0,0,0,514,0,0,0,0,0.0000000,0.0000000,0.0000000,0.0000000,8.00,38.3987999,-110.7920990,1348.5999756,0.0,195.0,0.9,0.0,0.0,879,137,0,0,862.20,16.95,21.43,# data time:1960,pm2.5:5.640,pm10:4.991,O2:0.000,NO2:0.010,SO2:0.000,NH3:7.346
12:52:07,0,0,0,0,0,2700,2200,1,0,0,0,514,0,0,0,0,0.0000000,0.0000000,0.0000000,0.0000000,8.00,38.3987999,-110.7920990,1348.5999756,0.0,170.5,0.9,0.0,0.0,880,138,0,0,862.29,16.86,21.45,# data time:1960,pm2.5:5.640,pm10:4.991,O2:0.000,NO2:0.010,SO2:0.000,NH3:7.346
12:52:08,0,0,0,0,0,2700,2200,1,0,0,0,516,0,0,0,0,0.0000000,0.0000000,0.0000000,0.0000000,8.00,38.3987999,-110.7920990,1348.5999756,0.0,45.3,0.9,0.0,0.0,880,138,0,0,862.24,16.82,21.48,# data time:1960,pm2.5:5.640,pm10:4.991,O2:0.000,NO2:0.010,SO2:0.000,NH3:7.346
12:52:09,0,0,0,0,0,2700,2200,1,0,0,0,516,0,0,0,0,0.0000000,0.0000000,0.0000000,0.0000000,8.00,38.3987999,-110.7920990,1348.5999756,0.0,76.9,0.9,0.0,0.0,880,144,0,0,862.17,16.75,21.43,# data time:1960,pm2.5:5.640,pm10:4.991,O2:0.000,NO2:0.010,SO2:0.000,NH3:7.346
12:52:10,0,0,0,0,0,2700,2200,1,0,0,0,512,0,0,0,0,0.0000000,0.0000000,0.0000000,0.0000000,8.00,38.3987999,-110.7920990,1348.5999756,0.0,76.9,0.9,0.0,0.0,878,146,0,0,862.10,16.71,21.42,# data time:1960,pm2.5:5.640,pm10:4.991,O2:0.000,NO2:0.010,SO2:0.000,NH3:7.346
12:52:11,0,0,0,0,0,2700,2200,1,0,0,0,513,0,0,0,0,0.0000000,0.0000000,0.0000000,0.0000000,8.00,38.3987999,-110.7920990,1348.5999756,0.0,162.3,0.9,0.0,0.0,878,142,0,0,862.17,16.71,21.50,# data time:1970,pm2.5:6.445,pm10:5.704,O2:0.000,NO2:0.000,SO2:0.000,NH3:7.346
12:52:12,0,0,0,0,0,2700,2200,1,0,0,0,513,0,0,0,0,0.0000000,0.0000000,0.0000000,0.0000000,8.00,38.3987999,-110.7920990,1348.5999756,0.0,162.3,0.9,0.0,0.0,878,138,0,0,862.13,16.66,21.47,# data time:1970,pm2.5:6.445,pm10:5.704,O2:0.000,NO2:0.000,SO2:0.000,NH3:7.346
12:52:13,0,0,0,0,0,2700,2200,1,0,0,0,515,0,0,0,0,0.0000000,0.0000000,0.0000000,0.0000000,8.00,38.3987999,-110.7920990,1348.5999756,0.0,127.2,0.9,0.0,0.0,880,138,0,0,862.08,16.57,21.55,# data time:1970,pm2.5:6.445,pm10:5.704,O2:0.000,NO2:0.000,SO2:0.000,NH3:7.346
12:52:14,0,0,0,0,0,2700,2200,1,0,0,0,515,0,0,0,0,0.0000000,0.0000000,0.0000000,0.0000000,8.00,38.3987999,-110.7920990,1348.5999756,0.0,292.0,0.9,0.0,0.0,879,137,0,0,862.07,16.59,21.62,# data time:1970,pm2.5:6.445,pm10:5.704,O2:0.000,NO2:0.000,SO2:0.000,NH3:7.346
12:52:15,0,0,0,0,0,2700,2200,1,0,0,0,515,0,0,0,0,0.0000000,0.0000000,0.0000000,0.0000000,8.00,38.3987999,-110.7920990,1348.5999756,0.0,113.4,0.9,0.0,0.0,879,139,0,0,862.02,16.53,21.62,# data time:1970,pm2.5:6.445,pm10:5.704,O2:0.000,NO2:0.000,SO2:0.000,NH3:7.346
12:52:16,0,0,0,0,0,2700,2200,1,0,0,0,515,0,0,0,0,0.0000000,0.0000000,0.0000000,0.0000000,8.00,38.3987999,-110.7920990,1348.5999756,0.0,352.1,0.9,0.0,0.0,879,145,0,0,862.04,16.31,21.63,# data time:1970,pm2.5:6.445,pm10:5.704,O2:0.000,NO2:0.000,SO2:0.000,NH3:7.346
12:52:17,0,0,0,0,0,2700,2200,1,0,0,0,514,0,0,0,0,0.0000000,0.0000000,0.0000000,0.0000000,8.00,38.3987999,-110.7920990,1348.5999756,0.0,175.7,0.9,0.0,0.0,879,139,0,0,862.04,16.33,21.64,# data time:1970,pm2.5:6.445,pm10:5.704,O2:0.000,NO2:0.000,SO2:0.000,NH3:7.346
12:52:18,0,0,0,0,0,2700,2200,1,0,0,0,514,0,0,0,0,0.0000000,0.0000000,0.0000000,0.0000000,8.00,38.3987999,-110.7920990,1348.5999756,0.0,195.8,0.9,0.0,0.0,879,146,0,0,862.02,16.28,21.65,# data time:1970,pm2.5:6.445,pm10:5.704,O2:0.000,NO2:0.000,SO2:0.000,NH3:7.346
12:52:19,0,0,0,0,0,2700,2200,1,0,0,0,514,0,0,0,0,0.0000000,0.0000000,0.0000000,0.0000000,8.00,38.3987999,-110.7920990,1348.5999756,0.0,11.0,0.9,0.0,0.0,879,150,0,0,862.17,16.31,21.63,# data time:1970,pm2.5:6.445,pm10:5.704,O2:0.000,NO2:0.000,SO2:0.000,NH3:7.346
12:52:20,0,0,0,0,0,2700,2200,1,0,0,0,514,0,0,0,0,0.0000000,0.0000000,0.0000000,0.0000000,8.00,38.3987999,-110.7920990,1348.5999756,0.0,101.4,0.9,0.0,0.0,879,148,0,0,862.19,16.34,21.62,# data time:1980,pm2.5:6.445,pm10:5.704,O2:0.000,NO2:0.010,SO2:0.000,NH3:7.120
12:52:21,0,0,0,0,0,2700,2200,1,0,0,0,514,0,0,0,0,0.0000000,0.0000000,0.0000000,0.0000000,8.00,38.3987999,-110.7920990,1348.5999756,0.0,346.0,0.9,0.0,0.0,879,147,0,0,862.14,16.36,21.61,# data time:1980,pm2.5:6.445,pm10:5.704,O2:0.000,NO2:0.010,SO2:0.000,NH3:7.120
12:52:22,0,0,0,0,0,2700,2200,1,0,0,0,514,0,0,0,0,0.0000000,0.0000000,0.0000000,0.0000000,8.00,38.3987999,-110.7920990,1348.5999756,0.0,2.7,0.9,0.0,0.0,879,141,0,0,862.14,16.36,21.63,# data time:1980,pm2.5:6.445,pm10:5.704,O2:0.000,NO2:0.010,SO2:0.000,NH3:7.120
12:52:23,0,0,0,0,0,2700,2200,1,0,0,0,515,0,0,0,0,0.0000000,0.0000000,0.0000000,0.0000000,8.00,38.3987999,-110.7920990,1348.5999756,0.0,295.4,0.9,0.0,0.0,879,141,0,0,862.16,16.37,21.65,# data time:1980,pm2.5:6.445,pm10:5.704,O2:0.000,NO2:0.010,SO2:0.000,NH3:7.120
12:52:24,0,0,0,0,0,2700,2200,1,0,0,0,514,0,0,0,0,0.0000000,0.0000000,0.0000000,0.0000000,8.00,38.3987999,-110.7920990,1348.5999756,0.0,302.3,0.9,0.0,0.0,879,136,0,0,862.08,16.34,21.66,# data time:1980,pm2.5:6.445,pm10:5.704,O2:0.000,NO2:0.010,SO2:0.000,NH3:7.120
12:52:25,0,0,0,0,0,2700,2200,1,0,0,0,514,0,0,0,0,0.0000000,0.0000000,0.0000000,0.0000000,8.00,38.3987999,-110.7920990,1348.5999756,0.0,342.4,0.9,0.0,0.0,879,137,0,0,862.13,16.33,21.67,# data time:1980,pm2.5:6.445,pm10:5.704,O2:0.000,NO2:0.010,SO2:0.000,NH3:7.120
12:52:26,0,0,0,0,0,2700,2200,1,0,0,0,515,0,0,0,0,0.0000000,0.0000000,0.0000000,0.0000000,8.00,38.3987999,-110.7920990,1348.5999756,0.0,318.0,0.9,0.0,0.0,879,137,0,0,862.11,16.27,21.69,# data time:1980,pm2.5:6.445,pm10:5.704,O2:0.000,NO2:0.010,SO2:0.000,NH3:7.120
12:52:27,0,0,0,0,0,2700,2200,1,0,0,0,515,0,0,0,0,0.0000000,0.0000000,0.0000000,0.0000000,8.00,38.3987999,-110.7920990,1348.5999756,0.1,118.4,0.9,0.0,0.0,879,135,0,0,862.07,16.31,21.70,# data time:1980,pm2.5:6.445,pm10:5.704,O2:0.000,NO2:0.010,SO2:0.000,NH3:7.120
12:52:28,0,0,0,0,0,2700,2200,1,0,0,0,514,0,0,0,0,0.0000000,0.0000000,0.0000000,0.0000000,8.00,38.3987999,-110.7920990,1348.5999756,0.0,57.3,0.9,0.0,0.0,879,145,0,0,862.09,16.22,21.72,# data time:1980,pm2.5:6.445,pm10:5.704,O2:0.000,NO2:0.010,SO2:0.000,NH3:7.120
12:52:29,0,0,0,0,0,2700,2200,1,0,0,0,514,0,0,0,0,0.0000000,0.0000000,0.0000000,0.0000000,8.00,38.3987999,-110.7920990,1348.5999756,0.2,247.4,0.9,0.0,0.0,879,144,0,0,862.14,16.53,21.72,# data time:1980,pm2.5:6.445,pm10:5.704,O2:0.000,NO2:0.010,SO2:0.000,NH3:7.120
12:52:30,0,0,0,0,0,2700,2200,1,0,0,0,514,0,0,0,0,0.0000000,0.0000000,0.0000000,0.0000000,8.00,38.3987999,-110.7920990,1348.5999756,0.1,226.6,0.9,0.0,0.0,879,142,0,0,862.11,16.43,21.74,# data time:1990,pm2.5:6.445,pm10:5.704,O2:0.000,NO2:0.000,SO2:0.000,NH3:7.120
12:52:32,0,0,0,0,0,2700,2200,1,0,0,0,515,0,0,0,0,0.0000000,0.0000000,0.0000000,0.0000000,8.00,38.3987999,-110.7920990,1348.5999756,0.2,231.0,0.9,0.0,0.0,879,139,0,0,862.11,16.46,21.77,# data time:1990,pm2.5:6.445,pm10:5.704,O2:0.000,NO2:0.000,SO2:0.000,NH3:7.120
12:52:33,0,0,0,0,0,2700,2200,1,0,0,0,514,0,0,0,0,0.0000000,0.0000000,0.0000000,0.0000000,8.00,38.3987999,-110.7920990,1348.5999756,0.8,217.9,0.9,0.0,0.0,879,140,0,0,862.11,16.82,21.82,# data time:1990,pm2.5:6.445,pm10:5.704,O2:0.000,NO2:0.000,SO2:0.000,NH3:7.120
12:52:34,0,0,0,0,0,2700,2200,1,0,0,0,514,0,0,0,0,0.0000000,0.0000000,0.0000000,0.0000000,8.00,38.3987923,-110.7920990,1348.5999756,1.2,209.1,0.9,0.0,0.0,879,137,0,0,862.05,16.25,21.90,# data time:1990,pm2.5:6.445,pm10:5.704,O2:0.000,NO2:0.000,SO2:0.000,NH3:7.120
12:52:35,0,0,0,0,0,2700,2200,1,0,0,0,515,0,0,0,0,0.0000000,0.0000000,0.0000000,0.0000000,8.00,38.3987846,-110.7921143,1348.5000000,1.6,208.6,0.9,0.0,0.0,879,138,0,0,862.21,16.56,21.94,# data time:1990,pm2.5:6.445,pm10:5.704,O2:0.000,NO2:0.000,SO2:0.000,NH3:7.120
12:52:36,0,0,0,0,0,2700,2200,1,0,0,0,514,0,0,0,0,0.0000000,0.0000000,0.0000000,0.0000000,8.00,38.3987846,-110.7921143,1348.5000000,1.6,208.6,0.9,0.0,0.0,879,137,0,0,862.11,15.95,21.88,# data time:1990,pm2.5:6.445,pm10:5.704,O2:0.000,NO2:0.000,SO2:0.000,NH3:7.120
12:52:37,0,0,0,0,0,2700,2200,1,0,0,0,514,0,0,0,0,0.0000000,0.0000000,0.0000000,0.0000000,8.00,38.3987541,-110.7921295,1348.0000000,2.9,206.7,0.9,0.0,0.0,879,139,0,0,861.96,16.25,21.89,# data time:1990,pm2.5:6.445,pm10:5.704,O2:0.000,NO2:0.000,SO2:0.000,NH3:7.120
12:52:38,0,0,0,0,0,2700,2200,1,0,0,0,514,0,0,0,0,0.0000000,0.0000000,0.0000000,0.0000000,8.00,38.3987198,-110.7921371,1347.0000000,2.9,206.7,0.9,0.0,0.0,880,136,0,0,862.03,15.98,21.93,# data time:1990,pm2.5:6.445,pm10:5.704,O2:0.000,NO2:0.000,SO2:0.000,NH3:7.120
12:52:39,0,0,0,0,0,2700,2200,1,0,0,0,515,0,0,0,0,0.0000000,0.0000000,0.0000000,0.0000000,8.00,38.3987007,-110.7921524,1346.5999756,4.0,195.4,0.9,0.0,0.0,879,132,0,0,862.05,15.87,21.91,# data time:1990,pm2.5:6.445,pm10:5.704,O2:0.000,NO2:0.000,SO2:0.000,NH3:7.120
12:52:40,0,0,0,0,0,2700,2200,1,0,0,0,514,0,0,0,0,0.0000000,0.0000000,0.0000000,0.0000000,8.00,38.3986778,-110.7921524,1346.1999512,4.0,202.9,0.9,0.0,0.0,879,136,0,0,862.12,15.78,21.95,# data time:1990,pm2.5:6.445,pm10:5.704,O2:0.000,NO2:0.000,SO2:0.000,NH3:7.120
12:52:41,0,0,0,0,0,2700,2200,1,0,0,0,514,0,0,0,0,0.0000000,0.0000000,0.0000000,0.0000000,8.00,38.3986588,-110.7921677,1345.9000244,4.2,204.8,0.9,0.0,0.0,879,131,0,0,862.13,15.79,21.94,# data time:2000,pm2.5:6.445,pm10:5.704,O2:0.000,NO2:0.000,SO2:
12:52:42,0,0,0,0,0,2700,2200,1,0,0,0,515,0,0,0,0,0.0000000,0.0000000,0.0000000,0.0000000,8.00,38.3986359,-110.7921829,1345.5000000,4.3,201.5,0.9,0.0,0.0,879,136,0,0,862.07,15.92,21.93,# data time:2000,pm2.5:6.445,pm10:5.704,O2:0.000,NO2:0.000,SO2:
12:52:43,0,0,0,0,0,2700,2200,1,0,0,0,513,0,0,0,0,0.0000000,0.0000000,0.0000000,0.0000000,7.00,38.3986206,-110.7921906,1345.4000244,3.9,207.7,1.0,0.0,0.0,879,131,0,0,862.09,15.78,21.96,# data time:2000,pm2.5:6.445,pm10:5.704,O2:0.000,NO2:0.000,SO2:
12:52:44,0,0,0,0,0,2700,2200,1,0,0,0,515,0,0,0,0,0.0000000,0.0000000,0.0000000,0.0000000,8.00,38.3986053,-110.7921906,1345.3000488,3.7,206.8,0.9,0.0,0.0,879,133,0,0,862.07,15.99,21.97,# data time:2000,pm2.5:6.445,pm10:5.704,O2:0.000,NO2:0.000,SO2:
12:52:45,0,0,0,0,0,2700,2200,1,0,0,0,514,0,0,0,0,0.0000000,0.0000000,0.0000000,0.0000000,7.00,38.3985863,-110.7922058,1345.1999512,4.1,203.8,1.0,0.0,0.0,879,135,0,0,862.09,16.01,21.99,# data time:2000,pm2.5:6.445,pm10:5.704,O2:0.000,NO2:0.000,SO2:
12:52:46,0,0,0,0,0,2700,2200,1,0,0,0,514,0,0,0,0,0.0000000,0.0000000,0.0000000,0.0000000,7.00,38.3985672,-110.7922211,1345.1999512,4.6,205.0,1.0,0.0,0.0,879,137,0,0,862.12,15.90,22.01,# data time:2000,pm2.5:6.445,pm10:5.704,O2:0.000,NO2:0.000,SO2:
12:52:47,0,0,0,0,0,2700,2200,1,0,0,0,515,0,0,0,0,0.0000000,0.0000000,0.0000000,0.0000000,7.00,38.3985481,-110.7922287,1345.0999756,4.3,211.1,1.0,0.0,0.0,879,137,0,0,862.06,15.96,22.02,# data time:2000,pm2.5:6.445,pm10:5.704,O2:0.000,NO2:0.000,SO2:
12:52:48,0,0,0,0,0,2700,2200,1,0,0,0,514,0,0,0,0,0.0000000,0.0000000,0.0000000,0.0000000,7.00,38.3985291,-110.7922440,1345.0999756,3.9,210.3,1.0,0.0,0.0,878,140,0,0,862.17,16.45,22.01,# data time:2000,pm2.5:6.445,pm10:5.704,O2:0.000,NO2:0.000,SO2:
12:52:49,0,0,0,0,0,2700,2200,1,0,0,0,514,0,0,0,0,0.0000000,0.0000000,0.0000000,0.0000000,7.00,38.3985138,-110.7922592,1345.0000000,4.5,207.4,1.0,0.0,0.0,878,137,0,0,862.12,15.99,22.00,# data time:2000,pm2.5:6.445,pm10:5.704,O2:0.000,NO2:0.000,SO2:
12:52:50,0,0,0,0,0,2700,2200,1,0,0,0,513,0,0,0,0,0.0000000,0.0000000,0.0000000,0.0000000,8.00,38.3984909,-110.7922668,1344.9000244,4.0,204.7,0.9,0.0,0.0,879,144,0,0,861.98,15.82,21.99,# data time:2010,pm2.5:6.445,pm10:5.704,O2:0.000,NO2:0.000,SO2:0.000,NH3:6.894
12:52:51,0,0,0,0,0,2700,2200,1,0,0,0,514,0,0,0,0,0.0000000,0.0000000,0.0000000,0.0000000,8.00,38.3984756,-110.7922821,1344.9000244,4.5,215.3,0.9,0.0,0.0,878,141,0,0,862.08,15.88,22.01,# data time:2010,pm2.5:6.445,pm10:5.704,O2:0.000,NO2:0.000,SO2:0.000,NH3:6.894
12:52:52,0,0,0,0,0,2700,2200,1,0,0,0,514,0,0,0,0,0.0000000,0.0000000,0.0000000,0.0000000,8.00,38.3984604,-110.7922974,1344.5999756,4.9,209.7,0.9,0.0,0.0,879,139,0,0,862.13,15.82,22.02,# data time:2010,pm2.5:6.445,pm10:5.704,O2:0.000,NO2:0.000,SO2:0.000,NH3:6.894
12:52:53,0,0,0,0,0,2700,2200,1,0,0,0,514,0,0,0,0,0.0000000,0.0000000,0.0000000,0.0000000,8.00,38.3984413,-110.7923050,1344.3000488,4.9,213.1,0.9,0.0,0.0,878,140,0,0,862.13,15.82,22.02,# data time:2010,pm2.5:6.445,pm10:5.704,O2:0.000,NO2:0.000,SO2:0.000,NH3:6.894
12:52:54,0,0,0,0,0,2700,2200,1,0,0,0,514,0,0,0,0,0.0000000,0.0000000,0.0000000,0.0000000,8.00,38.3984222,-110.7923355,1344.3000488,5.0,215.3,0.9,0.0,0.0,878,141,0,0,862.08,15.82,22.02,# data time:2010,pm2.5:6.445,pm10:5.704,O2:0.000,NO2:0.000,SO2:0.000,NH3:6.894
12:52:55,0,0,0,0,0,2700,2200,1,0,0,0,514,0,0,0,0,0.0000000,0.0000000,0.0000000,0.0000000,8.00,38.3984070,-110.7923431,1344.1999512,4.2,215.7,0.9,0.0,0.0,878,135,0,0,862.05,15.87,22.02,# data time:2010,pm2.5:6.445,pm10:5.704,O2:0.000,NO2:0.000,SO2:0.000,NH3:6.894
12:52:56,0,0,0,0,0,2700,2200,1,0,0,0,514,0,0,0,0,0.0000000,0.0000000,0.0000000,0.0000000,8.00,38.3983917,-110.7923584,1344.3000488,3.7,211.7,0.9,0.0,0.0,879,134,0,0,862.11,15.93,22.04,# data time:2010,pm2.5:6.445,pm10:5.704,O2:0.000,NO2:0.000,SO2:0.000,NH3:6.894
12:52:57,0,0,0,0,0,2700,2200,1,0,0,0,514,0,0,0,0,0.0000000,0.0000000,0.0000000,0.0000000,7.00,38.3983727,-110.7923584,1344.5999756,3.8,214.3,1.0,0.0,0.0,879,136,0,0,862.14,15.88,22.03,# data time:2010,pm2.5:6.445,pm10:5.704,O2:0.000,NO2:0.000,SO2:0.000,NH3:6.894
12:52:58,0,0,0,0,0,2700,2200,1,0,0,0,515,0,0,0,0,0.0000000,0.0000000,0.0000000,0.0000000,8.00,38.3983498,-110.7923737,1345.4000244,4.9,204.4,0.9,0.0,0.0,879,136,0,0,862.14,15.81,22.00,# data time:2010,pm2.5:6.445,pm10:5.704,O2:0.000,NO2:0.000,SO2:0.000,NH3:6.894
12:53:00,0,0,0,0,0,2700,2200,1,0,0,0,514,0,0,0,0,0.0000000,0.0000000,0.0000000,0.0000000,8.00,38.3983269,-110.7923813,1345.8000488,4.8,203.3,0.9,0.0,0.0,878,138,0,0,862.16,15.78,21.98,# data time:2010,pm2.5:6.445,pm10:5.704,O2:0.000,NO2:0.000,SO2:0.000,NH3:6.894
12:53:01,0,0,0,0,0,2700,2200,1,0,0,0,514,0,0,0,0,0.0000000,0.0000000,0.0000000,0.0000000,8.00,38.3983078,-110.7923813,1346.0999756,4.7,202.6,0.9,0.0,0.0,879,137,0,0,862.22,15.78,21.97,# data time:2020,pm2.5:6.445,pm10:5.704,O2:0.000,NO2:0.000,SO2:0.000,NH3:6.894
12:53:02,0,0,0,0,0,2700,2200,1,0,0,0,514,0,0,0,0,0.0000000,0.0000000,0.0000000,0.0000000,8.00,38.3982887,-110.7923965,1346.4000244,3.9,197.4,0.9,0.0,0.0,879,134,0,0,862.17,15.87,21.99,# data time:2020,pm2.5:6.445,pm10:5.704,O2:0.000,NO2:0.000,SO2:0.000,NH3:6.894
12:53:03,0,0,0,0,0,2700,2200,1,0,0,0,514,0,0,0,0,0.0000000,0.0000000,0.0000000,0.0000000,8.00,38.3982735,-110.7924118,1346.4000244,3.1,195.2,0.9,0.0,0.0,879,135,0,0,862.22,15.87,21.95,# data time:2020,pm2.5:6.445,pm10:5.704,O2:0.000,NO2:0.000,SO2:0.000,NH3:6.894
12:53:04,0,0,0,0,0,2700,2200,1,0,0,0,514,0,0,0,0,0.0000000,0.0000000,0.0000000,0.0000000,8.00,38.3982620,-110.7924118,1346.3000488,2.8,199.7,0.9,0.0,0.0,878,139,0,0,862.19,15.84,21.95,# data time:2020,pm2.5:6.445,pm10:5.704,O2:0.000,NO2:0.000,SO2:0.000,NH3:6.894
12:53:05,0,0,0,0,0,2700,2200,1,0,0,0,514,0,0,0,0,0.0000000,0.0000000,0.0000000,0.0000000,8.00,38.3982468,-110.7924194,1346.5999756,2.8,199.7,0.9,0.0,0.0,879,130,0,0,862.24,15.87,22.00,# data time:2020,pm2.5:6.445,pm10:5.704,O2:0.000,NO2:0.000,SO2:0.000,NH3:6.894
12:53:06,0,0,0,0,0,2700,2200,1,0,0,0,515,0,0,0,0,0.0000000,0.0000000,0.0000000,0.0000000,8.00,38.3982391,-110.7924194,1346.6999512,2.2,190.1,0.9,0.0,0.0,878,134,0,0,862.25,16.01,22.00,# data time:2020,pm2.5:6.445,pm10:5.704,O2:0.000,NO2:0.000,SO2:0.000,NH3:6.894
12:53:07,0,0,0,0,0,2700,2200,1,0,0,0,514,0,0,0,0,0.0000000,0.0000000,0.0000000,0.0000000,8.00,38.3982277,-110.7924347,1346.8000488,2.7,195.6,0.9,0.0,0.0,879,135,0,0,862.16,15.96,22.03,# data time:2020,pm2.5:6.445,pm10:5.704,O2:0.000,NO2:0.000,SO2:0.000,NH3:6.894
12:53:08,0,0,0,0,0,2700,2200,1,0,0,0,514,0,0,0,0,0.0000000,0.0000000,0.0000000,0.0000000,8.00,38.3982124,-110.7924347,1347.0000000,3.4,191.9,0.9,0.0,0.0,879,139,0,0,862.22,15.92,22.08,# data time:2020,pm2.5:6.445,pm10:5.704,O2:0.000,NO2:0.000,SO2:0.000,NH3:6.894
12:53:09,0,0,0,0,0,2700,2200,1,0,0,0,514,0,0,0,0,0.0000000,0.0000000,0.0000000,0.0000000,8.00,38.3981934,-110.7924347,1347.0999756,3.8,184.2,0.9,0.0,0.0,879,138,0,0,862.16,15.98,22.08,# data time:2020,pm2.5:6.445,pm10:5.704,O2:0.000,NO2:0.000,SO2:0.000,NH3:6.894
12:53:10,0,0,0,0,0,2700,2200,1,0,0,0,514,0,0,0,0,0.0000000,0.0000000,0.0000000,0.0000000,8.00,38.3981781,-110.7924347,1347.1999512,3.7,193.8,0.9,0.0,0.0,879,138,0,0,862.19,15.96,22.08,# data time:2030,pm2.5:6.445,pm10:5.704,O2:0.000,NO2:0.000,SO2:0.000,NH3:6.441
12:53:11,0,0,0,0,0,2700,2200,1,0,0,0,514,0,0,0,0,0.0000000,0.0000000,0.0000000,0.0000000,8.00,38.3981590,-110.7924500,1347.1999512,4.6,190.1,0.9,0.0,0.0,878,138,0,0,862.27,15.84,22.12,# data time:2030,pm2.5:6.445,pm10:5.704,O2:0.000,NO2:0.000,SO2:0.000,NH3:6.441
12:53:12,0,0,0,0,0,2700,2200,1,0,0,0,515,0,0,0,0,0.0000000,0.0000000,0.0000000,0.0000000,8.00,38.3981400,-110.7924500,1347.4000244,4.5,195.9,0.9,0.0,0.0,879,136,0,0,862.23,15.98,22.13,# data time:2030,pm2.5:6.445,pm10:5.704,O2:0.000,NO2:0.000,SO2:0.000,NH3:6.441
12:53:13,0,0,0,0,0,2700,2200,1,0,0,0,515,0,0,0,0,0.0000000,0.0000000,0.0000000,0.0000000,8.00,38.3981171,-110.7924576,1347.8000488,4.3,193.6,0.9,0.0,0.0,879,134,0,0,862.09,15.92,22.17,# data time:2030,pm2.5:6.445,pm10:5.704,O2:0.000,NO2:0.000,SO2:0.000,NH3:6.441
12:53:14,0,0,0,0,0,2700,2200,1,0,0,0,514,0,0,0,0,0.0000000,0.0000000,0.0000000,0.0000000,8.00,38.3980980,-110.7924576,1348.0999756,4.2,188.6,0.9,0.0,0.0,879,137,0,0,862.12,15.96,22.20,# data time:2030,pm2.5:6.445,pm10:5.704,O2:0.000,NO2:0.000,SO2:0.000,NH3:6.441
12:53:15,0,0,0,0,0,2700,2200,1,0,0,0,516,0,0,0,0,0.0000000,0.0000000,0.0000000,0.0000000,8.00,38.3980751,-110.7924576,1348.5000000,4.1,183.7,0.9,0.0,0.0,877,136,0,0,862.16,15.88,22.21,# data time:2030,pm2.5:6.445,pm10:5.704,O2:0.000,NO2:0.000,SO2:0.000,NH3:6.441
12:53:16,0,0,0,0,0,2700,2200,1,0,0,0,516,0,0,0,0,0.0000000,0.0000000,0.0000000,0.0000000,8.00,38.3980522,-110.7924576,1349.0000000,4.3,182.8,0.9,0.0,0.0,879,137,0,0,862.07,15.95,22.24,# data time:2030,pm2.5:6.445,pm10:5.704,O2:0.000,NO2:0.000,SO2:0.000,NH3:6.441
