Time, Motor A Speed, Motor A Dir, Motor B Speed, Motor B Dir, Servo Rail Current Sensor, Servo Pos - Arm L, Servo Pos - Arm R, Servo Pos - End, Servo Pos - Hopper, Servo Pos - Lid, Servo Pos - Extra, Servo Current, LED - Front L, LED - Front R, LED - Back L, LED - Back R, IMU Pitch, IMU Roll, IMU Yaw, Compass Heading, GPS Sats, GPS Latitude, GPS Longitude, GPS Altitude, GPS Speed, GPS Angle, GPS HDOP, GPS VDOP, GPS PDOP, Battery, Wind, Comm Xbee Latency, Comm Arduino Latency, Pressure, Humidity, Temperature, uRADMonitor
10:15:57,0,0,0,0,0,0,0,0,0,0,0,0,0,0,0,0,0.0000000,0.0000000,0.0000000,0.0000000,0.00,0.0000000,0.0000000,0.0000000,0.0,0.0,0.0,0.0,0.0,0,0,0,0,0.00,0.00,0.00,0
10:15:58,0,0,0,0,0,0,0,0,0,0,0,515,0,0,0,0,0.0000000,0.0000000,0.0000000,0.0000000,4.00,38.4065399,-110.7921677,1295.0999756,0.3,142.3,1.7,0.0,0.0,909,128,0,0,863.02,21.27,21.95,# data time:100,pm2.5:6.445,pm10:5.704,O2:0.000,NO2:0.000,SO2:0.000,NH3:3.725
10:15:59,0,0,0,0,0,0,0,0,0,0,0,515,0,0,0,0,0.0000000,0.0000000,0.0000000,0.0000000,4.00,38.4065475,-110.7921677,1294.9000244,0.1,67.2,1.7,0.0,0.0,909,129,0,0,862.98,21.27,22.00,# data time:100,pm2.5:6.445,pm10:5.704,O2:0.000,NO2:0.000,SO2:0.000,NH3:3.725
10:16:00,0,0,0,0,0,0,0,0,0,0,0,515,0,0,0,0,0.0000000,0.0000000,0.0000000,0.0000000,4.00,38.4065514,-110.7921677,1295.5000000,0.1,18.1,1.7,0.0,0.0,910,126,0,0,862.95,21.27,21.92,# data time:100,pm2.5:6.445,pm10:5.704,O2:0.000,NO2:0.000,SO2:0.000,NH3:3.725
10:16:01,0,0,0,0,0,0,0,0,0,0,0,515,0,0,0,0,0.0000000,0.0000000,0.0000000,0.0000000,4.00,38.4065552,-110.7921677,1295.5000000,0.2,18.7,1.7,0.0,0.0,909,126,0,0,862.99,21.32,21.92,# data time:100,pm2.5:6.445,pm10:5.704,O2:0.000,NO2:0.000,SO2:0.000,NH3:3.725
10:16:02,0,0,0,0,0,0,0,0,0,0,0,516,0,0,0,0,0.0000000,0.0000000,0.0000000,0.0000000,4.00,38.4065704,-110.7921677,1293.0999756,0.2,18.7,1.7,0.0,0.0,909,128,0,0,862.97,21.26,21.97,# data time:100,pm2.5:6.445,pm10:5.704,O2:0.000,NO2:0.000,SO2:0.000,NH3:3.725
10:16:03,0,0,0,0,0,0,0,0,0,0,0,515,0,0,0,0,0.0000000,0.0000000,0.0000000,0.0000000,4.00,38.4065781,-110.7921677,1291.9000244,0.2,18.7,2.8,0.0,0.0,909,127,0,0,862.96,21.24,21.97,# data time:100,pm2.5:6.445,pm10:5.704,O2:0.000,NO2:0.000,SO2:0.000,NH3:3.725
10:16:04,0,0,0,0,0,0,0,0,0,0,0,515,0,0,0,0,0.0000000,0.0000000,0.0000000,0.0000000,4.00,38.4065781,-110.7921677,1291.5000000,0.2,18.7,1.7,0.0,0.0,908,125,0,0,862.97,21.24,21.92,# data time:100,pm2.5:6.445,pm10:5.704,O2:0.000,NO2:0.000,SO2:0.000,NH3:3.725
10:16:05,0,0,0,0,0,0,0,0,0,0,0,515,0,0,0,0,0.0000000,0.0000000,0.0000000,0.0000000,4.00,38.4065819,-110.7921829,1291.0000000,0.3,318.6,1.7,0.0,0.0,907,130,0,0,862.99,21.16,22.01,# data time:100,pm2.5:6.445,pm10:5.704,O2:0.000,NO2:0.000,SO2:0.000,NH3:3.725
10:16:06,0,0,0,0,0,0,0,0,0,0,0,514,0,0,0,0,0.0000000,0.0000000,0.0000000,0.0000000,4.00,38.4065819,-110.7921829,1290.5000000,0.3,306.4,1.7,0.0,0.0,908,120,0,0,862.96,21.06,22.01,# data time:100,pm2.5:6.445,pm10:5.704,O2:0.000,NO2:0.000,SO2:0.000,NH3:3.725
10:16:07,0,0,0,0,0,0,0,0,0,0,0,515,0,0,0,0,0.0000000,0.0000000,0.0000000,0.0000000,4.00,38.4065819,-110.7921829,1289.8000488,0.2,279.0,1.7,0.0,0.0,908,126,0,0,863.01,21.06,22.01,# data time:110,pm2.5:6.445,pm10:5.704,O2:0.000,NO2:0.000,SO2
10:16:08,0,0,0,0,0,0,0,0,0,0,0,514,0,0,0,0,0.0000000,0.0000000,0.0000000,0.0000000,4.00,38.4065781,-110.7921677,1289.1999512,0.1,242.9,1.7,0.0,0.0,909,128,0,0,863.01,21.04,22.02,# data time:110,pm2.5:6.445,pm10:5.704,O2:0.000,NO2:0.000,SO2
10:16:09,0,0,0,0,0,0,0,0,0,0,0,515,0,0,0,0,0.0000000,0.0000000,0.0000000,0.0000000,4.00,38.4065742,-110.7921677,1288.9000244,0.2,212.4,1.7,0.0,0.0,908,126,0,0,862.99,21.07,22.02,# data time:110,pm2.5:6.445,pm10:5.704,O2:0.000,NO2:0.000,SO2
10:16:10,0,0,0,0,0,0,0,0,0,0,0,515,0,0,0,0,0.0000000,0.0000000,0.0000000,0.0000000,4.00,38.4065742,-110.7921677,1287.5000000,0.2,202.8,1.7,0.0,0.0,908,127,0,0,862.95,21.10,22.02,# data time:110,pm2.5:6.445,pm10:5.704,O2:0.000,NO2:0.000,SO2
10:16:11,0,0,0,0,0,0,0,0,0,0,0,515,0,0,0,0,0.0000000,0.0000000,0.0000000,0.0000000,4.00,38.4065704,-110.7921829,1287.0999756,0.2,214.3,1.7,0.0,0.0,909,128,0,0,862.96,21.13,22.02,# data time:110,pm2.5:6.445,pm10:5.704,O2:0.000,NO2:0.000,SO2
10:16:12,0,0,0,0,0,0,0,0,0,0,0,514,0,0,0,0,0.0000000,0.0000000,0.0000000,0.0000000,4.00,38.4065666,-110.7921829,1286.6999512,0.3,207.1,1.7,0.0,0.0,908,124,0,0,862.97,21.16,22.03,# data time:110,pm2.5:6.445,pm10:5.704,O2:0.000,NO2:0.000,SO2
10:16:13,0,0,0,0,0,0,0,0,0,0,0,515,0,0,0,0,0.0000000,0.0000000,0.0000000,0.0000000,4.00,38.4065628,-110.7921829,1286.8000488,0.2,190.0,1.7,0.0,0.0,908,128,0,0,862.99,21.16,22.03,# data time:110,pm2.5:6.445,pm10:5.704,O2:0.000,NO2:0.000,SO2
10:16:14,0,0,0,0,0,0,0,0,0,0,0,521,0,0,0,0,0.0000000,0.0000000,0.0000000,0.0000000,4.00,38.4065590,-110.7921829,1286.8000488,0.2,169.5,1.7,0.0,0.0,906,126,0,0,863.02,21.18,22.03,# data time:110,pm2.5:6.445,pm10:5.704,O2:0.000,NO2:0.000,SO2
10:16:15,0,0,0,0,0,0,0,0,0,0,0,515,0,0,0,0,0.0000000,0.0000000,0.0000000,0.0000000,4.00,38.4065819,-110.7921906,1285.4000244,0.1,245.3,1.7,0.0,0.0,908,127,0,0,862.97,21.18,22.03,# data time:110,pm2.5:6.445,pm10:5.704,O2:0.000,NO2:0.000,SO2
10:16:16,0,0,0,0,0,0,0,0,0,0,0,521,0,0,0,0,0.0000000,0.0000000,0.0000000,0.0000000,4.00,38.4065857,-110.7921906,1284.9000244,0.1,235.0,1.7,0.0,0.0,906,127,0,0,862.96,21.23,22.03,# data time:110,pm2.5:6.445,pm10:5.704,O2:0.000,NO2:0.000,SO2
10:16:17,0,0,0,0,0,0,0,0,0,0,0,521,0,0,0,0,0.0000000,0.0000000,0.0000000,0.0000000,4.00,38.4065857,-110.7921906,1284.6999512,0.2,255.4,1.7,0.0,0.0,907,127,0,0,862.99,21.27,22.04,# data time:120,pm2.5:5.640,pm10:4.991,O2:0.000,NO2:0.000,SO2
10:16:18,0,0,0,0,0,0,0,0,0,0,0,515,0,0,0,0,0.0000000,0.0000000,0.0000000,0.0000000,4.00,38.4065819,-110.7922058,1285.6999512,0.2,277.2,1.7,0.0,0.0,908,128,0,0,863.01,21.30,22.04,# data time:120,pm2.5:5.640,pm10:4.991,O2:0.000,NO2:0.000,SO2
10:16:19,0,0,0,0,0,0,0,0,0,0,0,515,0,0,0,0,0.0000000,0.0000000,0.0000000,0.0000000,4.00,38.4065819,-110.7922058,1286.0000000,0.2,305.3,1.7,0.0,0.0,908,128,0,0,862.99,21.33,22.04,# data time:120,pm2.5:5.640,pm10:4.991,O2:0.000,NO2:0.000,SO2
10:16:21,0,0,0,0,0,0,0,0,0,0,0,515,0,0,0,0,0.0000000,0.0000000,0.0000000,0.0000000,4.00,38.4065857,-110.7922058,1286.1999512,0.2,305.2,1.7,0.0,0.0,908,127,0,0,862.96,21.32,22.04,# data time:120,pm2.5:5.640,pm10:4.991,O2:0.000,NO2:0.000,SO2
10:16:22,0,0,0,0,0,0,0,0,0,0,0,514,0,0,0,0,0.0000000,0.0000000,0.0000000,0.0000000,4.00,38.4065819,-110.7922058,1286.8000488,0.2,312.7,1.7,0.0,0.0,908,127,0,0,862.95,21.39,22.05,# data time:120,pm2.5:5.640,pm10:4.991,O2:0.000,NO2:0.000,SO2
10:16:23,0,0,0,0,0,0,0,0,0,0,0,514,0,0,0,0,0.0000000,0.0000000,0.0000000,0.0000000,4.00,38.4065781,-110.7922058,1287.4000244,0.2,321.2,1.7,0.0,0.0,908,130,0,0,862.98,21.42,22.05,# data time:120,pm2.5:5.640,pm10:4.991,O2:0.000,NO2:0.000,SO2
10:16:24,0,0,0,0,0,0,0,0,0,0,0,515,0,0,0,0,0.0000000,0.0000000,0.0000000,0.0000000,5.00,38.4064484,-110.7921677,1307.0999756,0.3,152.5,1.5,0.0,0.0,908,127,0,0,862.98,21.39,22.05,# data time:120,pm2.5:5.640,pm10:4.991,O2:0.000,NO2:0.000,SO2
10:16:25,0,0,0,0,0,0,0,0,0,0,0,514,0,0,0,0,0.0000000,0.0000000,0.0000000,0.0000000,5.00,38.4064026,-110.7921524,1313.1999512,0.6,162.1,1.5,0.0,0.0,908,130,0,0,863.01,21.41,22.05,# data time:120,pm2.5:5.640,pm10:4.991,O2:0.000,NO2:0.000,SO2
10:16:26,0,0,0,0,0,0,0,0,0,0,0,514,0,0,0,0,0.0000000,0.0000000,0.0000000,0.0000000,5.00,38.4063454,-110.7921371,1321.1999512,0.7,154.5,1.5,0.0,0.0,909,130,0,0,863.00,21.42,22.05,# data time:120,pm2.5:5.640,pm10:4.991,O2:0.000,NO2:0.000,SO2
10:16:27,0,0,0,0,0,0,0,0,0,0,0,514,0,0,0,0,0.0000000,0.0000000,0.0000000,0.0000000,5.00,38.4063148,-110.7921371,1326.1999512,0.7,155.4,1.5,0.0,0.0,908,127,0,0,862.95,21.41,22.05,# data time:120,pm2.5:5.640,pm10:4.991,O2:0.000,NO2:0.000,SO2
10:16:28,0,0,0,0,0,0,0,0,0,0,0,514,0,0,0,0,0.0000000,0.0000000,0.0000000,0.0000000,5.00,38.4062881,-110.7921295,1329.9000244,0.9,145.9,1.5,0.0,0.0,908,126,0,0,862.95,21.33,22.05,# data time:130,pm2.5:6.445,pm10:5.704,O2:0.000,NO2:0.000,SO2:025
10:16:29,0,0,0,0,0,0,0,0,0,0,0,515,0,0,0,0,0.0000000,0.0000000,0.0000000,0.0000000,5.00,38.4062653,-110.7921143,1332.5000000,0.9,149.7,1.5,0.0,0.0,908,125,0,0,862.99,21.30,22.05,# data time:130,pm2.5:6.445,pm10:5.704,O2:0.000,NO2:0.000,SO2:025
10:16:30,0,0,0,0,0,0,0,0,0,0,0,515,0,0,0,0,0.0000000,0.0000000,0.0000000,0.0000000,5.00,38.4062538,-110.7921143,1334.6999512,0.8,160.0,1.5,0.0,0.0,909,127,0,0,863.03,21.24,22.05,# data time:130,pm2.5:6.445,pm10:5.704,O2:0.000,NO2:0.000,SO2:025
10:16:31,0,0,0,0,0,0,0,0,0,0,0,515,0,0,0,0,0.0000000,0.0000000,0.0000000,0.0000000,5.00,38.4062424,-110.7921143,1336.5999756,0.5,166.9,1.5,0.0,0.0,908,127,0,0,862.97,21.23,22.05,# data time:130,pm2.5:6.445,pm10:5.704,O2:0.000,NO2:0.000,SO2:025
10:16:32,0,0,0,0,0,0,0,0,0,0,0,514,0,0,0,0,0.0000000,0.0000000,0.0000000,0.0000000,5.00,38.4062271,-110.7920990,1337.9000244,0.7,156.3,1.5,0.0,0.0,907,129,0,0,862.99,21.18,22.06,# data time:130,pm2.5:6.445,pm10:5.704,O2:0.000,NO2:0.000,SO2:025
10:16:33,0,0,0,0,0,0,0,0,0,0,0,515,0,0,0,0,0.0000000,0.0000000,0.0000000,0.0000000,5.00,38.4062119,-110.7920990,1339.0999756,0.8,154.2,1.5,0.0,0.0,909,125,0,0,862.99,21.18,22.06,# data time:130,pm2.5:6.445,pm10:5.704,O2:0.000,NO2:0.000,SO2:025
10:16:34,0,0,0,0,0,0,0,0,0,0,0,514,0,0,0,0,0.0000000,0.0000000,0.0000000,0.0000000,5.00,38.4062042,-110.7920914,1339.5000000,0.9,147.9,1.5,0.0,0.0,908,128,0,0,862.97,21.16,22.06,# data time:130,pm2.5:6.445,pm10:5.704,O2:0.000,NO2:0.000,SO2:025
10:16:35,0,0,0,0,0,0,0,0,0,0,0,515,0,0,0,0,0.0000000,0.0000000,0.0000000,0.0000000,5.00,38.4061928,-110.7920914,1340.6999512,0.8,152.2,1.5,0.0,0.0,909,132,0,0,862.97,21.18,22.06,# data time:130,pm2.5:6.445,pm10:5.704,O2:0.000,NO2:0.000,SO2:025
10:16:36,0,0,0,0,0,0,0,0,0,0,0,514,0,0,0,0,0.0000000,0.0000000,0.0000000,0.0000000,5.00,38.4061852,-110.7920914,1341.9000244,0.7,166.0,1.5,0.0,0.0,908,128,0,0,862.99,21.18,22.06,# data time:130,pm2.5:6.445,pm10:5.704,O2:0.000,NO2:0.000,SO2:025
10:16:37,0,0,0,0,0,0,0,0,0,0,0,515,0,0,0,0,0.0000000,0.0000000,0.0000000,0.0000000,5.00,38.4061775,-110.7920914,1342.8000488,0.7,170.1,1.5,0.0,0.0,908,126,0,0,862.96,21.15,22.06,# data time:130,pm2.5:6.445,pm10:5.704,O2:0.000,NO2:0.000,SO2:025
10:16:38,0,0,0,0,0,0,0,0,0,0,0,514,0,0,0,0,0.0000000,0.0000000,0.0000000,0.0000000,5.00,38.4061699,-110.7920914,1343.4000244,0.5,166.0,1.5,0.0,0.0,908,126,0,0,862.94,21.13,22.06,# data time:140,pm2.5:6.445,pm10:5.704,O2:0.000,NO2:0.000,SO2:0H3:3.725
10:16:39,0,0,0,0,0,0,0,0,0,0,0,514,0,0,0,0,0.0000000,0.0000000,0.0000000,0.0000000,5.00,38.4061623,-110.7920761,1343.9000244,0.5,166.9,1.5,0.0,0.0,908,128,0,0,863.01,21.13,22.06,# data time:140,pm2.5:6.445,pm10:5.704,O2:0.000,NO2:0.000,SO2:0H3:3.725
10:16:40,0,0,0,0,0,0,0,0,0,0,0,514,0,0,0,0,0.0000000,0.0000000,0.0000000,0.0000000,5.00,38.4061508,-110.7920761,1344.3000488,0.6,160.0,1.5,0.0,0.0,908,128,0,0,862.97,21.15,22.06,# data time:140,pm2.5:6.445,pm10:5.704,O2:0.000,NO2:0.000,SO2:0H3:3.725
10:16:41,0,0,0,0,0,0,0,0,0,0,0,514,0,0,0,0,0.0000000,0.0000000,0.0000000,0.0000000,5.00,38.4061432,-110.7920761,1344.5999756,0.6,153.8,1.5,0.0,0.0,909,127,0,0,863.00,21.13,22.06,# data time:140,pm2.5:6.445,pm10:5.704,O2:0.000,NO2:0.000,SO2:0H3:3.725
10:16:42,0,0,0,0,0,0,0,0,0,0,0,515,0,0,0,0,0.0000000,0.0000000,0.0000000,0.0000000,5.00,38.4061394,-110.7920609,1345.0000000,0.6,163.2,1.5,0.0,0.0,908,126,0,0,862.99,21.10,22.06,# data time:140,pm2.5:6.445,pm10:5.704,O2:0.000,NO2:0.000,SO2:0H3:3.725
10:16:43,0,0,0,0,0,0,0,0,0,0,0,514,0,0,0,0,0.0000000,0.0000000,0.0000000,0.0000000,5.00,38.4061317,-110.7920609,1345.3000488,0.6,170.9,1.5,0.0,0.0,908,128,0,0,862.98,21.07,22.06,# data time:140,pm2.5:6.445,pm10:5.704,O2:0.000,NO2:0.000,SO2:0H3:3.725
10:16:44,0,0,0,0,0,0,0,0,0,0,0,515,0,0,0,0,0.0000000,0.0000000,0.0000000,0.0000000,5.00,38.4061241,-110.7920609,1345.5000000,0.6,164.8,1.5,0.0,0.0,908,128,0,0,862.99,21.06,22.06,# data time:140,pm2.5:6.445,pm10:5.704,O2:0.000,NO2:0.000,SO2:0H3:3.725
10:16:45,0,0,0,0,0,0,0,0,0,0,0,514,0,0,0,0,0.0000000,0.0000000,0.0000000,0.0000000,5.00,38.4061165,-110.7920532,1345.5000000,0.7,165.0,1.5,0.0,0.0,908,123,0,0,862.99,21.06,22.07,# data time:140,pm2.5:6.445,pm10:5.704,O2:0.000,NO2:0.000,SO2:0H3:3.725
10:16:46,0,0,0,0,0,0,0,0,0,0,0,515,0,0,0,0,0.0000000,0.0000000,0.0000000,0.0000000,5.00,38.4061203,-110.7920609,1346.0000000,0.4,153.6,1.5,0.0,0.0,908,126,0,0,862.99,21.07,22.06,# data time:140,pm2.5:6.445,pm10:5.704,O2:0.000,NO2:0.000,SO2:0H3:3.725
10:16:47,0,0,0,0,0,0,0,0,0,0,0,514,0,0,0,0,0.0000000,0.0000000,0.0000000,0.0000000,5.00,38.4061241,-110.7920609,1346.5000000,0.2,149.5,1.5,0.0,0.0,908,124,0,0,862.98,21.06,22.06,# data time:140,pm2.5:6.445,pm10:5.704,O2:0.000,NO2:0.000,SO2:0H3:3.725
10:16:48,0,0,0,0,0,0,0,0,0,0,0,515,0,0,0,0,0.0000000,0.0000000,0.0000000,0.0000000,5.00,38.4061241,-110.7920609,1346.9000244,0.2,135.9,1.5,0.0,0.0,908,129,0,0,862.93,21.07,21.96,# data time:150,pm2.5:6.445,pm10:5.704,O2:0.000,NO2:0.000,SO2:03.725
10:16:49,0,0,0,0,0,0,0,0,0,0,0,515,0,0,0,0,0.0000000,0.0000000,0.0000000,0.0000000,5.00,38.4061279,-110.7920609,1346.9000244,0.2,105.1,1.5,0.0,0.0,908,124,0,0,862.94,21.07,21.96,# data time:150,pm2.5:6.445,pm10:5.704,O2:0.000,NO2:0.000,SO2:03.725
10:16:50,0,0,0,0,0,0,0,0,0,0,0,515,0,0,0,0,0.0000000,0.0000000,0.0000000,0.0000000,5.00,38.4061356,-110.7920609,1348.5000000,0.2,105.1,1.5,0.0,0.0,908,128,0,0,862.93,21.01,22.01,# data time:150,pm2.5:6.445,pm10:5.704,O2:0.000,NO2:0.000,SO2:03.725
10:16:51,0,0,0,0,0,0,0,0,0,0,0,515,0,0,0,0,0.0000000,0.0000000,0.0000000,0.0000000,5.00,38.4061508,-110.7920609,1349.3000488,0.3,27.8,1.5,0.0,0.0,908,130,0,0,862.98,20.98,22.02,# data time:150,pm2.5:6.445,pm10:5.704,O2:0.000,NO2:0.000,SO2:03.725
10:16:52,0,0,0,0,0,0,0,0,0,0,0,516,0,0,0,0,0.0000000,0.0000000,0.0000000,0.0000000,5.00,38.4061508,-110.7920609,1349.5000000,0.4,45.2,1.5,0.0,0.0,908,124,0,0,863.00,21.00,22.06,# data time:150,pm2.5:6.445,pm10:5.704,O2:0.000,NO2:0.000,SO2:03.725
10:16:53,0,0,0,0,0,0,0,0,0,0,0,514,0,0,0,0,0.0000000,0.0000000,0.0000000,0.0000000,5.00,38.4061470,-110.7920532,1349.5999756,0.4,68.1,1.5,0.0,0.0,908,127,0,0,863.03,20.97,22.06,# data time:150,pm2.5:6.445,pm10:5.704,O2:0.000,NO2:0.000,SO2:03.725
10:16:54,0,0,0,0,0,0,0,0,0,0,0,514,0,0,0,0,0.0000000,0.0000000,0.0000000,0.0000000,5.00,38.4061546,-110.7920532,1349.5999756,0.4,32.7,1.5,0.0,0.0,908,128,0,0,863.02,20.97,22.06,# data time:150,pm2.5:6.445,pm10:5.704,O2:0.000,NO2:0.000,SO2:03.725
10:16:55,0,0,0,0,0,0,0,0,0,0,0,514,0,0,0,0,0.0000000,0.0000000,0.0000000,0.0000000,5.00,38.4061508,-110.7920532,1349.5999756,0.2,50.2,1.5,0.0,0.0,908,125,0,0,863.00,20.94,22.06,# data time:150,pm2.5:6.445,pm10:5.704,O2:0.000,NO2:0.000,SO2:03.725
10:16:56,0,0,0,0,0,0,0,0,0,0,0,514,0,0,0,0,0.0000000,0.0000000,0.0000000,0.0000000,5.00,38.4061508,-110.7920380,1349.6999512,0.4,55.9,1.5,0.0,0.0,908,128,0,0,863.02,20.95,22.06,# data time:150,pm2.5:6.445,pm10:5.704,O2:0.000,NO2:0.000,SO2:03.725
10:16:57,0,0,0,0,0,0,0,0,0,0,0,515,0,0,0,0,0.0000000,0.0000000,0.0000000,0.0000000,5.00,38.4061470,-110.7920380,1349.4000244,0.5,72.1,1.5,0.0,0.0,908,127,0,0,862.98,20.94,22.06,# data time:160,pm2.5:6.445,pm10:5.704,O2:0.000,NO2:0.000,SO2
10:16:58,0,0,0,0,0,0,0,0,0,0,0,514,0,0,0,0,0.0000000,0.0000000,0.0000000,0.0000000,5.00,38.4061432,-110.7920227,1349.3000488,0.5,84.1,1.5,0.0,0.0,908,130,0,0,863.00,20.92,22.06,# data time:160,pm2.5:6.445,pm10:5.704,O2:0.000,NO2:0.000,SO2
10:16:59,0,0,0,0,0,0,0,0,0,0,0,514,0,0,0,0,0.0000000,0.0000000,0.0000000,0.0000000,5.00,38.4061432,-110.7920227,1349.1999512,0.3,64.1,1.5,0.0,0.0,907,129,0,0,862.97,20.89,22.06,# data time:160,pm2.5:6.445,pm10:5.704,O2:0.000,NO2:0.000,SO2
10:17:00,0,0,0,0,0,0,0,0,0,0,0,515,0,0,0,0,0.0000000,0.0000000,0.0000000,0.0000000,5.00,38.4061394,-110.7920227,1349.0999756,0.3,70.2,1.5,0.0,0.0,908,123,0,0,862.97,20.87,22.06,# data time:160,pm2.5:6.445,pm10:5.704,O2:0.000,NO2:0.000,SO2
10:17:01,0,0,0,0,0,0,0,0,0,0,0,515,0,0,0,0,0.0000000,0.0000000,0.0000000,0.0000000,5.00,38.4061394,-110.7920227,1349.0999756,0.4,75.2,1.5,0.0,0.0,907,126,0,0,862.95,20.83,22.06,# data time:160,pm2.5:6.445,pm10:5.704,O2:0.000,NO2:0.000,SO2
10:17:02,0,0,0,0,0,0,0,0,0,0,0,515,0,0,0,0,0.0000000,0.0000000,0.0000000,0.0000000,5.00,38.4061394,-110.7920227,1349.0999756,0.4,64.9,1.5,0.0,0.0,908,127,0,0,862.99,20.84,22.06,# data time:160,pm2.5:6.445,pm10:5.704,O2:0.000,NO2:0.000,SO2
10:17:03,0,0,0,0,0,0,0,0,0,0,0,514,0,0,0,0,0.0000000,0.0000000,0.0000000,0.0000000,5.00,38.4061432,-110.7920227,1349.0999756,0.3,78.6,1.5,0.0,0.0,908,127,0,0,862.98,20.84,22.06,# data time:160,pm2.5:6.445,pm10:5.704,O2:0.000,NO2:0.000,SO2
10:17:04,0,0,0,0,0,0,0,0,0,0,0,514,0,0,0,0,0.0000000,0.0000000,0.0000000,0.0000000,5.00,38.4061432,-110.7920151,1349.0999756,0.2,57.0,1.5,0.0,0.0,908,129,0,0,863.00,20.83,22.06,# data time:160,pm2.5:6.445,pm10:5.704,O2:0.000,NO2:0.000,SO2
10:17:05,0,0,0,0,0,0,0,0,0,0,0,515,0,0,0,0,0.0000000,0.0000000,0.0000000,0.0000000,5.00,38.4061432,-110.7920151,1349.0999756,0.1,15.3,1.5,0.0,0.0,908,126,0,0,862.98,20.83,22.06,# data time:160,pm2.5:6.445,pm10:5.704,O2:0.000,NO2:0.000,SO2
10:17:06,0,0,0,0,0,0,0,0,0,0,0,514,0,0,0,0,0.0000000,0.0000000,0.0000000,0.0000000,5.00,38.4061432,-110.7920151,1349.0999756,0.2,351.0,1.5,0.0,0.0,909,127,0,0,863.03,20.84,22.06,# data time:160,pm2.5:6.445,pm10:5.704,O2:0.000,NO2:0.000,SO2
10:17:07,0,0,0,0,0,0,0,0,0,0,0,514,0,0,0,0,0.0000000,0.0000000,0.0000000,0.0000000,5.00,38.4061432,-110.7920151,1349.0999756,0.3,358.7,1.9,0.0,0.0,907,126,0,0,862.98,20.86,22.06,# data time:170,pm2.5:6.445,pm10:5.704,O2:0.000,NO2:0.000,SO2
10:17:08,0,0,0,0,0,0,0,0,0,0,0,515,0,0,0,0,0.0000000,0.0000000,0.0000000,0.0000000,5.00,38.4061470,-110.7920151,1349.1999512,0.3,10.7,1.9,0.0,0.0,908,125,0,0,862.99,20.86,22.06,# data time:170,pm2.5:6.445,pm10:5.704,O2:0.000,NO2:0.000,SO2
10:17:09,0,0,0,0,0,0,0,0,0,0,0,514,0,0,0,0,0.0000000,0.0000000,0.0000000,0.0000000,5.00,38.4061470,-110.7920151,1349.1999512,0.3,12.9,1.9,0.0,0.0,908,127,0,0,862.99,20.87,22.06,# data time:170,pm2.5:6.445,pm10:5.704,O2:0.000,NO2:0.000,SO2
10:17:10,0,0,0,0,0,0,0,0,0,0,0,514,0,0,0,0,0.0000000,0.0000000,0.0000000,0.0000000,5.00,38.4061470,-110.7920151,1349.1999512,0.4,24.9,1.9,0.0,0.0,908,129,0,0,862.97,20.89,22.06,# data time:170,pm2.5:6.445,pm10:5.704,O2:0.000,NO2:0.000,SO2
10:17:11,0,0,0,0,0,0,0,0,0,0,0,515,0,0,0,0,0.0000000,0.0000000,0.0000000,0.0000000,5.00,38.4061508,-110.7920151,1349.1999512,0.4,25.5,1.5,0.0,0.0,907,131,0,0,862.99,20.91,22.06,# data time:170,pm2.5:6.445,pm10:5.704,O2:0.000,NO2:0.000,SO2
10:17:13,0,0,0,0,0,0,0,0,0,0,0,515,0,0,0,0,0.0000000,0.0000000,0.0000000,0.0000000,5.00,38.4061508,-110.7920151,1349.1999512,0.3,16.9,1.5,0.0,0.0,908,129,0,0,862.99,20.91,22.06,# data time:170,pm2.5:6.445,pm10:5.704,O2:0.000,NO2:0.000,SO2
10:17:14,0,0,0,0,0,0,0,0,0,0,0,515,0,0,0,0,0.0000000,0.0000000,0.0000000,0.0000000,5.00,38.4061546,-110.7920151,1349.1999512,0.3,11.8,1.5,0.0,0.0,908,126,0,0,862.95,20.91,22.06,# data time:170,pm2.5:6.445,pm10:5.704,O2:0.000,NO2:0.000,SO2
10:17:15,0,0,0,0,0,0,0,0,0,0,0,515,0,0,0,0,0.0000000,0.0000000,0.0000000,0.0000000,5.00,38.4061546,-110.7920151,1349.0999756,0.4,18.5,1.9,0.0,0.0,908,127,0,0,862.99,20.92,22.06,# data time:170,pm2.5:6.445,pm10:5.704,O2:0.000,NO2:0.000,SO2
10:17:16,0,0,0,0,0,0,0,0,0,0,0,514,0,0,0,0,0.0000000,0.0000000,0.0000000,0.0000000,5.00,38.4061546,-110.7920151,1349.1999512,0.3,31.0,1.5,0.0,0.0,909,125,0,0,862.98,20.95,22.06,# data time:170,pm2.5:6.445,pm10:5.704,O2:0.000,NO2:0.000,SO2
10:17:17,0,0,0,0,0,0,0,0,0,0,0,514,0,0,0,0,0.0000000,0.0000000,0.0000000,0.0000000,5.00,38.4061584,-110.7920151,1349.1999512,0.3,22.9,1.5,0.0,0.0,908,128,0,0,863.00,20.95,22.06,# data time:170,pm2.5:6.445,pm10:5.704,O2:0.000,NO2:0.000,SO2
10:17:18,0,0,0,0,0,0,0,0,0,0,0,515,0,0,0,0,0.0000000,0.0000000,0.0000000,0.0000000,5.00,38.4061584,-110.7920151,1349.1999512,0.4,28.8,1.5,0.0,0.0,908,129,0,0,863.00,20.95,22.02,# data time:180,pm2.5:6.445,pm10:5.704,O2:0.000,NO2:0.000,SO2:0.000,NH3:3.725
10:17:19,0,0,0,0,0,0,0,0,0,0,0,514,0,0,0,0,0.0000000,0.0000000,0.0000000,0.0000000,5.00,38.4061584,-110.7920151,1349.1999512,0.2,64.9,1.5,0.0,0.0,908,128,0,0,863.01,20.97,22.07,# data time:180,pm2.5:6.445,pm10:5.704,O2:0.000,NO2:0.000,SO2:0.000,NH3:3.725
10:17:20,0,0,0,0,0,0,0,0,0,0,0,515,0,0,0,0,0.0000000,0.0000000,0.0000000,0.0000000,5.00,38.4061584,-110.7920151,1349.1999512,0.2,75.6,1.5,0.0,0.0,908,127,0,0,863.02,20.97,22.07,# data time:180,pm2.5:6.445,pm10:5.704,O2:0.000,NO2:0.000,SO2:0.000,NH3:3.725
10:17:21,0,0,0,0,0,0,0,0,0,0,0,514,0,0,0,0,0.0000000,0.0000000,0.0000000,0.0000000,5.00,38.4061584,-110.7919998,1349.1999512,0.1,102.4,1.5,0.0,0.0,907,128,0,0,862.96,20.98,22.07,# data time:180,pm2.5:6.445,pm10:5.704,O2:0.000,NO2:0.000,SO2:0.000,NH3:3.725
10:17:22,0,0,0,0,0,0,0,0,0,0,0,514,0,0,0,0,0.0000000,0.0000000,0.0000000,0.0000000,5.00,38.4061584,-110.7919998,1349.1999512,0.1,99.0,1.5,0.0,0.0,908,127,0,0,863.01,21.00,22.07,# data time:180,pm2.5:6.445,pm10:5.704,O2:0.000,NO2:0.000,SO2:0.000,NH3:3.725
10:17:23,0,0,0,0,0,0,0,0,0,0,0,513,0,0,0,0,0.0000000,0.0000000,0.0000000,0.0000000,5.00,38.4061584,-110.7919998,1349.1999512,0.2,133.5,1.5,0.0,0.0,908,125,0,0,862.96,21.00,22.07,# data time:180,pm2.5:6.445,pm10:5.704,O2:0.000,NO2:0.000,SO2:0.000,NH3:3.725
10:17:24,0,0,0,0,0,0,0,0,0,0,0,514,0,0,0,0,0.0000000,0.0000000,0.0000000,0.0000000,5.00,38.4061584,-110.7919998,1349.1999512,0.2,139.2,1.5,0.0,0.0,908,128,0,0,863.00,20.89,22.07,# data time:180,pm2.5:6.445,pm10:5.704,O2:0.000,NO2:0.000,SO2:0.000,NH3:3.725
10:17:25,0,0,0,0,0,0,0,0,0,0,0,514,0,0,0,0,0.0000000,0.0000000,0.0000000,0.0000000,5.00,38.4061584,-110.7919998,1349.1999512,0.2,147.9,1.5,0.0,0.0,907,128,0,0,862.99,20.89,22.07,# data time:180,pm2.5:6.445,pm10:5.704,O2:0.000,NO2:0.000,SO2:0.000,NH3:3.725
10:17:26,0,0,0,0,0,0,0,0,0,0,0,514,0,0,0,0,0.0000000,0.0000000,0.0000000,0.0000000,5.00,38.4061584,-110.7919998,1349.1999512,0.2,168.6,1.5,0.0,0.0,908,126,0,0,862.99,20.84,22.07,# data time:180,pm2.5:6.445,pm10:5.704,O2:0.000,NO2:0.000,SO2:0.000,NH3:3.725
10:17:27,0,0,0,0,0,0,0,0,0,0,0,515,0,0,0,0,0.0000000,0.0000000,0.0000000,0.0000000,5.00,38.4061584,-110.7919998,1349.1999512,0.3,140.1,1.5,0.0,0.0,908,127,0,0,863.01,20.84,22.07,# data time:180,pm2.5:6.445,pm10:5.704,O2:0.000,NO2:0.000,SO2:0.000,NH3:3.725
10:17:28,0,0,0,0,0,0,0,0,0,0,0,515,0,0,0,0,0.0000000,0.0000000,0.0000000,0.0000000,5.00,38.4061546,-110.7919998,1349.1999512,0.3,80.3,1.5,0.0,0.0,908,125,0,0,863.03,20.84,22.07,# data time:190,pm2.5:6.445,pm10:5.704,O2:0.000,NO2:0.000,SO2
10:17:29,0,0,0,0,0,0,0,0,0,0,0,514,0,0,0,0,0.0000000,0.0000000,0.0000000,0.0000000,5.00,38.4061584,-110.7919998,1349.1999512,0.4,76.9,1.5,0.0,0.0,908,126,0,0,863.04,20.81,22.07,# data time:190,pm2.5:6.445,pm10:5.704,O2:0.000,NO2:0.000,SO2
10:17:30,0,0,0,0,0,0,0,0,0,0,0,514,0,0,0,0,0.0000000,0.0000000,0.0000000,0.0000000,5.00,38.4061584,-110.7919998,1349.1999512,0.4,69.0,1.5,0.0,0.0,908,127,0,0,862.99,20.80,22.07,# data time:190,pm2.5:6.445,pm10:5.704,O2:0.000,NO2:0.000,SO2
10:17:31,0,0,0,0,0,0,0,0,0,0,0,514,0,0,0,0,0.0000000,0.0000000,0.0000000,0.0000000,5.00,38.4061584,-110.7919998,1349.1999512,0.4,58.9,1.5,0.0,0.0,908,129,0,0,862.98,20.78,22.07,# data time:190,pm2.5:6.445,pm10:5.704,O2:0.000,NO2:0.000,SO2
10:17:32,0,0,0,0,0,0,0,0,0,0,0,515,0,0,0,0,0.0000000,0.0000000,0.0000000,0.0000000,5.00,38.4061584,-110.7919846,1349.1999512,0.5,96.5,1.5,0.0,0.0,907,128,0,0,863.02,20.75,22.08,# data time:190,pm2.5:6.445,pm10:5.704,O2:0.000,NO2:0.000,SO2
10:17:33,0,0,0,0,0,0,0,0,0,0,0,514,0,0,0,0,0.0000000,0.0000000,0.0000000,0.0000000,5.00,38.4061584,-110.7919846,1349.1999512,0.4,91.0,1.5,0.0,0.0,908,130,0,0,862.96,20.74,22.07,# data time:190,pm2.5:6.445,pm10:5.704,O2:0.000,NO2:0.000,SO2
10:17:34,0,0,0,0,0,0,0,0,0,0,0,515,0,0,0,0,0.0000000,0.0000000,0.0000000,0.0000000,5.00,38.4061584,-110.7919846,1349.1999512,0.4,88.7,1.5,0.0,0.0,908,126,0,0,862.99,20.74,22.07,# data time:190,pm2.5:6.445,pm10:5.704,O2:0.000,NO2:0.000,SO2
10:17:35,0,0,0,0,0,0,0,0,0,0,0,514,0,0,0,0,0.0000000,0.0000000,0.0000000,0.0000000,5.00,38.4061584,-110.7919846,1349.1999512,0.4,61.0,1.5,0.0,0.0,908,127,0,0,863.05,20.74,22.08,# data time:190,pm2.5:6.445,pm10:5.704,O2:0.000,NO2:0.000,SO2
10:17:36,0,0,0,0,0,0,0,0,0,0,0,514,0,0,0,0,0.0000000,0.0000000,0.0000000,0.0000000,5.00,38.4061584,-110.7919846,1349.1999512,0.4,62.4,1.5,0.0,0.0,907,127,0,0,863.00,20.72,22.07,# data time:190,pm2.5:6.445,pm10:5.704,O2:0.000,NO2:0.000,SO2
10:17:37,0,0,0,0,0,0,0,0,0,0,0,515,0,0,0,0,0.0000000,0.0000000,0.0000000,0.0000000,5.00,38.4061584,-110.7919846,1349.1999512,0.2,100.3,1.5,0.0,0.0,908,128,0,0,863.01,20.72,22.07,# data time:190,pm2.5:6.445,pm10:5.704,O2:0.000,NO2:0.000,SO2
10:17:38,0,0,0,0,0,0,0,0,0,0,0,515,0,0,0,0,0.0000000,0.0000000,0.0000000,0.0000000,5.00,38.4061584,-110.7919769,1349.1999512,0.3,100.4,1.5,0.0,0.0,908,122,0,0,862.98,20.72,21.97,# data time:200,pm2.5:6.445,pm10:5.704,O2:0.000,NO2:0.000,SO2
10:17:39,0,0,0,0,0,0,0,0,0,0,0,515,0,0,0,0,0.0000000,0.0000000,0.0000000,0.0000000,5.00,38.4061584,-110.7919769,1349.1999512,0.2,103.4,1.5,0.0,0.0,908,128,0,0,862.96,20.74,21.97,# data time:200,pm2.5:6.445,pm10:5.704,O2:0.000,NO2:0.000,SO2
10:17:40,0,0,0,0,0,0,0,0,0,0,0,514,0,0,0,0,0.0000000,0.0000000,0.0000000,0.0000000,5.00,38.4061584,-110.7919769,1349.1999512,0.3,90.9,1.5,0.0,0.0,908,128,0,0,863.00,20.74,22.03,# data time:200,pm2.5:6.445,pm10:5.704,O2:0.000,NO2:0.000,SO2
10:17:41,0,0,0,0,0,0,0,0,0,0,0,515,0,0,0,0,0.0000000,0.0000000,0.0000000,0.0000000,5.00,38.4061584,-110.7919769,1349.1999512,0.3,90.9,1.5,0.0,0.0,908,123,0,0,862.98,20.72,22.02,# data time:200,pm2.5:6.445,pm10:5.704,O2:0.000,NO2:0.000,SO2
10:17:42,0,0,0,0,0,0,0,0,0,0,0,514,0,0,0,0,0.0000000,0.0000000,0.0000000,0.0000000,5.00,38.4061546,-110.7919769,1349.1999512,0.3,122.7,1.5,0.0,0.0,908,128,0,0,863.01,20.72,22.07,# data time:200,pm2.5:6.445,pm10:5.704,O2:0.000,NO2:0.000,SO2
10:17:43,0,0,0,0,0,0,0,0,0,0,0,515,0,0,0,0,0.0000000,0.0000000,0.0000000,0.0000000,5.00,38.4061546,-110.7919769,1349.1999512,0.3,138.0,1.5,0.0,0.0,908,128,0,0,863.01,20.75,22.07,# data time:200,pm2.5:6.445,pm10:5.704,O2:0.000,NO2:0.000,SO2
10:17:44,0,0,0,0,0,0,0,0,0,0,0,515,0,0,0,0,0.0000000,0.0000000,0.0000000,0.0000000,5.00,38.4061546,-110.7919769,1349.1999512,0.4,140.6,1.5,0.0,0.0,908,129,0,0,863.01,20.75,22.08,# data time:200,pm2.5:6.445,pm10:5.704,O2:0.000,NO2:0.000,SO2
10:17:45,0,0,0,0,0,0,0,0,0,0,0,514,0,0,0,0,0.0000000,0.0000000,0.0000000,0.0000000,5.00,38.4061508,-110.7919617,1349.1999512,0.2,148.9,1.5,0.0,0.0,908,126,0,0,863.04,20.77,22.08,# data time:200,pm2.5:6.445,pm10:5.704,O2:0.000,NO2:0.000,SO2
10:17:46,0,0,0,0,0,0,0,0,0,0,0,514,0,0,0,0,0.0000000,0.0000000,0.0000000,0.0000000,5.00,38.4061508,-110.7919617,1349.1999512,0.3,151.2,1.5,0.0,0.0,907,129,0,0,863.00,20.77,22.08,# data time:200,pm2.5:6.445,pm10:5.704,O2:0.000,NO2:0.000,SO2
10:17:47,0,0,0,0,0,0,0,0,0,0,0,515,0,0,0,0,0.0000000,0.0000000,0.0000000,0.0000000,5.00,38.4061508,-110.7919617,1349.1999512,0.1,142.2,1.5,0.0,0.0,908,125,0,0,863.02,20.77,22.04,# data time:210,pm2.5:6.445,pm10:5.704,O2:0.000,NO2:0.000,SO2:0.000,NH3:3.725
10:17:48,0,0,0,0,0,0,0,0,0,0,0,514,0,0,0,0,0.0000000,0.0000000,0.0000000,0.0000000,5.00,38.4061508,-110.7919617,1349.1999512,0.1,180.2,1.5,0.0,0.0,908,130,0,0,862.99,20.77,22.08,# data time:210,pm2.5:6.445,pm10:5.704,O2:0.000,NO2:0.000,SO2:0.000,NH3:3.725
10:17:49,0,0,0,0,0,0,0,0,0,0,0,514,0,0,0,0,0.0000000,0.0000000,0.0000000,0.0000000,5.00,38.4061470,-110.7919617,1349.1999512,0.2,166.2,1.5,0.0,0.0,908,128,0,0,863.02,20.77,22.08,# data time:210,pm2.5:6.445,pm10:5.704,O2:0.000,NO2:0.000,SO2:0.000,NH3:3.725
10:17:50,0,0,0,0,0,0,0,0,0,0,0,515,0,0,0,0,0.0000000,0.0000000,0.0000000,0.0000000,5.00,38.4061470,-110.7919617,1349.1999512,0.3,179.4,1.5,0.0,0.0,908,121,0,0,863.00,20.77,22.08,# data time:210,pm2.5:6.445,pm10:5.704,O2:0.000,NO2:0.000,SO2:0.000,NH3:3.725
10:17:51,0,0,0,0,0,0,0,0,0,0,0,514,0,0,0,0,0.0000000,0.0000000,0.0000000,0.0000000,5.00,38.4061470,-110.7919617,1349.1999512,0.4,174.3,1.5,0.0,0.0,908,127,0,0,863.04,20.75,22.08,# data time:210,pm2.5:6.445,pm10:5.704,O2:0.000,NO2:0.000,SO2:0.000,NH3:3.725
10:17:52,0,0,0,0,0,0,0,0,0,0,0,514,0,0,0,0,0.0000000,0.0000000,0.0000000,0.0000000,5.00,38.4061432,-110.7919617,1349.1999512,0.6,171.1,1.5,0.0,0.0,907,128,0,0,863.03,20.78,22.08,# data time:210,pm2.5:6.445,pm10:5.704,O2:0.000,NO2:0.000,SO2:0.000,NH3:3.725
10:17:53,0,0,0,0,0,0,0,0,0,0,0,515,0,0,0,0,0.0000000,0.0000000,0.0000000,0.0000000,5.00,38.4061317,-110.7919617,1349.4000244,0.7,167.9,1.5,0.0,0.0,908,128,0,0,862.95,20.78,22.08,# data time:210,pm2.5:6.445,pm10:5.704,O2:0.000,NO2:0.000,SO2:0.000,NH3:3.725
10:17:54,0,0,0,0,0,0,0,0,0,0,0,515,0,0,0,0,0.0000000,0.0000000,0.0000000,0.0000000,5.00,38.4061203,-110.7919617,1349.5000000,0.8,166.5,1.5,0.0,0.0,908,127,0,0,863.01,20.78,22.09,# data time:210,pm2.5:6.445,pm10:5.704,O2:0.000,NO2:0.000,SO2:0.000,NH3:3.725
10:17:55,0,0,0,0,0,0,0,0,0,0,0,514,0,0,0,0,0.0000000,0.0000000,0.0000000,0.0000000,5.00,38.4061127,-110.7919617,1349.6999512,0.8,162.8,1.5,0.0,0.0,908,127,0,0,863.01,20.77,22.09,# data time:210,pm2.5:6.445,pm10:5.704,O2:0.000,NO2:0.000,SO2:0.000,NH3:3.725
10:17:56,0,0,0,0,0,0,0,0,0,0,0,514,0,0,0,0,0.0000000,0.0000000,0.0000000,0.0000000,5.00,38.4060974,-110.7919464,1349.8000488,0.9,157.9,1.5,0.0,0.0,907,126,0,0,863.08,20.77,22.09,# data time:210,pm2.5:6.445,pm10:5.704,O2:0.000,NO2:0.000,SO2:0.000,NH3:3.725
10:17:57,0,0,0,0,0,0,0,0,0,0,0,514,0,0,0,0,0.0000000,0.0000000,0.0000000,0.0000000,5.00,38.4060936,-110.7919388,1350.0000000,0.9,153.2,1.5,0.0,0.0,907,127,0,0,862.97,20.77,22.04,# data time:220,pm2.5:6.445,pm10:5.704,O2:0.000,NO2:0.000,SO2:0.000,NH3:3.725
10:17:58,0,0,0,0,0,0,0,0,0,0,0,515,0,0,0,0,0.0000000,0.0000000,0.0000000,0.0000000,5.00,38.4060860,-110.7919388,1350.0999756,0.9,148.4,1.5,0.0,0.0,908,125,0,0,863.00,20.75,22.08,# data time:220,pm2.5:6.445,pm10:5.704,O2:0.000,NO2:0.000,SO2:0.000,NH3:3.725
10:17:59,0,0,0,0,0,0,0,0,0,0,0,514,0,0,0,0,0.0000000,0.0000000,0.0000000,0.0000000,5.00,38.4060783,-110.7919235,1350.1999512,0.9,144.6,1.5,0.0,0.0,907,124,0,0,863.01,20.77,22.08,# data time:220,pm2.5:6.445,pm10:5.704,O2:0.000,NO2:0.000,SO2:0.000,NH3:3.725
10:18:01,0,0,0,0,0,0,0,0,0,0,0,515,0,0,0,0,0.0000000,0.0000000,0.0000000,0.0000000,5.00,38.4060745,-110.7919235,1350.4000244,0.9,148.2,1.5,0.0,0.0,908,129,0,0,863.00,20.74,22.08,# data time:220,pm2.5:6.445,pm10:5.704,O2:0.000,NO2:0.000,SO2:0.000,NH3:3.725
10:18:02,0,0,0,0,0,0,0,0,0,0,0,515,0,0,0,0,0.0000000,0.0000000,0.0000000,0.0000000,5.00,38.4060669,-110.7919235,1350.5999756,0.9,151.7,1.5,0.0,0.0,908,128,0,0,862.99,20.75,22.09,# data time:220,pm2.5:6.445,pm10:5.704,O2:0.000,NO2:0.000,SO2:0.000,NH3:3.725
10:18:03,0,0,0,0,0,0,0,0,0,0,0,515,0,0,0,0,0.0000000,0.0000000,0.0000000,0.0000000,5.00,38.4060593,-110.7919235,1350.8000488,0.8,157.1,1.5,0.0,0.0,907,128,0,0,863.00,20.75,22.09,# data time:220,pm2.5:6.445,pm10:5.704,O2:0.000,NO2:0.000,SO2:0.000,NH3:3.725
10:18:04,0,0,0,0,0,0,0,0,0,0,0,514,0,0,0,0,0.0000000,0.0000000,0.0000000,0.0000000,5.00,38.4060555,-110.7919235,1351.0999756,0.9,164.1,1.5,0.0,0.0,907,124,0,0,863.01,20.77,22.09,# data time:220,pm2.5:6.445,pm10:5.704,O2:0.000,NO2:0.000,SO2:0.000,NH3:3.725
10:18:05,0,0,0,0,0,0,0,0,0,0,0,515,0,0,0,0,0.0000000,0.0000000,0.0000000,0.0000000,5.00,38.4060516,-110.7919235,1351.4000244,0.8,157.9,1.5,0.0,0.0,907,130,0,0,863.03,20.77,22.09,# data time:220,pm2.5:6.445,pm10:5.704,O2:0.000,NO2:0.000,SO2:0.000,NH3:3.725
10:18:06,0,0,0,0,0,0,0,0,0,0,0,515,0,0,0,0,0.0000000,0.0000000,0.0000000,0.0000000,5.00,38.4060516,-110.7919235,1351.6999512,0.8,150.9,1.5,0.0,0.0,908,129,0,0,863.04,20.78,22.09,# data time:220,pm2.5:6.445,pm10:5.704,O2:0.000,NO2:0.000,SO2:0.000,NH3:3.725
10:18:07,0,0,0,0,0,0,0,0,0,0,0,514,0,0,0,0,0.0000000,0.0000000,0.0000000,0.0000000,5.00,38.4060440,-110.7919235,1352.0000000,0.8,147.3,1.5,0.0,0.0,908,130,0,0,862.98,20.77,22.09,# data time:220,pm2.5:6.445,pm10:5.704,O2:0.000,NO2:0.000,SO2:0.000,NH3:3.725
10:18:08,0,0,0,0,0,0,0,0,0,0,0,514,0,0,0,0,0.0000000,0.0000000,0.0000000,0.0000000,5.00,38.4060440,-110.7919235,1352.3000488,0.7,147.7,1.5,0.0,0.0,908,128,0,0,862.98,20.78,22.06,# data time:230,pm2.5:6.445,pm10:5.704,O2:0.000,NO2:0.000,SO2:0.000,NH3:3.952
10:18:09,0,0,0,0,0,0,0,0,0,0,0,515,0,0,0,0,0.0000000,0.0000000,0.0000000,0.0000000,5.00,38.4060402,-110.7919235,1352.5999756,0.7,146.9,1.5,0.0,0.0,907,125,0,0,863.02,20.80,22.10,# data time:230,pm2.5:6.445,pm10:5.704,O2:0.000,NO2:0.000,SO2:0.000,NH3:3.952
10:18:10,0,0,0,0,0,0,0,0,0,0,0,514,0,0,0,0,0.0000000,0.0000000,0.0000000,0.0000000,5.00,38.4060364,-110.7919235,1352.9000244,0.7,152.2,1.5,0.0,0.0,907,126,0,0,862.99,20.81,22.09,# data time:230,pm2.5:6.445,pm10:5.704,O2:0.000,NO2:0.000,SO2:0.000,NH3:3.952
10:18:11,0,0,0,0,0,0,0,0,0,0,0,515,0,0,0,0,0.0000000,0.0000000,0.0000000,0.0000000,5.00,38.4060326,-110.7919235,1353.1999512,0.7,154.8,1.5,0.0,0.0,907,128,0,0,862.97,20.84,22.10,# data time:230,pm2.5:6.445,pm10:5.704,O2:0.000,NO2:0.000,SO2:0.000,NH3:3.952
10:18:12,0,0,0,0,0,0,0,0,0,0,0,514,0,0,0,0,0.0000000,0.0000000,0.0000000,0.0000000,5.00,38.4060326,-110.7919388,1353.5000000,0.7,162.8,1.5,0.0,0.0,908,130,0,0,862.98,20.86,22.09,# data time:230,pm2.5:6.445,pm10:5.704,O2:0.000,NO2:0.000,SO2:0.000,NH3:3.952
10:18:13,0,0,0,0,0,0,0,0,0,0,0,514,0,0,0,0,0.0000000,0.0000000,0.0000000,0.0000000,5.00,38.4060326,-110.7919388,1354.0000000,0.6,173.0,1.5,0.0,0.0,907,128,0,0,863.02,20.89,22.10,# data time:230,pm2.5:6.445,pm10:5.704,O2:0.000,NO2:0.000,SO2:0.000,NH3:3.952
10:18:14,0,0,0,0,0,0,0,0,0,0,0,515,0,0,0,0,0.0000000,0.0000000,0.0000000,0.0000000,5.00,38.4060326,-110.7919388,1354.1999512,0.6,177.3,1.5,0.0,0.0,907,128,0,0,863.01,20.89,22.10,# data time:230,pm2.5:6.445,pm10:5.704,O2:0.000,NO2:0.000,SO2:0.000,NH3:3.952
10:18:15,0,0,0,0,0,0,0,0,0,0,0,515,0,0,0,0,0.0000000,0.0000000,0.0000000,0.0000000,5.00,38.4060364,-110.7919388,1354.5000000,0.5,166.9,1.5,0.0,0.0,907,126,0,0,863.06,20.89,22.11,# data time:230,pm2.5:6.445,pm10:5.704,O2:0.000,NO2:0.000,SO2:0.000,NH3:3.952
10:18:16,0,0,0,0,0,0,0,0,0,0,0,515,0,0,0,0,0.0000000,0.0000000,0.0000000,0.0000000,5.00,38.4060402,-110.7919388,1354.8000488,0.4,140.8,1.5,0.0,0.0,908,126,0,0,863.03,20.91,22.10,# data time:230,pm2.5:6.445,pm10:5.704,O2:0.000,NO2:0.000,SO2:0.000,NH3:3.952
10:18:17,0,0,0,0,0,0,0,0,0,0,0,514,0,0,0,0,0.0000000,0.0000000,0.0000000,0.0000000,5.00,38.4060440,-110.7919388,1355.0999756,0.4,125.3,1.5,0.0,0.0,907,130,0,0,863.02,20.86,22.10,# data time:230,pm2.5:6.445,pm10:5.704,O2:0.000,NO2:0.000,SO2:0.000,NH3:3.952
10:18:18,0,0,0,0,0,0,0,0,0,0,0,515,0,0,0,0,0.0000000,0.0000000,0.0000000,0.0000000,5.00,38.4060440,-110.7919464,1355.4000244,0.4,125.3,1.5,0.0,0.0,907,129,0,0,862.97,20.87,22.06,# data time:240,pm2.5:6.445,pm10:5.704,O2:0.000,NO2:0.000,SO2:0.000,NH3:3.725
10:18:19,0,0,0,0,0,0,0,0,0,0,0,514,0,0,0,0,0.0000000,0.0000000,0.0000000,0.0000000,5.00,38.4060402,-110.7919388,1355.4000244,0.3,124.7,1.5,0.0,0.0,907,134,0,0,862.99,20.86,22.06,# data time:240,pm2.5:6.445,pm10:5.704,O2:0.000,NO2:0.000,SO2:0.000,NH3:3.725
10:18:20,0,0,0,0,0,0,0,0,0,0,0,514,0,0,0,0,0.0000000,0.0000000,0.0000000,0.0000000,5.00,38.4060402,-110.7919388,1355.4000244,0.2,121.3,1.5,0.0,0.0,907,128,0,0,863.00,20.84,22.10,# data time:240,pm2.5:6.445,pm10:5.704,O2:0.000,NO2:0.000,SO2:0.000,NH3:3.725
10:18:21,0,0,0,0,0,0,0,0,0,0,0,515,0,0,0,0,0.0000000,0.0000000,0.0000000,0.0000000,5.00,38.4060402,-110.7919388,1355.4000244,0.2,130.4,1.5,0.0,0.0,908,128,0,0,863.01,20.84,22.10,# data time:240,pm2.5:6.445,pm10:5.704,O2:0.000,NO2:0.000,SO2:0.000,NH3:3.725
10:18:22,0,0,0,0,0,0,0,0,0,0,0,515,0,0,0,0,0.0000000,0.0000000,0.0000000,0.0000000,5.00,38.4060402,-110.7919388,1355.4000244,0.3,117.4,1.5,0.0,0.0,907,124,0,0,862.98,20.86,22.10,# data time:240,pm2.5:6.445,pm10:5.704,O2:0.000,NO2:0.000,SO2:0.000,NH3:3.725
10:18:23,0,0,0,0,0,0,0,0,0,0,0,514,0,0,0,0,0.0000000,0.0000000,0.0000000,0.0000000,5.00,38.4060402,-110.7919388,1355.4000244,0.3,103.9,1.5,0.0,0.0,907,126,0,0,863.00,20.84,22.10,# data time:240,pm2.5:6.445,pm10:5.704,O2:0.000,NO2:0.000,SO2:0.000,NH3:3.725
10:18:24,0,0,0,0,0,0,0,0,0,0,0,514,0,0,0,0,0.0000000,0.0000000,0.0000000,0.0000000,5.00,38.4060402,-110.7919388,1355.4000244,0.4,107.7,1.5,0.0,0.0,907,128,0,0,862.98,20.84,22.10,# data time:240,pm2.5:6.445,pm10:5.704,O2:0.000,NO2:0.000,SO2:0.000,NH3:3.725
10:18:25,0,0,0,0,0,0,0,0,0,0,0,514,0,0,0,0,0.0000000,0.0000000,0.0000000,0.0000000,5.00,38.4060402,-110.7919388,1355.5000000,0.3,118.1,1.5,0.0,0.0,907,129,0,0,863.01,20.81,22.10,# data time:240,pm2.5:6.445,pm10:5.704,O2:0.000,NO2:0.000,SO2:0.000,NH3:3.725
10:18:26,0,0,0,0,0,0,0,0,0,0,0,515,0,0,0,0,0.0000000,0.0000000,0.0000000,0.0000000,5.00,38.4060402,-110.7919235,1355.5000000,0.3,118.7,1.5,0.0,0.0,907,126,0,0,863.00,20.84,22.10,# data time:240,pm2.5:6.445,pm10:5.704,O2:0.000,NO2:0.000,SO2:0.000,NH3:3.725
10:18:27,0,0,0,0,0,0,0,0,0,0,0,515,0,0,0,0,0.0000000,0.0000000,0.0000000,0.0000000,5.00,38.4060364,-110.7919235,1355.5000000,0.4,131.6,1.5,0.0,0.0,907,130,0,0,863.01,20.84,22.10,# data time:240,pm2.5:6.445,pm10:5.704,O2:0.000,NO2:0.000,SO2:0.000,NH3:3.725
10:18:28,0,0,0,0,0,0,0,0,0,0,0,515,0,0,0,0,0.0000000,0.0000000,0.0000000,0.0000000,5.00,38.4060364,-110.7919235,1355.5000000,0.4,140.8,1.5,0.0,0.0,907,127,0,0,862.95,20.84,22.05,# data time:250,pm2.5:6.445,pm10:5.704,O2:0.000,NO2:0.000,SO2:0.000,NH3:3.952
10:18:29,0,0,0,0,0,0,0,0,0,0,0,515,0,0,0,0,0.0000000,0.0000000,0.0000000,0.0000000,5.00,38.4060364,-110.7919235,1355.5000000,0.4,131.1,1.5,0.0,0.0,907,126,0,0,863.03,20.86,22.10,# data time:250,pm2.5:6.445,pm10:5.704,O2:0.000,NO2:0.000,SO2:0.000,NH3:3.952
10:18:30,0,0,0,0,0,0,0,0,0,0,0,514,0,0,0,0,0.0000000,0.0000000,0.0000000,0.0000000,5.00,38.4060326,-110.7919235,1355.5000000,0.3,128.3,1.5,0.0,0.0,907,129,0,0,863.03,20.89,22.11,# data time:250,pm2.5:6.445,pm10:5.704,O2:0.000,NO2:0.000,SO2:0.000,NH3:3.952
10:18:31,0,0,0,0,0,0,0,0,0,0,0,514,0,0,0,0,0.0000000,0.0000000,0.0000000,0.0000000,5.00,38.4060326,-110.7919235,1355.5000000,0.3,133.2,1.5,0.0,0.0,907,127,0,0,863.03,20.87,22.11,# data time:250,pm2.5:6.445,pm10:5.704,O2:0.000,NO2:0.000,SO2:0.000,NH3:3.952
10:18:32,0,0,0,0,0,0,0,0,0,0,0,515,0,0,0,0,0.0000000,0.0000000,0.0000000,0.0000000,5.00,38.4060326,-110.7919235,1355.5000000,0.2,128.3,1.5,0.0,0.0,907,128,0,0,862.96,20.91,22.11,# data time:250,pm2.5:6.445,pm10:5.704,O2:0.000,NO2:0.000,SO2:0.000,NH3:3.952
10:18:33,0,0,0,0,0,0,0,0,0,0,0,514,0,0,0,0,0.0000000,0.0000000,0.0000000,0.0000000,5.00,38.4060326,-110.7919235,1355.5000000,0.1,107.8,1.5,0.0,0.0,907,126,0,0,863.00,20.98,22.12,# data time:250,pm2.5:6.445,pm10:5.704,O2:0.000,NO2:0.000,SO2:0.000,NH3:3.952
10:18:34,0,0,0,0,0,0,0,0,0,0,0,515,0,0,0,0,0.0000000,0.0000000,0.0000000,0.0000000,5.00,38.4060326,-110.7919235,1355.5000000,0.2,70.4,1.5,0.0,0.0,907,129,0,0,863.01,20.92,22.12,# data time:250,pm2.5:6.445,pm10:5.704,O2:0.000,NO2:0.000,SO2:0.000,NH3:3.952
10:18:35,0,0,0,0,0,0,0,0,0,0,0,514,0,0,0,0,0.0000000,0.0000000,0.0000000,0.0000000,5.00,38.4060326,-110.7919235,1355.5000000,0.2,45.6,1.5,0.0,0.0,907,129,0,0,862.99,20.94,22.11,# data time:250,pm2.5:6.445,pm10:5.704,O2:0.000,NO2:0.000,SO2:0.000,NH3:3.952
10:18:36,0,0,0,0,0,0,0,0,0,0,0,514,0,0,0,0,0.0000000,0.0000000,0.0000000,0.0000000,5.00,38.4060326,-110.7919235,1355.5000000,0.3,28.0,1.5,0.0,0.0,907,130,0,0,863.01,20.91,22.12,# data time:250,pm2.5:6.445,pm10:5.704,O2:0.000,NO2:0.000,SO2:0.000,NH3:3.952
10:18:37,0,0,0,0,0,0,0,0,0,0,0,515,0,0,0,0,0.0000000,0.0000000,0.0000000,0.0000000,5.00,38.4060364,-110.7919235,1355.5000000,0.4,24.6,1.5,0.0,0.0,907,128,0,0,863.03,20.84,22.12,# data time:260,pm2.5:6.445,pm10:5.704,O2:0.000,NO2:0.000,SO2:0.000,NH3:3.952
10:18:38,0,0,0,0,0,0,0,0,0,0,0,515,0,0,0,0,0.0000000,0.0000000,0.0000000,0.0000000,5.00,38.4060364,-110.7919235,1355.5000000,0.4,24.6,1.5,0.0,0.0,907,130,0,0,862.94,20.84,22.01,# data time:260,pm2.5:6.445,pm10:5.704,O2:0.000,NO2:0.000,SO2:0.000,NH3:3.952
10:18:39,0,0,0,0,0,0,0,0,0,0,0,515,0,0,0,0,0.0000000,0.0000000,0.0000000,0.0000000,5.00,38.4060402,-110.7919083,1355.5000000,0.4,24.6,1.5,0.0,0.0,907,133,0,0,862.95,20.86,22.02,# data time:260,pm2.5:6.445,pm10:5.704,O2:0.000,NO2:0.000,SO2:0.000,NH3:3.952
10:18:40,0,0,0,0,0,0,0,0,0,0,0,514,0,0,0,0,0.0000000,0.0000000,0.0000000,0.0000000,5.00,38.4060402,-110.7919083,1355.5000000,0.4,24.6,1.5,0.0,0.0,907,127,0,0,863.00,20.84,22.02,# data time:260,pm2.5:6.445,pm10:5.704,O2:0.000,NO2:0.000,SO2:0.000,NH3:3.952
10:18:41,0,0,0,0,0,0,0,0,0,0,0,514,0,0,0,0,0.0000000,0.0000000,0.0000000,0.0000000,5.00,38.4060440,-110.7919083,1355.5000000,0.5,22.6,1.5,0.0,0.0,907,125,0,0,862.98,20.80,22.08,# data time:260,pm2.5:6.445,pm10:5.704,O2:0.000,NO2:0.000,SO2:0.000,NH3:3.952
10:18:42,0,0,0,0,0,0,0,0,0,0,0,515,0,0,0,0,0.0000000,0.0000000,0.0000000,0.0000000,5.00,38.4060478,-110.7919083,1355.5000000,0.6,16.8,1.5,0.0,0.0,907,133,0,0,862.98,20.81,22.11,# data time:260,pm2.5:6.445,pm10:5.704,O2:0.000,NO2:0.000,SO2:0.000,NH3:3.952
10:18:43,0,0,0,0,0,0,0,0,0,0,0,515,0,0,0,0,0.0000000,0.0000000,0.0000000,0.0000000,5.00,38.4060516,-110.7919083,1355.5000000,0.6,13.4,1.5,0.0,0.0,907,125,0,0,863.02,20.77,22.11,# data time:260,pm2.5:6.445,pm10:5.704,O2:0.000,NO2:0.000,SO2:0.000,NH3:3.952
10:18:44,0,0,0,0,0,0,0,0,0,0,0,514,0,0,0,0,0.0000000,0.0000000,0.0000000,0.0000000,5.00,38.4060593,-110.7919083,1355.6999512,0.6,10.8,1.9,0.0,0.0,907,128,0,0,862.98,20.75,22.11,# data time:260,pm2.5:6.445,pm10:5.704,O2:0.000,NO2:0.000,SO2:0.000,NH3:3.952
10:18:45,0,0,0,0,0,0,0,0,0,0,0,515,0,0,0,0,0.0000000,0.0000000,0.0000000,0.0000000,5.00,38.4060593,-110.7919235,1356.0000000,0.5,359.3,1.9,0.0,0.0,907,126,0,0,862.98,20.75,22.11,# data time:260,pm2.5:6.445,pm10:5.704,O2:0.000,NO2:0.000,SO2:0.000,NH3:3.952
10:18:46,0,0,0,0,0,0,0,0,0,0,0,515,0,0,0,0,0.0000000,0.0000000,0.0000000,0.0000000,5.00,38.4060669,-110.7919388,1356.3000488,0.5,354.0,1.9,0.0,0.0,907,126,0,0,863.04,20.77,22.11,# data time:260,pm2.5:6.445,pm10:5.704,O2:0.000,NO2:0.000,SO2:0.000,NH3:3.952
10:18:47,0,0,0,0,0,0,0,0,0,0,0,514,0,0,0,0,0.0000000,0.0000000,0.0000000,0.0000000,5.00,38.4060669,-110.7919388,1356.3000488,0.5,354.0,1.9,0.0,0.0,907,126,0,0,862.98,20.74,22.03,# data time:270,pm2.5:6.445,pm10:5.704,O2:0.000,NO2:0.000,SO2:0.000,NH3:3.725
10:18:49,0,0,0,0,0,0,0,0,0,0,0,514,0,0,0,0,0.0000000,0.0000000,0.0000000,0.0000000,5.00,38.4060745,-110.7919388,1356.5999756,0.5,344.1,1.9,0.0,0.0,907,128,0,0,863.04,20.74,22.11,# data time:270,pm2.5:6.445,pm10:5.704,O2:0.000,NO2:0.000,SO2:0.000,NH3:3.725
10:18:50,0,0,0,0,0,0,0,0,0,0,0,514,0,0,0,0,0.0000000,0.0000000,0.0000000,0.0000000,5.00,38.4060783,-110.7919388,1356.5999756,0.5,325.4,1.5,0.0,0.0,907,129,0,0,863.02,20.75,22.12,# data time:270,pm2.5:6.445,pm10:5.704,O2:0.000,NO2:0.000,SO2:0.000,NH3:3.725
10:18:51,0,0,0,0,0,0,0,0,0,0,0,514,0,0,0,0,0.0000000,0.0000000,0.0000000,0.0000000,5.00,38.4060783,-110.7919464,1356.5999756,0.6,309.4,1.5,0.0,0.0,906,127,0,0,863.05,20.74,22.12,# data time:270,pm2.5:6.445,pm10:5.704,O2:0.000,NO2:0.000,SO2:0.000,NH3:3.725
10:18:52,0,0,0,0,0,0,0,0,0,0,0,514,0,0,0,0,0.0000000,0.0000000,0.0000000,0.0000000,5.00,38.4060822,-110.7919464,1356.5999756,0.6,308.9,1.5,0.0,0.0,907,127,0,0,863.02,20.77,22.12,# data time:270,pm2.5:6.445,pm10:5.704,O2:0.000,NO2:0.000,SO2:0.000,NH3:3.725
10:18:53,0,0,0,0,0,0,0,0,0,0,0,514,0,0,0,0,0.0000000,0.0000000,0.0000000,0.0000000,5.00,38.4060898,-110.7919617,1356.9000244,0.6,315.2,1.5,0.0,0.0,907,130,0,0,862.97,20.77,22.13,# data time:270,pm2.5:6.445,pm10:5.704,O2:0.000,NO2:0.000,SO2:0.000,NH3:3.725
10:18:54,0,0,0,0,0,0,0,0,0,0,0,515,0,0,0,0,0.0000000,0.0000000,0.0000000,0.0000000,5.00,38.4060936,-110.7919617,1357.0000000,0.5,322.6,1.5,0.0,0.0,907,127,0,0,863.03,20.77,22.12,# data time:270,pm2.5:6.445,pm10:5.704,O2:0.000,NO2:0.000,SO2:0.000,NH3:3.725
10:18:55,0,0,0,0,0,0,0,0,0,0,0,514,0,0,0,0,0.0000000,0.0000000,0.0000000,0.0000000,5.00,38.4061012,-110.7919617,1357.1999512,0.5,329.1,1.5,0.0,0.0,907,125,0,0,863.01,20.77,22.13,# data time:270,pm2.5:6.445,pm10:5.704,O2:0.000,NO2:0.000,SO2:0.000,NH3:3.725
10:18:56,0,0,0,0,0,0,0,0,0,0,0,515,0,0,0,0,0.0000000,0.0000000,0.0000000,0.0000000,5.00,38.4061050,-110.7919617,1357.1999512,0.4,319.8,1.5,0.0,0.0,907,128,0,0,863.05,20.74,22.12,# data time:270,pm2.5:6.445,pm10:5.704,O2:0.000,NO2:0.000,SO2:0.000,NH3:3.725
10:18:57,0,0,0,0,0,0,0,0,0,0,0,515,0,0,0,0,0.0000000,0.0000000,0.0000000,0.0000000,5.00,38.4061050,-110.7919617,1357.1999512,0.4,308.5,1.5,0.0,0.0,907,124,0,0,863.03,20.74,22.13,# data time:270,pm2.5:6.445,pm10:5.704,O2:0.000,NO2:0.000,SO2:0.000,NH3:3.725
10:18:58,0,0,0,0,0,0,0,0,0,0,0,514,0,0,0,0,0.0000000,0.0000000,0.0000000,0.0000000,5.00,38.4061050,-110.7919617,1357.1999512,0.4,308.5,1.5,0.0,0.0,908,126,0,0,862.97,20.74,22.03,# data time:280,pm2.5:6.445,pm10:5.704,O2:0.000,NO2:0.000,SO2:0.000,NH3:3.952
10:18:59,0,0,0,0,0,0,0,0,0,0,0,515,0,0,0,0,0.0000000,0.0000000,0.0000000,0.0000000,5.00,38.4061089,-110.7919769,1357.3000488,0.5,304.3,1.5,0.0,0.0,906,126,0,0,863.00,20.77,22.12,# data time:280,pm2.5:6.445,pm10:5.704,O2:0.000,NO2:0.000,SO2:0.000,NH3:3.952
10:19:00,0,0,0,0,0,0,0,0,0,0,0,514,0,0,0,0,0.0000000,0.0000000,0.0000000,0.0000000,5.00,38.4061089,-110.7919769,1357.3000488,0.5,293.4,1.5,0.0,0.0,907,133,0,0,863.01,20.75,22.13,# data time:280,pm2.5:6.445,pm10:5.704,O2:0.000,NO2:0.000,SO2:0.000,NH3:3.952
10:19:01,0,0,0,0,0,0,0,0,0,0,0,514,0,0,0,0,0.0000000,0.0000000,0.0000000,0.0000000,5.00,38.4061089,-110.7919769,1357.3000488,0.4,273.6,1.5,0.0,0.0,907,127,0,0,863.05,20.72,22.13,# data time:280,pm2.5:6.445,pm10:5.704,O2:0.000,NO2:0.000,SO2:0.000,NH3:3.952
