Time, Motor A Speed, Motor A Dir, Motor B Speed, Motor B Dir, Servo Rail Current Sensor, Servo Pos - Arm L, Servo Pos - Arm R, Servo Pos - End, Servo Pos - Hopper, Servo Pos - Lid, Servo Pos - Extra, Servo Current, LED - Front L, LED - Front R, LED - Back L, LED - Back R, IMU Pitch, IMU Roll, IMU Yaw, Compass Heading, GPS Sats, GPS Latitude, GPS Longitude, GPS Altitude, GPS Speed, GPS Angle, GPS HDOP, GPS VDOP, GPS PDOP, Battery, Wind, Comm Xbee Latency, Comm Arduino Latency, Pressure, Humidity, Temperature, uRADMonitor
9:52:49,0,0,0,0,0,0,0,0,0,0,0,0,0,0,0,0,0.0000000,0.0000000,0.0000000,0.0000000,0.00,0.0000000,0.0000000,0.0000000,0.0,0.0,0.0,0.0,0.0,0,0,0,0,0.00,0.00,0.00,0
9:52:50,0,0,0,0,0,0,0,0,0,0,0,515,0,0,0,0,0.0000000,0.0000000,0.0000000,0.0000000,0.00,0.0000000,0.0000000,0.0000000,0.0,0.0,0.0,0.0,0.0,894,129,0,0,863.26,23.06,19.72,0
9:52:51,0,0,0,0,0,0,0,0,0,0,0,516,0,0,0,0,0.0000000,0.0000000,0.0000000,0.0000000,10.00,38.4064102,-110.7921371,1380.1999512,0.0,0.0,0.8,0.0,0.0,893,124,0,0,863.25,23.06,19.72,0
9:52:52,0,0,0,0,0,0,0,0,0,0,0,513,0,0,0,0,0.0000000,0.0000000,0.0000000,0.0000000,10.00,38.4064102,-110.7921371,1380.1999512,0.0,0.0,0.8,0.0,0.0,894,126,0,0,863.25,23.07,19.72,0
9:52:53,0,0,0,0,0,0,0,0,0,0,0,514,0,0,0,0,0.0000000,0.0000000,0.0000000,0.0000000,10.00,38.4064102,-110.7921371,1380.0999756,0.0,249.1,0.8,0.0,0.0,894,125,0,0,863.25,23.07,19.79,# data time:1370,pm2.5:6.445,pm10:5.704,O2:0.000,NO2:0.000,SO2:0.000,NH3:3.273
9:52:54,0,0,0,0,0,0,0,0,0,0,0,573,0,0,0,0,0.0000000,0.0000000,0.0000000,0.0000000,10.00,38.4064140,-110.7921371,1380.0999756,0.2,19.0,0.8,0.0,0.0,882,126,0,0,863.29,23.09,19.83,# data time:1370,pm2.5:6.445,pm10:5.704,O2:0.000,NO2:0.000,SO2:0.000,NH3:3.273
9:52:55,0,0,0,0,0,0,0,0,0,0,0,515,0,0,0,0,0.0000000,0.0000000,0.0000000,0.0000000,10.00,38.4064140,-110.7921371,1380.0000000,0.1,14.5,0.8,0.0,0.0,893,128,0,0,863.28,23.10,19.83,# data time:1370,pm2.5:6.445,pm10:5.704,O2:0.000,NO2:0.000,SO2:0.000,NH3:3.273
9:52:56,0,0,0,0,0,0,0,0,0,0,0,527,0,0,0,0,0.0000000,0.0000000,0.0000000,0.0000000,10.00,38.4064140,-110.7921371,1380.0000000,0.2,46.4,0.8,0.0,0.0,891,125,0,0,863.30,23.09,19.83,# data time:1370,pm2.5:6.445,pm10:5.704,O2:0.000,NO2:0.000,SO2:0.000,NH3:3.273
9:52:57,0,0,0,0,0,0,0,0,0,0,0,514,0,0,0,0,0.0000000,0.0000000,0.0000000,0.0000000,10.00,38.4064140,-110.7921524,1380.0000000,0.1,40.9,0.8,0.0,0.0,894,128,0,0,863.28,23.10,19.84,# data time:1370,pm2.5:6.445,pm10:5.704,O2:0.000,NO2:0.000,SO2:0.000,NH3:3.273
9:52:58,0,0,0,0,0,0,0,0,0,0,0,517,0,0,0,0,0.0000000,0.0000000,0.0000000,0.0000000,10.00,38.4064178,-110.7921524,1379.9000244,0.1,24.8,0.8,0.0,0.0,894,127,0,0,863.31,23.13,19.84,# data time:1370,pm2.5:6.445,pm10:5.704,O2:0.000,NO2:0.000,SO2:0.000,NH3:3.273
9:52:59,0,0,0,0,0,0,0,0,0,0,0,517,0,0,0,0,0.0000000,0.0000000,0.0000000,0.0000000,10.00,38.4064178,-110.7921524,1379.9000244,0.1,19.6,0.8,0.0,0.0,891,125,0,0,863.25,23.18,19.85,# data time:1370,pm2.5:6.445,pm10:5.704,O2:0.000,NO2:0.000,SO2:0.000,NH3:3.273
9:53:00,0,0,0,0,0,0,0,0,0,0,0,515,0,0,0,0,0.0000000,0.0000000,0.0000000,0.0000000,10.00,38.4064178,-110.7921371,1379.9000244,0.1,31.8,0.8,0.0,0.0,894,126,0,0,863.22,23.19,19.84,# data time:1370,pm2.5:6.445,pm10:5.704,O2:0.000,NO2:0.000,SO2:0.000,NH3:3.273
9:53:01,0,0,0,0,0,0,0,0,0,0,0,514,0,0,0,0,0.0000000,0.0000000,0.0000000,0.0000000,10.00,38.4064178,-110.7921371,1379.9000244,0.2,54.3,0.8,0.0,0.0,894,125,0,0,863.25,23.16,19.85,# data time:1370,pm2.5:6.445,pm10:5.704,O2:0.000,NO2:0.000,SO2:0.000,NH3:3.273
9:53:02,0,0,0,0,0,0,0,0,0,0,0,515,0,0,0,0,0.0000000,0.0000000,0.0000000,0.0000000,10.00,38.4064178,-110.7921371,1379.9000244,0.2,55.0,0.8,0.0,0.0,894,128,0,0,863.29,23.18,19.85,# data time:1370,pm2.5:6.445,pm10:5.704,O2:0.000,NO2:0.000,SO2:0.000,NH3:3.273
9:53:03,0,0,0,0,0,0,0,0,0,0,0,515,0,0,0,0,0.0000000,0.0000000,0.0000000,0.0000000,10.00,38.4064178,-110.7921371,1379.9000244,0.1,4.3,0.8,0.0,0.0,894,127,0,0,863.25,23.21,19.85,# data time:1380,pm2.5:6.445,pm10:5.704,O2:0.000,NO2:0.000,SO2:0.000,NH3:3.499
9:53:04,0,0,0,0,0,0,0,0,0,0,0,517,0,0,0,0,0.0000000,0.0000000,0.0000000,0.0000000,10.00,38.4064178,-110.7921371,1379.9000244,0.2,16.5,0.8,0.0,0.0,893,127,0,0,863.28,23.21,19.86,# data time:1380,pm2.5:6.445,pm10:5.704,O2:0.000,NO2:0.000,SO2:0.000,NH3:3.499
9:53:05,0,0,0,0,0,0,0,0,0,0,0,514,0,0,0,0,0.0000000,0.0000000,0.0000000,0.0000000,10.00,38.4064178,-110.7921371,1379.9000244,0.2,349.2,0.8,0.0,0.0,894,129,0,0,863.25,23.18,19.86,# data time:1380,pm2.5:6.445,pm10:5.704,O2:0.000,NO2:0.000,SO2:0.000,NH3:3.499
9:53:06,0,0,0,0,0,0,0,0,0,0,0,515,0,0,0,0,0.0000000,0.0000000,0.0000000,0.0000000,10.00,38.4064178,-110.7921371,1379.9000244,0.2,290.5,0.8,0.0,0.0,895,123,0,0,863.28,23.21,19.86,# data time:1380,pm2.5:6.445,pm10:5.704,O2:0.000,NO2:0.000,SO2:0.000,NH3:3.499
9:53:07,0,0,0,0,0,0,0,0,0,0,0,515,0,0,0,0,0.0000000,0.0000000,0.0000000,0.0000000,10.00,38.4064178,-110.7921371,1379.9000244,0.3,276.7,0.8,0.0,0.0,894,132,0,0,863.23,23.16,19.87,# data time:1380,pm2.5:6.445,pm10:5.704,O2:0.000,NO2:0.000,SO2:0.000,NH3:3.499
9:53:08,0,0,0,0,0,0,0,0,0,0,0,515,0,0,0,0,0.0000000,0.0000000,0.0000000,0.0000000,10.00,38.4064178,-110.7921524,1379.9000244,0.3,284.0,0.8,0.0,0.0,893,126,0,0,863.25,23.16,19.87,# data time:1380,pm2.5:6.445,pm10:5.704,O2:0.000,NO2:0.000,SO2:0.000,NH3:3.499
9:53:09,0,0,0,0,0,0,0,0,0,0,0,516,0,0,0,0,0.0000000,0.0000000,0.0000000,0.0000000,10.00,38.4064178,-110.7921524,1379.9000244,0.3,269.8,0.8,0.0,0.0,893,128,0,0,863.26,23.18,19.87,# data time:1380,pm2.5:6.445,pm10:5.704,O2:0.000,NO2:0.000,SO2:0.000,NH3:3.499
9:53:10,0,0,0,0,0,0,0,0,0,0,0,515,0,0,0,0,0.0000000,0.0000000,0.0000000,0.0000000,10.00,38.4064178,-110.7921524,1379.9000244,0.2,273.5,0.8,0.0,0.0,894,127,0,0,863.26,23.16,19.88,# data time:1380,pm2.5:6.445,pm10:5.704,O2:0.000,NO2:0.000,SO2:0.000,NH3:3.499
9:53:11,0,0,0,0,0,0,0,0,0,0,0,516,0,0,0,0,0.0000000,0.0000000,0.0000000,0.0000000,10.00,38.4064178,-110.7921524,1379.9000244,0.1,326.2,0.8,0.0,0.0,893,126,0,0,863.29,23.21,19.88,# data time:1380,pm2.5:6.445,pm10:5.704,O2:0.000,NO2:0.000,SO2:0.000,NH3:3.499
9:53:12,0,0,0,0,0,0,0,0,0,0,0,515,0,0,0,0,0.0000000,0.0000000,0.0000000,0.0000000,10.00,38.4064178,-110.7921524,1379.9000244,0.1,322.5,0.8,0.0,0.0,894,128,0,0,863.25,23.21,19.89,# data time:1390,pm2.5:5.640,pm10:4.991,O2:0.000,NO2:0.000,SO2:0.000,NH3:3.499
9:53:13,0,0,0,0,0,0,0,0,0,0,0,514,0,0,0,0,0.0000000,0.0000000,0.0000000,0.0000000,10.00,38.4064178,-110.7921524,1379.9000244,0.1,300.7,0.8,0.0,0.0,893,128,0,0,863.25,23.24,19.89,# data time:1390,pm2.5:5.640,pm10:4.991,O2:0.000,NO2:0.000,SO2:0.000,NH3:3.499
9:53:14,0,0,0,0,0,0,0,0,0,0,0,515,0,0,0,0,0.0000000,0.0000000,0.0000000,0.0000000,10.00,38.4064217,-110.7921524,1379.9000244,0.1,337.1,0.8,0.0,0.0,894,127,0,0,863.22,23.25,19.89,# data time:1390,pm2.5:5.640,pm10:4.991,O2:0.000,NO2:0.000,SO2:0.000,NH3:3.499
9:53:15,0,0,0,0,0,0,0,0,0,0,0,514,0,0,0,0,0.0000000,0.0000000,0.0000000,0.0000000,10.00,38.4064217,-110.7921524,1379.9000244,0.2,299.1,0.8,0.0,0.0,894,125,0,0,863.28,23.21,19.89,# data time:1390,pm2.5:5.640,pm10:4.991,O2:0.000,NO2:0.000,SO2:0.000,NH3:3.499
9:53:16,0,0,0,0,0,0,0,0,0,0,0,520,0,0,0,0,0.0000000,0.0000000,0.0000000,0.0000000,10.00,38.4064217,-110.7921524,1379.9000244,0.1,279.5,0.8,0.0,0.0,893,129,0,0,863.25,23.18,19.89,# data time:1390,pm2.5:5.640,pm10:4.991,O2:0.000,NO2:0.000,SO2:0.000,NH3:3.499
9:53:17,0,0,0,0,0,0,0,0,0,0,0,515,0,0,0,0,0.0000000,0.0000000,0.0000000,0.0000000,10.00,38.4064217,-110.7921524,1379.9000244,0.1,197.3,0.8,0.0,0.0,894,127,0,0,863.24,23.13,19.90,# data time:1390,pm2.5:5.640,pm10:4.991,O2:0.000,NO2:0.000,SO2:0.000,NH3:3.499
9:53:18,0,0,0,0,0,0,0,0,0,0,0,517,0,0,0,0,0.0000000,0.0000000,0.0000000,0.0000000,10.00,38.4064217,-110.7921524,1379.9000244,0.2,194.5,0.8,0.0,0.0,893,126,0,0,863.26,23.15,19.90,# data time:1390,pm2.5:5.640,pm10:4.991,O2:0.000,NO2:0.000,SO2:0.000,NH3:3.499
9:53:20,0,0,0,0,0,0,0,0,0,0,0,515,0,0,0,0,0.0000000,0.0000000,0.0000000,0.0000000,10.00,38.4064178,-110.7921524,1379.9000244,0.2,194.5,0.8,0.0,0.0,894,128,0,0,863.23,23.12,19.81,# data time:1390,pm2.5:5.640,pm10:4.991,O2:0.000,NO2:0.000,SO2:0.000,NH3:3.499
