Time, Motor A Speed, Motor A Dir, Motor B Speed, Motor B Dir, Servo Rail Current Sensor, Servo Pos - Arm L, Servo Pos - Arm R, Servo Pos - End, Servo Pos - Hopper, Servo Pos - Lid, Servo Pos - Extra, Servo Current, LED - Front L, LED - Front R, LED - Back L, LED - Back R, IMU Pitch, IMU Roll, IMU Yaw, Compass Heading, GPS Sats, GPS Latitude, GPS Longitude, GPS Altitude, GPS Speed, GPS Angle, GPS HDOP, GPS VDOP, GPS PDOP, Battery, Wind, Comm Xbee Latency, Comm Arduino Latency, Pressure, Humidity, Temperature, uRADMonitor
10:07:06,0,0,0,0,0,0,0,0,0,0,0,0,0,0,0,0,0.0000000,0.0000000,0.0000000,0.0000000,0.00,0.0000000,0.0000000,0.0000000,0.0,0.0,0.0,0.0,0.0,0,0,0,0,0.00,0.00,0.00,0
10:07:07,0,0,0,0,0,0,0,0,0,0,0,515,0,0,0,0,0.0000000,0.0000000,0.0000000,0.0000000,10.00,38.4062386,-110.7921295,1378.1999512,0.1,88.9,0.8,0.0,0.0,892,128,0,0,863.01,21.99,21.36,0
10:07:08,0,0,0,0,0,0,0,0,0,0,0,514,0,0,0,0,0.0000000,0.0000000,0.0000000,0.0000000,10.00,38.4062386,-110.7921295,1378.1999512,0.1,99.6,0.8,0.0,0.0,892,130,0,0,863.09,21.97,21.41,0
10:07:09,0,0,0,0,0,0,0,0,0,0,0,515,0,0,0,0,0.0000000,0.0000000,0.0000000,0.0000000,10.00,38.4062386,-110.7921295,1378.1999512,0.2,98.7,0.8,0.0,0.0,893,127,0,0,863.05,21.99,21.42,0
10:07:10,0,0,0,0,0,0,0,0,0,0,0,514,0,0,0,0,0.0000000,0.0000000,0.0000000,0.0000000,10.00,38.4062386,-110.7921295,1378.1999512,0.2,80.8,0.8,0.0,0.0,892,125,0,0,863.04,21.99,21.42,0
10:07:11,0,0,0,0,0,0,0,0,0,0,0,515,0,0,0,0,0.0000000,0.0000000,0.0000000,0.0000000,10.00,38.4062386,-110.7921295,1378.1999512,0.2,106.3,0.8,0.0,0.0,893,125,0,0,863.07,21.97,21.42,0
10:07:12,0,0,0,0,0,0,0,0,0,0,0,515,0,0,0,0,0.0000000,0.0000000,0.0000000,0.0000000,10.00,38.4062386,-110.7921295,1378.0999756,0.1,156.3,0.8,0.0,0.0,893,126,0,0,863.07,21.99,21.42,0
10:07:13,0,0,0,0,0,0,0,0,0,0,0,515,0,0,0,0,0.0000000,0.0000000,0.0000000,0.0000000,10.00,38.4062386,-110.7921295,1378.0999756,0.1,242.7,0.8,0.0,0.0,892,126,0,0,863.03,22.00,21.43,# data time:2230,pm2.5:6.445,pm10:5.704,O2:0.000,NO2:0.000,SO2:0.000,NH3:3.725
10:07:14,0,0,0,0,0,0,0,0,0,0,0,515,0,0,0,0,0.0000000,0.0000000,0.0000000,0.0000000,10.00,38.4062386,-110.7921295,1378.0999756,0.2,253.2,0.8,0.0,0.0,892,126,0,0,863.07,22.03,21.43,# data time:2230,pm2.5:6.445,pm10:5.704,O2:0.000,NO2:0.000,SO2:0.000,NH3:3.725
10:07:15,0,0,0,0,0,0,0,0,0,0,0,515,0,0,0,0,0.0000000,0.0000000,0.0000000,0.0000000,10.00,38.4062386,-110.7921295,1378.0999756,0.2,242.7,0.8,0.0,0.0,893,127,0,0,863.06,22.05,21.43,# data time:2230,pm2.5:6.445,pm10:5.704,O2:0.000,NO2:0.000,SO2:0.000,NH3:3.725
10:07:16,0,0,0,0,0,0,0,0,0,0,0,514,0,0,0,0,0.0000000,0.0000000,0.0000000,0.0000000,10.00,38.4062386,-110.7921295,1378.0999756,0.3,255.2,0.8,0.0,0.0,893,127,0,0,863.08,22.08,21.44,# data time:2230,pm2.5:6.445,pm10:5.704,O2:0.000,NO2:0.000,SO2:0.000,NH3:3.725
10:07:17,0,0,0,0,0,0,0,0,0,0,0,515,0,0,0,0,0.0000000,0.0000000,0.0000000,0.0000000,10.00,38.4062386,-110.7921295,1378.0999756,0.3,252.0,0.8,0.0,0.0,893,126,0,0,863.09,22.10,21.44,# data time:2230,pm2.5:6.445,pm10:5.704,O2:0.000,NO2:0.000,SO2:0.000,NH3:3.725
10:07:18,0,0,0,0,0,0,0,0,0,0,0,515,0,0,0,0,0.0000000,0.0000000,0.0000000,0.0000000,10.00,38.4062347,-110.7921295,1378.0999756,0.2,222.0,0.8,0.0,0.0,892,125,0,0,863.08,22.11,21.44,# data time:2230,pm2.5:6.445,pm10:5.704,O2:0.000,NO2:0.000,SO2:0.000,NH3:3.725
10:07:19,0,0,0,0,0,0,0,0,0,0,0,515,0,0,0,0,0.0000000,0.0000000,0.0000000,0.0000000,10.00,38.4062386,-110.7921371,1378.0000000,0.3,235.9,0.8,0.0,0.0,892,129,0,0,863.09,22.13,21.45,# data time:2230,pm2.5:6.445,pm10:5.704,O2:0.000,NO2:0.000,SO2:0.000,NH3:3.725
10:07:20,0,0,0,0,0,0,0,0,0,0,0,515,0,0,0,0,0.0000000,0.0000000,0.0000000,0.0000000,10.00,38.4062386,-110.7921371,1378.0000000,0.3,236.0,0.8,0.0,0.0,893,129,0,0,863.08,22.10,21.45,# data time:2230,pm2.5:6.445,pm10:5.704,O2:0.000,NO2:0.000,SO2:0.000,NH3:3.725
10:07:21,0,0,0,0,0,0,0,0,0,0,0,515,0,0,0,0,0.0000000,0.0000000,0.0000000,0.0000000,10.00,38.4062386,-110.7921371,1378.0000000,0.3,240.7,0.8,0.0,0.0,892,128,0,0,863.03,22.11,21.45,# data time:2230,pm2.5:6.445,pm10:5.704,O2:0.000,NO2:0.000,SO2:0.000,NH3:3.725
10:07:22,0,0,0,0,0,0,0,0,0,0,0,515,0,0,0,0,0.0000000,0.0000000,0.0000000,0.0000000,10.00,38.4062386,-110.7921371,1377.9000244,0.2,273.1,0.8,0.0,0.0,893,126,0,0,863.08,22.10,21.46,# data time:2240,pm2.5:6.445,pm10:5.704,O2:0.000,NO2:0.000,SO2:0.000,NH3:3.725
10:07:23,0,0,0,0,0,0,0,0,0,0,0,516,0,0,0,0,0.0000000,0.0000000,0.0000000,0.0000000,10.00,38.4062386,-110.7921371,1377.9000244,0.2,273.1,0.8,0.0,0.0,892,126,0,0,863.01,22.13,21.36,# data time:2240,pm2.5:6.445,pm10:5.704,O2:0.000,NO2:0.000,SO2:0.000,NH3:3.725
10:07:24,0,0,0,0,0,0,0,0,0,0,0,514,0,0,0,0,0.0000000,0.0000000,0.0000000,0.0000000,10.00,38.4062386,-110.7921371,1377.9000244,0.3,319.4,0.8,0.0,0.0,893,127,0,0,863.04,22.14,21.37,# data time:2240,pm2.5:6.445,pm10:5.704,O2:0.000,NO2:0.000,SO2:0.000,NH3:3.725
10:07:25,0,0,0,0,0,0,0,0,0,0,0,515,0,0,0,0,0.0000000,0.0000000,0.0000000,0.0000000,10.00,38.4062386,-110.7921524,1377.9000244,0.3,326.9,0.8,0.0,0.0,893,126,0,0,863.07,22.13,21.38,# data time:2240,pm2.5:6.445,pm10:5.704,O2:0.000,NO2:0.000,SO2:0.000,NH3:3.725
10:07:26,0,0,0,0,0,0,0,0,0,0,0,516,0,0,0,0,0.0000000,0.0000000,0.0000000,0.0000000,10.00,38.4062424,-110.7921524,1377.9000244,0.4,330.9,0.8,0.0,0.0,891,126,0,0,863.07,22.16,21.42,# data time:2240,pm2.5:6.445,pm10:5.704,O2:0.000,NO2:0.000,SO2:0.000,NH3:3.725
10:07:27,0,0,0,0,0,0,0,0,0,0,0,516,0,0,0,0,0.0000000,0.0000000,0.0000000,0.0000000,10.00,38.4062462,-110.7921524,1377.9000244,0.4,330.9,0.8,0.0,0.0,892,129,0,0,863.02,22.28,21.36,# data time:2240,pm2.5:6.445,pm10:5.704,O2:0.000,NO2:0.000,SO2:0.000,NH3:3.725
10:07:28,0,0,0,0,0,0,0,0,0,0,0,515,0,0,0,0,0.0000000,0.0000000,0.0000000,0.0000000,10.00,38.4062462,-110.7921524,1377.9000244,0.4,330.9,0.8,0.0,0.0,892,126,0,0,863.04,22.42,21.35,# data time:2240,pm2.5:6.445,pm10:5.704,O2:0.000,NO2:0.000,SO2:0.000,NH3:3.725
10:07:29,0,0,0,0,0,0,0,0,0,0,0,523,0,0,0,0,0.0000000,0.0000000,0.0000000,0.0000000,10.00,38.4062462,-110.7921524,1377.9000244,0.3,352.7,0.8,0.0,0.0,891,128,0,0,863.03,22.46,21.45,# data time:2240,pm2.5:6.445,pm10:5.704,O2:0.000,NO2:0.000,SO2:0.000,NH3:3.725
10:07:30,0,0,0,0,0,0,0,0,0,0,0,546,0,0,0,0,0.0000000,0.0000000,0.0000000,0.0000000,10.00,38.4062500,-110.7921524,1377.9000244,0.3,16.4,0.8,0.0,0.0,886,126,0,0,863.06,22.49,21.46,# data time:2240,pm2.5:6.445,pm10:5.704,O2:0.000,NO2:0.000,SO2:0.000,NH3:3.725
10:07:31,0,0,0,0,0,0,0,0,0,0,0,515,0,0,0,0,0.0000000,0.0000000,0.0000000,0.0000000,10.00,38.4062500,-110.7921524,1377.9000244,0.2,15.6,0.8,0.0,0.0,892,126,0,0,863.01,22.55,21.46,# data time:2240,pm2.5:6.445,pm10:5.704,O2:0.000,NO2:0.000,SO2:0.000,NH3:3.725
10:07:32,0,0,0,0,0,0,0,0,0,0,0,524,0,0,0,0,0.0000000,0.0000000,0.0000000,0.0000000,10.00,38.4062500,-110.7921524,1377.9000244,0.2,15.6,0.8,0.0,0.0,890,128,0,0,863.02,22.49,21.38,# data time:2250,pm2.5:6.445,pm10:5.704,O2:0.000,NO2:0.000,SO2:0.000,NH3:3.725
10:07:33,0,0,0,0,0,0,0,0,0,0,0,515,0,0,0,0,0.0000000,0.0000000,0.0000000,0.0000000,10.00,38.4062500,-110.7921524,1377.9000244,0.1,331.8,0.8,0.0,0.0,892,126,0,0,863.07,22.49,21.46,# data time:2250,pm2.5:6.445,pm10:5.704,O2:0.000,NO2:0.000,SO2:0.000,NH3:3.725
10:07:34,0,0,0,0,0,0,0,0,0,0,0,516,0,0,0,0,0.0000000,0.0000000,0.0000000,0.0000000,10.00,38.4062538,-110.7921524,1377.9000244,0.1,314.5,0.8,0.0,0.0,892,126,0,0,863.04,22.52,21.47,# data time:2250,pm2.5:6.445,pm10:5.704,O2:0.000,NO2:0.000,SO2:0.000,NH3:3.725
10:07:35,0,0,0,0,0,0,0,0,0,0,0,515,0,0,0,0,0.0000000,0.0000000,0.0000000,0.0000000,10.00,38.4062538,-110.7921524,1377.9000244,0.1,314.5,0.8,0.0,0.0,892,127,0,0,863.05,22.51,21.44,# data time:2250,pm2.5:6.445,pm10:5.704,O2:0.000,NO2:0.000,SO2:0.000,NH3:3.725
10:07:36,0,0,0,0,0,0,0,0,0,0,0,515,0,0,0,0,0.0000000,0.0000000,0.0000000,0.0000000,10.00,38.4062538,-110.7921524,1377.9000244,0.4,320.2,0.8,0.0,0.0,892,127,0,0,863.09,22.51,21.49,# data time:2250,pm2.5:6.445,pm10:5.704,O2:0.000,NO2:0.000,SO2:0.000,NH3:3.725
10:07:37,0,0,0,0,0,0,0,0,0,0,0,515,0,0,0,0,0.0000000,0.0000000,0.0000000,0.0000000,10.00,38.4062576,-110.7921524,1377.9000244,0.5,320.3,0.8,0.0,0.0,893,126,0,0,863.04,22.51,21.49,# data time:2250,pm2.5:6.445,pm10:5.704,O2:0.000,NO2:0.000,SO2:0.000,NH3:3.725
10:07:38,0,0,0,0,0,0,0,0,0,0,0,514,0,0,0,0,0.0000000,0.0000000,0.0000000,0.0000000,10.00,38.4062576,-110.7921524,1377.9000244,0.6,349.9,0.8,0.0,0.0,892,126,0,0,863.09,22.54,21.49,# data time:2250,pm2.5:6.445,pm10:5.704,O2:0.000,NO2:0.000,SO2:0.000,NH3:3.725
10:07:39,0,0,0,0,0,0,0,0,0,0,0,515,0,0,0,0,0.0000000,0.0000000,0.0000000,0.0000000,10.00,38.4062576,-110.7921524,1378.0000000,0.6,354.8,0.8,0.0,0.0,893,127,0,0,863.08,22.54,21.50,# data time:2250,pm2.5:6.445,pm10:5.704,O2:0.000,NO2:0.000,SO2:0.000,NH3:3.725
10:07:40,0,0,0,0,0,0,0,0,0,0,0,515,0,0,0,0,0.0000000,0.0000000,0.0000000,0.0000000,10.00,38.4062614,-110.7921371,1378.0000000,0.6,359.8,0.8,0.0,0.0,893,129,0,0,863.04,22.51,21.51,# data time:2250,pm2.5:6.445,pm10:5.704,O2:0.000,NO2:0.000,SO2:0.000,NH3:3.725
10:07:41,0,0,0,0,0,0,0,0,0,0,0,515,0,0,0,0,0.0000000,0.0000000,0.0000000,0.0000000,10.00,38.4062729,-110.7921524,1378.0999756,0.4,344.1,0.8,0.0,0.0,893,126,0,0,863.01,22.51,21.52,# data time:2250,pm2.5:6.445,pm10:5.704,O2:0.000,NO2:0.000,SO2:0.000,NH3:3.725
10:07:42,0,0,0,0,0,0,0,0,0,0,0,514,0,0,0,0,0.0000000,0.0000000,0.0000000,0.0000000,10.00,38.4062767,-110.7921524,1378.0999756,0.4,352.2,0.8,0.0,0.0,892,128,0,0,863.06,22.57,21.51,# data time:2260,pm2.5:6.445,pm10:5.704,O2:0.000,NO2:0.000,SO2:0.000,NH3:3.725
10:07:43,0,0,0,0,0,0,0,0,0,0,0,514,0,0,0,0,0.0000000,0.0000000,0.0000000,0.0000000,10.00,38.4062767,-110.7921524,1378.0999756,0.4,354.6,0.8,0.0,0.0,892,124,0,0,863.05,22.57,21.52,# data time:2260,pm2.5:6.445,pm10:5.704,O2:0.000,NO2:0.000,SO2:0.000,NH3:3.725
10:07:45,0,0,0,0,0,0,0,0,0,0,0,515,0,0,0,0,0.0000000,0.0000000,0.0000000,0.0000000,10.00,38.4062767,-110.7921524,1378.0999756,0.3,2.6,0.8,0.0,0.0,893,122,0,0,863.05,22.46,21.51,# data time:2260,pm2.5:6.445,pm10:5.704,O2:0.000,NO2:0.000,SO2:0.000,NH3:3.725
10:07:46,0,0,0,0,0,0,0,0,0,0,0,515,0,0,0,0,0.0000000,0.0000000,0.0000000,0.0000000,10.00,38.4062767,-110.7921524,1378.0999756,0.3,316.1,0.8,0.0,0.0,893,129,0,0,863.07,22.35,21.51,# data time:2260,pm2.5:6.445,pm10:5.704,O2:0.000,NO2:0.000,SO2:0.000,NH3:3.725
10:07:47,0,0,0,0,0,0,0,0,0,0,0,514,0,0,0,0,0.0000000,0.0000000,0.0000000,0.0000000,10.00,38.4062805,-110.7921524,1378.0999756,0.2,296.4,0.8,0.0,0.0,893,127,0,0,863.09,22.32,21.51,# data time:2260,pm2.5:6.445,pm10:5.704,O2:0.000,NO2:0.000,SO2:0.000,NH3:3.725
10:07:48,0,0,0,0,0,0,0,0,0,0,0,514,0,0,0,0,0.0000000,0.0000000,0.0000000,0.0000000,10.00,38.4062805,-110.7921524,1378.0999756,0.1,276.0,0.8,0.0,0.0,892,128,0,0,863.06,22.28,21.52,# data time:2260,pm2.5:6.445,pm10:5.704,O2:0.000,NO2:0.000,SO2:0.000,NH3:3.725
10:07:49,0,0,0,0,0,0,0,0,0,0,0,514,0,0,0,0,0.0000000,0.0000000,0.0000000,0.0000000,10.00,38.4062805,-110.7921524,1378.0000000,0.1,335.3,0.8,0.0,0.0,892,128,0,0,863.04,22.25,21.51,# data time:2260,pm2.5:6.445,pm10:5.704,O2:0.000,NO2:0.000,SO2:0.000,NH3:3.725
10:07:50,0,0,0,0,0,0,0,0,0,0,0,514,0,0,0,0,0.0000000,0.0000000,0.0000000,0.0000000,10.00,38.4062805,-110.7921524,1378.0000000,0.4,359.4,0.8,0.0,0.0,893,127,0,0,863.02,22.23,21.52,# data time:2260,pm2.5:6.445,pm10:5.704,O2:0.000,NO2:0.000,SO2:0.000,NH3:3.725
10:07:51,0,0,0,0,0,0,0,0,0,0,0,514,0,0,0,0,0.0000000,0.0000000,0.0000000,0.0000000,10.00,38.4062843,-110.7921524,1378.0000000,0.4,22.8,0.8,0.0,0.0,893,129,0,0,863.03,22.23,21.53,# data time:2260,pm2.5:6.445,pm10:5.704,O2:0.000,NO2:0.000,SO2:0.000,NH3:3.725
10:07:52,0,0,0,0,0,0,0,0,0,0,0,514,0,0,0,0,0.0000000,0.0000000,0.0000000,0.0000000,10.00,38.4062881,-110.7921524,1378.0000000,0.4,30.4,0.8,0.0,0.0,892,128,0,0,863.08,22.28,21.53,# data time:2260,pm2.5:6.445,pm10:5.704,O2:0.000,NO2:0.000,SO2:0.000,NH3:3.725
10:07:53,0,0,0,0,0,0,0,0,0,0,0,514,0,0,0,0,0.0000000,0.0000000,0.0000000,0.0000000,10.00,38.4062881,-110.7921524,1378.0000000,0.4,30.4,0.8,0.0,0.0,892,129,0,0,863.05,22.34,21.43,# data time:2270,pm2.5:6.445,pm10:5.704,O2:0.000,NO2:0.000,SO2:0.000,NH3:3.725
10:07:54,0,0,0,0,0,0,0,0,0,0,0,515,0,0,0,0,0.0000000,0.0000000,0.0000000,0.0000000,10.00,38.4062920,-110.7921524,1378.0999756,0.3,52.6,0.8,0.0,0.0,892,125,0,0,863.11,22.40,21.53,# data time:2270,pm2.5:6.445,pm10:5.704,O2:0.000,NO2:0.000,SO2:0.000,NH3:3.725
10:07:55,0,0,0,0,0,0,0,0,0,0,0,514,0,0,0,0,0.0000000,0.0000000,0.0000000,0.0000000,10.00,38.4062920,-110.7921524,1378.0999756,0.3,34.9,0.8,0.0,0.0,892,125,0,0,863.05,22.42,21.54,# data time:2270,pm2.5:6.445,pm10:5.704,O2:0.000,NO2:0.000,SO2:0.000,NH3:3.725
10:07:56,0,0,0,0,0,0,0,0,0,0,0,514,0,0,0,0,0.0000000,0.0000000,0.0000000,0.0000000,10.00,38.4062920,-110.7921524,1378.0999756,0.2,12.3,0.8,0.0,0.0,892,126,0,0,863.02,22.43,21.54,# data time:2270,pm2.5:6.445,pm10:5.704,O2:0.000,NO2:0.000,SO2:0.000,NH3:3.725
10:07:57,0,0,0,0,0,0,0,0,0,0,0,514,0,0,0,0,0.0000000,0.0000000,0.0000000,0.0000000,10.00,38.4062958,-110.7921524,1378.0999756,0.1,333.4,0.8,0.0,0.0,892,128,0,0,863.08,22.45,21.54,# data time:2270,pm2.5:6.445,pm10:5.704,O2:0.000,NO2:0.000,SO2:0.000,NH3:3.725
10:07:58,0,0,0,0,0,0,0,0,0,0,0,514,0,0,0,0,0.0000000,0.0000000,0.0000000,0.0000000,10.00,38.4062958,-110.7921524,1378.0999756,0.2,351.2,0.8,0.0,0.0,892,124,0,0,863.07,22.48,21.55,# data time:2270,pm2.5:6.445,pm10:5.704,O2:0.000,NO2:0.000,SO2:0.000,NH3:3.725
10:07:59,0,0,0,0,0,0,0,0,0,0,0,515,0,0,0,0,0.0000000,0.0000000,0.0000000,0.0000000,10.00,38.4062958,-110.7921524,1378.0999756,0.2,355.5,0.8,0.0,0.0,893,122,0,0,863.04,22.46,21.55,# data time:2270,pm2.5:6.445,pm10:5.704,O2:0.000,NO2:0.000,SO2:0.000,NH3:3.725
10:08:00,0,0,0,0,0,0,0,0,0,0,0,514,0,0,0,0,0.0000000,0.0000000,0.0000000,0.0000000,10.00,38.4062958,-110.7921524,1378.0999756,0.3,0.2,0.8,0.0,0.0,892,127,0,0,863.08,22.45,21.55,# data time:2270,pm2.5:6.445,pm10:5.704,O2:0.000,NO2:0.000,SO2:0.000,NH3:3.725
10:08:01,0,0,0,0,0,0,0,0,0,0,0,514,0,0,0,0,0.0000000,0.0000000,0.0000000,0.0000000,10.00,38.4062958,-110.7921524,1378.0999756,0.3,358.8,0.8,0.0,0.0,893,124,0,0,863.06,22.43,21.56,# data time:2270,pm2.5:6.445,pm10:5.704,O2:0.000,NO2:0.000,SO2:0.000,NH3:3.725
10:08:02,0,0,0,0,0,0,0,0,0,0,0,515,0,0,0,0,0.0000000,0.0000000,0.0000000,0.0000000,10.00,38.4062958,-110.7921524,1378.0999756,0.2,353.4,0.8,0.0,0.0,893,129,0,0,863.04,22.45,21.56,# data time:2270,pm2.5:6.445,pm10:5.704,O2:0.000,NO2:0.000,SO2:0.000,NH3:3.725
10:08:03,0,0,0,0,0,0,0,0,0,0,0,515,0,0,0,0,0.0000000,0.0000000,0.0000000,0.0000000,10.00,38.4062958,-110.7921524,1378.0999756,0.3,297.9,0.8,0.0,0.0,893,127,0,0,863.06,22.40,21.57,# data time:2280,pm2.5:5.640,pm10:4.991,O2:0.000,NO2:0.000,SO2:0.000,NH3:3.725
10:08:04,0,0,0,0,0,0,0,0,0,0,0,514,0,0,0,0,0.0000000,0.0000000,0.0000000,0.0000000,10.00,38.4062996,-110.7921524,1378.0999756,0.4,305.8,0.8,0.0,0.0,893,128,0,0,863.06,22.39,21.57,# data time:2280,pm2.5:5.640,pm10:4.991,O2:0.000,NO2:0.000,SO2:0.000,NH3:3.725
10:08:05,0,0,0,0,0,0,0,0,0,0,0,515,0,0,0,0,0.0000000,0.0000000,0.0000000,0.0000000,10.00,38.4062996,-110.7921524,1378.0999756,0.4,313.1,0.8,0.0,0.0,893,127,0,0,863.05,22.35,21.57,# data time:2280,pm2.5:5.640,pm10:4.991,O2:0.000,NO2:0.000,SO2:0.000,NH3:3.725
10:08:06,0,0,0,0,0,0,0,0,0,0,0,514,0,0,0,0,0.0000000,0.0000000,0.0000000,0.0000000,10.00,38.4062996,-110.7921524,1378.0999756,0.6,315.8,0.8,0.0,0.0,893,125,0,0,863.01,22.37,21.57,# data time:2280,pm2.5:5.640,pm10:4.991,O2:0.000,NO2:0.000,SO2:0.000,NH3:3.725
10:08:07,0,0,0,0,0,0,0,0,0,0,0,514,0,0,0,0,0.0000000,0.0000000,0.0000000,0.0000000,10.00,38.4063072,-110.7921677,1377.9000244,0.6,314.5,0.8,0.0,0.0,893,127,0,0,863.05,22.35,21.58,# data time:2280,pm2.5:5.640,pm10:4.991,O2:0.000,NO2:0.000,SO2:0.000,NH3:3.725
10:08:08,0,0,0,0,0,0,0,0,0,0,0,514,0,0,0,0,0.0000000,0.0000000,0.0000000,0.0000000,10.00,38.4063072,-110.7921829,1377.0000000,0.6,326.8,0.8,0.0,0.0,892,126,0,0,863.00,22.31,21.58,# data time:2280,pm2.5:5.640,pm10:4.991,O2:0.000,NO2:0.000,SO2:0.000,NH3:3.725
10:08:09,0,0,0,0,0,0,0,0,0,0,0,514,0,0,0,0,0.0000000,0.0000000,0.0000000,0.0000000,10.00,38.4063148,-110.7921906,1376.6999512,0.7,318.1,0.8,0.0,0.0,893,125,0,0,863.11,22.35,21.59,# data time:2280,pm2.5:5.640,pm10:4.991,O2:0.000,NO2:0.000,SO2:0.000,NH3:3.725
10:08:10,0,0,0,0,0,0,0,0,0,0,0,515,0,0,0,0,0.0000000,0.0000000,0.0000000,0.0000000,10.00,38.4063187,-110.7922058,1376.4000244,0.7,316.1,0.8,0.0,0.0,893,130,0,0,863.03,22.29,21.58,# data time:2280,pm2.5:5.640,pm10:4.991,O2:0.000,NO2:0.000,SO2:0.000,NH3:3.725
10:08:11,0,0,0,0,0,0,0,0,0,0,0,515,0,0,0,0,0.0000000,0.0000000,0.0000000,0.0000000,10.00,38.4063225,-110.7922058,1376.0000000,0.5,309.6,0.8,0.0,0.0,892,131,0,0,863.03,22.28,21.58,# data time:2280,pm2.5:5.640,pm10:4.991,O2:0.000,NO2:0.000,SO2:0.000,NH3:3.725
10:08:12,0,0,0,0,0,0,0,0,0,0,0,513,0,0,0,0,0.0000000,0.0000000,0.0000000,0.0000000,10.00,38.4063263,-110.7922211,1375.8000488,0.5,317.6,0.8,0.0,0.0,892,125,0,0,863.05,22.26,21.59,# data time:2290,pm2.5:6.445,pm10:5.704,O2:0.000,NO2:0.000,SO2:0.000,NH3:3.725
10:08:13,0,0,0,0,0,0,0,0,0,0,0,515,0,0,0,0,0.0000000,0.0000000,0.0000000,0.0000000,10.00,38.4063225,-110.7922287,1375.8000488,0.4,289.6,0.8,0.0,0.0,893,128,0,0,863.05,22.26,21.49,# data time:2290,pm2.5:6.445,pm10:5.704,O2:0.000,NO2:0.000,SO2:0.000,NH3:3.725
10:08:14,0,0,0,0,0,0,0,0,0,0,0,515,0,0,0,0,0.0000000,0.0000000,0.0000000,0.0000000,10.00,38.4063225,-110.7922440,1375.0000000,0.5,292.2,0.8,0.0,0.0,893,127,0,0,863.02,22.26,21.56,# data time:2290,pm2.5:6.445,pm10:5.704,O2:0.000,NO2:0.000,SO2:0.000,NH3:3.725
10:08:15,0,0,0,0,0,0,0,0,0,0,0,514,0,0,0,0,0.0000000,0.0000000,0.0000000,0.0000000,10.00,38.4063263,-110.7922592,1375.0000000,0.5,292.2,0.8,0.0,0.0,893,128,0,0,863.01,22.28,21.49,# data time:2290,pm2.5:6.445,pm10:5.704,O2:0.000,NO2:0.000,SO2:0.000,NH3:3.725
10:08:16,0,0,0,0,0,0,0,0,0,0,0,514,0,0,0,0,0.0000000,0.0000000,0.0000000,0.0000000,10.00,38.4063263,-110.7922592,1375.0000000,0.3,302.7,0.8,0.0,0.0,893,128,0,0,863.08,22.29,21.59,# data time:2290,pm2.5:6.445,pm10:5.704,O2:0.000,NO2:0.000,SO2:0.000,NH3:3.725
10:08:17,0,0,0,0,0,0,0,0,0,0,0,514,0,0,0,0,0.0000000,0.0000000,0.0000000,0.0000000,10.00,38.4063263,-110.7922592,1375.0000000,0.2,322.4,0.8,0.0,0.0,893,127,0,0,863.05,22.28,21.59,# data time:2290,pm2.5:6.445,pm10:5.704,O2:0.000,NO2:0.000,SO2:0.000,NH3:3.725
10:08:18,0,0,0,0,0,0,0,0,0,0,0,515,0,0,0,0,0.0000000,0.0000000,0.0000000,0.0000000,10.00,38.4063263,-110.7922592,1375.0000000,0.2,342.1,0.8,0.0,0.0,893,129,0,0,863.07,22.26,21.59,# data time:2290,pm2.5:6.445,pm10:5.704,O2:0.000,NO2:0.000,SO2:0.000,NH3:3.725
10:08:19,0,0,0,0,0,0,0,0,0,0,0,515,0,0,0,0,0.0000000,0.0000000,0.0000000,0.0000000,10.00,38.4063263,-110.7922592,1374.9000244,0.3,8.4,0.8,0.0,0.0,893,128,0,0,863.06,22.25,21.59,# data time:2290,pm2.5:6.445,pm10:5.704,O2:0.000,NO2:0.000,SO2:0.000,NH3:3.725
10:08:20,0,0,0,0,0,0,0,0,0,0,0,515,0,0,0,0,0.0000000,0.0000000,0.0000000,0.0000000,10.00,38.4063301,-110.7922592,1374.9000244,0.3,4.1,0.8,0.0,0.0,892,128,0,0,863.10,22.23,21.60,# data time:2290,pm2.5:6.445,pm10:5.704,O2:0.000,NO2:0.000,SO2:0.000,NH3:3.725
10:08:21,0,0,0,0,0,0,0,0,0,0,0,514,0,0,0,0,0.0000000,0.0000000,0.0000000,0.0000000,10.00,38.4063301,-110.7922592,1374.9000244,0.3,350.3,0.8,0.0,0.0,893,123,0,0,863.01,22.23,21.60,# data time:2290,pm2.5:6.445,pm10:5.704,O2:0.000,NO2:0.000,SO2:0.000,NH3:3.725
10:08:22,0,0,0,0,0,0,0,0,0,0,0,514,0,0,0,0,0.0000000,0.0000000,0.0000000,0.0000000,10.00,38.4063339,-110.7922592,1374.9000244,0.2,345.7,0.8,0.0,0.0,893,128,0,0,863.05,22.25,21.60,# data time:2300,pm2.5:6.445,pm10:5.704,O2:0.000,NO2:0.000,SO2:0.000,NH3:3.725
10:08:23,0,0,0,0,0,0,0,0,0,0,0,515,0,0,0,0,0.0000000,0.0000000,0.0000000,0.0000000,10.00,38.4063339,-110.7922592,1374.9000244,0.1,327.4,0.8,0.0,0.0,892,126,0,0,863.07,22.25,21.60,# data time:2300,pm2.5:6.445,pm10:5.704,O2:0.000,NO2:0.000,SO2:0.000,NH3:3.725
10:08:24,0,0,0,0,0,0,0,0,0,0,0,514,0,0,0,0,0.0000000,0.0000000,0.0000000,0.0000000,10.00,38.4063339,-110.7922592,1374.9000244,0.1,285.0,0.8,0.0,0.0,893,128,0,0,863.06,22.26,21.60,# data time:2300,pm2.5:6.445,pm10:5.704,O2:0.000,NO2:0.000,SO2:0.000,NH3:3.725
10:08:25,0,0,0,0,0,0,0,0,0,0,0,514,0,0,0,0,0.0000000,0.0000000,0.0000000,0.0000000,10.00,38.4063339,-110.7922592,1374.5999756,0.0,140.5,0.8,0.0,0.0,893,127,0,0,863.05,22.23,21.60,# data time:2300,pm2.5:6.445,pm10:5.704,O2:0.000,NO2:0.000,SO2:0.000,NH3:3.725
10:08:26,0,0,0,0,0,0,0,0,0,0,0,515,0,0,0,0,0.0000000,0.0000000,0.0000000,0.0000000,10.00,38.4063377,-110.7922668,1374.5000000,0.1,241.7,0.8,0.0,0.0,893,133,0,0,863.01,22.28,21.60,# data time:2300,pm2.5:6.445,pm10:5.704,O2:0.000,NO2:0.000,SO2:0.000,NH3:3.725
10:08:27,0,0,0,0,0,0,0,0,0,0,0,515,0,0,0,0,0.0000000,0.0000000,0.0000000,0.0000000,10.00,38.4063416,-110.7922668,1374.0999756,0.2,238.6,0.8,0.0,0.0,892,127,0,0,863.01,22.26,21.60,# data time:2300,pm2.5:6.445,pm10:5.704,O2:0.000,NO2:0.000,SO2:0.000,NH3:3.725
10:08:28,0,0,0,0,0,0,0,0,0,0,0,515,0,0,0,0,0.0000000,0.0000000,0.0000000,0.0000000,10.00,38.4063492,-110.7922668,1373.6999512,0.2,265.2,0.8,0.0,0.0,892,127,0,0,863.03,22.29,21.60,# data time:2300,pm2.5:6.445,pm10:5.704,O2:0.000,NO2:0.000,SO2:0.000,NH3:3.725
10:08:30,0,0,0,0,0,0,0,0,0,0,0,515,0,0,0,0,0.0000000,0.0000000,0.0000000,0.0000000,10.00,38.4063492,-110.7922668,1373.6999512,0.2,272.8,0.8,0.0,0.0,893,126,0,0,863.08,22.28,21.60,# data time:2300,pm2.5:6.445,pm10:5.704,O2:0.000,NO2:0.000,SO2:0.000,NH3:3.725
10:08:31,0,0,0,0,0,0,0,0,0,0,0,514,0,0,0,0,0.0000000,0.0000000,0.0000000,0.0000000,10.00,38.4063492,-110.7922668,1373.5999756,0.2,304.1,0.8,0.0,0.0,892,126,0,0,862.99,22.29,21.59,# data time:2300,pm2.5:6.445,pm10:5.704,O2:0.000,NO2:0.000,SO2:0.000,NH3:3.725
10:08:32,0,0,0,0,0,0,0,0,0,0,0,515,0,0,0,0,0.0000000,0.0000000,0.0000000,0.0000000,10.00,38.4063492,-110.7922668,1373.5999756,0.2,296.9,0.8,0.0,0.0,893,127,0,0,862.98,22.28,21.59,# data time:2300,pm2.5:6.445,pm10:5.704,O2:0.000,NO2:0.000,SO2:0.000,NH3:3.725
10:08:33,0,0,0,0,0,0,0,0,0,0,0,514,0,0,0,0,0.0000000,0.0000000,0.0000000,0.0000000,10.00,38.4063530,-110.7922668,1373.5999756,0.2,304.9,0.8,0.0,0.0,892,125,0,0,863.02,22.28,21.59,# data time:2310,pm2.5:6.445,pm10:5.704,O2:0.000,NO2:0.000,SO2:0.000,NH3:3.725
10:08:34,0,0,0,0,0,0,0,0,0,0,0,515,0,0,0,0,0.0000000,0.0000000,0.0000000,0.0000000,10.00,38.4063530,-110.7922668,1373.5999756,0.2,358.9,0.8,0.0,0.0,893,131,0,0,863.07,22.32,21.59,# data time:2310,pm2.5:6.445,pm10:5.704,O2:0.000,NO2:0.000,SO2:0.000,NH3:3.725
10:08:35,0,0,0,0,0,0,0,0,0,0,0,514,0,0,0,0,0.0000000,0.0000000,0.0000000,0.0000000,10.00,38.4063530,-110.7922668,1373.5999756,0.2,339.6,0.8,0.0,0.0,894,128,0,0,863.03,22.32,21.59,# data time:2310,pm2.5:6.445,pm10:5.704,O2:0.000,NO2:0.000,SO2:0.000,NH3:3.725
10:08:36,0,0,0,0,0,0,0,0,0,0,0,514,0,0,0,0,0.0000000,0.0000000,0.0000000,0.0000000,10.00,38.4063530,-110.7922668,1373.5999756,0.2,339.6,0.8,0.0,0.0,893,129,0,0,862.99,22.35,21.50,# data time:2310,pm2.5:6.445,pm10:5.704,O2:0.000,NO2:0.000,SO2:0.000,NH3:3.725
10:08:37,0,0,0,0,0,0,0,0,0,0,0,514,0,0,0,0,0.0000000,0.0000000,0.0000000,0.0000000,10.00,38.4063568,-110.7922668,1373.5999756,0.1,1.8,0.8,0.0,0.0,893,127,0,0,862.99,22.35,21.55,# data time:2310,pm2.5:6.445,pm10:5.704,O2:0.000,NO2:0.000,SO2:0.000,NH3:3.725
10:08:38,0,0,0,0,0,0,0,0,0,0,0,515,0,0,0,0,0.0000000,0.0000000,0.0000000,0.0000000,10.00,38.4063568,-110.7922668,1373.5999756,0.2,317.3,0.8,0.0,0.0,892,129,0,0,863.05,22.40,21.59,# data time:2310,pm2.5:6.445,pm10:5.704,O2:0.000,NO2:0.000,SO2:0.000,NH3:3.725
10:08:39,0,0,0,0,0,0,0,0,0,0,0,514,0,0,0,0,0.0000000,0.0000000,0.0000000,0.0000000,10.00,38.4063568,-110.7922668,1373.5000000,0.1,296.0,0.8,0.0,0.0,893,129,0,0,863.06,22.42,21.60,# data time:2310,pm2.5:6.445,pm10:5.704,O2:0.000,NO2:0.000,SO2:0.000,NH3:3.725
10:08:40,0,0,0,0,0,0,0,0,0,0,0,514,0,0,0,0,0.0000000,0.0000000,0.0000000,0.0000000,10.00,38.4063568,-110.7922668,1373.5000000,0.2,97.6,0.8,0.0,0.0,893,130,0,0,863.04,22.40,21.61,# data time:2310,pm2.5:6.445,pm10:5.704,O2:0.000,NO2:0.000,SO2:0.000,NH3:3.725
10:08:41,0,0,0,0,0,0,0,0,0,0,0,515,0,0,0,0,0.0000000,0.0000000,0.0000000,0.0000000,10.00,38.4063568,-110.7922668,1373.5000000,0.2,74.1,0.8,0.0,0.0,892,127,0,0,863.00,22.40,21.60,# data time:2310,pm2.5:6.445,pm10:5.704,O2:0.000,NO2:0.000,SO2:0.000,NH3:3.725
10:08:42,0,0,0,0,0,0,0,0,0,0,0,515,0,0,0,0,0.0000000,0.0000000,0.0000000,0.0000000,10.00,38.4063568,-110.7922668,1373.5000000,0.3,70.1,0.8,0.0,0.0,893,128,0,0,863.03,22.45,21.61,# data time:2310,pm2.5:6.445,pm10:5.704,O2:0.000,NO2:0.000,SO2:0.000,NH3:3.725
10:08:43,0,0,0,0,0,0,0,0,0,0,0,514,0,0,0,0,0.0000000,0.0000000,0.0000000,0.0000000,10.00,38.4063568,-110.7922668,1373.5000000,0.3,73.2,0.8,0.0,0.0,893,129,0,0,863.00,22.45,21.55,# data time:2320,pm2.5:6.445,pm10:5.704,O2:0.000,NO2:0.000,SO2:0.000,NH3:3.725
10:08:44,0,0,0,0,0,0,0,0,0,0,0,514,0,0,0,0,0.0000000,0.0000000,0.0000000,0.0000000,10.00,38.4063568,-110.7922668,1373.5000000,0.1,176.4,0.8,0.0,0.0,892,126,0,0,863.03,22.43,21.60,# data time:2320,pm2.5:6.445,pm10:5.704,O2:0.000,NO2:0.000,SO2:0.000,NH3:3.725
10:08:45,0,0,0,0,0,0,0,0,0,0,0,514,0,0,0,0,0.0000000,0.0000000,0.0000000,0.0000000,10.00,38.4063568,-110.7922668,1373.5000000,0.6,155.7,0.8,0.0,0.0,893,127,0,0,863.06,22.46,21.60,# data time:2320,pm2.5:6.445,pm10:5.704,O2:0.000,NO2:0.000,SO2:0.000,NH3:3.725
10:08:46,0,0,0,0,0,0,0,0,0,0,0,515,0,0,0,0,0.0000000,0.0000000,0.0000000,0.0000000,10.00,38.4063530,-110.7922592,1373.1999512,0.7,162.9,0.8,0.0,0.0,892,129,0,0,863.05,22.48,21.59,# data time:2320,pm2.5:6.445,pm10:5.704,O2:0.000,NO2:0.000,SO2:0.000,NH3:3.725
10:08:47,0,0,0,0,0,0,0,0,0,0,0,515,0,0,0,0,0.0000000,0.0000000,0.0000000,0.0000000,10.00,38.4063492,-110.7922592,1372.9000244,0.6,146.3,0.8,0.0,0.0,892,128,0,0,863.04,22.49,21.60,# data time:2320,pm2.5:6.445,pm10:5.704,O2:0.000,NO2:0.000,SO2:0.000,NH3:3.725
10:08:48,0,0,0,0,0,0,0,0,0,0,0,515,0,0,0,0,0.0000000,0.0000000,0.0000000,0.0000000,10.00,38.4063454,-110.7922440,1372.6999512,0.4,161.0,0.8,0.0,0.0,893,126,0,0,863.04,22.49,21.60,# data time:2320,pm2.5:6.445,pm10:5.704,O2:0.000,NO2:0.000,SO2:0.000,NH3:3.725
10:08:49,0,0,0,0,0,0,0,0,0,0,0,515,0,0,0,0,0.0000000,0.0000000,0.0000000,0.0000000,10.00,38.4063454,-110.7922440,1372.5999756,0.3,170.9,0.8,0.0,0.0,893,125,0,0,863.03,22.49,21.59,# data time:2320,pm2.5:6.445,pm10:5.704,O2:0.000,NO2:0.000,SO2:0.000,NH3:3.725
10:08:50,0,0,0,0,0,0,0,0,0,0,0,515,0,0,0,0,0.0000000,0.0000000,0.0000000,0.0000000,10.00,38.4063416,-110.7922440,1372.5999756,0.5,164.0,0.8,0.0,0.0,892,127,0,0,863.01,22.49,21.59,# data time:2320,pm2.5:6.445,pm10:5.704,O2:0.000,NO2:0.000,SO2:0.000,NH3:3.725
10:08:51,0,0,0,0,0,0,0,0,0,0,0,515,0,0,0,0,0.0000000,0.0000000,0.0000000,0.0000000,10.00,38.4063416,-110.7922440,1372.5999756,0.6,154.2,0.8,0.0,0.0,893,126,0,0,863.03,22.45,21.59,# data time:2320,pm2.5:6.445,pm10:5.704,O2:0.000,NO2:0.000,SO2:0.000,NH3:3.725
10:08:52,0,0,0,0,0,0,0,0,0,0,0,516,0,0,0,0,0.0000000,0.0000000,0.0000000,0.0000000,10.00,38.4063377,-110.7922440,1372.5999756,0.6,152.0,0.8,0.0,0.0,892,128,0,0,863.03,22.45,21.59,# data time:2320,pm2.5:6.445,pm10:5.704,O2:0.000,NO2:0.000,SO2:0.000,NH3:3.725
10:08:53,0,0,0,0,0,0,0,0,0,0,0,514,0,0,0,0,0.0000000,0.0000000,0.0000000,0.0000000,10.00,38.4063377,-110.7922440,1372.5999756,0.6,145.7,0.8,0.0,0.0,893,126,0,0,863.05,22.43,21.59,# data time:2330,pm2.5:6.445,pm10:5.704,O2:0.000,NO2:0.000,SO2:0.000,NH3:4.178
10:08:54,0,0,0,0,0,0,0,0,0,0,0,514,0,0,0,0,0.0000000,0.0000000,0.0000000,0.0000000,10.00,38.4063377,-110.7922440,1372.5000000,0.7,151.3,0.8,0.0,0.0,893,127,0,0,863.00,22.46,21.59,# data time:2330,pm2.5:6.445,pm10:5.704,O2:0.000,NO2:0.000,SO2:0.000,NH3:4.178
10:08:55,0,0,0,0,0,0,0,0,0,0,0,515,0,0,0,0,0.0000000,0.0000000,0.0000000,0.0000000,10.00,38.4063339,-110.7922440,1372.5000000,0.6,152.3,0.8,0.0,0.0,892,127,0,0,863.06,22.51,21.59,# data time:2330,pm2.5:6.445,pm10:5.704,O2:0.000,NO2:0.000,SO2:0.000,NH3:4.178
10:08:56,0,0,0,0,0,0,0,0,0,0,0,514,0,0,0,0,0.0000000,0.0000000,0.0000000,0.0000000,10.00,38.4063339,-110.7922440,1372.4000244,0.4,153.7,0.8,0.0,0.0,892,129,0,0,863.06,22.52,21.59,# data time:2330,pm2.5:6.445,pm10:5.704,O2:0.000,NO2:0.000,SO2:0.000,NH3:4.178
10:08:57,0,0,0,0,0,0,0,0,0,0,0,514,0,0,0,0,0.0000000,0.0000000,0.0000000,0.0000000,10.00,38.4063301,-110.7922440,1372.4000244,0.3,158.0,0.8,0.0,0.0,892,128,0,0,863.04,22.51,21.59,# data time:2330,pm2.5:6.445,pm10:5.704,O2:0.000,NO2:0.000,SO2:0.000,NH3:4.178
10:08:58,0,0,0,0,0,0,0,0,0,0,0,515,0,0,0,0,0.0000000,0.0000000,0.0000000,0.0000000,10.00,38.4063225,-110.7922440,1372.3000488,0.3,157.6,0.8,0.0,0.0,892,128,0,0,863.01,22.49,21.59,# data time:2330,pm2.5:6.445,pm10:5.704,O2:0.000,NO2:0.000,SO2:0.000,NH3:4.178
10:08:59,0,0,0,0,0,0,0,0,0,0,0,515,0,0,0,0,0.0000000,0.0000000,0.0000000,0.0000000,10.00,38.4063225,-110.7922440,1372.1999512,0.3,146.8,0.8,0.0,0.0,892,123,0,0,863.06,22.46,21.60,# data time:2330,pm2.5:6.445,pm10:5.704,O2:0.000,NO2:0.000,SO2:0.000,NH3:4.178
10:09:00,0,0,0,0,0,0,0,0,0,0,0,515,0,0,0,0,0.0000000,0.0000000,0.0000000,0.0000000,10.00,38.4063187,-110.7922440,1372.1999512,0.2,141.5,0.8,0.0,0.0,893,124,0,0,863.03,22.48,21.60,# data time:2330,pm2.5:6.445,pm10:5.704,O2:0.000,NO2:0.000,SO2:0.000,NH3:4.178
10:09:01,0,0,0,0,0,0,0,0,0,0,0,514,0,0,0,0,0.0000000,0.0000000,0.0000000,0.0000000,10.00,38.4063187,-110.7922440,1372.1999512,0.3,132.7,0.8,0.0,0.0,892,128,0,0,863.01,22.46,21.60,# data time:2330,pm2.5:6.445,pm10:5.704,O2:0.000,NO2:0.000,SO2:0.000,NH3:4.178
10:09:02,0,0,0,0,0,0,0,0,0,0,0,514,0,0,0,0,0.0000000,0.0000000,0.0000000,0.0000000,10.00,38.4063187,-110.7922440,1372.1999512,0.3,109.0,0.8,0.0,0.0,892,130,0,0,862.96,22.43,21.51,# data time:2340,pm2.5:6.445,pm10:5.704,O2:0.000,NO2:0.000,SO2:0.000,NH3:3.725
10:09:03,0,0,0,0,0,0,0,0,0,0,0,515,0,0,0,0,0.0000000,0.0000000,0.0000000,0.0000000,10.00,38.4063187,-110.7922287,1372.1999512,0.1,79.3,0.8,0.0,0.0,892,127,0,0,862.97,22.39,21.51,# data time:2340,pm2.5:6.445,pm10:5.704,O2:0.000,NO2:0.000,SO2:0.000,NH3:3.725
10:09:04,0,0,0,0,0,0,0,0,0,0,0,515,0,0,0,0,0.0000000,0.0000000,0.0000000,0.0000000,10.00,38.4063187,-110.7922287,1372.1999512,0.1,177.3,0.8,0.0,0.0,893,128,0,0,862.97,22.37,21.50,# data time:2340,pm2.5:6.445,pm10:5.704,O2:0.000,NO2:0.000,SO2:0.000,NH3:3.725
10:09:05,0,0,0,0,0,0,0,0,0,0,0,515,0,0,0,0,0.0000000,0.0000000,0.0000000,0.0000000,10.00,38.4063187,-110.7922287,1372.1999512,0.1,192.2,0.8,0.0,0.0,893,125,0,0,863.00,22.35,21.54,# data time:2340,pm2.5:6.445,pm10:5.704,O2:0.000,NO2:0.000,SO2:0.000,NH3:3.725
10:09:06,0,0,0,0,0,0,0,0,0,0,0,514,0,0,0,0,0.0000000,0.0000000,0.0000000,0.0000000,10.00,38.4063187,-110.7922287,1372.1999512,0.1,73.7,0.8,0.0,0.0,893,127,0,0,863.03,22.37,21.53,# data time:2340,pm2.5:6.445,pm10:5.704,O2:0.000,NO2:0.000,SO2:0.000,NH3:3.725
10:09:07,0,0,0,0,0,0,0,0,0,0,0,514,0,0,0,0,0.0000000,0.0000000,0.0000000,0.0000000,10.00,38.4063187,-110.7922287,1372.1999512,0.0,266.0,0.8,0.0,0.0,893,129,0,0,862.99,22.37,21.53,# data time:2340,pm2.5:6.445,pm10:5.704,O2:0.000,NO2:0.000,SO2:0.000,NH3:3.725
