Time, Motor A Speed, Motor A Dir, Motor B Speed, Motor B Dir, Servo Rail Current Sensor, Servo Pos - Arm L, Servo Pos - Arm R, Servo Pos - End, Servo Pos - Hopper, Servo Pos - Lid, Servo Pos - Extra, Servo Current, LED - Front L, LED - Front R, LED - Back L, LED - Back R, IMU Pitch, IMU Roll, IMU Yaw, Compass Heading, GPS Sats, GPS Latitude, GPS Longitude, GPS Altitude, GPS Speed, GPS Angle, GPS HDOP, GPS VDOP, GPS PDOP, Battery, Wind, Comm Xbee Latency, Comm Arduino Latency, Pressure, Humidity, Temperature, uRADMonitor
15:19:23,0,0,0,0,0,2700,2200,1,0,0,0,514,0,0,0,0,0.0000000,0.0000000,0.0000000,0.0000000,7.00,38.4062653,-110.7920761,1342.0999756,0.0,61.9,1.5,0.0,0.0,851,127,0,0,859.81,10.15,27.12,# data time:10800,pm2.5:6.445,pm10:5.704,O2:0.000,NO2:0.000,SO2:0.000,NH3:7.799
15:19:24,0,0,0,0,0,2700,2200,1,0,0,0,515,0,0,0,0,0.0000000,0.0000000,0.0000000,0.0000000,7.00,38.4062653,-110.7920761,1342.0999756,0.1,102.1,1.5,0.0,0.0,851,127,0,0,859.76,10.13,27.12,# data time:10800,pm2.5:6.445,pm10:5.704,O2:0.000,NO2:0.000,SO2:0.000,NH3:7.799
15:19:25,0,0,0,0,0,2700,2200,1,0,0,0,514,0,0,0,0,0.0000000,0.0000000,0.0000000,0.0000000,7.00,38.4062653,-110.7920761,1342.0999756,0.0,179.2,1.5,0.0,0.0,851,130,0,0,859.74,10.16,27.11,# data time:10810,pm2.5:6.445,pm10:5.704,O2:0.000,NO2:0.028,SO2:0.000,NH3:7.572
15:19:26,0,0,0,0,0,2700,2200,1,0,0,0,513,0,0,0,0,0.0000000,0.0000000,0.0000000,0.0000000,7.00,38.4062653,-110.7920761,1342.0999756,0.1,146.7,1.5,0.0,0.0,851,131,0,0,859.76,10.19,27.11,# data time:10810,pm2.5:6.445,pm10:5.704,O2:0.000,NO2:0.028,SO2:0.000,NH3:7.572
15:19:27,0,0,0,0,0,2700,2200,1,0,0,0,514,0,0,0,0,0.0000000,0.0000000,0.0000000,0.0000000,7.00,38.4062653,-110.7920761,1342.0999756,0.1,106.1,1.5,0.0,0.0,851,129,0,0,859.77,10.21,27.11,# data time:10810,pm2.5:6.445,pm10:5.704,O2:0.000,NO2:0.028,SO2:0.000,NH3:7.572
15:19:28,0,0,0,0,0,2700,2200,1,0,0,0,514,0,0,0,0,0.0000000,0.0000000,0.0000000,0.0000000,7.00,38.4062653,-110.7920761,1342.0999756,0.1,185.6,1.5,0.0,0.0,851,129,0,0,859.78,10.25,27.10,# data time:10810,pm2.5:6.445,pm10:5.704,O2:0.000,NO2:0.028,SO2:0.000,NH3:7.572
15:19:29,0,0,0,0,0,2700,2200,1,0,0,0,514,0,0,0,0,0.0000000,0.0000000,0.0000000,0.0000000,7.00,38.4062653,-110.7920761,1342.0000000,0.1,181.8,1.5,0.0,0.0,851,129,0,0,859.77,10.28,27.11,# data time:10810,pm2.5:6.445,pm10:5.704,O2:0.000,NO2:0.028,SO2:0.000,NH3:7.572
15:19:30,0,0,0,0,0,2700,2200,1,0,0,0,515,0,0,0,0,0.0000000,0.0000000,0.0000000,0.0000000,7.00,38.4062614,-110.7920761,1342.0000000,0.1,128.9,1.5,0.0,0.0,851,129,0,0,859.75,10.27,27.01,# data time:10810,pm2.5:6.445,pm10:5.704,O2:0.000,NO2:0.028,SO2:0.000,NH3:7.572
15:19:31,0,0,0,0,0,2700,2200,1,0,0,0,514,0,0,0,0,0.0000000,0.0000000,0.0000000,0.0000000,7.00,38.4062614,-110.7920761,1342.0000000,0.1,128.9,1.5,0.0,0.0,852,129,0,0,859.77,10.25,27.05,# data time:10810,pm2.5:6.445,pm10:5.704,O2:0.000,NO2:0.028,SO2:0.000,NH3:7.572
15:19:32,0,0,0,0,0,2700,2200,1,0,0,0,515,0,0,0,0,0.0000000,0.0000000,0.0000000,0.0000000,7.00,38.4062614,-110.7920761,1342.0000000,0.1,135.1,1.5,0.0,0.0,851,131,0,0,859.78,10.27,27.05,# data time:10810,pm2.5:6.445,pm10:5.704,O2:0.000,NO2:0.028,SO2:0.000,NH3:7.572
15:19:33,0,0,0,0,0,2700,2200,1,0,0,0,514,0,0,0,0,0.0000000,0.0000000,0.0000000,0.0000000,7.00,38.4062614,-110.7920761,1342.0000000,0.1,136.9,1.5,0.0,0.0,851,129,0,0,859.77,10.28,27.09,# data time:10810,pm2.5:6.445,pm10:5.704,O2:0.000,NO2:0.028,SO2:0.000,NH3:7.572
15:19:34,0,0,0,0,0,2700,2200,1,0,0,0,514,0,0,0,0,0.0000000,0.0000000,0.0000000,0.0000000,7.00,38.4062614,-110.7920761,1342.0000000,0.1,139.9,1.5,0.0,0.0,851,129,0,0,859.77,10.30,27.10,# data time:10820,pm2.5:6.445,pm10:5.704,O2:0.000,NO2:0.028,SO2:0.000,NH3:7.572
15:19:36,0,0,0,0,0,2700,2200,1,0,0,0,514,0,0,0,0,0.0000000,0.0000000,0.0000000,0.0000000,7.00,38.4062614,-110.7920761,1342.0000000,0.1,143.9,1.5,0.0,0.0,851,131,0,0,859.80,10.25,27.10,# data time:10820,pm2.5:6.445,pm10:5.704,O2:0.000,NO2:0.028,SO2:0.000,NH3:7.572
15:19:37,0,0,0,0,0,2700,2200,1,0,0,0,514,0,0,0,0,0.0000000,0.0000000,0.0000000,0.0000000,7.00,38.4062614,-110.7920761,1342.0000000,0.1,167.9,1.5,0.0,0.0,851,130,0,0,859.77,10.25,27.10,# data time:10820,pm2.5:6.445,pm10:5.704,O2:0.000,NO2:0.028,SO2:0.000,NH3:7.572
15:19:38,0,0,0,0,0,2700,2200,1,0,0,0,514,0,0,0,0,0.0000000,0.0000000,0.0000000,0.0000000,7.00,38.4062614,-110.7920761,1342.0000000,0.1,153.4,1.5,0.0,0.0,851,130,0,0,859.78,10.30,27.10,# data time:10820,pm2.5:6.445,pm10:5.704,O2:0.000,NO2:0.028,SO2:0.000,NH3:7.572
15:19:39,0,0,0,0,0,2700,2200,1,0,0,0,514,0,0,0,0,0.0000000,0.0000000,0.0000000,0.0000000,7.00,38.4062614,-110.7920761,1342.0000000,0.1,166.3,1.3,0.0,0.0,851,130,0,0,859.75,10.54,27.10,# data time:10820,pm2.5:6.445,pm10:5.704,O2:0.000,NO2:0.028,SO2:0.000,NH3:7.572
15:19:40,0,0,0,0,0,2700,2200,1,0,0,0,513,0,0,0,0,0.0000000,0.0000000,0.0000000,0.0000000,7.00,38.4062614,-110.7920761,1342.0000000,0.1,162.2,1.5,0.0,0.0,851,129,0,0,859.77,10.77,27.08,# data time:10820,pm2.5:6.445,pm10:5.704,O2:0.000,NO2:0.028,SO2:0.000,NH3:7.572
15:19:41,0,0,0,0,0,2700,2200,1,0,0,0,514,0,0,0,0,0.0000000,0.0000000,0.0000000,0.0000000,7.00,38.4062614,-110.7920761,1342.0000000,0.1,168.4,1.5,0.0,0.0,851,133,0,0,859.72,10.91,27.08,# data time:10820,pm2.5:6.445,pm10:5.704,O2:0.000,NO2:0.028,SO2:0.000,NH3:7.572
15:19:42,0,0,0,0,0,2700,2200,1,0,0,0,514,0,0,0,0,0.0000000,0.0000000,0.0000000,0.0000000,7.00,38.4062614,-110.7920761,1342.0000000,0.0,168.2,1.3,0.0,0.0,851,130,0,0,859.81,10.90,27.08,# data time:10820,pm2.5:6.445,pm10:5.704,O2:0.000,NO2:0.028,SO2:0.000,NH3:7.572
15:19:43,0,0,0,0,0,2700,2200,1,0,0,0,514,0,0,0,0,0.0000000,0.0000000,0.0000000,0.0000000,7.00,38.4062614,-110.7920761,1341.9000244,0.0,331.3,1.3,0.0,0.0,851,129,0,0,859.77,11.02,27.08,# data time:10820,pm2.5:6.445,pm10:5.704,O2:0.000,NO2:0.028,SO2:0.000,NH3:7.572
15:19:44,0,0,0,0,0,2700,2200,1,0,0,0,515,0,0,0,0,0.0000000,0.0000000,0.0000000,0.0000000,7.00,38.4062614,-110.7920761,1341.9000244,0.0,221.1,1.3,0.0,0.0,851,128,0,0,859.79,11.12,27.07,# data time:10820,pm2.5:6.445,pm10:5.704,O2:0.000,NO2:0.028,SO2:0.000,NH3:7.572
15:19:45,0,0,0,0,0,2700,2200,1,0,0,0,515,0,0,0,0,0.0000000,0.0000000,0.0000000,0.0000000,7.00,38.4062614,-110.7920761,1341.9000244,0.0,246.3,1.3,0.0,0.0,851,129,0,0,859.73,11.15,27.07,# data time:10830,pm2.5:6.445,pm10:5.704,O2:0.000,NO2:0.187,SO2:0.000,NH3:7.799
15:19:46,0,0,0,0,0,2700,2200,1,0,0,0,514,0,0,0,0,0.0000000,0.0000000,0.0000000,0.0000000,7.00,38.4062614,-110.7920761,1341.9000244,0.0,309.6,1.3,0.0,0.0,851,127,0,0,859.78,11.12,27.06,# data time:10830,pm2.5:6.445,pm10:5.704,O2:0.000,NO2:0.187,SO2:0.000,NH3:7.799
15:19:47,0,0,0,0,0,2700,2200,1,0,0,0,514,0,0,0,0,0.0000000,0.0000000,0.0000000,0.0000000,7.00,38.4062614,-110.7920761,1341.9000244,0.1,231.2,1.3,0.0,0.0,851,130,0,0,859.79,11.15,27.05,# data time:10830,pm2.5:6.445,pm10:5.704,O2:0.000,NO2:0.187,SO2:0.000,NH3:7.799
15:19:48,0,0,0,0,0,2700,2200,1,0,0,0,515,0,0,0,0,0.0000000,0.0000000,0.0000000,0.0000000,7.00,38.4062614,-110.7920761,1341.9000244,0.1,262.5,1.3,0.0,0.0,851,126,0,0,859.80,11.05,27.05,# data time:10830,pm2.5:6.445,pm10:5.704,O2:0.000,NO2:0.187,SO2:0.000,NH3:7.799
15:19:49,0,0,0,0,0,2700,2200,1,0,0,0,514,0,0,0,0,0.0000000,0.0000000,0.0000000,0.0000000,7.00,38.4062614,-110.7920761,1341.9000244,0.0,293.8,1.3,0.0,0.0,851,128,0,0,859.71,11.37,26.97,# data time:10830,pm2.5:6.445,pm10:5.704,O2:0.000,NO2:0.187,SO2:0.000,NH3:7.799
15:19:50,0,0,0,0,0,2700,2200,1,0,0,0,514,0,0,0,0,0.0000000,0.0000000,0.0000000,0.0000000,7.00,38.4062614,-110.7920761,1341.9000244,0.0,293.8,1.3,0.0,0.0,852,131,0,0,859.75,11.89,26.96,# data time:10830,pm2.5:6.445,pm10:5.704,O2:0.000,NO2:0.187,SO2:0.000,NH3:7.799
15:19:51,0,0,0,0,0,2700,2200,1,0,0,0,514,0,0,0,0,0.0000000,0.0000000,0.0000000,0.0000000,7.00,38.4062614,-110.7920761,1341.9000244,0.0,293.8,1.3,0.0,0.0,851,130,0,0,859.76,12.36,27.03,# data time:10830,pm2.5:6.445,pm10:5.704,O2:0.000,NO2:0.187,SO2:0.000,NH3:7.799
15:19:52,0,0,0,0,0,2700,2200,1,0,0,0,515,0,0,0,0,0.0000000,0.0000000,0.0000000,0.0000000,7.00,38.4062614,-110.7920761,1341.9000244,0.0,13.0,1.3,0.0,0.0,851,126,0,0,859.72,12.33,27.02,# data time:10830,pm2.5:6.445,pm10:5.704,O2:0.000,NO2:0.187,SO2:0.000,NH3:7.799
15:19:53,0,0,0,0,0,2700,2200,1,0,0,0,514,0,0,0,0,0.0000000,0.0000000,0.0000000,0.0000000,7.00,38.4062614,-110.7920761,1341.9000244,0.0,328.6,1.3,0.0,0.0,851,128,0,0,859.71,12.39,27.08,# data time:10830,pm2.5:6.445,pm10:5.704,O2:0.000,NO2:0.187,SO2:0.000,NH3:7.799
15:19:55,0,0,0,0,0,2700,2200,1,0,0,0,514,0,0,0,0,0.0000000,0.0000000,0.0000000,0.0000000,7.00,38.4062614,-110.7920761,1341.9000244,0.0,85.3,1.3,0.0,0.0,851,132,0,0,859.77,12.25,27.09,# data time:10840,pm2.5:6.445,pm10:5.704,O2:0.000,NO2:0.000,SO2,NH3:8.251
15:19:56,0,0,0,0,0,2700,2200,1,0,0,0,514,0,0,0,0,0.0000000,0.0000000,0.0000000,0.0000000,7.00,38.4062614,-110.7920761,1341.9000244,0.0,2.2,1.3,0.0,0.0,851,129,0,0,859.69,11.99,27.09,# data time:10840,pm2.5:6.445,pm10:5.704,O2:0.000,NO2:0.000,SO2,NH3:8.251
15:19:57,0,0,0,0,0,2700,2200,1,0,0,0,513,0,0,0,0,0.0000000,0.0000000,0.0000000,0.0000000,7.00,38.4062614,-110.7920761,1341.9000244,0.0,283.5,1.3,0.0,0.0,851,129,0,0,859.73,11.83,27.10,# data time:10840,pm2.5:6.445,pm10:5.704,O2:0.000,NO2:0.000,SO2,NH3:8.251
15:19:58,0,0,0,0,0,2700,2200,1,0,0,0,513,0,0,0,0,0.0000000,0.0000000,0.0000000,0.0000000,7.00,38.4062614,-110.7920761,1341.9000244,0.1,252.6,1.3,0.0,0.0,851,125,0,0,859.71,11.75,27.10,# data time:10840,pm2.5:6.445,pm10:5.704,O2:0.000,NO2:0.000,SO2,NH3:8.251
15:19:59,0,0,0,0,0,2700,2200,1,0,0,0,514,0,0,0,0,0.0000000,0.0000000,0.0000000,0.0000000,7.00,38.4062614,-110.7920761,1341.9000244,0.0,272.1,1.5,0.0,0.0,851,129,0,0,859.70,11.49,27.10,# data time:10840,pm2.5:6.445,pm10:5.704,O2:0.000,NO2:0.000,SO2,NH3:8.251
15:20:00,0,0,0,0,0,2100,2200,2,0,0,0,515,0,0,0,0,0.0000000,0.0000000,0.0000000,0.0000000,7.00,38.4062614,-110.7920761,1341.9000244,0.0,278.1,1.5,0.0,0.0,851,128,0,0,859.75,11.35,27.10,# data time:10840,pm2.5:6.445,pm10:5.704,O2:0.000,NO2:0.000,SO2,NH3:8.251
15:20:01,0,0,0,0,0,2100,2200,2,0,0,0,514,0,0,0,0,0.0000000,0.0000000,0.0000000,0.0000000,7.00,38.4062614,-110.7920761,1341.9000244,0.0,230.1,1.5,0.0,0.0,851,126,0,0,859.73,11.20,27.11,# data time:10840,pm2.5:6.445,pm10:5.704,O2:0.000,NO2:0.000,SO2,NH3:8.251
15:20:02,0,0,0,0,0,2100,2200,2,0,0,0,515,0,0,0,0,0.0000000,0.0000000,0.0000000,0.0000000,7.00,38.4062614,-110.7920761,1341.9000244,0.1,266.8,1.5,0.0,0.0,851,130,0,0,859.72,11.02,27.11,# data time:10840,pm2.5:6.445,pm10:5.704,O2:0.000,NO2:0.000,SO2,NH3:8.251
15:20:03,0,0,0,0,0,2100,2200,2,0,0,0,514,0,0,0,0,0.0000000,0.0000000,0.0000000,0.0000000,7.00,38.4062614,-110.7920761,1341.9000244,0.0,251.1,1.5,0.0,0.0,851,129,0,0,859.73,10.96,27.11,# data time:10840,pm2.5:6.445,pm10:5.704,O2:0.000,NO2:0.000,SO2,NH3:8.251
15:20:04,0,0,0,0,0,2100,2200,2,0,0,0,515,0,0,0,0,0.0000000,0.0000000,0.0000000,0.0000000,7.00,38.4062614,-110.7920761,1341.9000244,0.0,178.4,1.5,0.0,0.0,851,129,0,0,859.78,11.03,27.13,# data time:10840,pm2.5:6.445,pm10:5.704,O2:0.000,NO2:0.000,SO2,NH3:8.251
15:20:05,0,0,0,0,0,2100,2200,2,0,0,0,514,0,0,0,0,0.0000000,0.0000000,0.0000000,0.0000000,7.00,38.4062614,-110.7920761,1341.9000244,0.0,272.0,1.5,0.0,0.0,851,130,0,0,859.69,11.05,27.14,# data time:10850,pm2.5:6.445,pm10:5.704,O2:0.000,NO2:0.046,SO2:0.000,NH3:8.251
15:20:06,0,0,0,0,0,2100,2200,2,0,0,0,514,0,0,0,0,0.0000000,0.0000000,0.0000000,0.0000000,7.00,38.4062614,-110.7920761,1341.9000244,0.0,334.0,1.5,0.0,0.0,851,127,0,0,859.73,10.97,27.15,# data time:10850,pm2.5:6.445,pm10:5.704,O2:0.000,NO2:0.046,SO2:0.000,NH3:8.251
15:20:07,0,0,0,0,0,2100,2200,2,0,0,0,514,0,0,0,0,0.0000000,0.0000000,0.0000000,0.0000000,7.00,38.4062614,-110.7920761,1341.9000244,0.0,250.4,1.5,0.0,0.0,851,130,0,0,859.73,11.08,27.15,# data time:10850,pm2.5:6.445,pm10:5.704,O2:0.000,NO2:0.046,SO2:0.000,NH3:8.251
15:20:08,0,0,0,0,0,2100,2200,2,0,0,0,515,0,0,0,0,0.0000000,0.0000000,0.0000000,0.0000000,7.00,38.4062614,-110.7920761,1341.9000244,0.0,111.2,1.5,0.0,0.0,851,129,0,0,859.60,11.09,27.15,# data time:10850,pm2.5:6.445,pm10:5.704,O2:0.000,NO2:0.046,SO2:0.000,NH3:8.251
15:20:09,0,0,0,0,0,2100,2200,2,0,0,0,514,0,0,0,0,0.0000000,0.0000000,0.0000000,0.0000000,7.00,38.4062614,-110.7920761,1341.9000244,0.1,230.5,1.5,0.0,0.0,851,130,0,0,859.65,11.00,27.16,# data time:10850,pm2.5:6.445,pm10:5.704,O2:0.000,NO2:0.046,SO2:0.000,NH3:8.251
15:20:10,0,0,0,0,0,2100,2200,2,0,0,0,513,0,0,0,0,0.0000000,0.0000000,0.0000000,0.0000000,7.00,38.4062614,-110.7920761,1341.9000244,0.0,289.3,1.5,0.0,0.0,851,131,0,0,859.71,10.93,27.17,# data time:10850,pm2.5:6.445,pm10:5.704,O2:0.000,NO2:0.046,SO2:0.000,NH3:8.251
15:20:11,0,0,0,0,0,2100,2200,2,0,0,0,514,0,0,0,0,0.0000000,0.0000000,0.0000000,0.0000000,7.00,38.4062614,-110.7920761,1341.9000244,0.0,212.9,1.5,0.0,0.0,851,131,0,0,859.64,10.86,27.10,# data time:10850,pm2.5:6.445,pm10:5.704,O2:0.000,NO2:0.046,SO2:0.000,NH3:8.251
15:20:12,0,0,0,0,0,2100,2200,2,0,0,0,514,0,0,0,0,0.0000000,0.0000000,0.0000000,0.0000000,7.00,38.4062614,-110.7920761,1341.9000244,0.0,212.9,1.5,0.0,0.0,851,129,0,0,859.68,10.83,27.10,# data time:10850,pm2.5:6.445,pm10:5.704,O2:0.000,NO2:0.046,SO2:0.000,NH3:8.251
15:20:13,0,0,0,0,0,2100,2200,2,0,0,0,514,0,0,0,0,0.0000000,0.0000000,0.0000000,0.0000000,7.00,38.4062614,-110.7920761,1341.9000244,0.0,212.9,1.5,0.0,0.0,851,128,0,0,859.63,10.73,27.11,# data time:10850,pm2.5:6.445,pm10:5.704,O2:0.000,NO2:0.046,SO2:0.000,NH3:8.251
15:20:14,0,0,0,0,0,2100,2200,2,0,0,0,514,0,0,0,0,0.0000000,0.0000000,0.0000000,0.0000000,7.00,38.4062614,-110.7920761,1341.9000244,0.1,161.2,1.5,0.0,0.0,851,130,0,0,859.73,10.70,27.16,# data time:10850,pm2.5:6.445,pm10:5.704,O2:0.000,NO2:0.046,SO2:0.000,NH3:8.251
15:20:15,0,0,0,0,0,1700,2200,3,0,0,0,515,0,0,0,0,0.0000000,0.0000000,0.0000000,0.0000000,7.00,38.4062576,-110.7920761,1341.9000244,0.1,158.3,1.5,0.0,0.0,851,128,0,0,859.76,10.67,27.20,# data time:10860,pm2.5:6.445,pm10:5.704,O2:0.000,NO2:0.028,SO2:0.000,NH3:8.251
15:20:17,0,0,0,0,0,1700,2200,3,0,0,0,514,0,0,0,0,0.0000000,0.0000000,0.0000000,0.0000000,7.00,38.4062576,-110.7920761,1341.9000244,0.1,159.2,1.5,0.0,0.0,851,128,0,0,859.76,10.68,27.21,# data time:10860,pm2.5:6.445,pm10:5.704,O2:0.000,NO2:0.028,SO2:0.000,NH3:8.251
15:20:18,0,0,0,0,0,1700,2200,3,0,0,0,515,0,0,0,0,0.0000000,0.0000000,0.0000000,0.0000000,7.00,38.4062576,-110.7920761,1341.9000244,0.1,159.3,1.5,0.0,0.0,850,126,0,0,859.71,10.67,27.22,# data time:10860,pm2.5:6.445,pm10:5.704,O2:0.000,NO2:0.028,SO2:0.000,NH3:8.251
15:20:19,0,0,0,0,0,1700,2200,3,0,0,0,514,0,0,0,0,0.0000000,0.0000000,0.0000000,0.0000000,7.00,38.4062576,-110.7920761,1341.9000244,0.0,319.1,1.5,0.0,0.0,850,129,0,0,859.71,10.64,27.23,# data time:10860,pm2.5:6.445,pm10:5.704,O2:0.000,NO2:0.028,SO2:0.000,NH3:8.251
15:20:20,0,0,0,0,0,1700,2200,3,0,0,0,514,0,0,0,0,0.0000000,0.0000000,0.0000000,0.0000000,7.00,38.4062576,-110.7920761,1341.9000244,0.0,204.0,1.5,0.0,0.0,851,128,0,0,859.74,10.56,27.24,# data time:10860,pm2.5:6.445,pm10:5.704,O2:0.000,NO2:0.028,SO2:0.000,NH3:8.251
15:20:21,0,0,0,0,0,1700,2200,3,0,0,0,514,0,0,0,0,0.0000000,0.0000000,0.0000000,0.0000000,7.00,38.4062576,-110.7920761,1341.9000244,0.1,187.3,1.5,0.0,0.0,850,130,0,0,859.74,10.56,27.25,# data time:10860,pm2.5:6.445,pm10:5.704,O2:0.000,NO2:0.028,SO2:0.000,NH3:8.251
15:20:22,0,0,0,0,0,1700,2200,3,0,0,0,514,0,0,0,0,0.0000000,0.0000000,0.0000000,0.0000000,7.00,38.4062576,-110.7920761,1341.9000244,0.1,228.0,1.5,0.0,0.0,850,129,0,0,859.81,10.48,27.26,# data time:10860,pm2.5:6.445,pm10:5.704,O2:0.000,NO2:0.028,SO2:0.000,NH3:8.251
15:20:23,0,0,0,0,0,1700,2200,3,0,0,0,514,0,0,0,0,0.0000000,0.0000000,0.0000000,0.0000000,7.00,38.4062576,-110.7920761,1341.9000244,0.1,233.4,1.5,0.0,0.0,851,129,0,0,859.75,10.47,27.26,# data time:10860,pm2.5:6.445,pm10:5.704,O2:0.000,NO2:0.028,SO2:0.000,NH3:8.251
15:20:24,0,0,0,0,0,1700,2200,3,0,0,0,515,0,0,0,0,0.0000000,0.0000000,0.0000000,0.0000000,7.00,38.4062576,-110.7920761,1341.9000244,0.1,178.3,1.5,0.0,0.0,851,128,0,0,859.73,10.45,27.27,# data time:10860,pm2.5:6.445,pm10:5.704,O2:0.000,NO2:0.028,SO2:0.000,NH3:8.251
15:20:25,0,0,0,0,0,1700,2200,3,0,0,0,513,0,0,0,0,0.0000000,0.0000000,0.0000000,0.0000000,7.00,38.4062576,-110.7920761,1341.9000244,0.1,175.8,1.5,0.0,0.0,851,126,0,0,859.65,10.47,27.29,# data time:10870,pm2.5:6.445,pm10:5.704,O2:0.000,NO2:0.000,SO23:8.251
15:20:26,0,0,0,0,0,1700,2200,3,0,0,0,514,0,0,0,0,0.0000000,0.0000000,0.0000000,0.0000000,7.00,38.4062576,-110.7920761,1341.9000244,0.1,157.7,1.5,0.0,0.0,851,123,0,0,859.63,10.45,27.29,# data time:10870,pm2.5:6.445,pm10:5.704,O2:0.000,NO2:0.000,SO23:8.251
15:20:27,0,0,0,0,0,1700,2200,3,0,0,0,514,0,0,0,0,0.0000000,0.0000000,0.0000000,0.0000000,7.00,38.4062576,-110.7920761,1341.9000244,0.1,182.8,1.5,0.0,0.0,851,129,0,0,859.69,10.44,27.30,# data time:10870,pm2.5:6.445,pm10:5.704,O2:0.000,NO2:0.000,SO23:8.251
15:20:28,0,0,0,0,0,1700,2200,3,0,0,0,514,0,0,0,0,0.0000000,0.0000000,0.0000000,0.0000000,7.00,38.4062576,-110.7920761,1341.9000244,0.1,180.8,1.5,0.0,0.0,851,128,0,0,859.67,10.44,27.31,# data time:10870,pm2.5:6.445,pm10:5.704,O2:0.000,NO2:0.000,SO23:8.251
15:20:29,0,0,0,0,0,1700,2200,3,0,0,0,514,0,0,0,0,0.0000000,0.0000000,0.0000000,0.0000000,7.00,38.4062576,-110.7920761,1341.9000244,0.0,188.3,1.5,0.0,0.0,851,131,0,0,859.70,10.41,27.31,# data time:10870,pm2.5:6.445,pm10:5.704,O2:0.000,NO2:0.000,SO23:8.251
15:20:30,0,0,0,0,0,2100,2200,4,0,0,0,514,0,0,0,0,0.0000000,0.0000000,0.0000000,0.0000000,7.00,38.4062576,-110.7920761,1341.9000244,0.0,191.3,1.5,0.0,0.0,851,129,0,0,859.72,10.38,27.32,# data time:10870,pm2.5:6.445,pm10:5.704,O2:0.000,NO2:0.000,SO23:8.251
15:20:31,0,0,0,0,0,2100,2200,4,0,0,0,514,0,0,0,0,0.0000000,0.0000000,0.0000000,0.0000000,7.00,38.4062576,-110.7920761,1341.9000244,0.0,162.1,1.5,0.0,0.0,851,127,0,0,859.68,10.42,27.32,# data time:10870,pm2.5:6.445,pm10:5.704,O2:0.000,NO2:0.000,SO23:8.251
15:20:32,0,0,0,0,0,2100,2200,4,0,0,0,514,0,0,0,0,0.0000000,0.0000000,0.0000000,0.0000000,7.00,38.4062576,-110.7920761,1341.9000244,0.1,170.0,1.5,0.0,0.0,851,127,0,0,859.68,10.45,27.33,# data time:10870,pm2.5:6.445,pm10:5.704,O2:0.000,NO2:0.000,SO23:8.251
15:20:33,0,0,0,0,0,2100,2200,4,0,0,0,515,0,0,0,0,0.0000000,0.0000000,0.0000000,0.0000000,7.00,38.4062576,-110.7920761,1341.9000244,0.1,165.4,1.5,0.0,0.0,851,129,0,0,859.74,10.42,27.34,# data time:10870,pm2.5:6.445,pm10:5.704,O2:0.000,NO2:0.000,SO23:8.251
15:20:34,0,0,0,0,0,2100,2200,4,0,0,0,514,0,0,0,0,0.0000000,0.0000000,0.0000000,0.0000000,7.00,38.4062576,-110.7920761,1341.9000244,0.1,167.1,1.5,0.0,0.0,851,130,0,0,859.72,10.36,27.34,# data time:10870,pm2.5:6.445,pm10:5.704,O2:0.000,NO2:0.000,SO23:8.251
15:20:35,0,0,0,0,0,2100,2200,4,0,0,0,514,0,0,0,0,0.0000000,0.0000000,0.0000000,0.0000000,7.00,38.4062576,-110.7920761,1341.9000244,0.1,163.9,1.5,0.0,0.0,851,128,0,0,859.76,10.33,27.35,# data time:10880,pm2.5:6.445,pm10:5.704,O2:0.000,NO2:0.046,SO2:0.000,NH3:8.251
15:20:36,0,0,0,0,0,2100,2200,4,0,0,0,514,0,0,0,0,0.0000000,0.0000000,0.0000000,0.0000000,7.00,38.4062576,-110.7920761,1341.9000244,0.1,152.3,1.5,0.0,0.0,851,128,0,0,859.73,10.25,27.30,# data time:10880,pm2.5:6.445,pm10:5.704,O2:0.000,NO2:0.046,SO2:0.000,NH3:8.251
15:20:37,0,0,0,0,0,2100,2200,4,0,0,0,514,0,0,0,0,0.0000000,0.0000000,0.0000000,0.0000000,7.00,38.4062576,-110.7920761,1341.8000488,0.1,152.3,1.5,0.0,0.0,851,129,0,0,859.71,10.25,27.27,# data time:10880,pm2.5:6.445,pm10:5.704,O2:0.000,NO2:0.046,SO2:0.000,NH3:8.251
15:20:38,0,0,0,0,0,2100,2200,4,0,0,0,514,0,0,0,0,0.0000000,0.0000000,0.0000000,0.0000000,7.00,38.4062576,-110.7920761,1341.8000488,0.1,152.3,1.5,0.0,0.0,851,127,0,0,859.75,10.28,27.32,# data time:10880,pm2.5:6.445,pm10:5.704,O2:0.000,NO2:0.046,SO2:0.000,NH3:8.251
15:20:39,0,0,0,0,0,2100,2200,4,0,0,0,514,0,0,0,0,0.0000000,0.0000000,0.0000000,0.0000000,7.00,38.4062576,-110.7920761,1341.8000488,0.1,152.3,1.5,0.0,0.0,851,125,0,0,859.64,10.35,27.28,# data time:10880,pm2.5:6.445,pm10:5.704,O2:0.000,NO2:0.046,SO2:0.000,NH3:8.251
15:20:40,0,0,0,0,0,2100,2200,4,0,0,0,514,0,0,0,0,0.0000000,0.0000000,0.0000000,0.0000000,7.00,38.4062576,-110.7920761,1341.8000488,0.0,171.2,1.5,0.0,0.0,851,128,0,0,859.67,10.44,27.34,# data time:10880,pm2.5:6.445,pm10:5.704,O2:0.000,NO2:0.046,SO2:0.000,NH3:8.251
15:20:41,0,0,0,0,0,2100,2200,4,0,0,0,515,0,0,0,0,0.0000000,0.0000000,0.0000000,0.0000000,7.00,38.4062576,-110.7920761,1341.8000488,0.1,178.8,1.5,0.0,0.0,851,128,0,0,859.77,10.42,27.35,# data time:10880,pm2.5:6.445,pm10:5.704,O2:0.000,NO2:0.046,SO2:0.000,NH3:8.251
15:20:43,0,0,0,0,0,2100,2200,4,0,0,0,514,0,0,0,0,0.0000000,0.0000000,0.0000000,0.0000000,7.00,38.4062576,-110.7920761,1341.8000488,0.1,191.0,1.5,0.0,0.0,851,127,0,0,859.74,10.42,27.39,# data time:10880,pm2.5:6.445,pm10:5.704,O2:0.000,NO2:0.046,SO2:0.000,NH3:8.251
15:20:44,0,0,0,0,0,2100,2200,4,0,0,0,515,0,0,0,0,0.0000000,0.0000000,0.0000000,0.0000000,7.00,38.4062576,-110.7920761,1341.8000488,0.1,168.4,1.5,0.0,0.0,851,128,0,0,859.71,10.35,27.40,# data time:10880,pm2.5:6.445,pm10:5.704,O2:0.000,NO2:0.046,SO2:0.000,NH3:8.251
15:20:45,0,0,0,0,0,2100,2800,5,0,0,0,515,0,0,0,0,0.0000000,0.0000000,0.0000000,0.0000000,7.00,38.4062576,-110.7920761,1341.8000488,0.1,172.7,1.5,0.0,0.0,851,127,0,0,859.68,10.30,27.40,# data time:10890,pm2.5:6.445,pm10:5.704,O2:0.000,NO2:0.010,S
15:20:46,0,0,0,0,0,2100,2800,5,0,0,0,515,0,0,0,0,0.0000000,0.0000000,0.0000000,0.0000000,7.00,38.4062576,-110.7920761,1341.8000488,0.1,194.0,1.5,0.0,0.0,851,130,0,0,859.66,10.32,27.41,# data time:10890,pm2.5:6.445,pm10:5.704,O2:0.000,NO2:0.010,S
15:20:47,0,0,0,0,0,2100,2800,5,0,0,0,514,0,0,0,0,0.0000000,0.0000000,0.0000000,0.0000000,7.00,38.4062538,-110.7920761,1341.8000488,0.1,180.3,1.5,0.0,0.0,851,126,0,0,859.73,10.36,27.42,# data time:10890,pm2.5:6.445,pm10:5.704,O2:0.000,NO2:0.010,S
15:20:48,0,0,0,0,0,2100,2800,5,0,0,0,514,0,0,0,0,0.0000000,0.0000000,0.0000000,0.0000000,7.00,38.4062538,-110.7920761,1341.8000488,0.1,199.1,1.5,0.0,0.0,851,123,0,0,859.69,10.35,27.42,# data time:10890,pm2.5:6.445,pm10:5.704,O2:0.000,NO2:0.010,S
15:20:49,0,0,0,0,0,2100,2800,5,0,0,0,514,0,0,0,0,0.0000000,0.0000000,0.0000000,0.0000000,7.00,38.4062538,-110.7920761,1341.8000488,0.1,183.3,1.5,0.0,0.0,851,126,0,0,859.66,10.36,27.43,# data time:10890,pm2.5:6.445,pm10:5.704,O2:0.000,NO2:0.010,S
15:20:50,0,0,0,0,0,2100,2800,5,0,0,0,514,0,0,0,0,0.0000000,0.0000000,0.0000000,0.0000000,7.00,38.4062538,-110.7920761,1341.8000488,0.1,181.7,1.5,0.0,0.0,851,129,0,0,859.63,10.30,27.43,# data time:10890,pm2.5:6.445,pm10:5.704,O2:0.000,NO2:0.010,S
15:20:51,0,0,0,0,0,2100,2800,5,0,0,0,515,0,0,0,0,0.0000000,0.0000000,0.0000000,0.0000000,7.00,38.4062538,-110.7920761,1341.8000488,0.1,197.8,1.5,0.0,0.0,851,129,0,0,859.71,10.28,27.44,# data time:10890,pm2.5:6.445,pm10:5.704,O2:0.000,NO2:0.010,S
15:20:52,0,0,0,0,0,2100,2800,5,0,0,0,514,0,0,0,0,0.0000000,0.0000000,0.0000000,0.0000000,7.00,38.4062538,-110.7920761,1341.8000488,0.1,161.1,1.5,0.0,0.0,851,130,0,0,859.73,10.33,27.45,# data time:10890,pm2.5:6.445,pm10:5.704,O2:0.000,NO2:0.010,S
15:20:53,0,0,0,0,0,2100,2800,5,0,0,0,514,0,0,0,0,0.0000000,0.0000000,0.0000000,0.0000000,7.00,38.4062538,-110.7920761,1341.8000488,0.1,163.3,1.5,0.0,0.0,852,128,0,0,859.72,10.33,27.45,# data time:10890,pm2.5:6.445,pm10:5.704,O2:0.000,NO2:0.010,S
15:20:54,0,0,0,0,0,2100,2800,5,0,0,0,514,0,0,0,0,0.0000000,0.0000000,0.0000000,0.0000000,7.00,38.4062538,-110.7920761,1341.8000488,0.1,195.1,1.5,0.0,0.0,850,128,0,0,859.79,10.35,27.44,# data time:10890,pm2.5:6.445,pm10:5.704,O2:0.000,NO2:0.010,S
15:20:55,0,0,0,0,0,2100,2800,5,0,0,0,515,0,0,0,0,0.0000000,0.0000000,0.0000000,0.0000000,7.00,38.4062538,-110.7920761,1341.8000488,0.1,210.8,1.5,0.0,0.0,851,130,0,0,859.73,10.25,27.44,# data time:10900,pm2.5:6.445,pm10:5.704,O2:0.000,NO2:0.028,SO2:0.000,NH3:7.799
15:20:56,0,0,0,0,0,2100,2800,5,0,0,0,515,0,0,0,0,0.0000000,0.0000000,0.0000000,0.0000000,7.00,38.4062538,-110.7920761,1341.8000488,0.0,184.6,1.5,0.0,0.0,851,131,0,0,859.75,10.21,27.44,# data time:10900,pm2.5:6.445,pm10:5.704,O2:0.000,NO2:0.028,SO2:0.000,NH3:7.799
15:20:57,0,0,0,0,0,2100,2800,5,0,0,0,514,0,0,0,0,0.0000000,0.0000000,0.0000000,0.0000000,7.00,38.4062538,-110.7920761,1341.8000488,0.0,192.7,1.5,0.0,0.0,850,130,0,0,859.79,10.16,27.45,# data time:10900,pm2.5:6.445,pm10:5.704,O2:0.000,NO2:0.028,SO2:0.000,NH3:7.799
15:20:58,0,0,0,0,0,2100,2800,5,0,0,0,515,0,0,0,0,0.0000000,0.0000000,0.0000000,0.0000000,7.00,38.4062538,-110.7920761,1341.8000488,0.0,148.5,1.5,0.0,0.0,851,132,0,0,859.76,10.15,27.45,# data time:10900,pm2.5:6.445,pm10:5.704,O2:0.000,NO2:0.028,SO2:0.000,NH3:7.799
15:20:59,0,0,0,0,0,2100,2800,5,0,0,0,514,0,0,0,0,0.0000000,0.0000000,0.0000000,0.0000000,7.00,38.4062538,-110.7920761,1341.8000488,0.0,178.9,1.5,0.0,0.0,850,128,0,0,859.73,10.10,27.45,# data time:10900,pm2.5:6.445,pm10:5.704,O2:0.000,NO2:0.028,SO2:0.000,NH3:7.799
15:21:00,0,0,0,0,0,2100,2200,6,0,0,0,514,0,0,0,0,0.0000000,0.0000000,0.0000000,0.0000000,7.00,38.4062538,-110.7920761,1341.8000488,0.1,165.2,1.5,0.0,0.0,851,130,0,0,859.73,10.01,27.37,# data time:10900,pm2.5:6.445,pm10:5.704,O2:0.000,NO2:0.028,SO2:0.000,NH3:7.799
15:21:01,0,0,0,0,0,2100,2200,6,0,0,0,513,0,0,0,0,0.0000000,0.0000000,0.0000000,0.0000000,7.00,38.4062538,-110.7920761,1341.8000488,0.1,165.2,1.5,0.0,0.0,850,130,0,0,859.62,10.03,27.37,# data time:10900,pm2.5:6.445,pm10:5.704,O2:0.000,NO2:0.028,SO2:0.000,NH3:7.799
15:21:02,0,0,0,0,0,2100,2200,6,0,0,0,514,0,0,0,0,0.0000000,0.0000000,0.0000000,0.0000000,7.00,38.4062538,-110.7920761,1341.8000488,0.1,165.2,1.5,0.0,0.0,851,134,0,0,859.72,10.06,27.37,# data time:10900,pm2.5:6.445,pm10:5.704,O2:0.000,NO2:0.028,SO2:0.000,NH3:7.799
15:21:03,0,0,0,0,0,2100,2200,6,0,0,0,514,0,0,0,0,0.0000000,0.0000000,0.0000000,0.0000000,7.00,38.4062500,-110.7920761,1341.8000488,0.1,167.3,1.5,0.0,0.0,851,126,0,0,859.75,10.03,27.41,# data time:10900,pm2.5:6.445,pm10:5.704,O2:0.000,NO2:0.028,SO2:0.000,NH3:7.799
15:21:04,0,0,0,0,0,2100,2200,6,0,0,0,514,0,0,0,0,0.0000000,0.0000000,0.0000000,0.0000000,7.00,38.4062500,-110.7920761,1341.8000488,0.1,192.4,1.5,0.0,0.0,851,133,0,0,859.74,9.96,27.45,# data time:10910,pm2.5:6.445,pm10:5.704,O2:0.000,NO2:0.010,S
15:21:06,0,0,0,0,0,2100,2200,6,0,0,0,514,0,0,0,0,0.0000000,0.0000000,0.0000000,0.0000000,7.00,38.4062500,-110.7920761,1341.8000488,0.1,175.1,1.5,0.0,0.0,851,129,0,0,859.75,9.93,27.45,# data time:10910,pm2.5:6.445,pm10:5.704,O2:0.000,NO2:0.010,S
15:21:07,0,0,0,0,0,2100,2200,6,0,0,0,514,0,0,0,0,0.0000000,0.0000000,0.0000000,0.0000000,7.00,38.4062500,-110.7920761,1341.8000488,0.1,160.5,1.5,0.0,0.0,851,128,0,0,859.73,9.95,27.46,# data time:10910,pm2.5:6.445,pm10:5.704,O2:0.000,NO2:0.010,S
15:21:08,0,0,0,0,0,2100,2200,6,0,0,0,514,0,0,0,0,0.0000000,0.0000000,0.0000000,0.0000000,7.00,38.4062500,-110.7920761,1341.8000488,0.1,165.9,1.5,0.0,0.0,850,130,0,0,859.77,9.95,27.46,# data time:10910,pm2.5:6.445,pm10:5.704,O2:0.000,NO2:0.010,S
15:21:09,0,0,0,0,0,2100,2200,6,0,0,0,515,0,0,0,0,0.0000000,0.0000000,0.0000000,0.0000000,7.00,38.4062500,-110.7920761,1341.8000488,0.1,167.7,1.5,0.0,0.0,850,130,0,0,859.77,9.96,27.47,# data time:10910,pm2.5:6.445,pm10:5.704,O2:0.000,NO2:0.010,S
15:21:10,0,0,0,0,0,2100,2200,6,0,0,0,514,0,0,0,0,0.0000000,0.0000000,0.0000000,0.0000000,7.00,38.4062500,-110.7920761,1341.6999512,0.1,172.7,1.3,0.0,0.0,851,131,0,0,859.80,9.98,27.47,# data time:10910,pm2.5:6.445,pm10:5.704,O2:0.000,NO2:0.010,S
15:21:11,0,0,0,0,0,2100,2200,6,0,0,0,514,0,0,0,0,0.0000000,0.0000000,0.0000000,0.0000000,7.00,38.4062500,-110.7920761,1341.6999512,0.1,172.2,1.5,0.0,0.0,851,131,0,0,859.86,9.95,27.47,# data time:10910,pm2.5:6.445,pm10:5.704,O2:0.000,NO2:0.010,S
15:21:12,0,0,0,0,0,2100,2200,6,0,0,0,515,0,0,0,0,0.0000000,0.0000000,0.0000000,0.0000000,7.00,38.4062500,-110.7920761,1341.6999512,0.1,180.7,1.5,0.0,0.0,851,126,0,0,859.77,9.96,27.48,# data time:10910,pm2.5:6.445,pm10:5.704,O2:0.000,NO2:0.010,S
15:21:13,0,0,0,0,0,2100,2200,6,0,0,0,514,0,0,0,0,0.0000000,0.0000000,0.0000000,0.0000000,7.00,38.4062500,-110.7920761,1341.6999512,0.1,150.8,1.5,0.0,0.0,851,129,0,0,859.83,10.04,27.48,# data time:10910,pm2.5:6.445,pm10:5.704,O2:0.000,NO2:0.010,S
15:21:14,0,0,0,0,0,2100,2200,6,0,0,0,514,0,0,0,0,0.0000000,0.0000000,0.0000000,0.0000000,7.00,38.4062500,-110.7920761,1341.6999512,0.0,175.2,1.5,0.0,0.0,851,128,0,0,859.78,10.12,27.48,# data time:10910,pm2.5:6.445,pm10:5.704,O2:0.000,NO2:0.010,S
15:21:15,0,0,0,0,0,2100,1800,7,0,0,0,514,0,0,0,0,0.0000000,0.0000000,0.0000000,0.0000000,7.00,38.4062500,-110.7920761,1341.6999512,0.0,178.8,1.5,0.0,0.0,851,127,0,0,859.81,10.13,27.48,# data time:10920,pm2.5:6.445,pm10:5.704,O2:0.000,NO2:0.081,SO2:0.000,NH3:7.799
15:21:16,0,0,0,0,0,2100,1800,7,0,0,0,514,0,0,0,0,0.0000000,0.0000000,0.0000000,0.0000000,7.00,38.4062500,-110.7920761,1341.6999512,0.0,180.9,1.5,0.0,0.0,850,130,0,0,859.75,10.24,27.49,# data time:10920,pm2.5:6.445,pm10:5.704,O2:0.000,NO2:0.081,SO2:0.000,NH3:7.799
15:21:17,0,0,0,0,0,2100,1800,7,0,0,0,515,0,0,0,0,0.0000000,0.0000000,0.0000000,0.0000000,7.00,38.4062500,-110.7920761,1341.6999512,0.1,167.9,1.5,0.0,0.0,852,130,0,0,859.79,10.27,27.49,# data time:10920,pm2.5:6.445,pm10:5.704,O2:0.000,NO2:0.081,SO2:0.000,NH3:7.799
15:21:18,0,0,0,0,0,2100,1800,7,0,0,0,514,0,0,0,0,0.0000000,0.0000000,0.0000000,0.0000000,7.00,38.4062500,-110.7920761,1341.6999512,0.1,199.3,1.5,0.0,0.0,850,128,0,0,859.76,10.32,27.50,# data time:10920,pm2.5:6.445,pm10:5.704,O2:0.000,NO2:0.081,SO2:0.000,NH3:7.799
15:21:19,0,0,0,0,0,2100,1800,7,0,0,0,515,0,0,0,0,0.0000000,0.0000000,0.0000000,0.0000000,7.00,38.4062462,-110.7920761,1341.6999512,0.1,218.6,1.5,0.0,0.0,851,131,0,0,859.77,10.25,27.51,# data time:10920,pm2.5:6.445,pm10:5.704,O2:0.000,NO2:0.081,SO2:0.000,NH3:7.799
15:21:20,0,0,0,0,0,2100,1800,7,0,0,0,514,0,0,0,0,0.0000000,0.0000000,0.0000000,0.0000000,7.00,38.4062462,-110.7920761,1341.6999512,0.1,191.4,1.5,0.0,0.0,850,129,0,0,859.73,10.16,27.51,# data time:10920,pm2.5:6.445,pm10:5.704,O2:0.000,NO2:0.081,SO2:0.000,NH3:7.799
15:21:21,0,0,0,0,0,2100,1800,7,0,0,0,514,0,0,0,0,0.0000000,0.0000000,0.0000000,0.0000000,7.00,38.4062462,-110.7920761,1341.6999512,0.1,170.8,1.5,0.0,0.0,851,130,0,0,859.71,10.07,27.43,# data time:10920,pm2.5:6.445,pm10:5.704,O2:0.000,NO2:0.081,SO2:0.000,NH3:7.799
15:21:22,0,0,0,0,0,2100,1800,7,0,0,0,513,0,0,0,0,0.0000000,0.0000000,0.0000000,0.0000000,7.00,38.4062462,-110.7920761,1341.6999512,0.1,170.8,1.5,0.0,0.0,851,129,0,0,859.78,10.01,27.42,# data time:10920,pm2.5:6.445,pm10:5.704,O2:0.000,NO2:0.081,SO2:0.000,NH3:7.799
15:21:23,0,0,0,0,0,2100,1800,7,0,0,0,514,0,0,0,0,0.0000000,0.0000000,0.0000000,0.0000000,7.00,38.4062462,-110.7920761,1341.6999512,0.1,170.8,1.5,0.0,0.0,850,128,0,0,859.80,10.01,27.47,# data time:10920,pm2.5:6.445,pm10:5.704,O2:0.000,NO2:0.081,SO2:0.000,NH3:7.799
15:21:24,0,0,0,0,0,2100,1800,7,0,0,0,514,0,0,0,0,0.0000000,0.0000000,0.0000000,0.0000000,7.00,38.4062462,-110.7920761,1341.6999512,0.1,170.8,1.5,0.0,0.0,851,130,0,0,859.73,9.98,27.42,# data time:10920,pm2.5:6.445,pm10:5.704,O2:0.000,NO2:0.081,SO2:0.000,NH3:7.799
15:21:25,0,0,0,0,0,2100,1800,7,0,0,0,514,0,0,0,0,0.0000000,0.0000000,0.0000000,0.0000000,7.00,38.4062462,-110.7920761,1341.6999512,0.0,173.4,1.5,0.0,0.0,851,128,0,0,859.74,9.98,27.51,# data time:10930,pm2.5:6.445,pm10:5.704,O2:0.000,NO2:0.000,SO2,NH3:7.799
15:21:27,0,0,0,0,0,2100,1800,7,0,0,0,514,0,0,0,0,0.0000000,0.0000000,0.0000000,0.0000000,7.00,38.4062462,-110.7920761,1341.6999512,0.1,142.6,1.5,0.0,0.0,851,129,0,0,859.75,10.03,27.52,# data time:10930,pm2.5:6.445,pm10:5.704,O2:0.000,NO2:0.000,SO2,NH3:7.799
15:21:28,0,0,0,0,0,2100,1800,7,0,0,0,514,0,0,0,0,0.0000000,0.0000000,0.0000000,0.0000000,7.00,38.4062462,-110.7920761,1341.6999512,0.1,135.0,1.5,0.0,0.0,851,128,0,0,859.68,10.01,27.52,# data time:10930,pm2.5:6.445,pm10:5.704,O2:0.000,NO2:0.000,SO2,NH3:7.799
15:21:29,0,0,0,0,0,2100,1800,7,0,0,0,515,0,0,0,0,0.0000000,0.0000000,0.0000000,0.0000000,7.00,38.4062462,-110.7920761,1341.6999512,0.1,160.7,1.5,0.0,0.0,850,129,0,0,859.75,10.01,27.51,# data time:10930,pm2.5:6.445,pm10:5.704,O2:0.000,NO2:0.000,SO2,NH3:7.799
15:21:30,0,0,0,0,0,2100,2200,8,0,0,0,514,0,0,0,0,0.0000000,0.0000000,0.0000000,0.0000000,7.00,38.4062462,-110.7920761,1341.6999512,0.1,189.9,1.5,0.0,0.0,850,129,0,0,859.74,10.01,27.51,# data time:10930,pm2.5:6.445,pm10:5.704,O2:0.000,NO2:0.000,SO2,NH3:7.799
15:21:31,0,0,0,0,0,2100,2200,8,0,0,0,514,0,0,0,0,0.0000000,0.0000000,0.0000000,0.0000000,7.00,38.4062462,-110.7920761,1341.6999512,0.1,182.7,1.5,0.0,0.0,850,130,0,0,859.78,10.01,27.52,# data time:10930,pm2.5:6.445,pm10:5.704,O2:0.000,NO2:0.000,SO2,NH3:7.799
15:21:32,0,0,0,0,0,2100,2200,8,0,0,0,515,0,0,0,0,0.0000000,0.0000000,0.0000000,0.0000000,7.00,38.4062462,-110.7920761,1341.6999512,0.1,171.5,1.5,0.0,0.0,851,131,0,0,859.73,10.06,27.53,# data time:10930,pm2.5:6.445,pm10:5.704,O2:0.000,NO2:0.000,SO2,NH3:7.799
15:21:33,0,0,0,0,0,2100,2200,8,0,0,0,515,0,0,0,0,0.0000000,0.0000000,0.0000000,0.0000000,7.00,38.4062462,-110.7920761,1341.6999512,0.0,174.0,1.5,0.0,0.0,851,126,0,0,859.81,10.04,27.53,# data time:10930,pm2.5:6.445,pm10:5.704,O2:0.000,NO2:0.000,SO2,NH3:7.799
15:21:34,0,0,0,0,0,2100,2200,8,0,0,0,514,0,0,0,0,0.0000000,0.0000000,0.0000000,0.0000000,7.00,38.4062424,-110.7920761,1341.6999512,0.1,147.6,1.5,0.0,0.0,851,130,0,0,859.76,10.04,27.52,# data time:10930,pm2.5:6.445,pm10:5.704,O2:0.000,NO2:0.000,SO2,NH3:7.799
15:21:35,0,0,0,0,0,2100,2200,8,0,0,0,514,0,0,0,0,0.0000000,0.0000000,0.0000000,0.0000000,7.00,38.4062424,-110.7920761,1341.6999512,0.1,148.3,1.5,0.0,0.0,850,132,0,0,859.71,10.09,27.53,# data time:10940,pm2.5:6.445,pm10:5.704,O2:0.000,NO2:0.010,SO2.799
15:21:36,0,0,0,0,0,2100,2200,8,0,0,0,514,0,0,0,0,0.0000000,0.0000000,0.0000000,0.0000000,7.00,38.4062424,-110.7920761,1341.6999512,0.1,142.9,1.5,0.0,0.0,850,130,0,0,859.74,10.06,27.53,# data time:10940,pm2.5:6.445,pm10:5.704,O2:0.000,NO2:0.010,SO2.799
15:21:37,0,0,0,0,0,2100,2200,8,0,0,0,514,0,0,0,0,0.0000000,0.0000000,0.0000000,0.0000000,7.00,38.4062424,-110.7920761,1341.6999512,0.1,147.4,1.5,0.0,0.0,851,128,0,0,859.75,10.03,27.54,# data time:10940,pm2.5:6.445,pm10:5.704,O2:0.000,NO2:0.010,SO2.799
15:21:38,0,0,0,0,0,2100,2200,8,0,0,0,514,0,0,0,0,0.0000000,0.0000000,0.0000000,0.0000000,7.00,38.4062424,-110.7920761,1341.6999512,0.1,149.9,1.5,0.0,0.0,850,128,0,0,859.73,10.01,27.54,# data time:10940,pm2.5:6.445,pm10:5.704,O2:0.000,NO2:0.010,SO2.799
15:21:39,0,0,0,0,0,2100,2200,8,0,0,0,514,0,0,0,0,0.0000000,0.0000000,0.0000000,0.0000000,7.00,38.4062424,-110.7920761,1341.6999512,0.1,138.8,1.5,0.0,0.0,850,130,0,0,859.75,10.01,27.53,# data time:10940,pm2.5:6.445,pm10:5.704,O2:0.000,NO2:0.010,SO2.799
15:21:40,0,0,0,0,0,2100,2200,8,0,0,0,514,0,0,0,0,0.0000000,0.0000000,0.0000000,0.0000000,7.00,38.4062424,-110.7920761,1341.6999512,0.1,141.2,1.5,0.0,0.0,851,130,0,0,859.79,9.98,27.54,# data time:10940,pm2.5:6.445,pm10:5.704,O2:0.000,NO2:0.010,SO2.799
15:21:41,0,0,0,0,0,2100,2200,8,0,0,0,514,0,0,0,0,0.0000000,0.0000000,0.0000000,0.0000000,7.00,38.4062424,-110.7920761,1341.6999512,0.1,160.4,1.5,0.0,0.0,850,130,0,0,859.81,9.92,27.53,# data time:10940,pm2.5:6.445,pm10:5.704,O2:0.000,NO2:0.010,SO2.799
15:21:42,0,0,0,0,0,2100,2200,8,0,0,0,514,0,0,0,0,0.0000000,0.0000000,0.0000000,0.0000000,7.00,38.4062424,-110.7920761,1341.6999512,0.1,162.8,1.5,0.0,0.0,851,129,0,0,859.79,9.90,27.53,# data time:10940,pm2.5:6.445,pm10:5.704,O2:0.000,NO2:0.010,SO2.799
15:21:43,0,0,0,0,0,2100,2200,8,0,0,0,514,0,0,0,0,0.0000000,0.0000000,0.0000000,0.0000000,7.00,38.4062424,-110.7920761,1341.6999512,0.1,155.6,1.5,0.0,0.0,851,128,0,0,859.84,9.92,27.53,# data time:10940,pm2.5:6.445,pm10:5.704,O2:0.000,NO2:0.010,SO2.799
15:21:44,0,0,0,0,0,2100,2200,8,0,0,0,514,0,0,0,0,0.0000000,0.0000000,0.0000000,0.0000000,7.00,38.4062424,-110.7920761,1341.6999512,0.1,147.4,1.5,0.0,0.0,850,131,0,0,859.83,9.98,27.54,# data time:10940,pm2.5:6.445,pm10:5.704,O2:0.000,NO2:0.010,SO2.799
15:21:45,0,0,0,0,0,2700,2800,9,0,0,0,514,0,0,0,0,0.0000000,0.0000000,0.0000000,0.0000000,7.00,38.4062424,-110.7920761,1341.6999512,0.1,147.7,1.5,0.0,0.0,851,128,0,0,859.83,9.96,27.51,# data time:10950,pm2.5:6.445,pm10:5.704,O2:0.000,NO2:0.028,SO2:0.000,NH3:7.799
15:21:46,0,0,0,0,0,2700,2800,9,0,0,0,514,0,0,0,0,0.0000000,0.0000000,0.0000000,0.0000000,7.00,38.4062424,-110.7920761,1341.6999512,0.1,147.7,1.5,0.0,0.0,851,129,0,0,859.86,9.96,27.52,# data time:10950,pm2.5:6.445,pm10:5.704,O2:0.000,NO2:0.028,SO2:0.000,NH3:7.799
15:21:47,0,0,0,0,0,2700,2800,9,0,0,0,514,0,0,0,0,0.0000000,0.0000000,0.0000000,0.0000000,7.00,38.4062424,-110.7920761,1341.6999512,0.1,147.7,1.5,0.0,0.0,851,130,0,0,859.83,10.00,27.47,# data time:10950,pm2.5:6.445,pm10:5.704,O2:0.000,NO2:0.028,SO2:0.000,NH3:7.799
15:21:48,0,0,0,0,0,2700,2800,9,0,0,0,514,0,0,0,0,0.0000000,0.0000000,0.0000000,0.0000000,7.00,38.4062386,-110.7920761,1341.6999512,0.1,147.7,1.5,0.0,0.0,850,129,0,0,859.81,9.98,27.52,# data time:10950,pm2.5:6.445,pm10:5.704,O2:0.000,NO2:0.028,SO2:0.000,NH3:7.799
15:21:49,0,0,0,0,0,2700,2800,9,0,0,0,514,0,0,0,0,0.0000000,0.0000000,0.0000000,0.0000000,7.00,38.4062386,-110.7920761,1341.6999512,0.1,163.9,1.5,0.0,0.0,851,130,0,0,859.78,9.95,27.52,# data time:10950,pm2.5:6.445,pm10:5.704,O2:0.000,NO2:0.028,SO2:0.000,NH3:7.799
15:21:50,0,0,0,0,0,2700,2800,9,0,0,0,514,0,0,0,0,0.0000000,0.0000000,0.0000000,0.0000000,7.00,38.4062386,-110.7920761,1341.5999756,0.0,204.6,1.5,0.0,0.0,851,134,0,0,859.79,9.95,27.55,# data time:10950,pm2.5:6.445,pm10:5.704,O2:0.000,NO2:0.028,SO2:0.000,NH3:7.799
15:21:52,0,0,0,0,0,2700,2800,9,0,0,0,514,0,0,0,0,0.0000000,0.0000000,0.0000000,0.0000000,7.00,38.4062386,-110.7920761,1341.5999756,0.0,216.2,1.5,0.0,0.0,850,129,0,0,859.87,9.93,27.56,# data time:10950,pm2.5:6.445,pm10:5.704,O2:0.000,NO2:0.028,SO2:0.000,NH3:7.799
15:21:53,0,0,0,0,0,2700,2800,9,0,0,0,514,0,0,0,0,0.0000000,0.0000000,0.0000000,0.0000000,7.00,38.4062386,-110.7920761,1341.5999756,0.0,167.2,1.5,0.0,0.0,850,130,0,0,859.78,9.95,27.56,# data time:10950,pm2.5:6.445,pm10:5.704,O2:0.000,NO2:0.028,SO2:0.000,NH3:7.799
15:21:54,0,0,0,0,0,2700,2800,9,0,0,0,514,0,0,0,0,0.0000000,0.0000000,0.0000000,0.0000000,7.00,38.4062386,-110.7920761,1341.5999756,0.1,129.6,1.5,0.0,0.0,850,132,0,0,859.76,9.92,27.57,# data time:10950,pm2.5:6.445,pm10:5.704,O2:0.000,NO2:0.028,SO2:0.000,NH3:7.799
15:21:55,0,0,0,0,0,2700,2800,9,0,0,0,514,0,0,0,0,0.0000000,0.0000000,0.0000000,0.0000000,7.00,38.4062386,-110.7920761,1341.5999756,0.1,126.5,1.5,0.0,0.0,851,129,0,0,859.82,9.92,27.57,# data time:10960,pm2.5:6.445,pm10:5.704,O2:0.000,NO2:0.000,SO2,NH3:7.799
15:21:56,0,0,0,0,0,2700,2800,9,0,0,0,514,0,0,0,0,0.0000000,0.0000000,0.0000000,0.0000000,7.00,38.4062386,-110.7920761,1341.5999756,0.1,108.3,1.5,0.0,0.0,851,128,0,0,859.85,9.96,27.57,# data time:10960,pm2.5:6.445,pm10:5.704,O2:0.000,NO2:0.000,SO2,NH3:7.799
15:21:57,0,0,0,0,0,2700,2800,9,0,0,0,514,0,0,0,0,0.0000000,0.0000000,0.0000000,0.0000000,7.00,38.4062386,-110.7920761,1341.5999756,0.1,180.1,1.5,0.0,0.0,850,131,0,0,859.88,10.01,27.57,# data time:10960,pm2.5:6.445,pm10:5.704,O2:0.000,NO2:0.000,SO2,NH3:7.799
15:21:58,0,0,0,0,0,2700,2800,9,0,0,0,514,0,0,0,0,0.0000000,0.0000000,0.0000000,0.0000000,7.00,38.4062386,-110.7920761,1341.5999756,0.1,162.0,1.5,0.0,0.0,851,124,0,0,859.79,10.00,27.57,# data time:10960,pm2.5:6.445,pm10:5.704,O2:0.000,NO2:0.000,SO2,NH3:7.799
15:21:59,0,0,0,0,0,2700,2800,9,0,0,0,514,0,0,0,0,0.0000000,0.0000000,0.0000000,0.0000000,7.00,38.4062386,-110.7920761,1341.5999756,0.1,142.2,1.5,0.0,0.0,850,130,0,0,859.81,10.00,27.57,# data time:10960,pm2.5:6.445,pm10:5.704,O2:0.000,NO2:0.000,SO2,NH3:7.799
15:22:00,0,0,0,0,0,2100,2200,10,0,0,0,514,0,0,0,0,0.0000000,0.0000000,0.0000000,0.0000000,7.00,38.4062386,-110.7920761,1341.5999756,0.1,133.1,1.5,0.0,0.0,850,122,0,0,859.83,9.98,27.57,# data time:10960,pm2.5:6.445,pm10:5.704,O2:0.000,NO2:0.000,SO2,NH3:7.799
15:22:01,0,0,0,0,0,2100,2200,10,0,0,0,514,0,0,0,0,0.0000000,0.0000000,0.0000000,0.0000000,7.00,38.4062386,-110.7920761,1341.5999756,0.1,147.2,1.5,0.0,0.0,850,128,0,0,859.77,9.98,27.57,# data time:10960,pm2.5:6.445,pm10:5.704,O2:0.000,NO2:0.000,SO2,NH3:7.799
15:22:02,0,0,0,0,0,2100,2200,10,0,0,0,514,0,0,0,0,0.0000000,0.0000000,0.0000000,0.0000000,7.00,38.4062386,-110.7920761,1341.5999756,0.1,138.2,1.5,0.0,0.0,850,129,0,0,859.82,10.00,27.57,# data time:10960,pm2.5:6.445,pm10:5.704,O2:0.000,NO2:0.000,SO2,NH3:7.799
15:22:03,0,0,0,0,0,2100,2200,10,0,0,0,514,0,0,0,0,0.0000000,0.0000000,0.0000000,0.0000000,7.00,38.4062386,-110.7920761,1341.5999756,0.1,131.8,1.5,0.0,0.0,850,129,0,0,859.85,9.98,27.58,# data time:10960,pm2.5:6.445,pm10:5.704,O2:0.000,NO2:0.000,SO2,NH3:7.799
15:22:04,0,0,0,0,0,2100,2200,10,0,0,0,514,0,0,0,0,0.0000000,0.0000000,0.0000000,0.0000000,7.00,38.4062386,-110.7920761,1341.5999756,0.1,135.3,1.5,0.0,0.0,850,127,0,0,859.83,9.98,27.58,# data time:10960,pm2.5:6.445,pm10:5.704,O2:0.000,NO2:0.000,SO2,NH3:7.799
15:22:05,0,0,0,0,0,2100,2200,10,0,0,0,514,0,0,0,0,0.0000000,0.0000000,0.0000000,0.0000000,7.00,38.4062386,-110.7920761,1341.5999756,0.1,138.5,1.5,0.0,0.0,850,129,0,0,859.75,9.96,27.59,# data time:10970,pm2.5:6.445,pm10:5.704,O2:0.000,NO2:0.028,SO2:0.000,NH3:7.799
15:22:06,0,0,0,0,0,2100,2200,10,0,0,0,514,0,0,0,0,0.0000000,0.0000000,0.0000000,0.0000000,7.00,38.4062386,-110.7920761,1341.5999756,0.1,156.9,1.5,0.0,0.0,851,128,0,0,859.85,9.92,27.58,# data time:10970,pm2.5:6.445,pm10:5.704,O2:0.000,NO2:0.028,SO2:0.000,NH3:7.799
15:22:07,0,0,0,0,0,2100,2200,10,0,0,0,514,0,0,0,0,0.0000000,0.0000000,0.0000000,0.0000000,7.00,38.4062386,-110.7920761,1341.5999756,0.1,136.3,1.5,0.0,0.0,851,130,0,0,859.81,9.93,27.58,# data time:10970,pm2.5:6.445,pm10:5.704,O2:0.000,NO2:0.028,SO2:0.000,NH3:7.799
15:22:08,0,0,0,0,0,2100,2200,10,0,0,0,514,0,0,0,0,0.0000000,0.0000000,0.0000000,0.0000000,7.00,38.4062386,-110.7920761,1341.5999756,0.1,135.8,1.5,0.0,0.0,850,127,0,0,859.89,9.95,27.59,# data time:10970,pm2.5:6.445,pm10:5.704,O2:0.000,NO2:0.028,SO2:0.000,NH3:7.799
15:22:09,0,0,0,0,0,2100,2200,10,0,0,0,514,0,0,0,0,0.0000000,0.0000000,0.0000000,0.0000000,7.00,38.4062386,-110.7920761,1341.5999756,0.0,267.9,1.5,0.0,0.0,851,127,0,0,859.73,9.96,27.59,# data time:10970,pm2.5:6.445,pm10:5.704,O2:0.000,NO2:0.028,SO2:0.000,NH3:7.799
15:22:10,0,0,0,0,0,2100,2200,10,0,0,0,514,0,0,0,0,0.0000000,0.0000000,0.0000000,0.0000000,7.00,38.4062386,-110.7920761,1341.5999756,0.1,197.7,1.5,0.0,0.0,851,133,0,0,859.78,10.01,27.51,# data time:10970,pm2.5:6.445,pm10:5.704,O2:0.000,NO2:0.028,SO2:0.000,NH3:7.799
15:22:11,0,0,0,0,0,2100,2200,10,0,0,0,514,0,0,0,0,0.0000000,0.0000000,0.0000000,0.0000000,7.00,38.4062386,-110.7920761,1341.5999756,0.1,197.7,1.5,0.0,0.0,851,126,0,0,859.77,10.04,27.52,# data time:10970,pm2.5:6.445,pm10:5.704,O2:0.000,NO2:0.028,SO2:0.000,NH3:7.799
15:22:12,0,0,0,0,0,2100,2200,10,0,0,0,515,0,0,0,0,0.0000000,0.0000000,0.0000000,0.0000000,7.00,38.4062347,-110.7920761,1341.5999756,0.1,197.7,1.5,0.0,0.0,851,129,0,0,859.76,10.03,27.55,# data time:10970,pm2.5:6.445,pm10:5.704,O2:0.000,NO2:0.028,SO2:0.000,NH3:7.799
15:22:13,0,0,0,0,0,2100,2200,10,0,0,0,514,0,0,0,0,0.0000000,0.0000000,0.0000000,0.0000000,7.00,38.4062347,-110.7920761,1341.5999756,0.1,195.1,1.5,0.0,0.0,850,128,0,0,859.75,10.04,27.60,# data time:10970,pm2.5:6.445,pm10:5.704,O2:0.000,NO2:0.028,SO2:0.000,NH3:7.799
15:22:14,0,0,0,0,0,2100,2200,10,0,0,0,514,0,0,0,0,0.0000000,0.0000000,0.0000000,0.0000000,7.00,38.4062347,-110.7920761,1341.5999756,0.1,196.3,1.5,0.0,0.0,851,131,0,0,859.80,10.00,27.60,# data time:10980,pm2.5:6.445,pm10:5.704,O2:0.000,NO2:0.010,S
15:22:16,0,0,0,0,0,1700,1800,11,0,0,0,514,0,0,0,0,0.0000000,0.0000000,0.0000000,0.0000000,7.00,38.4062347,-110.7920761,1341.5999756,0.0,220.2,1.5,0.0,0.0,851,132,0,0,859.75,9.96,27.60,# data time:10980,pm2.5:6.445,pm10:5.704,O2:0.000,NO2:0.010,S
15:22:17,0,0,0,0,0,1700,1800,11,0,0,0,514,0,0,0,0,0.0000000,0.0000000,0.0000000,0.0000000,7.00,38.4062347,-110.7920761,1341.5999756,0.0,162.7,1.5,0.0,0.0,850,127,0,0,859.80,9.95,27.61,# data time:10980,pm2.5:6.445,pm10:5.704,O2:0.000,NO2:0.010,S
15:22:18,0,0,0,0,0,1700,1800,11,0,0,0,514,0,0,0,0,0.0000000,0.0000000,0.0000000,0.0000000,7.00,38.4062347,-110.7920761,1341.5999756,0.0,27.8,1.5,0.0,0.0,851,133,0,0,859.77,9.95,27.60,# data time:10980,pm2.5:6.445,pm10:5.704,O2:0.000,NO2:0.010,S
15:22:19,0,0,0,0,0,1700,1800,11,0,0,0,515,0,0,0,0,0.0000000,0.0000000,0.0000000,0.0000000,7.00,38.4062347,-110.7920761,1341.5999756,0.1,63.9,1.5,0.0,0.0,850,131,0,0,859.77,9.93,27.59,# data time:10980,pm2.5:6.445,pm10:5.704,O2:0.000,NO2:0.010,S
15:22:20,0,0,0,0,0,1700,1800,11,0,0,0,514,0,0,0,0,0.0000000,0.0000000,0.0000000,0.0000000,7.00,38.4062347,-110.7920761,1341.5000000,0.0,61.2,1.5,0.0,0.0,850,129,0,0,859.69,9.93,27.58,# data time:10980,pm2.5:6.445,pm10:5.704,O2:0.000,NO2:0.010,S
15:22:21,0,0,0,0,0,1700,1800,11,0,0,0,514,0,0,0,0,0.0000000,0.0000000,0.0000000,0.0000000,7.00,38.4062347,-110.7920761,1341.5000000,0.1,48.2,1.5,0.0,0.0,850,129,0,0,859.73,9.93,27.59,# data time:10980,pm2.5:6.445,pm10:5.704,O2:0.000,NO2:0.010,S
15:22:22,0,0,0,0,0,1700,1800,11,0,0,0,514,0,0,0,0,0.0000000,0.0000000,0.0000000,0.0000000,7.00,38.4062347,-110.7920761,1341.5000000,0.1,32.0,1.5,0.0,0.0,851,128,0,0,859.71,9.95,27.59,# data time:10980,pm2.5:6.445,pm10:5.704,O2:0.000,NO2:0.010,S
15:22:23,0,0,0,0,0,1700,1800,11,0,0,0,515,0,0,0,0,0.0000000,0.0000000,0.0000000,0.0000000,7.00,38.4062347,-110.7920761,1341.5000000,0.1,48.9,1.5,0.0,0.0,850,127,0,0,859.74,9.96,27.60,# data time:10980,pm2.5:6.445,pm10:5.704,O2:0.000,NO2:0.010,S
15:22:24,0,0,0,0,0,1700,1800,11,0,0,0,513,0,0,0,0,0.0000000,0.0000000,0.0000000,0.0000000,7.00,38.4062386,-110.7920761,1341.5000000,0.1,47.3,1.5,0.0,0.0,850,128,0,0,859.71,9.96,27.60,# data time:10980,pm2.5:6.445,pm10:5.704,O2:0.000,NO2:0.010,S
15:22:25,0,0,0,0,0,1700,1800,11,0,0,0,514,0,0,0,0,0.0000000,0.0000000,0.0000000,0.0000000,6.00,38.4062386,-110.7920761,1341.5000000,0.1,39.7,1.6,0.0,0.0,850,133,0,0,859.80,9.96,27.60,# data time:10990,pm2.5:6.445,pm10:5.704,O2:0.000,NO2:0.010,S
15:22:26,0,0,0,0,0,1700,1800,11,0,0,0,515,0,0,0,0,0.0000000,0.0000000,0.0000000,0.0000000,6.00,38.4062386,-110.7920761,1341.5000000,0.1,45.5,1.6,0.0,0.0,850,130,0,0,859.78,9.90,27.60,# data time:10990,pm2.5:6.445,pm10:5.704,O2:0.000,NO2:0.010,S
15:22:27,0,0,0,0,0,1700,1800,11,0,0,0,514,0,0,0,0,0.0000000,0.0000000,0.0000000,0.0000000,6.00,38.4062386,-110.7920761,1341.5000000,0.1,36.2,1.6,0.0,0.0,850,130,0,0,859.77,9.90,27.60,# data time:10990,pm2.5:6.445,pm10:5.704,O2:0.000,NO2:0.010,S
15:22:28,0,0,0,0,0,1700,1800,11,0,0,0,514,0,0,0,0,0.0000000,0.0000000,0.0000000,0.0000000,6.00,38.4062386,-110.7920761,1341.5000000,0.1,41.9,1.4,0.0,0.0,851,130,0,0,859.82,9.87,27.60,# data time:10990,pm2.5:6.445,pm10:5.704,O2:0.000,NO2:0.010,S
15:22:29,0,0,0,0,0,1700,1800,11,0,0,0,515,0,0,0,0,0.0000000,0.0000000,0.0000000,0.0000000,6.00,38.4062386,-110.7920761,1341.4000244,0.1,39.1,1.6,0.0,0.0,851,128,0,0,859.81,9.87,27.60,# data time:10990,pm2.5:6.445,pm10:5.704,O2:0.000,NO2:0.010,S
15:22:30,0,0,0,0,0,2100,2200,12,0,0,0,514,0,0,0,0,0.0000000,0.0000000,0.0000000,0.0000000,6.00,38.4062386,-110.7920761,1341.4000244,0.0,49.2,1.6,0.0,0.0,851,130,0,0,859.79,9.84,27.60,# data time:10990,pm2.5:6.445,pm10:5.704,O2:0.000,NO2:0.010,S
15:22:31,0,0,0,0,0,2100,2200,12,0,0,0,514,0,0,0,0,0.0000000,0.0000000,0.0000000,0.0000000,6.00,38.4062386,-110.7920761,1341.4000244,0.1,182.8,1.6,0.0,0.0,851,128,0,0,859.78,9.80,27.60,# data time:10990,pm2.5:6.445,pm10:5.704,O2:0.000,NO2:0.010,S
15:22:32,0,0,0,0,0,2100,2200,12,0,0,0,514,0,0,0,0,0.0000000,0.0000000,0.0000000,0.0000000,6.00,38.4062386,-110.7920761,1341.4000244,0.1,187.2,1.6,0.0,0.0,850,129,0,0,859.78,9.80,27.56,# data time:10990,pm2.5:6.445,pm10:5.704,O2:0.000,NO2:0.010,S
15:22:33,0,0,0,0,0,2100,2200,12,0,0,0,514,0,0,0,0,0.0000000,0.0000000,0.0000000,0.0000000,6.00,38.4062386,-110.7920761,1341.4000244,0.1,220.2,1.6,0.0,0.0,850,129,0,0,859.75,9.83,27.53,# data time:10990,pm2.5:6.445,pm10:5.704,O2:0.000,NO2:0.010,S
15:22:34,0,0,0,0,0,2100,2200,12,0,0,0,514,0,0,0,0,0.0000000,0.0000000,0.0000000,0.0000000,6.00,38.4062386,-110.7920761,1341.4000244,0.1,220.2,1.6,0.0,0.0,850,128,0,0,859.72,9.87,27.52,# data time:10990,pm2.5:6.445,pm10:5.704,O2:0.000,NO2:0.010,S
15:22:35,0,0,0,0,0,2100,2200,12,0,0,0,514,0,0,0,0,0.0000000,0.0000000,0.0000000,0.0000000,6.00,38.4062386,-110.7920761,1341.4000244,0.1,220.2,1.6,0.0,0.0,850,129,0,0,859.75,9.84,27.52,# data time:11000,pm2.5:6.445,pm10:5.704,O2:0.000,NO2:0.010,SO2000,NH3:7.799
15:22:36,0,0,0,0,0,2100,2200,12,0,0,0,514,0,0,0,0,0.0000000,0.0000000,0.0000000,0.0000000,6.00,38.4062386,-110.7920761,1341.4000244,0.0,115.0,1.6,0.0,0.0,850,131,0,0,859.75,9.89,27.57,# data time:11000,pm2.5:6.445,pm10:5.704,O2:0.000,NO2:0.010,SO2000,NH3:7.799
15:22:37,0,0,0,0,0,2100,2200,12,0,0,0,514,0,0,0,0,0.0000000,0.0000000,0.0000000,0.0000000,6.00,38.4062386,-110.7920761,1341.4000244,0.0,59.5,1.6,0.0,0.0,850,131,0,0,859.77,9.83,27.61,# data time:11000,pm2.5:6.445,pm10:5.704,O2:0.000,NO2:0.010,SO2000,NH3:7.799
15:22:39,0,0,0,0,0,2100,2200,12,0,0,0,514,0,0,0,0,0.0000000,0.0000000,0.0000000,0.0000000,6.00,38.4062386,-110.7920761,1341.4000244,0.0,357.4,1.6,0.0,0.0,850,128,0,0,859.83,9.86,27.62,# data time:11000,pm2.5:6.445,pm10:5.704,O2:0.000,NO2:0.010,SO2000,NH3:7.799
15:22:40,0,0,0,0,0,2100,2200,12,0,0,0,514,0,0,0,0,0.0000000,0.0000000,0.0000000,0.0000000,6.00,38.4062386,-110.7920761,1341.4000244,0.0,358.0,1.6,0.0,0.0,850,130,0,0,859.75,9.84,27.62,# data time:11000,pm2.5:6.445,pm10:5.704,O2:0.000,NO2:0.010,SO2000,NH3:7.799
15:22:41,0,0,0,0,0,2100,2200,12,0,0,0,515,0,0,0,0,0.0000000,0.0000000,0.0000000,0.0000000,6.00,38.4062386,-110.7920761,1341.4000244,0.0,19.1,1.6,0.0,0.0,850,132,0,0,859.80,9.80,27.62,# data time:11000,pm2.5:6.445,pm10:5.704,O2:0.000,NO2:0.010,SO2000,NH3:7.799
15:22:42,0,0,0,0,0,2100,2200,12,0,0,0,515,0,0,0,0,0.0000000,0.0000000,0.0000000,0.0000000,6.00,38.4062386,-110.7920761,1341.4000244,0.0,15.3,1.6,0.0,0.0,851,129,0,0,859.75,9.80,27.62,# data time:11000,pm2.5:6.445,pm10:5.704,O2:0.000,NO2:0.010,SO2000,NH3:7.799
15:22:43,0,0,0,0,0,2100,2200,12,0,0,0,514,0,0,0,0,0.0000000,0.0000000,0.0000000,0.0000000,6.00,38.4062386,-110.7920761,1341.4000244,0.0,43.5,1.6,0.0,0.0,850,131,0,0,859.74,9.78,27.62,# data time:11000,pm2.5:6.445,pm10:5.704,O2:0.000,NO2:0.010,SO2000,NH3:7.799
15:22:44,0,0,0,0,0,2100,2200,12,0,0,0,514,0,0,0,0,0.0000000,0.0000000,0.0000000,0.0000000,6.00,38.4062386,-110.7920761,1341.4000244,0.0,135.8,1.6,0.0,0.0,850,129,0,0,859.80,9.78,27.63,# data time:11000,pm2.5:6.445,pm10:5.704,O2:0.000,NO2:0.010,SO2000,NH3:7.799
15:22:45,0,0,0,0,0,2700,1800,13,0,0,0,514,0,0,0,0,0.0000000,0.0000000,0.0000000,0.0000000,6.00,38.4062386,-110.7920761,1341.4000244,0.0,357.0,1.6,0.0,0.0,850,131,0,0,859.81,9.80,27.63,# data time:11010,pm2.5:6.445,pm10:5.704,O2:0.000,NO2:0.046,S
15:22:46,0,0,0,0,0,2700,1800,13,0,0,0,515,0,0,0,0,0.0000000,0.0000000,0.0000000,0.0000000,6.00,38.4062386,-110.7920761,1341.4000244,0.0,170.2,1.6,0.0,0.0,850,127,0,0,859.69,9.77,27.62,# data time:11010,pm2.5:6.445,pm10:5.704,O2:0.000,NO2:0.046,S
15:22:47,0,0,0,0,0,2700,1800,13,0,0,0,514,0,0,0,0,0.0000000,0.0000000,0.0000000,0.0000000,6.00,38.4062386,-110.7920761,1341.4000244,0.0,136.5,1.6,0.0,0.0,850,129,0,0,859.78,9.78,27.62,# data time:11010,pm2.5:6.445,pm10:5.704,O2:0.000,NO2:0.046,S
15:22:48,0,0,0,0,0,2700,1800,13,0,0,0,515,0,0,0,0,0.0000000,0.0000000,0.0000000,0.0000000,6.00,38.4062386,-110.7920761,1341.4000244,0.0,105.6,1.6,0.0,0.0,850,131,0,0,859.77,9.77,27.63,# data time:11010,pm2.5:6.445,pm10:5.704,O2:0.000,NO2:0.046,S
15:22:49,0,0,0,0,0,2700,1800,13,0,0,0,514,0,0,0,0,0.0000000,0.0000000,0.0000000,0.0000000,6.00,38.4062386,-110.7920761,1341.4000244,0.0,121.9,1.6,0.0,0.0,850,129,0,0,859.76,9.77,27.63,# data time:11010,pm2.5:6.445,pm10:5.704,O2:0.000,NO2:0.046,S
15:22:50,0,0,0,0,0,2700,1800,13,0,0,0,514,0,0,0,0,0.0000000,0.0000000,0.0000000,0.0000000,6.00,38.4062386,-110.7920761,1341.4000244,0.0,136.5,1.6,0.0,0.0,850,128,0,0,859.72,9.75,27.63,# data time:11010,pm2.5:6.445,pm10:5.704,O2:0.000,NO2:0.046,S
15:22:51,0,0,0,0,0,2700,1800,13,0,0,0,515,0,0,0,0,0.0000000,0.0000000,0.0000000,0.0000000,6.00,38.4062386,-110.7920761,1341.4000244,0.0,118.5,1.6,0.0,0.0,850,132,0,0,859.72,9.75,27.63,# data time:11010,pm2.5:6.445,pm10:5.704,O2:0.000,NO2:0.046,S
15:22:52,0,0,0,0,0,2700,1800,13,0,0,0,514,0,0,0,0,0.0000000,0.0000000,0.0000000,0.0000000,6.00,38.4062386,-110.7920761,1341.4000244,0.0,168.2,1.6,0.0,0.0,850,130,0,0,859.72,9.75,27.63,# data time:11010,pm2.5:6.445,pm10:5.704,O2:0.000,NO2:0.046,S
15:22:53,0,0,0,0,0,2700,1800,13,0,0,0,513,0,0,0,0,0.0000000,0.0000000,0.0000000,0.0000000,6.00,38.4062386,-110.7920761,1341.4000244,0.0,131.3,1.6,0.0,0.0,851,129,0,0,859.74,9.74,27.62,# data time:11010,pm2.5:6.445,pm10:5.704,O2:0.000,NO2:0.046,S
15:22:54,0,0,0,0,0,2700,1800,13,0,0,0,514,0,0,0,0,0.0000000,0.0000000,0.0000000,0.0000000,6.00,38.4062386,-110.7920761,1341.4000244,0.1,245.7,1.6,0.0,0.0,850,131,0,0,859.75,9.72,27.61,# data time:11010,pm2.5:6.445,pm10:5.704,O2:0.000,NO2:0.046,S
15:22:55,0,0,0,0,0,2700,1800,13,0,0,0,514,0,0,0,0,0.0000000,0.0000000,0.0000000,0.0000000,6.00,38.4062386,-110.7920761,1341.4000244,0.1,245.7,1.6,0.0,0.0,850,130,0,0,859.73,9.71,27.58,# data time:11020,pm2.5:6.445,pm10:5.704,O2:0.000,NO2:0.028,S
15:22:56,0,0,0,0,0,2700,1800,13,0,0,0,514,0,0,0,0,0.0000000,0.0000000,0.0000000,0.0000000,6.00,38.4062386,-110.7920761,1341.4000244,0.1,235.0,1.6,0.0,0.0,851,128,0,0,859.72,9.71,27.57,# data time:11020,pm2.5:6.445,pm10:5.704,O2:0.000,NO2:0.028,S
15:22:57,0,0,0,0,0,2700,1800,13,0,0,0,514,0,0,0,0,0.0000000,0.0000000,0.0000000,0.0000000,6.00,38.4062386,-110.7920761,1341.4000244,0.1,235.0,1.6,0.0,0.0,851,128,0,0,859.74,9.75,27.52,# data time:11020,pm2.5:6.445,pm10:5.704,O2:0.000,NO2:0.028,S
15:22:58,0,0,0,0,0,2700,1800,13,0,0,0,514,0,0,0,0,0.0000000,0.0000000,0.0000000,0.0000000,6.00,38.4062386,-110.7920761,1341.4000244,0.1,235.0,1.6,0.0,0.0,851,131,0,0,859.73,9.75,27.53,# data time:11020,pm2.5:6.445,pm10:5.704,O2:0.000,NO2:0.028,S
15:22:59,0,0,0,0,0,2700,1800,13,0,0,0,515,0,0,0,0,0.0000000,0.0000000,0.0000000,0.0000000,6.00,38.4062386,-110.7920761,1341.3000488,0.1,235.0,1.6,0.0,0.0,850,128,0,0,859.75,9.75,27.58,# data time:11020,pm2.5:6.445,pm10:5.704,O2:0.000,NO2:0.028,S
15:23:00,0,0,0,0,0,2100,2200,14,0,0,0,514,0,0,0,0,0.0000000,0.0000000,0.0000000,0.0000000,6.00,38.4062386,-110.7920761,1341.3000488,0.1,239.0,1.6,0.0,0.0,850,132,0,0,859.78,9.77,27.63,# data time:11020,pm2.5:6.445,pm10:5.704,O2:0.000,NO2:0.028,S
15:23:01,0,0,0,0,0,2100,2200,14,0,0,0,514,0,0,0,0,0.0000000,0.0000000,0.0000000,0.0000000,6.00,38.4062386,-110.7920761,1341.3000488,0.0,229.7,1.6,0.0,0.0,850,127,0,0,859.75,9.80,27.64,# data time:11020,pm2.5:6.445,pm10:5.704,O2:0.000,NO2:0.028,S
15:23:03,0,0,0,0,0,2100,2200,14,0,0,0,514,0,0,0,0,0.0000000,0.0000000,0.0000000,0.0000000,6.00,38.4062386,-110.7920761,1341.3000488,0.0,265.6,1.6,0.0,0.0,850,131,0,0,859.71,9.78,27.63,# data time:11020,pm2.5:6.445,pm10:5.704,O2:0.000,NO2:0.028,S
15:23:04,0,0,0,0,0,2100,2200,14,0,0,0,514,0,0,0,0,0.0000000,0.0000000,0.0000000,0.0000000,6.00,38.4062386,-110.7920761,1341.3000488,0.0,277.2,1.6,0.0,0.0,850,129,0,0,859.79,9.80,27.64,# data time:11020,pm2.5:6.445,pm10:5.704,O2:0.000,NO2:0.028,S
15:23:05,0,0,0,0,0,2100,2200,14,0,0,0,514,0,0,0,0,0.0000000,0.0000000,0.0000000,0.0000000,6.00,38.4062386,-110.7920761,1341.3000488,0.0,324.8,1.6,0.0,0.0,850,130,0,0,859.75,9.80,27.64,# data time:11030,pm2.5:6.445,pm10:5.704,O2:0.000,NO2:0.010,S
15:23:06,0,0,0,0,0,2100,2200,14,0,0,0,514,0,0,0,0,0.0000000,0.0000000,0.0000000,0.0000000,6.00,38.4062386,-110.7920761,1341.3000488,0.0,159.4,1.6,0.0,0.0,850,131,0,0,859.76,9.87,27.64,# data time:11030,pm2.5:6.445,pm10:5.704,O2:0.000,NO2:0.010,S
15:23:07,0,0,0,0,0,2100,2200,14,0,0,0,515,0,0,0,0,0.0000000,0.0000000,0.0000000,0.0000000,6.00,38.4062347,-110.7920761,1341.3000488,0.1,231.0,1.6,0.0,0.0,850,129,0,0,859.83,9.90,27.65,# data time:11030,pm2.5:6.445,pm10:5.704,O2:0.000,NO2:0.010,S
15:23:08,0,0,0,0,0,2100,2200,14,0,0,0,514,0,0,0,0,0.0000000,0.0000000,0.0000000,0.0000000,6.00,38.4062347,-110.7920761,1341.3000488,0.0,189.4,1.6,0.0,0.0,851,130,0,0,859.75,9.93,27.65,# data time:11030,pm2.5:6.445,pm10:5.704,O2:0.000,NO2:0.010,S
15:23:09,0,0,0,0,0,2100,2200,14,0,0,0,514,0,0,0,0,0.0000000,0.0000000,0.0000000,0.0000000,6.00,38.4062347,-110.7920761,1341.3000488,0.1,218.9,1.6,0.0,0.0,850,129,0,0,859.75,9.98,27.65,# data time:11030,pm2.5:6.445,pm10:5.704,O2:0.000,NO2:0.010,S
15:23:10,0,0,0,0,0,2100,2200,14,0,0,0,514,0,0,0,0,0.0000000,0.0000000,0.0000000,0.0000000,6.00,38.4062347,-110.7920761,1341.3000488,0.1,219.3,1.6,0.0,0.0,850,135,0,0,859.75,10.00,27.65,# data time:11030,pm2.5:6.445,pm10:5.704,O2:0.000,NO2:0.010,S
15:23:11,0,0,0,0,0,2100,2200,14,0,0,0,515,0,0,0,0,0.0000000,0.0000000,0.0000000,0.0000000,6.00,38.4062347,-110.7920761,1341.3000488,0.1,212.8,1.6,0.0,0.0,850,129,0,0,859.72,10.04,27.65,# data time:11030,pm2.5:6.445,pm10:5.704,O2:0.000,NO2:0.010,S
15:23:12,0,0,0,0,0,2100,2200,14,0,0,0,514,0,0,0,0,0.0000000,0.0000000,0.0000000,0.0000000,6.00,38.4062347,-110.7920761,1341.3000488,0.1,187.6,1.6,0.0,0.0,851,131,0,0,859.72,10.01,27.65,# data time:11030,pm2.5:6.445,pm10:5.704,O2:0.000,NO2:0.010,S
15:23:13,0,0,0,0,0,2100,2200,14,0,0,0,514,0,0,0,0,0.0000000,0.0000000,0.0000000,0.0000000,6.00,38.4062347,-110.7920761,1341.3000488,0.1,212.5,1.6,0.0,0.0,850,128,0,0,859.74,10.04,27.66,# data time:11030,pm2.5:6.445,pm10:5.704,O2:0.000,NO2:0.010,S
15:23:14,0,0,0,0,0,2100,2200,14,0,0,0,514,0,0,0,0,0.0000000,0.0000000,0.0000000,0.0000000,6.00,38.4062347,-110.7920761,1341.1999512,0.1,217.3,1.6,0.0,0.0,850,128,0,0,859.75,10.09,27.66,# data time:11030,pm2.5:6.445,pm10:5.704,O2:0.000,NO2:0.010,S
15:23:15,0,0,0,0,0,1700,2800,15,0,0,0,514,0,0,0,0,0.0000000,0.0000000,0.0000000,0.0000000,6.00,38.4062347,-110.7920761,1341.1999512,0.1,217.3,1.6,0.0,0.0,850,127,0,0,859.78,10.10,27.62,# data time:11040,pm2.5:6.445,pm10:5.704,O2:0.000,NO2:0.000,SO2,NH3:7.799
15:23:16,0,0,0,0,0,1700,2800,15,0,0,0,515,0,0,0,0,0.0000000,0.0000000,0.0000000,0.0000000,6.00,38.4062347,-110.7920761,1341.1999512,0.0,155.0,1.6,0.0,0.0,850,130,0,0,859.81,10.06,27.62,# data time:11040,pm2.5:6.445,pm10:5.704,O2:0.000,NO2:0.000,SO2,NH3:7.799
15:23:17,0,0,0,0,0,1700,2800,15,0,0,0,514,0,0,0,0,0.0000000,0.0000000,0.0000000,0.0000000,6.00,38.4062347,-110.7920761,1341.1999512,0.0,206.6,1.6,0.0,0.0,850,129,0,0,859.79,10.01,27.65,# data time:11040,pm2.5:6.445,pm10:5.704,O2:0.000,NO2:0.000,SO2,NH3:7.799
15:23:18,0,0,0,0,0,1700,2800,15,0,0,0,514,0,0,0,0,0.0000000,0.0000000,0.0000000,0.0000000,6.00,38.4062347,-110.7920761,1341.1999512,0.0,243.6,1.6,0.0,0.0,850,132,0,0,859.77,9.95,27.66,# data time:11040,pm2.5:6.445,pm10:5.704,O2:0.000,NO2:0.000,SO2,NH3:7.799
15:23:19,0,0,0,0,0,1700,2800,15,0,0,0,514,0,0,0,0,0.0000000,0.0000000,0.0000000,0.0000000,6.00,38.4062347,-110.7920761,1341.1999512,0.0,152.8,1.6,0.0,0.0,850,126,0,0,859.75,9.90,27.66,# data time:11040,pm2.5:6.445,pm10:5.704,O2:0.000,NO2:0.000,SO2,NH3:7.799
15:23:20,0,0,0,0,0,1700,2800,15,0,0,0,514,0,0,0,0,0.0000000,0.0000000,0.0000000,0.0000000,6.00,38.4062347,-110.7920761,1341.1999512,0.0,24.4,1.6,0.0,0.0,851,124,0,0,859.72,9.87,27.57,# data time:11040,pm2.5:6.445,pm10:5.704,O2:0.000,NO2:0.000,SO2,NH3:7.799
15:23:21,0,0,0,0,0,1700,2800,15,0,0,0,514,0,0,0,0,0.0000000,0.0000000,0.0000000,0.0000000,6.00,38.4062347,-110.7920761,1341.1999512,0.0,24.4,1.6,0.0,0.0,850,131,0,0,859.65,9.93,27.57,# data time:11040,pm2.5:6.445,pm10:5.704,O2:0.000,NO2:0.000,SO2,NH3:7.799
15:23:22,0,0,0,0,0,1700,2800,15,0,0,0,515,0,0,0,0,0.0000000,0.0000000,0.0000000,0.0000000,6.00,38.4062347,-110.7920761,1341.1999512,0.0,24.4,1.6,0.0,0.0,850,128,0,0,859.70,10.04,27.57,# data time:11040,pm2.5:6.445,pm10:5.704,O2:0.000,NO2:0.000,SO2,NH3:7.799
15:23:23,0,0,0,0,0,1700,2800,15,0,0,0,514,0,0,0,0,0.0000000,0.0000000,0.0000000,0.0000000,6.00,38.4062347,-110.7920761,1341.1999512,0.0,24.4,1.6,0.0,0.0,850,128,0,0,859.70,10.32,27.57,# data time:11040,pm2.5:6.445,pm10:5.704,O2:0.000,NO2:0.000,SO2,NH3:7.799
