Time, Motor A Speed, Motor A Dir, Motor B Speed, Motor B Dir, Servo Rail Current Sensor, Servo Pos - Arm L, Servo Pos - Arm R, Servo Pos - End, Servo Pos - Hopper, Servo Pos - Lid, Servo Pos - Extra, Servo Current, LED - Front L, LED - Front R, LED - Back L, LED - Back R, IMU Pitch, IMU Roll, IMU Yaw, Compass Heading, GPS Sats, GPS Latitude, GPS Longitude, GPS Altitude, GPS Speed, GPS Angle, GPS HDOP, GPS VDOP, GPS PDOP, Battery, Wind, Comm Xbee Latency, Comm Arduino Latency, Pressure, Humidity, Temperature, uRADMonitor
9:59:17,0,0,0,0,0,0,0,0,0,0,0,0,0,0,0,0,0.0000000,0.0000000,0.0000000,0.0000000,0.00,0.0000000,0.0000000,0.0000000,0.0,0.0,0.0,0.0,0.0,0,0,0,0,0.00,0.00,0.00,0
9:59:18,0,0,0,0,0,0,0,0,0,0,0,515,0,0,0,0,0.0000000,0.0000000,0.0000000,0.0000000,10.00,38.4063263,-110.7921143,1379.8000488,0.2,72.7,0.8,0.0,0.0,893,126,0,0,863.11,22.26,20.40,0
9:59:19,0,0,0,0,0,0,0,0,0,0,0,516,0,0,0,0,0.0000000,0.0000000,0.0000000,0.0000000,10.00,38.4063263,-110.7921143,1379.8000488,0.1,82.3,0.8,0.0,0.0,894,127,0,0,863.14,22.23,20.45,0
9:59:20,0,0,0,0,0,0,0,0,0,0,0,515,0,0,0,0,0.0000000,0.0000000,0.0000000,0.0000000,10.00,38.4063263,-110.7921143,1379.8000488,0.1,77.4,0.8,0.0,0.0,893,125,0,0,863.15,22.23,20.46,0
9:59:21,0,0,0,0,0,0,0,0,0,0,0,516,0,0,0,0,0.0000000,0.0000000,0.0000000,0.0000000,10.00,38.4063263,-110.7921143,1379.8000488,0.1,55.9,0.8,0.0,0.0,893,129,0,0,863.15,22.25,20.46,0
9:59:22,0,0,0,0,0,0,0,0,0,0,0,516,0,0,0,0,0.0000000,0.0000000,0.0000000,0.0000000,10.00,38.4063263,-110.7921143,1379.8000488,0.1,58.6,0.8,0.0,0.0,894,130,0,0,863.12,22.22,20.46,# data time:1760,pm2.5:6.445,pm10:5.704,O2:0.000,NO2:0.000,SO2:00,NH3:3.273
9:59:23,0,0,0,0,0,0,0,0,0,0,0,514,0,0,0,0,0.0000000,0.0000000,0.0000000,0.0000000,10.00,38.4063263,-110.7921143,1379.8000488,0.3,55.3,0.8,0.0,0.0,893,127,0,0,863.21,22.20,20.46,# data time:1760,pm2.5:6.445,pm10:5.704,O2:0.000,NO2:0.000,SO2:00,NH3:3.273
9:59:24,0,0,0,0,0,0,0,0,0,0,0,519,0,0,0,0,0.0000000,0.0000000,0.0000000,0.0000000,10.00,38.4063263,-110.7921143,1379.8000488,0.2,45.7,0.8,0.0,0.0,891,127,0,0,863.14,22.20,20.46,# data time:1760,pm2.5:6.445,pm10:5.704,O2:0.000,NO2:0.000,SO2:00,NH3:3.273
9:59:25,0,0,0,0,0,0,0,0,0,0,0,570,0,0,0,0,0.0000000,0.0000000,0.0000000,0.0000000,10.00,38.4063263,-110.7921143,1379.8000488,0.2,5.7,0.8,0.0,0.0,882,132,0,0,863.18,22.25,20.46,# data time:1760,pm2.5:6.445,pm10:5.704,O2:0.000,NO2:0.000,SO2:00,NH3:3.273
9:59:26,0,0,0,0,0,0,0,0,0,0,0,515,0,0,0,0,0.0000000,0.0000000,0.0000000,0.0000000,10.00,38.4063263,-110.7921143,1379.8000488,0.2,355.8,0.8,0.0,0.0,893,130,0,0,863.15,22.25,20.46,# data time:1760,pm2.5:6.445,pm10:5.704,O2:0.000,NO2:0.000,SO2:00,NH3:3.273
9:59:27,0,0,0,0,0,0,0,0,0,0,0,574,0,0,0,0,0.0000000,0.0000000,0.0000000,0.0000000,10.00,38.4063301,-110.7921143,1379.8000488,0.2,336.8,0.8,0.0,0.0,882,125,0,0,863.13,22.28,20.46,# data time:1760,pm2.5:6.445,pm10:5.704,O2:0.000,NO2:0.000,SO2:00,NH3:3.273
9:59:28,0,0,0,0,0,0,0,0,0,0,0,520,0,0,0,0,0.0000000,0.0000000,0.0000000,0.0000000,10.00,38.4063301,-110.7921143,1379.8000488,0.2,4.6,0.8,0.0,0.0,893,127,0,0,863.15,22.29,20.46,# data time:1760,pm2.5:6.445,pm10:5.704,O2:0.000,NO2:0.000,SO2:00,NH3:3.273
9:59:29,0,0,0,0,0,0,0,0,0,0,0,545,0,0,0,0,0.0000000,0.0000000,0.0000000,0.0000000,10.00,38.4063301,-110.7921143,1379.8000488,0.1,350.0,0.8,0.0,0.0,885,122,0,0,863.11,22.28,20.45,# data time:1760,pm2.5:6.445,pm10:5.704,O2:0.000,NO2:0.000,SO2:00,NH3:3.273
9:59:30,0,0,0,0,0,0,0,0,0,0,0,567,0,0,0,0,0.0000000,0.0000000,0.0000000,0.0000000,10.00,38.4063301,-110.7921143,1379.8000488,0.1,295.8,0.8,0.0,0.0,883,128,0,0,863.15,22.39,20.45,# data time:1760,pm2.5:6.445,pm10:5.704,O2:0.000,NO2:0.000,SO2:00,NH3:3.273
9:59:31,0,0,0,0,0,0,0,0,0,0,0,520,0,0,0,0,0.0000000,0.0000000,0.0000000,0.0000000,10.00,38.4063301,-110.7921143,1379.8000488,0.1,276.5,0.8,0.0,0.0,893,132,0,0,863.15,22.43,20.46,# data time:1760,pm2.5:6.445,pm10:5.704,O2:0.000,NO2:0.000,SO2:00,NH3:3.273
9:59:32,0,0,0,0,0,0,0,0,0,0,0,520,0,0,0,0,0.0000000,0.0000000,0.0000000,0.0000000,10.00,38.4063301,-110.7921143,1379.8000488,0.1,284.0,0.8,0.0,0.0,893,131,0,0,863.14,22.48,20.47,# data time:1770,pm2.5:6.445,pm10:5.704,O2:0.000,NO2:0.000,SO
9:59:33,0,0,0,0,0,0,0,0,0,0,0,514,0,0,0,0,0.0000000,0.0000000,0.0000000,0.0000000,10.00,38.4063301,-110.7921143,1379.8000488,0.2,297.4,0.8,0.0,0.0,893,129,0,0,863.13,22.49,20.47,# data time:1770,pm2.5:6.445,pm10:5.704,O2:0.000,NO2:0.000,SO
9:59:34,0,0,0,0,0,0,0,0,0,0,0,514,0,0,0,0,0.0000000,0.0000000,0.0000000,0.0000000,10.00,38.4063301,-110.7921143,1379.8000488,0.2,296.9,0.8,0.0,0.0,893,125,0,0,863.11,22.51,20.47,# data time:1770,pm2.5:6.445,pm10:5.704,O2:0.000,NO2:0.000,SO
9:59:35,0,0,0,0,0,0,0,0,0,0,0,517,0,0,0,0,0.0000000,0.0000000,0.0000000,0.0000000,10.00,38.4063301,-110.7921143,1379.8000488,0.2,278.5,0.8,0.0,0.0,893,128,0,0,863.10,22.57,20.48,# data time:1770,pm2.5:6.445,pm10:5.704,O2:0.000,NO2:0.000,SO
9:59:36,0,0,0,0,0,0,0,0,0,0,0,515,0,0,0,0,0.0000000,0.0000000,0.0000000,0.0000000,10.00,38.4063301,-110.7921143,1379.8000488,0.3,270.1,0.8,0.0,0.0,892,126,0,0,863.14,22.64,20.47,# data time:1770,pm2.5:6.445,pm10:5.704,O2:0.000,NO2:0.000,SO
9:59:37,0,0,0,0,0,0,0,0,0,0,0,516,0,0,0,0,0.0000000,0.0000000,0.0000000,0.0000000,10.00,38.4063339,-110.7921143,1379.8000488,0.2,281.8,0.8,0.0,0.0,892,127,0,0,863.14,22.68,20.48,# data time:1770,pm2.5:6.445,pm10:5.704,O2:0.000,NO2:0.000,SO
9:59:38,0,0,0,0,0,0,0,0,0,0,0,516,0,0,0,0,0.0000000,0.0000000,0.0000000,0.0000000,10.00,38.4063377,-110.7921143,1379.8000488,0.2,316.2,0.8,0.0,0.0,893,127,0,0,863.13,22.75,20.48,# data time:1770,pm2.5:6.445,pm10:5.704,O2:0.000,NO2:0.000,SO
9:59:39,0,0,0,0,0,0,0,0,0,0,0,515,0,0,0,0,0.0000000,0.0000000,0.0000000,0.0000000,10.00,38.4063377,-110.7921295,1379.8000488,0.2,314.5,0.8,0.0,0.0,893,126,0,0,863.11,22.74,20.48,# data time:1770,pm2.5:6.445,pm10:5.704,O2:0.000,NO2:0.000,SO
9:59:40,0,0,0,0,0,0,0,0,0,0,0,517,0,0,0,0,0.0000000,0.0000000,0.0000000,0.0000000,10.00,38.4063377,-110.7921295,1379.8000488,0.3,313.9,0.8,0.0,0.0,893,128,0,0,863.12,22.71,20.48,# data time:1770,pm2.5:6.445,pm10:5.704,O2:0.000,NO2:0.000,SO
9:59:41,0,0,0,0,0,0,0,0,0,0,0,519,0,0,0,0,0.0000000,0.0000000,0.0000000,0.0000000,10.00,38.4063377,-110.7921371,1379.8000488,0.4,306.7,0.8,0.0,0.0,891,127,0,0,863.15,22.64,20.48,# data time:1770,pm2.5:6.445,pm10:5.704,O2:0.000,NO2:0.000,SO
9:59:42,0,0,0,0,0,0,0,0,0,0,0,515,0,0,0,0,0.0000000,0.0000000,0.0000000,0.0000000,10.00,38.4063416,-110.7921371,1379.8000488,0.3,315.0,0.8,0.0,0.0,893,127,0,0,863.15,22.58,20.43,# data time:1780,pm2.5:6.445,pm10:5.704,O2:0.000,NO2:0.000,SO2:0.000,NH3:3.273
9:59:43,0,0,0,0,0,0,0,0,0,0,0,520,0,0,0,0,0.0000000,0.0000000,0.0000000,0.0000000,10.00,38.4063416,-110.7921371,1379.8000488,0.2,314.1,0.8,0.0,0.0,892,127,0,0,863.16,22.55,20.47,# data time:1780,pm2.5:6.445,pm10:5.704,O2:0.000,NO2:0.000,SO2:0.000,NH3:3.273
9:59:44,0,0,0,0,0,0,0,0,0,0,0,521,0,0,0,0,0.0000000,0.0000000,0.0000000,0.0000000,10.00,38.4063416,-110.7921371,1379.8000488,0.3,278.2,0.8,0.0,0.0,892,126,0,0,863.10,22.54,20.47,# data time:1780,pm2.5:6.445,pm10:5.704,O2:0.000,NO2:0.000,SO2:0.000,NH3:3.273
9:59:45,0,0,0,0,0,0,0,0,0,0,0,515,0,0,0,0,0.0000000,0.0000000,0.0000000,0.0000000,10.00,38.4063416,-110.7921371,1379.8000488,0.2,262.2,0.8,0.0,0.0,893,127,0,0,863.14,22.52,20.47,# data time:1780,pm2.5:6.445,pm10:5.704,O2:0.000,NO2:0.000,SO2:0.000,NH3:3.273
9:59:46,0,0,0,0,0,0,0,0,0,0,0,515,0,0,0,0,0.0000000,0.0000000,0.0000000,0.0000000,10.00,38.4063416,-110.7921371,1379.8000488,0.2,262.7,0.8,0.0,0.0,892,127,0,0,863.14,22.51,20.48,# data time:1780,pm2.5:6.445,pm10:5.704,O2:0.000,NO2:0.000,SO2:0.000,NH3:3.273
9:59:47,0,0,0,0,0,0,0,0,0,0,0,520,0,0,0,0,0.0000000,0.0000000,0.0000000,0.0000000,10.00,38.4063416,-110.7921524,1379.8000488,0.2,245.0,0.8,0.0,0.0,893,128,0,0,863.13,22.52,20.48,# data time:1780,pm2.5:6.445,pm10:5.704,O2:0.000,NO2:0.000,SO2:0.000,NH3:3.273
9:59:48,0,0,0,0,0,0,0,0,0,0,0,518,0,0,0,0,0.0000000,0.0000000,0.0000000,0.0000000,10.00,38.4063416,-110.7921524,1379.8000488,0.3,232.4,0.8,0.0,0.0,893,126,0,0,863.16,22.54,20.48,# data time:1780,pm2.5:6.445,pm10:5.704,O2:0.000,NO2:0.000,SO2:0.000,NH3:3.273
9:59:49,0,0,0,0,0,0,0,0,0,0,0,515,0,0,0,0,0.0000000,0.0000000,0.0000000,0.0000000,10.00,38.4063416,-110.7921524,1379.8000488,0.3,228.8,0.8,0.0,0.0,893,128,0,0,863.14,22.54,20.49,# data time:1780,pm2.5:6.445,pm10:5.704,O2:0.000,NO2:0.000,SO2:0.000,NH3:3.273
9:59:50,0,0,0,0,0,0,0,0,0,0,0,516,0,0,0,0,0.0000000,0.0000000,0.0000000,0.0000000,10.00,38.4063377,-110.7921524,1379.8000488,0.2,191.3,0.8,0.0,0.0,893,130,0,0,863.16,22.51,20.49,# data time:1780,pm2.5:6.445,pm10:5.704,O2:0.000,NO2:0.000,SO2:0.000,NH3:3.273
9:59:51,0,0,0,0,0,0,0,0,0,0,0,515,0,0,0,0,0.0000000,0.0000000,0.0000000,0.0000000,10.00,38.4063377,-110.7921524,1379.8000488,0.3,180.9,0.8,0.0,0.0,893,127,0,0,863.13,22.52,20.48,# data time:1780,pm2.5:6.445,pm10:5.704,O2:0.000,NO2:0.000,SO2:0.000,NH3:3.273
9:59:52,0,0,0,0,0,0,0,0,0,0,0,521,0,0,0,0,0.0000000,0.0000000,0.0000000,0.0000000,10.00,38.4063377,-110.7921524,1379.8000488,0.3,180.9,0.8,0.0,0.0,892,126,0,0,863.13,22.57,20.44,# data time:1790,pm2.5:6.445,pm10:5.704,O2:0.000,NO2:0.000,SO2::3.273
9:59:53,0,0,0,0,0,0,0,0,0,0,0,517,0,0,0,0,0.0000000,0.0000000,0.0000000,0.0000000,10.00,38.4063377,-110.7921524,1379.8000488,0.3,166.3,0.8,0.0,0.0,892,127,0,0,863.13,22.57,20.44,# data time:1790,pm2.5:6.445,pm10:5.704,O2:0.000,NO2:0.000,SO2::3.273
9:59:54,0,0,0,0,0,0,0,0,0,0,0,515,0,0,0,0,0.0000000,0.0000000,0.0000000,0.0000000,10.00,38.4063377,-110.7921524,1379.8000488,0.3,197.5,0.8,0.0,0.0,893,127,0,0,863.11,22.61,20.48,# data time:1790,pm2.5:6.445,pm10:5.704,O2:0.000,NO2:0.000,SO2::3.273
9:59:55,0,0,0,0,0,0,0,0,0,0,0,565,0,0,0,0,0.0000000,0.0000000,0.0000000,0.0000000,10.00,38.4063377,-110.7921524,1379.8000488,0.3,197.5,0.8,0.0,0.0,883,128,0,0,863.17,22.69,20.45,# data time:1790,pm2.5:6.445,pm10:5.704,O2:0.000,NO2:0.000,SO2::3.273
9:59:56,0,0,0,0,0,0,0,0,0,0,0,514,0,0,0,0,0.0000000,0.0000000,0.0000000,0.0000000,10.00,38.4063339,-110.7921524,1379.8000488,0.4,203.2,0.8,0.0,0.0,894,122,0,0,863.07,23.03,20.40,# data time:1790,pm2.5:6.445,pm10:5.704,O2:0.000,NO2:0.000,SO2::3.273
9:59:57,0,0,0,0,0,0,0,0,0,0,0,528,0,0,0,0,0.0000000,0.0000000,0.0000000,0.0000000,10.00,38.4063339,-110.7921524,1379.8000488,0.4,203.2,0.8,0.0,0.0,889,127,0,0,863.11,23.04,20.45,# data time:1790,pm2.5:6.445,pm10:5.704,O2:0.000,NO2:0.000,SO2::3.273
9:59:58,0,0,0,0,0,0,0,0,0,0,0,516,0,0,0,0,0.0000000,0.0000000,0.0000000,0.0000000,10.00,38.4063301,-110.7921524,1379.8000488,0.3,183.3,0.8,0.0,0.0,892,131,0,0,863.12,23.29,20.41,# data time:1790,pm2.5:6.445,pm10:5.704,O2:0.000,NO2:0.000,SO2::3.273
9:59:59,0,0,0,0,0,0,0,0,0,0,0,514,0,0,0,0,0.0000000,0.0000000,0.0000000,0.0000000,10.00,38.4063301,-110.7921524,1379.8000488,0.3,183.7,0.8,0.0,0.0,893,126,0,0,863.07,23.41,20.41,# data time:1790,pm2.5:6.445,pm10:5.704,O2:0.000,NO2:0.000,SO2::3.273
10:00:00,0,0,0,0,0,0,0,0,0,0,0,534,0,0,0,0,0.0000000,0.0000000,0.0000000,0.0000000,10.00,38.4063263,-110.7921524,1379.8000488,0.3,188.7,0.8,0.0,0.0,890,127,0,0,863.11,23.54,20.47,# data time:1790,pm2.5:6.445,pm10:5.704,O2:0.000,NO2:0.000,SO2::3.273
10:00:02,0,0,0,0,0,0,0,0,0,0,0,516,0,0,0,0,0.0000000,0.0000000,0.0000000,0.0000000,10.00,38.4063225,-110.7921524,1379.8000488,0.3,186.6,0.8,0.0,0.0,892,128,0,0,863.11,23.38,20.50,# data time:1800,pm2.5:6.445,pm10:5.704,O2:0.000,NO2:0.000,SO
10:00:03,0,0,0,0,0,0,0,0,0,0,0,515,0,0,0,0,0.0000000,0.0000000,0.0000000,0.0000000,10.00,38.4063225,-110.7921524,1379.8000488,0.3,183.5,0.8,0.0,0.0,893,127,0,0,863.12,23.18,20.50,# data time:1800,pm2.5:6.445,pm10:5.704,O2:0.000,NO2:0.000,SO
10:00:04,0,0,0,0,0,0,0,0,0,0,0,516,0,0,0,0,0.0000000,0.0000000,0.0000000,0.0000000,10.00,38.4063225,-110.7921524,1379.8000488,0.2,167.1,0.8,0.0,0.0,893,129,0,0,863.09,23.04,20.50,# data time:1800,pm2.5:6.445,pm10:5.704,O2:0.000,NO2:0.000,SO
10:00:05,0,0,0,0,0,0,0,0,0,0,0,515,0,0,0,0,0.0000000,0.0000000,0.0000000,0.0000000,10.00,38.4063187,-110.7921524,1379.8000488,0.1,191.1,0.8,0.0,0.0,894,126,0,0,863.14,23.01,20.50,# data time:1800,pm2.5:6.445,pm10:5.704,O2:0.000,NO2:0.000,SO
10:00:06,0,0,0,0,0,0,0,0,0,0,0,515,0,0,0,0,0.0000000,0.0000000,0.0000000,0.0000000,10.00,38.4063187,-110.7921524,1379.8000488,0.1,205.1,0.8,0.0,0.0,893,129,0,0,863.14,22.95,20.50,# data time:1800,pm2.5:6.445,pm10:5.704,O2:0.000,NO2:0.000,SO
10:00:07,0,0,0,0,0,0,0,0,0,0,0,524,0,0,0,0,0.0000000,0.0000000,0.0000000,0.0000000,10.00,38.4063187,-110.7921524,1379.8000488,0.2,208.9,0.8,0.0,0.0,887,125,0,0,863.15,22.96,20.51,# data time:1800,pm2.5:6.445,pm10:5.704,O2:0.000,NO2:0.000,SO
10:00:08,0,0,0,0,0,0,0,0,0,0,0,517,0,0,0,0,0.0000000,0.0000000,0.0000000,0.0000000,10.00,38.4063187,-110.7921524,1379.8000488,0.1,162.3,0.8,0.0,0.0,893,129,0,0,863.14,22.90,20.51,# data time:1800,pm2.5:6.445,pm10:5.704,O2:0.000,NO2:0.000,SO
10:00:09,0,0,0,0,0,0,0,0,0,0,0,517,0,0,0,0,0.0000000,0.0000000,0.0000000,0.0000000,10.00,38.4063187,-110.7921524,1379.8000488,0.2,138.0,0.8,0.0,0.0,893,129,0,0,863.13,22.86,20.51,# data time:1800,pm2.5:6.445,pm10:5.704,O2:0.000,NO2:0.000,SO
10:00:10,0,0,0,0,0,0,0,0,0,0,0,514,0,0,0,0,0.0000000,0.0000000,0.0000000,0.0000000,10.00,38.4063187,-110.7921524,1379.8000488,0.2,155.2,0.8,0.0,0.0,893,126,0,0,863.13,22.74,20.52,# data time:1800,pm2.5:6.445,pm10:5.704,O2:0.000,NO2:0.000,SO
10:00:11,0,0,0,0,0,0,0,0,0,0,0,515,0,0,0,0,0.0000000,0.0000000,0.0000000,0.0000000,10.00,38.4063187,-110.7921524,1379.8000488,0.2,168.7,0.8,0.0,0.0,893,125,0,0,863.17,22.63,20.52,# data time:1800,pm2.5:6.445,pm10:5.704,O2:0.000,NO2:0.000,SO
10:00:12,0,0,0,0,0,0,0,0,0,0,0,516,0,0,0,0,0.0000000,0.0000000,0.0000000,0.0000000,10.00,38.4063148,-110.7921524,1379.8000488,0.3,192.8,0.8,0.0,0.0,892,126,0,0,863.14,22.60,20.53,# data time:1810,pm2.5:6.445,pm10:5.704,O2:0.000,NO2:0.000,SO
10:00:13,0,0,0,0,0,0,0,0,0,0,0,515,0,0,0,0,0.0000000,0.0000000,0.0000000,0.0000000,10.00,38.4063148,-110.7921524,1379.8000488,0.3,176.8,0.8,0.0,0.0,893,130,0,0,863.14,22.55,20.53,# data time:1810,pm2.5:6.445,pm10:5.704,O2:0.000,NO2:0.000,SO
10:00:14,0,0,0,0,0,0,0,0,0,0,0,514,0,0,0,0,0.0000000,0.0000000,0.0000000,0.0000000,10.00,38.4063148,-110.7921524,1379.8000488,0.3,168.8,0.8,0.0,0.0,893,128,0,0,863.10,22.51,20.54,# data time:1810,pm2.5:6.445,pm10:5.704,O2:0.000,NO2:0.000,SO
10:00:15,0,0,0,0,0,0,0,0,0,0,0,514,0,0,0,0,0.0000000,0.0000000,0.0000000,0.0000000,10.00,38.4063110,-110.7921524,1379.8000488,0.3,146.1,0.8,0.0,0.0,893,127,0,0,863.15,22.45,20.53,# data time:1810,pm2.5:6.445,pm10:5.704,O2:0.000,NO2:0.000,SO
10:00:16,0,0,0,0,0,0,0,0,0,0,0,516,0,0,0,0,0.0000000,0.0000000,0.0000000,0.0000000,10.00,38.4063110,-110.7921524,1379.8000488,0.3,169.2,0.8,0.0,0.0,893,128,0,0,863.13,22.43,20.53,# data time:1810,pm2.5:6.445,pm10:5.704,O2:0.000,NO2:0.000,SO
10:00:17,0,0,0,0,0,0,0,0,0,0,0,517,0,0,0,0,0.0000000,0.0000000,0.0000000,0.0000000,10.00,38.4063072,-110.7921524,1379.8000488,0.4,179.8,0.8,0.0,0.0,891,129,0,0,863.11,22.40,20.54,# data time:1810,pm2.5:6.445,pm10:5.704,O2:0.000,NO2:0.000,SO
10:00:18,0,0,0,0,0,0,0,0,0,0,0,516,0,0,0,0,0.0000000,0.0000000,0.0000000,0.0000000,10.00,38.4063072,-110.7921524,1379.8000488,0.4,186.3,0.8,0.0,0.0,892,129,0,0,863.12,22.42,20.54,# data time:1810,pm2.5:6.445,pm10:5.704,O2:0.000,NO2:0.000,SO
10:00:19,0,0,0,0,0,0,0,0,0,0,0,519,0,0,0,0,0.0000000,0.0000000,0.0000000,0.0000000,10.00,38.4063034,-110.7921524,1379.8000488,0.3,174.5,0.8,0.0,0.0,893,127,0,0,863.12,22.42,20.54,# data time:1810,pm2.5:6.445,pm10:5.704,O2:0.000,NO2:0.000,SO
10:00:20,0,0,0,0,0,0,0,0,0,0,0,576,0,0,0,0,0.0000000,0.0000000,0.0000000,0.0000000,10.00,38.4063034,-110.7921524,1379.8000488,0.3,177.8,0.8,0.0,0.0,881,126,0,0,863.16,22.45,20.55,# data time:1810,pm2.5:6.445,pm10:5.704,O2:0.000,NO2:0.000,SO
10:00:21,0,0,0,0,0,0,0,0,0,0,0,518,0,0,0,0,0.0000000,0.0000000,0.0000000,0.0000000,10.00,38.4062996,-110.7921524,1379.8000488,0.3,171.5,0.8,0.0,0.0,893,128,0,0,863.14,22.48,20.55,# data time:1810,pm2.5:6.445,pm10:5.704,O2:0.000,NO2:0.000,SO
10:00:22,0,0,0,0,0,0,0,0,0,0,0,514,0,0,0,0,0.0000000,0.0000000,0.0000000,0.0000000,10.00,38.4062996,-110.7921524,1379.8000488,0.3,171.5,0.8,0.0,0.0,893,127,0,0,863.14,22.45,20.50,# data time:1820,pm2.5:6.445,pm10:5.704,O2:0.000,NO2:0.000,SO
10:00:23,0,0,0,0,0,0,0,0,0,0,0,537,0,0,0,0,0.0000000,0.0000000,0.0000000,0.0000000,10.00,38.4062996,-110.7921524,1379.8000488,0.2,148.2,0.8,0.0,0.0,887,129,0,0,863.12,22.46,20.49,# data time:1820,pm2.5:6.445,pm10:5.704,O2:0.000,NO2:0.000,SO
10:00:24,0,0,0,0,0,0,0,0,0,0,0,517,0,0,0,0,0.0000000,0.0000000,0.0000000,0.0000000,10.00,38.4062958,-110.7921524,1379.8000488,0.1,148.8,0.8,0.0,0.0,892,125,0,0,863.17,22.52,20.54,# data time:1820,pm2.5:6.445,pm10:5.704,O2:0.000,NO2:0.000,SO
10:00:25,0,0,0,0,0,0,0,0,0,0,0,516,0,0,0,0,0.0000000,0.0000000,0.0000000,0.0000000,10.00,38.4062958,-110.7921524,1379.8000488,0.1,78.2,0.8,0.0,0.0,892,126,0,0,863.09,22.54,20.54,# data time:1820,pm2.5:6.445,pm10:5.704,O2:0.000,NO2:0.000,SO
10:00:26,0,0,0,0,0,0,0,0,0,0,0,516,0,0,0,0,0.0000000,0.0000000,0.0000000,0.0000000,10.00,38.4062958,-110.7921524,1379.8000488,0.1,52.3,0.8,0.0,0.0,892,129,0,0,863.10,22.57,20.55,# data time:1820,pm2.5:6.445,pm10:5.704,O2:0.000,NO2:0.000,SO
10:00:27,0,0,0,0,0,0,0,0,0,0,0,515,0,0,0,0,0.0000000,0.0000000,0.0000000,0.0000000,10.00,38.4062958,-110.7921524,1379.8000488,0.3,37.7,0.8,0.0,0.0,892,128,0,0,863.16,22.61,20.56,# data time:1820,pm2.5:6.445,pm10:5.704,O2:0.000,NO2:0.000,SO
10:00:28,0,0,0,0,0,0,0,0,0,0,0,519,0,0,0,0,0.0000000,0.0000000,0.0000000,0.0000000,10.00,38.4062996,-110.7921524,1379.8000488,0.2,66.5,0.8,0.0,0.0,892,127,0,0,863.19,22.61,20.56,# data time:1820,pm2.5:6.445,pm10:5.704,O2:0.000,NO2:0.000,SO
10:00:29,0,0,0,0,0,0,0,0,0,0,0,516,0,0,0,0,0.0000000,0.0000000,0.0000000,0.0000000,10.00,38.4062996,-110.7921524,1379.8000488,0.1,80.1,0.8,0.0,0.0,893,127,0,0,863.11,22.58,20.56,# data time:1820,pm2.5:6.445,pm10:5.704,O2:0.000,NO2:0.000,SO
10:00:30,0,0,0,0,0,0,0,0,0,0,0,582,0,0,0,0,0.0000000,0.0000000,0.0000000,0.0000000,10.00,38.4062996,-110.7921524,1379.8000488,0.3,62.6,0.8,0.0,0.0,881,126,0,0,863.18,22.54,20.57,# data time:1820,pm2.5:6.445,pm10:5.704,O2:0.000,NO2:0.000,SO
10:00:31,0,0,0,0,0,0,0,0,0,0,0,515,0,0,0,0,0.0000000,0.0000000,0.0000000,0.0000000,10.00,38.4062996,-110.7921371,1379.8000488,0.1,49.5,0.8,0.0,0.0,893,128,0,0,863.12,22.54,20.57,# data time:1820,pm2.5:6.445,pm10:5.704,O2:0.000,NO2:0.000,SO
10:00:32,0,0,0,0,0,0,0,0,0,0,0,521,0,0,0,0,0.0000000,0.0000000,0.0000000,0.0000000,10.00,38.4062996,-110.7921371,1379.8000488,0.1,175.7,0.8,0.0,0.0,892,127,0,0,863.09,22.48,20.54,# data time:1830,pm2.5:6.445,pm10:5.704,O2:0.000,NO2:0.000,SO2:0.000,NH3:3.725
10:00:33,0,0,0,0,0,0,0,0,0,0,0,518,0,0,0,0,0.0000000,0.0000000,0.0000000,0.0000000,10.00,38.4062996,-110.7921371,1379.8000488,0.2,201.9,0.8,0.0,0.0,892,123,0,0,863.17,22.46,20.58,# data time:1830,pm2.5:6.445,pm10:5.704,O2:0.000,NO2:0.000,SO2:0.000,NH3:3.725
10:00:34,0,0,0,0,0,0,0,0,0,0,0,517,0,0,0,0,0.0000000,0.0000000,0.0000000,0.0000000,10.00,38.4062996,-110.7921371,1379.8000488,0.2,218.9,0.8,0.0,0.0,892,128,0,0,863.12,22.42,20.58,# data time:1830,pm2.5:6.445,pm10:5.704,O2:0.000,NO2:0.000,SO2:0.000,NH3:3.725
10:00:35,0,0,0,0,0,0,0,0,0,0,0,517,0,0,0,0,0.0000000,0.0000000,0.0000000,0.0000000,10.00,38.4062958,-110.7921524,1379.8000488,0.3,194.1,0.8,0.0,0.0,893,125,0,0,863.19,22.39,20.58,# data time:1830,pm2.5:6.445,pm10:5.704,O2:0.000,NO2:0.000,SO2:0.000,NH3:3.725
10:00:36,0,0,0,0,0,0,0,0,0,0,0,516,0,0,0,0,0.0000000,0.0000000,0.0000000,0.0000000,10.00,38.4062958,-110.7921524,1379.8000488,0.3,184.6,0.8,0.0,0.0,892,127,0,0,863.17,22.34,20.58,# data time:1830,pm2.5:6.445,pm10:5.704,O2:0.000,NO2:0.000,SO2:0.000,NH3:3.725
10:00:37,0,0,0,0,0,0,0,0,0,0,0,517,0,0,0,0,0.0000000,0.0000000,0.0000000,0.0000000,10.00,38.4062958,-110.7921524,1379.8000488,0.3,230.4,0.8,0.0,0.0,892,127,0,0,863.14,22.37,20.58,# data time:1830,pm2.5:6.445,pm10:5.704,O2:0.000,NO2:0.000,SO2:0.000,NH3:3.725
10:00:38,0,0,0,0,0,0,0,0,0,0,0,515,0,0,0,0,0.0000000,0.0000000,0.0000000,0.0000000,10.00,38.4062958,-110.7921524,1379.8000488,0.3,239.0,0.8,0.0,0.0,894,129,0,0,863.14,22.39,20.57,# data time:1830,pm2.5:6.445,pm10:5.704,O2:0.000,NO2:0.000,SO2:0.000,NH3:3.725
10:00:39,0,0,0,0,0,0,0,0,0,0,0,515,0,0,0,0,0.0000000,0.0000000,0.0000000,0.0000000,10.00,38.4062958,-110.7921524,1379.8000488,0.2,223.6,0.8,0.0,0.0,893,128,0,0,863.14,22.39,20.57,# data time:1830,pm2.5:6.445,pm10:5.704,O2:0.000,NO2:0.000,SO2:0.000,NH3:3.725
10:00:40,0,0,0,0,0,0,0,0,0,0,0,515,0,0,0,0,0.0000000,0.0000000,0.0000000,0.0000000,10.00,38.4062958,-110.7921524,1379.8000488,0.2,223.6,0.8,0.0,0.0,893,125,0,0,863.09,22.42,20.48,# data time:1830,pm2.5:6.445,pm10:5.704,O2:0.000,NO2:0.000,SO2:0.000,NH3:3.725
10:00:41,0,0,0,0,0,0,0,0,0,0,0,522,0,0,0,0,0.0000000,0.0000000,0.0000000,0.0000000,10.00,38.4062958,-110.7921524,1379.8000488,0.2,271.1,0.8,0.0,0.0,891,125,0,0,863.10,22.43,20.52,# data time:1830,pm2.5:6.445,pm10:5.704,O2:0.000,NO2:0.000,SO2:0.000,NH3:3.725
10:00:42,0,0,0,0,0,0,0,0,0,0,0,516,0,0,0,0,0.0000000,0.0000000,0.0000000,0.0000000,10.00,38.4062958,-110.7921524,1379.8000488,0.2,271.1,0.8,0.0,0.0,892,125,0,0,863.10,22.43,20.52,# data time:1840,pm2.5:6.445,pm10:5.704,O2:0.000,NO2:0.000,SO2:0.000,NH3:3.725
10:00:43,0,0,0,0,0,0,0,0,0,0,0,546,0,0,0,0,0.0000000,0.0000000,0.0000000,0.0000000,10.00,38.4062958,-110.7921524,1379.8000488,0.3,189.0,0.8,0.0,0.0,886,128,0,0,863.11,22.45,20.50,# data time:1840,pm2.5:6.445,pm10:5.704,O2:0.000,NO2:0.000,SO2:0.000,NH3:3.725
10:00:44,0,0,0,0,0,0,0,0,0,0,0,558,0,0,0,0,0.0000000,0.0000000,0.0000000,0.0000000,10.00,38.4062920,-110.7921524,1379.8000488,0.4,229.1,0.8,0.0,0.0,883,129,0,0,863.13,22.43,20.55,# data time:1840,pm2.5:6.445,pm10:5.704,O2:0.000,NO2:0.000,SO2:0.000,NH3:3.725
10:00:45,0,0,0,0,0,0,0,0,0,0,0,515,0,0,0,0,0.0000000,0.0000000,0.0000000,0.0000000,10.00,38.4062920,-110.7921524,1379.8000488,0.4,229.1,0.8,0.0,0.0,893,127,0,0,863.15,22.46,20.50,# data time:1840,pm2.5:6.445,pm10:5.704,O2:0.000,NO2:0.000,SO2:0.000,NH3:3.725
10:00:46,0,0,0,0,0,0,0,0,0,0,0,514,0,0,0,0,0.0000000,0.0000000,0.0000000,0.0000000,10.00,38.4062881,-110.7921524,1379.8000488,0.4,229.1,0.8,0.0,0.0,893,126,0,0,863.11,22.49,20.49,# data time:1840,pm2.5:6.445,pm10:5.704,O2:0.000,NO2:0.000,SO2:0.000,NH3:3.725
10:00:48,0,0,0,0,0,0,0,0,0,0,0,525,0,0,0,0,0.0000000,0.0000000,0.0000000,0.0000000,10.00,38.4062881,-110.7921524,1379.8000488,0.4,214.0,0.8,0.0,0.0,890,126,0,0,863.15,22.46,20.59,# data time:1840,pm2.5:6.445,pm10:5.704,O2:0.000,NO2:0.000,SO2:0.000,NH3:3.725
10:00:49,0,0,0,0,0,0,0,0,0,0,0,521,0,0,0,0,0.0000000,0.0000000,0.0000000,0.0000000,10.00,38.4062843,-110.7921677,1379.8000488,0.4,195.9,0.8,0.0,0.0,891,128,0,0,863.17,22.46,20.60,# data time:1840,pm2.5:6.445,pm10:5.704,O2:0.000,NO2:0.000,SO2:0.000,NH3:3.725
10:00:50,0,0,0,0,0,0,0,0,0,0,0,516,0,0,0,0,0.0000000,0.0000000,0.0000000,0.0000000,10.00,38.4062843,-110.7921677,1379.8000488,0.3,189.3,0.8,0.0,0.0,893,128,0,0,863.18,22.42,20.60,# data time:1840,pm2.5:6.445,pm10:5.704,O2:0.000,NO2:0.000,SO2:0.000,NH3:3.725
10:00:51,0,0,0,0,0,0,0,0,0,0,0,514,0,0,0,0,0.0000000,0.0000000,0.0000000,0.0000000,10.00,38.4062805,-110.7921677,1379.8000488,0.2,218.3,0.8,0.0,0.0,893,126,0,0,863.14,22.39,20.60,# data time:1840,pm2.5:6.445,pm10:5.704,O2:0.000,NO2:0.000,SO2:0.000,NH3:3.725
10:00:52,0,0,0,0,0,0,0,0,0,0,0,522,0,0,0,0,0.0000000,0.0000000,0.0000000,0.0000000,10.00,38.4062805,-110.7921677,1379.8000488,0.2,218.3,0.8,0.0,0.0,891,126,0,0,863.13,22.39,20.57,# data time:1850,pm2.5:6.445,pm10:5.704,O2:0.000,NO2:0.000,SO2:0.000,NH3:3.499
10:00:53,0,0,0,0,0,0,0,0,0,0,0,567,0,0,0,0,0.0000000,0.0000000,0.0000000,0.0000000,10.00,38.4062767,-110.7921677,1379.8000488,0.3,163.7,0.8,0.0,0.0,883,127,0,0,863.12,22.37,20.57,# data time:1850,pm2.5:6.445,pm10:5.704,O2:0.000,NO2:0.000,SO2:0.000,NH3:3.499
10:00:54,0,0,0,0,0,0,0,0,0,0,0,515,0,0,0,0,0.0000000,0.0000000,0.0000000,0.0000000,10.00,38.4062767,-110.7921677,1379.8000488,0.3,188.8,0.8,0.0,0.0,893,129,0,0,863.15,22.34,20.61,# data time:1850,pm2.5:6.445,pm10:5.704,O2:0.000,NO2:0.000,SO2:0.000,NH3:3.499
10:00:55,0,0,0,0,0,0,0,0,0,0,0,523,0,0,0,0,0.0000000,0.0000000,0.0000000,0.0000000,10.00,38.4062767,-110.7921677,1379.8000488,0.3,189.5,0.8,0.0,0.0,890,126,0,0,863.13,22.31,20.61,# data time:1850,pm2.5:6.445,pm10:5.704,O2:0.000,NO2:0.000,SO2:0.000,NH3:3.499
10:00:56,0,0,0,0,0,0,0,0,0,0,0,514,0,0,0,0,0.0000000,0.0000000,0.0000000,0.0000000,10.00,38.4062767,-110.7921677,1379.8000488,0.1,202.6,0.8,0.0,0.0,893,127,0,0,863.16,22.28,20.61,# data time:1850,pm2.5:6.445,pm10:5.704,O2:0.000,NO2:0.000,SO2:0.000,NH3:3.499
10:00:57,0,0,0,0,0,0,0,0,0,0,0,549,0,0,0,0,0.0000000,0.0000000,0.0000000,0.0000000,10.00,38.4062767,-110.7921677,1379.8000488,0.1,247.2,0.8,0.0,0.0,886,126,0,0,863.15,22.28,20.62,# data time:1850,pm2.5:6.445,pm10:5.704,O2:0.000,NO2:0.000,SO2:0.000,NH3:3.499
10:00:58,0,0,0,0,0,0,0,0,0,0,0,524,0,0,0,0,0.0000000,0.0000000,0.0000000,0.0000000,10.00,38.4062767,-110.7921677,1379.8000488,0.1,252.9,0.8,0.0,0.0,888,128,0,0,863.23,22.26,20.62,# data time:1850,pm2.5:6.445,pm10:5.704,O2:0.000,NO2:0.000,SO2:0.000,NH3:3.499
10:00:59,0,0,0,0,0,0,0,0,0,0,0,525,0,0,0,0,0.0000000,0.0000000,0.0000000,0.0000000,10.00,38.4062767,-110.7921677,1379.8000488,0.1,265.9,0.8,0.0,0.0,891,129,0,0,863.15,22.29,20.63,# data time:1850,pm2.5:6.445,pm10:5.704,O2:0.000,NO2:0.000,SO2:0.000,NH3:3.499
10:01:00,0,0,0,0,0,0,0,0,0,0,0,515,0,0,0,0,0.0000000,0.0000000,0.0000000,0.0000000,10.00,38.4062767,-110.7921677,1379.8000488,0.1,290.2,0.8,0.0,0.0,893,127,0,0,863.18,22.37,20.61,# data time:1850,pm2.5:6.445,pm10:5.704,O2:0.000,NO2:0.000,SO2:0.000,NH3:3.499
10:01:01,0,0,0,0,0,0,0,0,0,0,0,518,0,0,0,0,0.0000000,0.0000000,0.0000000,0.0000000,10.00,38.4062767,-110.7921677,1379.8000488,0.1,280.3,0.8,0.0,0.0,892,128,0,0,863.17,22.42,20.62,# data time:1850,pm2.5:6.445,pm10:5.704,O2:0.000,NO2:0.000,SO2:0.000,NH3:3.499
10:01:02,0,0,0,0,0,0,0,0,0,0,0,516,0,0,0,0,0.0000000,0.0000000,0.0000000,0.0000000,10.00,38.4062767,-110.7921677,1379.8000488,0.1,280.3,0.8,0.0,0.0,892,128,0,0,863.13,22.40,20.57,# data time:1860,pm2.5:6.445,pm10:5.704,O2:0.000,NO2:0.000,SO2:0.000,NH3:3.725
10:01:03,0,0,0,0,0,0,0,0,0,0,0,514,0,0,0,0,0.0000000,0.0000000,0.0000000,0.0000000,10.00,38.4062767,-110.7921677,1379.8000488,0.1,334.6,0.8,0.0,0.0,893,126,0,0,863.14,22.42,20.58,# data time:1860,pm2.5:6.445,pm10:5.704,O2:0.000,NO2:0.000,SO2:0.000,NH3:3.725
10:01:04,0,0,0,0,0,0,0,0,0,0,0,551,0,0,0,0,0.0000000,0.0000000,0.0000000,0.0000000,10.00,38.4062767,-110.7921677,1379.8000488,0.1,64.7,0.8,0.0,0.0,885,127,0,0,863.15,22.45,20.62,# data time:1860,pm2.5:6.445,pm10:5.704,O2:0.000,NO2:0.000,SO2:0.000,NH3:3.725
10:01:05,0,0,0,0,0,0,0,0,0,0,0,515,0,0,0,0,0.0000000,0.0000000,0.0000000,0.0000000,10.00,38.4062767,-110.7921677,1379.8000488,0.1,130.7,0.8,0.0,0.0,893,127,0,0,863.14,22.51,20.61,# data time:1860,pm2.5:6.445,pm10:5.704,O2:0.000,NO2:0.000,SO2:0.000,NH3:3.725
10:01:06,0,0,0,0,0,0,0,0,0,0,0,534,0,0,0,0,0.0000000,0.0000000,0.0000000,0.0000000,10.00,38.4062767,-110.7921677,1379.8000488,0.1,52.4,0.8,0.0,0.0,887,128,0,0,863.14,22.48,20.62,# data time:1860,pm2.5:6.445,pm10:5.704,O2:0.000,NO2:0.000,SO2:0.000,NH3:3.725
10:01:07,0,0,0,0,0,0,0,0,0,0,0,515,0,0,0,0,0.0000000,0.0000000,0.0000000,0.0000000,10.00,38.4062767,-110.7921677,1379.8000488,0.2,50.5,0.8,0.0,0.0,893,129,0,0,863.17,22.42,20.62,# data time:1860,pm2.5:6.445,pm10:5.704,O2:0.000,NO2:0.000,SO2:0.000,NH3:3.725
10:01:08,0,0,0,0,0,0,0,0,0,0,0,514,0,0,0,0,0.0000000,0.0000000,0.0000000,0.0000000,10.00,38.4062767,-110.7921677,1379.8000488,0.2,46.0,0.8,0.0,0.0,893,125,0,0,863.13,22.43,20.62,# data time:1860,pm2.5:6.445,pm10:5.704,O2:0.000,NO2:0.000,SO2:0.000,NH3:3.725
10:01:09,0,0,0,0,0,0,0,0,0,0,0,516,0,0,0,0,0.0000000,0.0000000,0.0000000,0.0000000,10.00,38.4062767,-110.7921677,1379.8000488,0.2,24.1,0.8,0.0,0.0,892,128,0,0,863.18,22.42,20.63,# data time:1860,pm2.5:6.445,pm10:5.704,O2:0.000,NO2:0.000,SO2:0.000,NH3:3.725
10:01:10,0,0,0,0,0,0,0,0,0,0,0,515,0,0,0,0,0.0000000,0.0000000,0.0000000,0.0000000,10.00,38.4062767,-110.7921677,1379.8000488,0.3,4.5,0.8,0.0,0.0,893,129,0,0,863.10,22.35,20.63,# data time:1860,pm2.5:6.445,pm10:5.704,O2:0.000,NO2:0.000,SO2:0.000,NH3:3.725
10:01:11,0,0,0,0,0,0,0,0,0,0,0,527,0,0,0,0,0.0000000,0.0000000,0.0000000,0.0000000,10.00,38.4062767,-110.7921677,1379.8000488,0.3,1.8,0.8,0.0,0.0,890,126,0,0,863.14,22.37,20.63,# data time:1860,pm2.5:6.445,pm10:5.704,O2:0.000,NO2:0.000,SO2:0.000,NH3:3.725
10:01:12,0,0,0,0,0,0,0,0,0,0,0,515,0,0,0,0,0.0000000,0.0000000,0.0000000,0.0000000,10.00,38.4062805,-110.7921677,1379.8000488,0.3,1.8,0.8,0.0,0.0,893,126,0,0,863.13,22.37,20.58,# data time:1870,pm2.5:5.640,pm10:4.991,O2:0.000,NO2:0.000,SO2:0.000,NH3:3.725
10:01:13,0,0,0,0,0,0,0,0,0,0,0,526,0,0,0,0,0.0000000,0.0000000,0.0000000,0.0000000,10.00,38.4062805,-110.7921677,1379.8000488,0.3,1.5,0.8,0.0,0.0,892,127,0,0,863.15,22.40,20.60,# data time:1870,pm2.5:5.640,pm10:4.991,O2:0.000,NO2:0.000,SO2:0.000,NH3:3.725
10:01:14,0,0,0,0,0,0,0,0,0,0,0,515,0,0,0,0,0.0000000,0.0000000,0.0000000,0.0000000,10.00,38.4062843,-110.7921677,1379.8000488,0.3,35.7,0.8,0.0,0.0,893,128,0,0,863.14,22.37,20.64,# data time:1870,pm2.5:5.640,pm10:4.991,O2:0.000,NO2:0.000,SO2:0.000,NH3:3.725
10:01:15,0,0,0,0,0,0,0,0,0,0,0,520,0,0,0,0,0.0000000,0.0000000,0.0000000,0.0000000,10.00,38.4062843,-110.7921677,1379.8000488,0.2,21.8,0.8,0.0,0.0,891,127,0,0,863.18,22.35,20.64,# data time:1870,pm2.5:5.640,pm10:4.991,O2:0.000,NO2:0.000,SO2:0.000,NH3:3.725
10:01:16,0,0,0,0,0,0,0,0,0,0,0,576,0,0,0,0,0.0000000,0.0000000,0.0000000,0.0000000,10.00,38.4062881,-110.7921677,1379.8000488,0.3,14.9,0.8,0.0,0.0,880,125,0,0,863.12,22.34,20.65,# data time:1870,pm2.5:5.640,pm10:4.991,O2:0.000,NO2:0.000,SO2:0.000,NH3:3.725
10:01:17,0,0,0,0,0,0,0,0,0,0,0,515,0,0,0,0,0.0000000,0.0000000,0.0000000,0.0000000,10.00,38.4062881,-110.7921677,1379.8000488,0.4,26.8,0.8,0.0,0.0,893,124,0,0,863.14,22.31,20.65,# data time:1870,pm2.5:5.640,pm10:4.991,O2:0.000,NO2:0.000,SO2:0.000,NH3:3.725
10:01:18,0,0,0,0,0,0,0,0,0,0,0,515,0,0,0,0,0.0000000,0.0000000,0.0000000,0.0000000,10.00,38.4062920,-110.7921677,1379.8000488,0.5,19.0,0.8,0.0,0.0,893,126,0,0,863.13,22.26,20.65,# data time:1870,pm2.5:5.640,pm10:4.991,O2:0.000,NO2:0.000,SO2:0.000,NH3:3.725
10:01:19,0,0,0,0,0,0,0,0,0,0,0,514,0,0,0,0,0.0000000,0.0000000,0.0000000,0.0000000,10.00,38.4062920,-110.7921677,1379.8000488,0.6,358.8,0.8,0.0,0.0,893,128,0,0,863.16,22.25,20.66,# data time:1870,pm2.5:5.640,pm10:4.991,O2:0.000,NO2:0.000,SO2:0.000,NH3:3.725
10:01:20,0,0,0,0,0,0,0,0,0,0,0,525,0,0,0,0,0.0000000,0.0000000,0.0000000,0.0000000,10.00,38.4062958,-110.7921677,1379.8000488,0.6,2.5,0.8,0.0,0.0,891,141,0,0,863.14,22.25,20.65,# data time:1870,pm2.5:5.640,pm10:4.991,O2:0.000,NO2:0.000,SO2:0.000,NH3:3.725
10:01:21,0,0,0,0,0,0,0,0,0,0,0,515,0,0,0,0,0.0000000,0.0000000,0.0000000,0.0000000,10.00,38.4062996,-110.7921829,1379.8000488,0.5,3.5,0.8,0.0,0.0,892,126,0,0,863.20,22.29,20.66,# data time:1870,pm2.5:5.640,pm10:4.991,O2:0.000,NO2:0.000,SO2:0.000,NH3:3.725
10:01:22,0,0,0,0,0,0,0,0,0,0,0,576,0,0,0,0,0.0000000,0.0000000,0.0000000,0.0000000,10.00,38.4062996,-110.7921829,1379.9000244,0.5,3.5,0.8,0.0,0.0,880,127,0,0,863.11,22.28,20.62,# data time:1880,pm2.5:6.445,pm10:5.704,O2:0.000,NO2:0.000,SO2:725
10:01:23,0,0,0,0,0,0,0,0,0,0,0,519,0,0,0,0,0.0000000,0.0000000,0.0000000,0.0000000,10.00,38.4063034,-110.7921829,1379.9000244,0.5,6.3,0.8,0.0,0.0,892,123,0,0,863.13,22.29,20.62,# data time:1880,pm2.5:6.445,pm10:5.704,O2:0.000,NO2:0.000,SO2:725
10:01:24,0,0,0,0,0,0,0,0,0,0,0,543,0,0,0,0,0.0000000,0.0000000,0.0000000,0.0000000,10.00,38.4063072,-110.7921906,1379.9000244,0.6,356.2,0.8,0.0,0.0,887,129,0,0,863.14,22.28,20.66,# data time:1880,pm2.5:6.445,pm10:5.704,O2:0.000,NO2:0.000,SO2:725
10:01:25,0,0,0,0,0,0,0,0,0,0,0,514,0,0,0,0,0.0000000,0.0000000,0.0000000,0.0000000,10.00,38.4063110,-110.7921906,1379.9000244,0.4,8.8,0.8,0.0,0.0,893,126,0,0,863.14,22.28,20.66,# data time:1880,pm2.5:6.445,pm10:5.704,O2:0.000,NO2:0.000,SO2:725
10:01:26,0,0,0,0,0,0,0,0,0,0,0,516,0,0,0,0,0.0000000,0.0000000,0.0000000,0.0000000,10.00,38.4063110,-110.7921906,1379.9000244,0.4,28.4,0.8,0.0,0.0,892,130,0,0,863.14,22.26,20.66,# data time:1880,pm2.5:6.445,pm10:5.704,O2:0.000,NO2:0.000,SO2:725
10:01:27,0,0,0,0,0,0,0,0,0,0,0,516,0,0,0,0,0.0000000,0.0000000,0.0000000,0.0000000,10.00,38.4063148,-110.7921906,1379.9000244,0.3,10.3,0.8,0.0,0.0,893,128,0,0,863.13,22.25,20.66,# data time:1880,pm2.5:6.445,pm10:5.704,O2:0.000,NO2:0.000,SO2:725
10:01:28,0,0,0,0,0,0,0,0,0,0,0,514,0,0,0,0,0.0000000,0.0000000,0.0000000,0.0000000,9.00,38.4063148,-110.7921906,1379.9000244,0.2,39.1,0.9,0.0,0.0,893,128,0,0,863.20,22.28,20.67,# data time:1880,pm2.5:6.445,pm10:5.704,O2:0.000,NO2:0.000,SO2:725
10:01:29,0,0,0,0,0,0,0,0,0,0,0,517,0,0,0,0,0.0000000,0.0000000,0.0000000,0.0000000,9.00,38.4063148,-110.7921906,1379.9000244,0.2,85.9,0.9,0.0,0.0,891,125,0,0,863.17,22.23,20.67,# data time:1880,pm2.5:6.445,pm10:5.704,O2:0.000,NO2:0.000,SO2:725
10:01:30,0,0,0,0,0,0,0,0,0,0,0,546,0,0,0,0,0.0000000,0.0000000,0.0000000,0.0000000,9.00,38.4063148,-110.7921829,1379.9000244,0.2,124.9,0.9,0.0,0.0,881,126,0,0,863.13,22.29,20.67,# data time:1880,pm2.5:6.445,pm10:5.704,O2:0.000,NO2:0.000,SO2:725
10:01:31,0,0,0,0,0,0,0,0,0,0,0,517,0,0,0,0,0.0000000,0.0000000,0.0000000,0.0000000,9.00,38.4063148,-110.7921829,1379.9000244,0.0,263.2,0.9,0.0,0.0,892,128,0,0,863.13,22.31,20.67,# data time:1880,pm2.5:6.445,pm10:5.704,O2:0.000,NO2:0.000,SO2:725
10:01:32,0,0,0,0,0,0,0,0,0,0,0,520,0,0,0,0,0.0000000,0.0000000,0.0000000,0.0000000,9.00,38.4063148,-110.7921829,1379.9000244,0.0,263.2,0.9,0.0,0.0,891,127,0,0,863.15,22.29,20.64,# data time:1890,pm2.5:6.445,pm10:5.704,O2:0.000,NO2:0.000,SO2:NH3:3.725
10:01:33,0,0,0,0,0,0,0,0,0,0,0,522,0,0,0,0,0.0000000,0.0000000,0.0000000,0.0000000,9.00,38.4063148,-110.7921829,1379.9000244,0.1,33.9,0.9,0.0,0.0,893,126,0,0,863.10,22.29,20.59,# data time:1890,pm2.5:6.445,pm10:5.704,O2:0.000,NO2:0.000,SO2:NH3:3.725
10:01:34,0,0,0,0,0,0,0,0,0,0,0,520,0,0,0,0,0.0000000,0.0000000,0.0000000,0.0000000,9.00,38.4063148,-110.7921829,1379.9000244,0.1,40.8,0.9,0.0,0.0,891,125,0,0,863.14,22.32,20.63,# data time:1890,pm2.5:6.445,pm10:5.704,O2:0.000,NO2:0.000,SO2:NH3:3.725
10:01:35,0,0,0,0,0,0,0,0,0,0,0,514,0,0,0,0,0.0000000,0.0000000,0.0000000,0.0000000,9.00,38.4063148,-110.7921829,1379.9000244,0.1,322.2,0.9,0.0,0.0,893,126,0,0,863.12,22.29,20.59,# data time:1890,pm2.5:6.445,pm10:5.704,O2:0.000,NO2:0.000,SO2:NH3:3.725
10:01:36,0,0,0,0,0,0,0,0,0,0,0,543,0,0,0,0,0.0000000,0.0000000,0.0000000,0.0000000,9.00,38.4063148,-110.7921829,1379.9000244,0.1,309.5,0.9,0.0,0.0,886,123,0,0,863.17,22.29,20.65,# data time:1890,pm2.5:6.445,pm10:5.704,O2:0.000,NO2:0.000,SO2:NH3:3.725
10:01:37,0,0,0,0,0,0,0,0,0,0,0,521,0,0,0,0,0.0000000,0.0000000,0.0000000,0.0000000,9.00,38.4063148,-110.7921906,1380.0000000,0.1,309.5,0.9,0.0,0.0,891,127,0,0,863.07,22.31,20.59,# data time:1890,pm2.5:6.445,pm10:5.704,O2:0.000,NO2:0.000,SO2:NH3:3.725
10:01:38,0,0,0,0,0,0,0,0,0,0,0,561,0,0,0,0,0.0000000,0.0000000,0.0000000,0.0000000,9.00,38.4063148,-110.7921906,1380.0000000,0.1,309.5,0.9,0.0,0.0,883,127,0,0,863.14,22.32,20.64,# data time:1890,pm2.5:6.445,pm10:5.704,O2:0.000,NO2:0.000,SO2:NH3:3.725
10:01:40,0,0,0,0,0,0,0,0,0,0,0,560,0,0,0,0,0.0000000,0.0000000,0.0000000,0.0000000,9.00,38.4063148,-110.7921906,1380.0000000,0.1,309.5,0.9,0.0,0.0,885,129,0,0,863.15,22.37,20.59,# data time:1890,pm2.5:6.445,pm10:5.704,O2:0.000,NO2:0.000,SO2:NH3:3.725
10:01:41,0,0,0,0,0,0,0,0,0,0,0,516,0,0,0,0,0.0000000,0.0000000,0.0000000,0.0000000,10.00,38.4063148,-110.7921906,1380.0000000,0.2,163.5,0.8,0.0,0.0,892,129,0,0,863.16,22.39,20.69,# data time:1890,pm2.5:6.445,pm10:5.704,O2:0.000,NO2:0.000,SO2:NH3:3.725
10:01:42,0,0,0,0,0,0,0,0,0,0,0,516,0,0,0,0,0.0000000,0.0000000,0.0000000,0.0000000,10.00,38.4063148,-110.7921906,1380.0000000,0.2,163.5,0.8,0.0,0.0,892,130,0,0,863.13,22.40,20.65,# data time:1900,pm2.5:6.445,pm10:5.704,O2:0.000,NO2:0.000,SO
10:01:43,0,0,0,0,0,0,0,0,0,0,0,514,0,0,0,0,0.0000000,0.0000000,0.0000000,0.0000000,10.00,38.4063110,-110.7921906,1380.0000000,0.2,148.3,0.8,0.0,0.0,893,131,0,0,863.12,22.37,20.65,# data time:1900,pm2.5:6.445,pm10:5.704,O2:0.000,NO2:0.000,SO
10:01:44,0,0,0,0,0,0,0,0,0,0,0,515,0,0,0,0,0.0000000,0.0000000,0.0000000,0.0000000,10.00,38.4063110,-110.7921906,1380.0000000,0.1,170.6,0.8,0.0,0.0,893,127,0,0,863.11,22.32,20.69,# data time:1900,pm2.5:6.445,pm10:5.704,O2:0.000,NO2:0.000,SO
10:01:45,0,0,0,0,0,0,0,0,0,0,0,517,0,0,0,0,0.0000000,0.0000000,0.0000000,0.0000000,10.00,38.4063110,-110.7921906,1380.0000000,0.2,139.7,0.8,0.0,0.0,892,126,0,0,863.14,22.29,20.70,# data time:1900,pm2.5:6.445,pm10:5.704,O2:0.000,NO2:0.000,SO
10:01:46,0,0,0,0,0,0,0,0,0,0,0,521,0,0,0,0,0.0000000,0.0000000,0.0000000,0.0000000,10.00,38.4063110,-110.7921829,1380.0000000,0.1,155.4,0.8,0.0,0.0,892,126,0,0,863.17,22.32,20.70,# data time:1900,pm2.5:6.445,pm10:5.704,O2:0.000,NO2:0.000,SO
10:01:47,0,0,0,0,0,0,0,0,0,0,0,515,0,0,0,0,0.0000000,0.0000000,0.0000000,0.0000000,10.00,38.4063110,-110.7921829,1380.0000000,0.0,281.8,0.8,0.0,0.0,892,127,0,0,863.15,22.28,20.69,# data time:1900,pm2.5:6.445,pm10:5.704,O2:0.000,NO2:0.000,SO
10:01:48,0,0,0,0,0,0,0,0,0,0,0,516,0,0,0,0,0.0000000,0.0000000,0.0000000,0.0000000,10.00,38.4063110,-110.7921829,1380.0000000,0.1,186.1,0.8,0.0,0.0,892,126,0,0,863.18,22.26,20.69,# data time:1900,pm2.5:6.445,pm10:5.704,O2:0.000,NO2:0.000,SO
10:01:49,0,0,0,0,0,0,0,0,0,0,0,516,0,0,0,0,0.0000000,0.0000000,0.0000000,0.0000000,10.00,38.4063072,-110.7921829,1380.0000000,0.1,183.2,0.8,0.0,0.0,892,127,0,0,863.14,22.23,20.68,# data time:1900,pm2.5:6.445,pm10:5.704,O2:0.000,NO2:0.000,SO
10:01:50,0,0,0,0,0,0,0,0,0,0,0,516,0,0,0,0,0.0000000,0.0000000,0.0000000,0.0000000,10.00,38.4063072,-110.7921829,1380.0000000,0.2,160.1,0.8,0.0,0.0,892,130,0,0,863.14,22.23,20.69,# data time:1900,pm2.5:6.445,pm10:5.704,O2:0.000,NO2:0.000,SO
10:01:51,0,0,0,0,0,0,0,0,0,0,0,540,0,0,0,0,0.0000000,0.0000000,0.0000000,0.0000000,10.00,38.4063072,-110.7921829,1380.0000000,0.2,192.7,0.8,0.0,0.0,887,125,0,0,863.16,22.26,20.69,# data time:1900,pm2.5:6.445,pm10:5.704,O2:0.000,NO2:0.000,SO
10:01:52,0,0,0,0,0,0,0,0,0,0,0,514,0,0,0,0,0.0000000,0.0000000,0.0000000,0.0000000,10.00,38.4063072,-110.7921829,1380.0000000,0.2,192.7,0.8,0.0,0.0,893,126,0,0,863.16,22.23,20.65,# data time:1910,pm2.5:6.445,pm10:5.704,O2:0.000,NO2:0.000,SO
10:01:53,0,0,0,0,0,0,0,0,0,0,0,521,0,0,0,0,0.0000000,0.0000000,0.0000000,0.0000000,10.00,38.4063034,-110.7921829,1380.0000000,0.1,136.1,0.8,0.0,0.0,892,130,0,0,863.16,22.26,20.65,# data time:1910,pm2.5:6.445,pm10:5.704,O2:0.000,NO2:0.000,SO
10:01:54,0,0,0,0,0,0,0,0,0,0,0,515,0,0,0,0,0.0000000,0.0000000,0.0000000,0.0000000,10.00,38.4063034,-110.7921829,1380.0000000,0.1,256.0,0.8,0.0,0.0,892,127,0,0,863.14,22.31,20.69,# data time:1910,pm2.5:6.445,pm10:5.704,O2:0.000,NO2:0.000,SO
10:01:55,0,0,0,0,0,0,0,0,0,0,0,516,0,0,0,0,0.0000000,0.0000000,0.0000000,0.0000000,10.00,38.4063034,-110.7921906,1380.0000000,0.2,234.7,0.8,0.0,0.0,892,127,0,0,863.16,22.29,20.70,# data time:1910,pm2.5:6.445,pm10:5.704,O2:0.000,NO2:0.000,SO
10:01:56,0,0,0,0,0,0,0,0,0,0,0,516,0,0,0,0,0.0000000,0.0000000,0.0000000,0.0000000,10.00,38.4063034,-110.7921906,1380.0000000,0.4,208.7,0.8,0.0,0.0,892,127,0,0,863.15,22.25,20.70,# data time:1910,pm2.5:6.445,pm10:5.704,O2:0.000,NO2:0.000,SO
10:01:57,0,0,0,0,0,0,0,0,0,0,0,516,0,0,0,0,0.0000000,0.0000000,0.0000000,0.0000000,10.00,38.4063034,-110.7921906,1379.9000244,0.3,199.7,0.8,0.0,0.0,893,124,0,0,863.19,22.23,20.70,# data time:1910,pm2.5:6.445,pm10:5.704,O2:0.000,NO2:0.000,SO
10:01:58,0,0,0,0,0,0,0,0,0,0,0,516,0,0,0,0,0.0000000,0.0000000,0.0000000,0.0000000,10.00,38.4062996,-110.7921906,1379.9000244,0.3,188.0,0.8,0.0,0.0,892,126,0,0,863.16,22.23,20.70,# data time:1910,pm2.5:6.445,pm10:5.704,O2:0.000,NO2:0.000,SO
10:01:59,0,0,0,0,0,0,0,0,0,0,0,526,0,0,0,0,0.0000000,0.0000000,0.0000000,0.0000000,10.00,38.4062996,-110.7921906,1379.9000244,0.1,171.1,0.8,0.0,0.0,890,128,0,0,863.17,22.20,20.70,# data time:1910,pm2.5:6.445,pm10:5.704,O2:0.000,NO2:0.000,SO
10:02:00,0,0,0,0,0,0,0,0,0,0,0,515,0,0,0,0,0.0000000,0.0000000,0.0000000,0.0000000,10.00,38.4062996,-110.7921906,1379.9000244,0.2,213.4,0.8,0.0,0.0,894,129,0,0,863.19,22.28,20.70,# data time:1910,pm2.5:6.445,pm10:5.704,O2:0.000,NO2:0.000,SO
10:02:01,0,0,0,0,0,0,0,0,0,0,0,516,0,0,0,0,0.0000000,0.0000000,0.0000000,0.0000000,10.00,38.4062958,-110.7921906,1379.9000244,0.2,231.2,0.8,0.0,0.0,892,126,0,0,863.16,22.31,20.72,# data time:1910,pm2.5:6.445,pm10:5.704,O2:0.000,NO2:0.000,SO
10:02:02,0,0,0,0,0,0,0,0,0,0,0,516,0,0,0,0,0.0000000,0.0000000,0.0000000,0.0000000,10.00,38.4062958,-110.7921906,1379.9000244,0.2,231.2,0.8,0.0,0.0,892,130,0,0,863.14,22.34,20.68,# data time:1920,pm2.5:6.445,pm10:5.704,O2:0.000,NO2:0.000,SO
10:02:03,0,0,0,0,0,0,0,0,0,0,0,518,0,0,0,0,0.0000000,0.0000000,0.0000000,0.0000000,10.00,38.4062958,-110.7921906,1379.9000244,0.3,260.7,0.8,0.0,0.0,892,128,0,0,863.16,22.26,20.68,# data time:1920,pm2.5:6.445,pm10:5.704,O2:0.000,NO2:0.000,SO
10:02:04,0,0,0,0,0,0,0,0,0,0,0,516,0,0,0,0,0.0000000,0.0000000,0.0000000,0.0000000,10.00,38.4062958,-110.7921906,1379.9000244,0.3,283.2,0.8,0.0,0.0,892,129,0,0,863.15,22.22,20.71,# data time:1920,pm2.5:6.445,pm10:5.704,O2:0.000,NO2:0.000,SO
10:02:05,0,0,0,0,0,0,0,0,0,0,0,516,0,0,0,0,0.0000000,0.0000000,0.0000000,0.0000000,10.00,38.4062958,-110.7921906,1379.9000244,0.2,290.9,0.8,0.0,0.0,892,127,0,0,863.16,22.17,20.70,# data time:1920,pm2.5:6.445,pm10:5.704,O2:0.000,NO2:0.000,SO
10:02:06,0,0,0,0,0,0,0,0,0,0,0,517,0,0,0,0,0.0000000,0.0000000,0.0000000,0.0000000,10.00,38.4062958,-110.7921906,1379.9000244,0.2,319.4,0.8,0.0,0.0,892,126,0,0,863.17,22.16,20.71,# data time:1920,pm2.5:6.445,pm10:5.704,O2:0.000,NO2:0.000,SO
10:02:07,0,0,0,0,0,0,0,0,0,0,0,515,0,0,0,0,0.0000000,0.0000000,0.0000000,0.0000000,10.00,38.4062996,-110.7921906,1379.9000244,0.3,281.5,0.8,0.0,0.0,893,127,0,0,863.18,22.17,20.71,# data time:1920,pm2.5:6.445,pm10:5.704,O2:0.000,NO2:0.000,SO
10:02:08,0,0,0,0,0,0,0,0,0,0,0,515,0,0,0,0,0.0000000,0.0000000,0.0000000,0.0000000,10.00,38.4062996,-110.7922058,1379.9000244,0.4,290.4,0.8,0.0,0.0,892,129,0,0,863.19,22.17,20.72,# data time:1920,pm2.5:6.445,pm10:5.704,O2:0.000,NO2:0.000,SO
10:02:09,0,0,0,0,0,0,0,0,0,0,0,518,0,0,0,0,0.0000000,0.0000000,0.0000000,0.0000000,10.00,38.4062996,-110.7922058,1379.9000244,0.4,292.2,0.8,0.0,0.0,891,126,0,0,863.15,22.16,20.72,# data time:1920,pm2.5:6.445,pm10:5.704,O2:0.000,NO2:0.000,SO
10:02:10,0,0,0,0,0,0,0,0,0,0,0,517,0,0,0,0,0.0000000,0.0000000,0.0000000,0.0000000,10.00,38.4062996,-110.7922058,1379.9000244,0.3,301.4,0.8,0.0,0.0,892,126,0,0,863.18,22.17,20.73,# data time:1920,pm2.5:6.445,pm10:5.704,O2:0.000,NO2:0.000,SO
10:02:11,0,0,0,0,0,0,0,0,0,0,0,516,0,0,0,0,0.0000000,0.0000000,0.0000000,0.0000000,10.00,38.4062996,-110.7922058,1379.9000244,0.3,303.8,0.8,0.0,0.0,892,127,0,0,863.10,22.17,20.73,# data time:1920,pm2.5:6.445,pm10:5.704,O2:0.000,NO2:0.000,SO
10:02:12,0,0,0,0,0,0,0,0,0,0,0,517,0,0,0,0,0.0000000,0.0000000,0.0000000,0.0000000,10.00,38.4062996,-110.7922058,1379.9000244,0.3,303.8,0.8,0.0,0.0,893,129,0,0,863.13,22.19,20.69,# data time:1930,pm2.5:6.445,pm10:5.704,O2:0.000,NO2:0.000,SO
10:02:13,0,0,0,0,0,0,0,0,0,0,0,517,0,0,0,0,0.0000000,0.0000000,0.0000000,0.0000000,10.00,38.4062996,-110.7922058,1379.9000244,0.2,128.2,0.8,0.0,0.0,892,126,0,0,863.08,22.19,20.69,# data time:1930,pm2.5:6.445,pm10:5.704,O2:0.000,NO2:0.000,SO
10:02:14,0,0,0,0,0,0,0,0,0,0,0,516,0,0,0,0,0.0000000,0.0000000,0.0000000,0.0000000,10.00,38.4062996,-110.7922058,1379.9000244,0.1,181.5,0.8,0.0,0.0,892,128,0,0,863.13,22.17,20.73,# data time:1930,pm2.5:6.445,pm10:5.704,O2:0.000,NO2:0.000,SO
10:02:15,0,0,0,0,0,0,0,0,0,0,0,514,0,0,0,0,0.0000000,0.0000000,0.0000000,0.0000000,10.00,38.4062996,-110.7922058,1379.9000244,0.1,230.8,0.8,0.0,0.0,893,127,0,0,863.12,22.19,20.74,# data time:1930,pm2.5:6.445,pm10:5.704,O2:0.000,NO2:0.000,SO
10:02:16,0,0,0,0,0,0,0,0,0,0,0,517,0,0,0,0,0.0000000,0.0000000,0.0000000,0.0000000,10.00,38.4062996,-110.7922058,1379.9000244,0.1,245.8,0.8,0.0,0.0,890,129,0,0,863.09,22.19,20.75,# data time:1930,pm2.5:6.445,pm10:5.704,O2:0.000,NO2:0.000,SO
10:02:17,0,0,0,0,0,0,0,0,0,0,0,516,0,0,0,0,0.0000000,0.0000000,0.0000000,0.0000000,10.00,38.4062996,-110.7922058,1379.9000244,0.1,268.0,0.8,0.0,0.0,892,123,0,0,863.14,22.14,20.75,# data time:1930,pm2.5:6.445,pm10:5.704,O2:0.000,NO2:0.000,SO
10:02:18,0,0,0,0,0,0,0,0,0,0,0,517,0,0,0,0,0.0000000,0.0000000,0.0000000,0.0000000,10.00,38.4062996,-110.7922058,1379.9000244,0.0,333.1,0.8,0.0,0.0,892,124,0,0,863.14,22.14,20.75,# data time:1930,pm2.5:6.445,pm10:5.704,O2:0.000,NO2:0.000,SO
10:02:19,0,0,0,0,0,0,0,0,0,0,0,518,0,0,0,0,0.0000000,0.0000000,0.0000000,0.0000000,10.00,38.4062996,-110.7922058,1379.9000244,0.1,95.8,0.8,0.0,0.0,892,127,0,0,863.16,22.14,20.76,# data time:1930,pm2.5:6.445,pm10:5.704,O2:0.000,NO2:0.000,SO
10:02:20,0,0,0,0,0,0,0,0,0,0,0,518,0,0,0,0,0.0000000,0.0000000,0.0000000,0.0000000,10.00,38.4062996,-110.7922058,1379.9000244,0.1,87.4,0.8,0.0,0.0,891,126,0,0,863.18,22.19,20.77,# data time:1930,pm2.5:6.445,pm10:5.704,O2:0.000,NO2:0.000,SO
10:02:21,0,0,0,0,0,0,0,0,0,0,0,516,0,0,0,0,0.0000000,0.0000000,0.0000000,0.0000000,10.00,38.4062996,-110.7922058,1379.9000244,0.1,80.8,0.8,0.0,0.0,892,126,0,0,863.15,22.17,20.76,# data time:1930,pm2.5:6.445,pm10:5.704,O2:0.000,NO2:0.000,SO
10:02:22,0,0,0,0,0,0,0,0,0,0,0,520,0,0,0,0,0.0000000,0.0000000,0.0000000,0.0000000,10.00,38.4062996,-110.7922058,1379.9000244,0.1,80.8,0.8,0.0,0.0,891,128,0,0,863.16,22.19,20.73,# data time:1940,pm2.5:6.445,pm10:5.704,O2:0.000,NO2:0.000,SO
10:02:23,0,0,0,0,0,0,0,0,0,0,0,516,0,0,0,0,0.0000000,0.0000000,0.0000000,0.0000000,10.00,38.4062996,-110.7922058,1379.9000244,0.1,85.5,0.8,0.0,0.0,893,130,0,0,863.15,22.17,20.73,# data time:1940,pm2.5:6.445,pm10:5.704,O2:0.000,NO2:0.000,SO
10:02:24,0,0,0,0,0,0,0,0,0,0,0,516,0,0,0,0,0.0000000,0.0000000,0.0000000,0.0000000,10.00,38.4062996,-110.7922058,1379.9000244,0.1,85.6,0.8,0.0,0.0,893,126,0,0,863.14,22.23,20.78,# data time:1940,pm2.5:6.445,pm10:5.704,O2:0.000,NO2:0.000,SO
10:02:25,0,0,0,0,0,0,0,0,0,0,0,516,0,0,0,0,0.0000000,0.0000000,0.0000000,0.0000000,10.00,38.4062996,-110.7922058,1379.9000244,0.2,118.6,0.8,0.0,0.0,892,126,0,0,863.18,22.31,20.78,# data time:1940,pm2.5:6.445,pm10:5.704,O2:0.000,NO2:0.000,SO
10:02:26,0,0,0,0,0,0,0,0,0,0,0,515,0,0,0,0,0.0000000,0.0000000,0.0000000,0.0000000,10.00,38.4062996,-110.7922058,1379.9000244,0.1,96.8,0.8,0.0,0.0,893,127,0,0,863.15,22.31,20.68,# data time:1940,pm2.5:6.445,pm10:5.704,O2:0.000,NO2:0.000,SO
10:02:27,0,0,0,0,0,0,0,0,0,0,0,515,0,0,0,0,0.0000000,0.0000000,0.0000000,0.0000000,10.00,38.4062996,-110.7922058,1379.9000244,0.1,101.7,0.8,0.0,0.0,893,125,0,0,863.09,22.31,20.68,# data time:1940,pm2.5:6.445,pm10:5.704,O2:0.000,NO2:0.000,SO
10:02:28,0,0,0,0,0,0,0,0,0,0,0,515,0,0,0,0,0.0000000,0.0000000,0.0000000,0.0000000,10.00,38.4062996,-110.7922058,1379.9000244,0.1,101.7,0.8,0.0,0.0,893,128,0,0,863.14,22.28,20.67,# data time:1940,pm2.5:6.445,pm10:5.704,O2:0.000,NO2:0.000,SO
10:02:29,0,0,0,0,0,0,0,0,0,0,0,515,0,0,0,0,0.0000000,0.0000000,0.0000000,0.0000000,10.00,38.4062996,-110.7922058,1379.9000244,0.3,150.4,0.8,0.0,0.0,893,127,0,0,863.11,22.29,20.67,# data time:1940,pm2.5:6.445,pm10:5.704,O2:0.000,NO2:0.000,SO
10:02:30,0,0,0,0,0,0,0,0,0,0,0,515,0,0,0,0,0.0000000,0.0000000,0.0000000,0.0000000,10.00,38.4062958,-110.7921906,1379.9000244,0.4,151.5,0.8,0.0,0.0,892,127,0,0,863.18,22.29,20.73,# data time:1940,pm2.5:6.445,pm10:5.704,O2:0.000,NO2:0.000,SO
10:02:31,0,0,0,0,0,0,0,0,0,0,0,515,0,0,0,0,0.0000000,0.0000000,0.0000000,0.0000000,10.00,38.4062958,-110.7921906,1379.9000244,0.4,151.5,0.8,0.0,0.0,892,127,0,0,863.18,22.29,20.73,# data time:1950,pm2.5:6.445,pm10:5.704,O2:0.000,NO2:0.000,SO2:0.000,NH3:3.725
10:02:33,0,0,0,0,0,0,0,0,0,0,0,516,0,0,0,0,0.0000000,0.0000000,0.0000000,0.0000000,10.00,38.4062958,-110.7921906,1379.9000244,0.4,169.2,0.8,0.0,0.0,893,128,0,0,863.12,22.32,20.73,# data time:1950,pm2.5:6.445,pm10:5.704,O2:0.000,NO2:0.000,SO2:0.000,NH3:3.725
10:02:34,0,0,0,0,0,0,0,0,0,0,0,516,0,0,0,0,0.0000000,0.0000000,0.0000000,0.0000000,10.00,38.4062920,-110.7921906,1379.9000244,0.3,166.5,0.8,0.0,0.0,893,128,0,0,863.18,22.32,20.78,# data time:1950,pm2.5:6.445,pm10:5.704,O2:0.000,NO2:0.000,SO2:0.000,NH3:3.725
10:02:35,0,0,0,0,0,0,0,0,0,0,0,515,0,0,0,0,0.0000000,0.0000000,0.0000000,0.0000000,10.00,38.4062920,-110.7921906,1379.9000244,0.2,193.5,0.8,0.0,0.0,893,126,0,0,863.15,22.31,20.78,# data time:1950,pm2.5:6.445,pm10:5.704,O2:0.000,NO2:0.000,SO2:0.000,NH3:3.725
10:02:36,0,0,0,0,0,0,0,0,0,0,0,516,0,0,0,0,0.0000000,0.0000000,0.0000000,0.0000000,10.00,38.4062920,-110.7921906,1379.9000244,0.2,195.7,0.8,0.0,0.0,892,130,0,0,863.14,22.31,20.79,# data time:1950,pm2.5:6.445,pm10:5.704,O2:0.000,NO2:0.000,SO2:0.000,NH3:3.725
10:02:37,0,0,0,0,0,0,0,0,0,0,0,515,0,0,0,0,0.0000000,0.0000000,0.0000000,0.0000000,10.00,38.4062881,-110.7921906,1379.9000244,0.2,173.4,0.8,0.0,0.0,892,127,0,0,863.21,22.32,20.80,# data time:1950,pm2.5:6.445,pm10:5.704,O2:0.000,NO2:0.000,SO2:0.000,NH3:3.725
10:02:38,0,0,0,0,0,0,0,0,0,0,0,516,0,0,0,0,0.0000000,0.0000000,0.0000000,0.0000000,10.00,38.4062881,-110.7921906,1379.9000244,0.1,258.0,0.8,0.0,0.0,893,127,0,0,863.16,22.29,20.80,# data time:1950,pm2.5:6.445,pm10:5.704,O2:0.000,NO2:0.000,SO2:0.000,NH3:3.725
10:02:39,0,0,0,0,0,0,0,0,0,0,0,516,0,0,0,0,0.0000000,0.0000000,0.0000000,0.0000000,10.00,38.4062881,-110.7921906,1379.9000244,0.2,21.8,0.8,0.0,0.0,892,130,0,0,863.14,22.28,20.80,# data time:1950,pm2.5:6.445,pm10:5.704,O2:0.000,NO2:0.000,SO2:0.000,NH3:3.725
10:02:40,0,0,0,0,0,0,0,0,0,0,0,516,0,0,0,0,0.0000000,0.0000000,0.0000000,0.0000000,10.00,38.4062881,-110.7921906,1379.9000244,0.3,24.0,0.8,0.0,0.0,893,129,0,0,863.15,22.23,20.81,# data time:1950,pm2.5:6.445,pm10:5.704,O2:0.000,NO2:0.000,SO2:0.000,NH3:3.725
10:02:41,0,0,0,0,0,0,0,0,0,0,0,516,0,0,0,0,0.0000000,0.0000000,0.0000000,0.0000000,10.00,38.4062920,-110.7921906,1379.9000244,0.3,347.4,0.8,0.0,0.0,893,122,0,0,863.15,22.22,20.81,# data time:1950,pm2.5:6.445,pm10:5.704,O2:0.000,NO2:0.000,SO2:0.000,NH3:3.725
10:02:42,0,0,0,0,0,0,0,0,0,0,0,515,0,0,0,0,0.0000000,0.0000000,0.0000000,0.0000000,10.00,38.4062920,-110.7921906,1379.9000244,0.3,347.4,0.8,0.0,0.0,893,129,0,0,863.15,22.17,20.75,# data time:1960,pm2.5:6.445,pm10:5.704,O2:0.000,NO2:0.000,SO2:0.000,NH3:3.725
10:02:43,0,0,0,0,0,0,0,0,0,0,0,515,0,0,0,0,0.0000000,0.0000000,0.0000000,0.0000000,10.00,38.4062958,-110.7921906,1379.8000488,0.3,337.8,0.8,0.0,0.0,892,130,0,0,863.14,22.11,20.77,# data time:1960,pm2.5:6.445,pm10:5.704,O2:0.000,NO2:0.000,SO2:0.000,NH3:3.725
10:02:44,0,0,0,0,0,0,0,0,0,0,0,515,0,0,0,0,0.0000000,0.0000000,0.0000000,0.0000000,10.00,38.4062958,-110.7921906,1379.8000488,0.3,341.3,0.8,0.0,0.0,892,127,0,0,863.15,22.06,20.81,# data time:1960,pm2.5:6.445,pm10:5.704,O2:0.000,NO2:0.000,SO2:0.000,NH3:3.725
10:02:45,0,0,0,0,0,0,0,0,0,0,0,516,0,0,0,0,0.0000000,0.0000000,0.0000000,0.0000000,10.00,38.4062958,-110.7922058,1379.8000488,0.3,308.4,0.8,0.0,0.0,893,130,0,0,863.11,22.02,20.81,# data time:1960,pm2.5:6.445,pm10:5.704,O2:0.000,NO2:0.000,SO2:0.000,NH3:3.725
10:02:46,0,0,0,0,0,0,0,0,0,0,0,516,0,0,0,0,0.0000000,0.0000000,0.0000000,0.0000000,10.00,38.4062958,-110.7922058,1379.8000488,0.2,292.6,0.8,0.0,0.0,893,133,0,0,863.14,21.97,20.80,# data time:1960,pm2.5:6.445,pm10:5.704,O2:0.000,NO2:0.000,SO2:0.000,NH3:3.725
10:02:47,0,0,0,0,0,0,0,0,0,0,0,516,0,0,0,0,0.0000000,0.0000000,0.0000000,0.0000000,10.00,38.4062958,-110.7922058,1379.8000488,0.3,321.1,0.8,0.0,0.0,892,130,0,0,863.15,21.94,20.81,# data time:1960,pm2.5:6.445,pm10:5.704,O2:0.000,NO2:0.000,SO2:0.000,NH3:3.725
10:02:48,0,0,0,0,0,0,0,0,0,0,0,515,0,0,0,0,0.0000000,0.0000000,0.0000000,0.0000000,10.00,38.4062958,-110.7922058,1379.8000488,0.4,307.6,0.8,0.0,0.0,893,127,0,0,863.18,21.91,20.81,# data time:1960,pm2.5:6.445,pm10:5.704,O2:0.000,NO2:0.000,SO2:0.000,NH3:3.725
10:02:49,0,0,0,0,0,0,0,0,0,0,0,515,0,0,0,0,0.0000000,0.0000000,0.0000000,0.0000000,10.00,38.4062958,-110.7922058,1379.8000488,0.3,303.4,0.8,0.0,0.0,894,126,0,0,863.15,21.96,20.81,# data time:1960,pm2.5:6.445,pm10:5.704,O2:0.000,NO2:0.000,SO2:0.000,NH3:3.725
10:02:50,0,0,0,0,0,0,0,0,0,0,0,516,0,0,0,0,0.0000000,0.0000000,0.0000000,0.0000000,10.00,38.4062996,-110.7922058,1379.8000488,0.4,299.8,0.8,0.0,0.0,893,129,0,0,863.18,21.88,20.81,# data time:1960,pm2.5:6.445,pm10:5.704,O2:0.000,NO2:0.000,SO2:0.000,NH3:3.725
10:02:51,0,0,0,0,0,0,0,0,0,0,0,515,0,0,0,0,0.0000000,0.0000000,0.0000000,0.0000000,10.00,38.4062996,-110.7922058,1379.8000488,0.4,327.3,0.8,0.0,0.0,893,127,0,0,863.16,21.93,20.81,# data time:1960,pm2.5:6.445,pm10:5.704,O2:0.000,NO2:0.000,SO2:0.000,NH3:3.725
10:02:52,0,0,0,0,0,0,0,0,0,0,0,516,0,0,0,0,0.0000000,0.0000000,0.0000000,0.0000000,10.00,38.4062996,-110.7922058,1379.8000488,0.4,327.3,0.8,0.0,0.0,892,126,0,0,863.12,21.84,20.72,# data time:1970,pm2.5:6.445,pm10:5.704,O2:0.000,NO2:0.000,SO
10:02:53,0,0,0,0,0,0,0,0,0,0,0,515,0,0,0,0,0.0000000,0.0000000,0.0000000,0.0000000,10.00,38.4063034,-110.7922058,1379.6999512,0.3,312.9,0.8,0.0,0.0,893,126,0,0,863.13,21.82,20.81,# data time:1970,pm2.5:6.445,pm10:5.704,O2:0.000,NO2:0.000,SO
10:02:54,0,0,0,0,0,0,0,0,0,0,0,515,0,0,0,0,0.0000000,0.0000000,0.0000000,0.0000000,10.00,38.4063034,-110.7922058,1379.6999512,0.4,314.9,0.8,0.0,0.0,893,130,0,0,863.15,21.79,20.81,# data time:1970,pm2.5:6.445,pm10:5.704,O2:0.000,NO2:0.000,SO
10:02:55,0,0,0,0,0,0,0,0,0,0,0,516,0,0,0,0,0.0000000,0.0000000,0.0000000,0.0000000,10.00,38.4063034,-110.7922211,1379.6999512,0.3,319.2,0.8,0.0,0.0,892,126,0,0,863.14,21.76,20.81,# data time:1970,pm2.5:6.445,pm10:5.704,O2:0.000,NO2:0.000,SO
10:02:56,0,0,0,0,0,0,0,0,0,0,0,516,0,0,0,0,0.0000000,0.0000000,0.0000000,0.0000000,10.00,38.4063072,-110.7922211,1379.6999512,0.3,311.5,0.8,0.0,0.0,893,124,0,0,863.22,21.73,20.82,# data time:1970,pm2.5:6.445,pm10:5.704,O2:0.000,NO2:0.000,SO
10:02:57,0,0,0,0,0,0,0,0,0,0,0,515,0,0,0,0,0.0000000,0.0000000,0.0000000,0.0000000,10.00,38.4063072,-110.7922211,1379.6999512,0.4,308.3,0.8,0.0,0.0,893,134,0,0,863.19,21.99,20.82,# data time:1970,pm2.5:6.445,pm10:5.704,O2:0.000,NO2:0.000,SO
10:02:58,0,0,0,0,0,0,0,0,0,0,0,515,0,0,0,0,0.0000000,0.0000000,0.0000000,0.0000000,10.00,38.4063072,-110.7922211,1379.6999512,0.4,319.5,0.8,0.0,0.0,892,128,0,0,863.14,22.22,20.82,# data time:1970,pm2.5:6.445,pm10:5.704,O2:0.000,NO2:0.000,SO
10:02:59,0,0,0,0,0,0,0,0,0,0,0,516,0,0,0,0,0.0000000,0.0000000,0.0000000,0.0000000,10.00,38.4063110,-110.7922211,1379.6999512,0.4,338.5,0.8,0.0,0.0,893,124,0,0,863.16,22.32,20.81,# data time:1970,pm2.5:6.445,pm10:5.704,O2:0.000,NO2:0.000,SO
10:03:00,0,0,0,0,0,0,0,0,0,0,0,515,0,0,0,0,0.0000000,0.0000000,0.0000000,0.0000000,10.00,38.4063110,-110.7922211,1379.6999512,0.2,329.6,0.8,0.0,0.0,893,126,0,0,863.15,22.39,20.82,# data time:1970,pm2.5:6.445,pm10:5.704,O2:0.000,NO2:0.000,SO
10:03:01,0,0,0,0,0,0,0,0,0,0,0,515,0,0,0,0,0.0000000,0.0000000,0.0000000,0.0000000,10.00,38.4063110,-110.7922211,1379.6999512,0.2,351.7,0.8,0.0,0.0,892,127,0,0,863.15,22.43,20.82,# data time:1970,pm2.5:6.445,pm10:5.704,O2:0.000,NO2:0.000,SO
10:03:02,0,0,0,0,0,0,0,0,0,0,0,516,0,0,0,0,0.0000000,0.0000000,0.0000000,0.0000000,10.00,38.4063110,-110.7922211,1379.6999512,0.2,351.7,0.8,0.0,0.0,893,130,0,0,863.13,22.45,20.73,# data time:1980,pm2.5:6.445,pm10:5.704,O2:0.000,NO2:0.000,SO
10:03:03,0,0,0,0,0,0,0,0,0,0,0,515,0,0,0,0,0.0000000,0.0000000,0.0000000,0.0000000,10.00,38.4063148,-110.7922211,1379.6999512,0.4,349.3,0.8,0.0,0.0,892,127,0,0,863.11,22.46,20.82,# data time:1980,pm2.5:6.445,pm10:5.704,O2:0.000,NO2:0.000,SO
10:03:04,0,0,0,0,0,0,0,0,0,0,0,514,0,0,0,0,0.0000000,0.0000000,0.0000000,0.0000000,10.00,38.4063187,-110.7922211,1379.6999512,0.4,350.0,0.8,0.0,0.0,892,130,0,0,863.15,22.45,20.83,# data time:1980,pm2.5:6.445,pm10:5.704,O2:0.000,NO2:0.000,SO
10:03:05,0,0,0,0,0,0,0,0,0,0,0,515,0,0,0,0,0.0000000,0.0000000,0.0000000,0.0000000,10.00,38.4063187,-110.7922287,1379.6999512,0.2,336.1,0.8,0.0,0.0,892,128,0,0,863.14,22.43,20.83,# data time:1980,pm2.5:6.445,pm10:5.704,O2:0.000,NO2:0.000,SO
10:03:06,0,0,0,0,0,0,0,0,0,0,0,515,0,0,0,0,0.0000000,0.0000000,0.0000000,0.0000000,10.00,38.4063187,-110.7922287,1379.5999756,0.1,18.6,0.8,0.0,0.0,893,127,0,0,863.14,22.40,20.84,# data time:1980,pm2.5:6.445,pm10:5.704,O2:0.000,NO2:0.000,SO
10:03:07,0,0,0,0,0,0,0,0,0,0,0,515,0,0,0,0,0.0000000,0.0000000,0.0000000,0.0000000,10.00,38.4063225,-110.7922287,1379.1999512,0.2,332.6,0.8,0.0,0.0,893,125,0,0,863.12,22.39,20.84,# data time:1980,pm2.5:6.445,pm10:5.704,O2:0.000,NO2:0.000,SO
10:03:08,0,0,0,0,0,0,0,0,0,0,0,515,0,0,0,0,0.0000000,0.0000000,0.0000000,0.0000000,10.00,38.4063263,-110.7922440,1378.9000244,0.4,326.3,0.8,0.0,0.0,892,127,0,0,863.14,22.37,20.84,# data time:1980,pm2.5:6.445,pm10:5.704,O2:0.000,NO2:0.000,SO
10:03:09,0,0,0,0,0,0,0,0,0,0,0,515,0,0,0,0,0.0000000,0.0000000,0.0000000,0.0000000,10.00,38.4063301,-110.7922440,1378.9000244,0.4,321.0,0.8,0.0,0.0,893,127,0,0,863.14,22.35,20.84,# data time:1980,pm2.5:6.445,pm10:5.704,O2:0.000,NO2:0.000,SO
10:03:10,0,0,0,0,0,0,0,0,0,0,0,515,0,0,0,0,0.0000000,0.0000000,0.0000000,0.0000000,10.00,38.4063301,-110.7922440,1378.9000244,0.3,322.8,0.8,0.0,0.0,893,128,0,0,863.10,22.35,20.84,# data time:1980,pm2.5:6.445,pm10:5.704,O2:0.000,NO2:0.000,SO
10:03:11,0,0,0,0,0,0,0,0,0,0,0,515,0,0,0,0,0.0000000,0.0000000,0.0000000,0.0000000,10.00,38.4063339,-110.7922440,1378.8000488,0.3,313.1,0.8,0.0,0.0,892,125,0,0,863.13,22.31,20.84,# data time:1980,pm2.5:6.445,pm10:5.704,O2:0.000,NO2:0.000,SO
10:03:12,0,0,0,0,0,0,0,0,0,0,0,516,0,0,0,0,0.0000000,0.0000000,0.0000000,0.0000000,10.00,38.4063339,-110.7922440,1378.8000488,0.3,313.1,0.8,0.0,0.0,893,126,0,0,863.12,22.32,20.75,# data time:1990,pm2.5:6.445,pm10:5.704,O2:0.000,NO2:0.000,SO2:NH3:3.725
10:03:13,0,0,0,0,0,0,0,0,0,0,0,516,0,0,0,0,0.0000000,0.0000000,0.0000000,0.0000000,9.00,38.4063339,-110.7922440,1378.8000488,0.2,318.6,0.9,0.0,0.0,892,128,0,0,863.11,22.32,20.79,# data time:1990,pm2.5:6.445,pm10:5.704,O2:0.000,NO2:0.000,SO2:NH3:3.725
10:03:14,0,0,0,0,0,0,0,0,0,0,0,515,0,0,0,0,0.0000000,0.0000000,0.0000000,0.0000000,9.00,38.4063339,-110.7922440,1378.8000488,0.2,341.6,0.9,0.0,0.0,893,125,0,0,863.15,22.32,20.84,# data time:1990,pm2.5:6.445,pm10:5.704,O2:0.000,NO2:0.000,SO2:NH3:3.725
10:03:15,0,0,0,0,0,0,0,0,0,0,0,515,0,0,0,0,0.0000000,0.0000000,0.0000000,0.0000000,9.00,38.4063377,-110.7922440,1378.8000488,0.3,329.7,0.9,0.0,0.0,892,127,0,0,863.16,22.37,20.85,# data time:1990,pm2.5:6.445,pm10:5.704,O2:0.000,NO2:0.000,SO2:NH3:3.725
10:03:16,0,0,0,0,0,0,0,0,0,0,0,515,0,0,0,0,0.0000000,0.0000000,0.0000000,0.0000000,9.00,38.4063377,-110.7922440,1378.8000488,0.2,314.5,0.9,0.0,0.0,892,126,0,0,863.13,22.39,20.85,# data time:1990,pm2.5:6.445,pm10:5.704,O2:0.000,NO2:0.000,SO2:NH3:3.725
10:03:17,0,0,0,0,0,0,0,0,0,0,0,515,0,0,0,0,0.0000000,0.0000000,0.0000000,0.0000000,9.00,38.4063377,-110.7922440,1378.8000488,0.2,306.4,0.9,0.0,0.0,893,125,0,0,863.11,22.37,20.85,# data time:1990,pm2.5:6.445,pm10:5.704,O2:0.000,NO2:0.000,SO2:NH3:3.725
10:03:18,0,0,0,0,0,0,0,0,0,0,0,516,0,0,0,0,0.0000000,0.0000000,0.0000000,0.0000000,9.00,38.4063377,-110.7922440,1378.8000488,0.2,284.4,0.9,0.0,0.0,893,130,0,0,863.11,22.45,20.85,# data time:1990,pm2.5:6.445,pm10:5.704,O2:0.000,NO2:0.000,SO2:NH3:3.725
10:03:19,0,0,0,0,0,0,0,0,0,0,0,516,0,0,0,0,0.0000000,0.0000000,0.0000000,0.0000000,9.00,38.4063377,-110.7922592,1378.8000488,0.2,263.3,0.9,0.0,0.0,893,127,0,0,863.17,22.45,20.86,# data time:1990,pm2.5:6.445,pm10:5.704,O2:0.000,NO2:0.000,SO2:NH3:3.725
10:03:20,0,0,0,0,0,0,0,0,0,0,0,515,0,0,0,0,0.0000000,0.0000000,0.0000000,0.0000000,9.00,38.4063377,-110.7922592,1378.8000488,0.2,258.2,0.9,0.0,0.0,892,126,0,0,863.12,22.42,20.77,# data time:1990,pm2.5:6.445,pm10:5.704,O2:0.000,NO2:0.000,SO2:NH3:3.725
