Time, Motor A Speed, Motor A Dir, Motor B Speed, Motor B Dir, Servo Rail Current Sensor, Servo Pos - Arm L, Servo Pos - Arm R, Servo Pos - End, Servo Pos - Hopper, Servo Pos - Lid, Servo Pos - Extra, Servo Current, LED - Front L, LED - Front R, LED - Back L, LED - Back R, IMU Pitch, IMU Roll, IMU Yaw, Compass Heading, GPS Sats, GPS Latitude, GPS Longitude, GPS Altitude, GPS Speed, GPS Angle, GPS HDOP, GPS VDOP, GPS PDOP, Battery, Wind, Comm Xbee Latency, Comm Arduino Latency, Pressure, Humidity, Temperature, uRADMonitor
10:19:06,0,0,0,0,0,0,0,0,0,0,0,0,0,0,0,0,0.0000000,0.0000000,0.0000000,0.0000000,0.00,0.0000000,0.0000000,0.0000000,0.0,0.0,0.0,0.0,0.0,0,0,0,0,0.00,0.00,0.00,0
10:19:07,0,0,0,0,0,0,0,0,0,0,0,515,0,0,0,0,0.0000000,0.0000000,0.0000000,0.0000000,0.00,38.4061127,-110.7919846,0.0000000,0.2,314.1,0.0,0.0,0.0,906,128,0,0,863.00,20.62,22.01,0
10:19:08,0,0,0,0,0,0,0,0,0,0,0,515,0,0,0,0,0.0000000,0.0000000,0.0000000,0.0000000,0.00,38.4061127,-110.7919846,0.0000000,0.2,307.4,0.0,0.0,0.0,907,127,0,0,862.99,20.55,22.01,# data time:290,pm2.5:6.445,pm10:5.704,O2:0.000,NO2:0.000,SO2:0.000,NH3:3.725
10:19:09,0,0,0,0,0,0,0,0,0,0,0,514,0,0,0,0,0.0000000,0.0000000,0.0000000,0.0000000,5.00,38.4061127,-110.7919846,1357.4000244,0.2,309.2,1.5,0.0,0.0,907,125,0,0,863.00,20.58,22.07,# data time:290,pm2.5:6.445,pm10:5.704,O2:0.000,NO2:0.000,SO2:0.000,NH3:3.725
10:19:10,0,0,0,0,0,0,0,0,0,0,0,515,0,0,0,0,0.0000000,0.0000000,0.0000000,0.0000000,5.00,38.4061127,-110.7919846,1357.4000244,0.2,263.1,1.5,0.0,0.0,907,127,0,0,863.08,20.54,22.12,# data time:290,pm2.5:6.445,pm10:5.704,O2:0.000,NO2:0.000,SO2:0.000,NH3:3.725
10:19:11,0,0,0,0,0,0,0,0,0,0,0,515,0,0,0,0,0.0000000,0.0000000,0.0000000,0.0000000,5.00,38.4061127,-110.7919846,1357.4000244,0.2,232.7,1.5,0.0,0.0,908,125,0,0,863.03,20.57,22.12,# data time:290,pm2.5:6.445,pm10:5.704,O2:0.000,NO2:0.000,SO2:0.000,NH3:3.725
10:19:12,0,0,0,0,0,0,0,0,0,0,0,515,0,0,0,0,0.0000000,0.0000000,0.0000000,0.0000000,5.00,38.4061127,-110.7919846,1357.4000244,0.2,221.6,1.5,0.0,0.0,906,126,0,0,863.03,20.55,22.12,# data time:290,pm2.5:6.445,pm10:5.704,O2:0.000,NO2:0.000,SO2:0.000,NH3:3.725
10:19:13,0,0,0,0,0,0,0,0,0,0,0,514,0,0,0,0,0.0000000,0.0000000,0.0000000,0.0000000,5.00,38.4061127,-110.7919846,1357.5000000,0.1,205.4,1.5,0.0,0.0,907,125,0,0,863.02,20.55,22.12,# data time:290,pm2.5:6.445,pm10:5.704,O2:0.000,NO2:0.000,SO2:0.000,NH3:3.725
10:19:14,0,0,0,0,0,0,0,0,0,0,0,515,0,0,0,0,0.0000000,0.0000000,0.0000000,0.0000000,5.00,38.4061127,-110.7919846,1357.5000000,0.1,244.2,1.5,0.0,0.0,907,127,0,0,863.06,20.52,22.12,# data time:290,pm2.5:6.445,pm10:5.704,O2:0.000,NO2:0.000,SO2:0.000,NH3:3.725
10:19:15,0,0,0,0,0,0,0,0,0,0,0,515,0,0,0,0,0.0000000,0.0000000,0.0000000,0.0000000,5.00,38.4061127,-110.7919846,1357.5000000,0.3,319.4,1.5,0.0,0.0,906,128,0,0,863.00,20.55,22.12,# data time:290,pm2.5:6.445,pm10:5.704,O2:0.000,NO2:0.000,SO2:0.000,NH3:3.725
10:19:16,0,0,0,0,0,0,0,0,0,0,0,515,0,0,0,0,0.0000000,0.0000000,0.0000000,0.0000000,5.00,38.4061127,-110.7919998,1357.5000000,0.2,326.9,1.5,0.0,0.0,906,128,0,0,863.03,20.55,22.13,# data time:290,pm2.5:6.445,pm10:5.704,O2:0.000,NO2:0.000,SO2:0.000,NH3:3.725
10:19:17,0,0,0,0,0,0,0,0,0,0,0,514,0,0,0,0,0.0000000,0.0000000,0.0000000,0.0000000,5.00,38.4061127,-110.7919998,1357.5000000,0.2,333.0,1.5,0.0,0.0,907,127,0,0,863.05,20.57,22.12,# data time:290,pm2.5:6.445,pm10:5.704,O2:0.000,NO2:0.000,SO2:0.000,NH3:3.725
10:19:18,0,0,0,0,0,0,0,0,0,0,0,514,0,0,0,0,0.0000000,0.0000000,0.0000000,0.0000000,5.00,38.4061165,-110.7919998,1357.5000000,0.3,32.6,1.5,0.0,0.0,906,126,0,0,863.02,20.57,22.12,# data time:300,pm2.5:6.445,pm10:5.704,O2:0.000,NO2:0.000,SO2:0.000,NH3:3.725
10:19:19,0,0,0,0,0,0,0,0,0,0,0,512,0,0,0,0,0.0000000,0.0000000,0.0000000,0.0000000,5.00,38.4061165,-110.7919998,1357.5000000,0.2,49.8,1.5,0.0,0.0,907,124,0,0,863.06,20.60,22.12,# data time:300,pm2.5:6.445,pm10:5.704,O2:0.000,NO2:0.000,SO2:0.000,NH3:3.725
10:19:20,0,0,0,0,0,0,0,0,0,0,0,515,0,0,0,0,0.0000000,0.0000000,0.0000000,0.0000000,5.00,38.4061203,-110.7919998,1357.5000000,0.1,18.3,1.5,0.0,0.0,907,129,0,0,863.00,20.65,22.12,# data time:300,pm2.5:6.445,pm10:5.704,O2:0.000,NO2:0.000,SO2:0.000,NH3:3.725
10:19:21,0,0,0,0,0,0,0,0,0,0,0,515,0,0,0,0,0.0000000,0.0000000,0.0000000,0.0000000,5.00,38.4061203,-110.7919998,1357.5999756,0.1,347.7,1.5,0.0,0.0,907,126,0,0,863.04,20.65,22.12,# data time:300,pm2.5:6.445,pm10:5.704,O2:0.000,NO2:0.000,SO2:0.000,NH3:3.725
10:19:22,0,0,0,0,0,0,0,0,0,0,0,514,0,0,0,0,0.0000000,0.0000000,0.0000000,0.0000000,5.00,38.4061203,-110.7919998,1357.5999756,0.1,294.1,1.9,0.0,0.0,906,127,0,0,863.05,20.66,22.12,# data time:300,pm2.5:6.445,pm10:5.704,O2:0.000,NO2:0.000,SO2:0.000,NH3:3.725
10:19:23,0,0,0,0,0,0,0,0,0,0,0,514,0,0,0,0,0.0000000,0.0000000,0.0000000,0.0000000,5.00,38.4061203,-110.7919998,1357.5999756,0.4,293.2,1.5,0.0,0.0,907,127,0,0,862.99,20.66,22.12,# data time:300,pm2.5:6.445,pm10:5.704,O2:0.000,NO2:0.000,SO2:0.000,NH3:3.725
10:19:24,0,0,0,0,0,0,0,0,0,0,0,515,0,0,0,0,0.0000000,0.0000000,0.0000000,0.0000000,5.00,38.4061203,-110.7919998,1357.5999756,0.4,295.0,1.5,0.0,0.0,907,127,0,0,863.01,20.63,22.12,# data time:300,pm2.5:6.445,pm10:5.704,O2:0.000,NO2:0.000,SO2:0.000,NH3:3.725
10:19:25,0,0,0,0,0,0,0,0,0,0,0,514,0,0,0,0,0.0000000,0.0000000,0.0000000,0.0000000,5.00,38.4061203,-110.7919998,1357.5999756,0.4,306.4,1.5,0.0,0.0,906,125,0,0,863.00,20.65,22.11,# data time:300,pm2.5:6.445,pm10:5.704,O2:0.000,NO2:0.000,SO2:0.000,NH3:3.725
10:19:26,0,0,0,0,0,0,0,0,0,0,0,514,0,0,0,0,0.0000000,0.0000000,0.0000000,0.0000000,5.00,38.4061241,-110.7919998,1357.5999756,0.3,292.5,1.5,0.0,0.0,906,125,0,0,863.01,20.63,22.12,# data time:300,pm2.5:6.445,pm10:5.704,O2:0.000,NO2:0.000,SO2:0.000,NH3:3.725
10:19:27,0,0,0,0,0,0,0,0,0,0,0,514,0,0,0,0,0.0000000,0.0000000,0.0000000,0.0000000,5.00,38.4061241,-110.7919998,1357.5999756,0.4,290.7,1.5,0.0,0.0,907,131,0,0,863.03,20.66,22.12,# data time:300,pm2.5:6.445,pm10:5.704,O2:0.000,NO2:0.000,SO2:0.000,NH3:3.725
10:19:28,0,0,0,0,0,0,0,0,0,0,0,514,0,0,0,0,0.0000000,0.0000000,0.0000000,0.0000000,5.00,38.4061241,-110.7920151,1357.5999756,0.3,305.3,1.5,0.0,0.0,907,126,0,0,863.04,20.69,22.12,# data time:310,pm2.5:6.445,pm10:5.704,O2:0.000,NO2:0.000,SO2:0.000,NH3:3.725
10:19:29,0,0,0,0,0,0,0,0,0,0,0,515,0,0,0,0,0.0000000,0.0000000,0.0000000,0.0000000,5.00,38.4061241,-110.7920151,1357.5999756,0.2,331.0,1.5,0.0,0.0,906,128,0,0,863.01,20.68,22.12,# data time:310,pm2.5:6.445,pm10:5.704,O2:0.000,NO2:0.000,SO2:0.000,NH3:3.725
10:19:30,0,0,0,0,0,0,0,0,0,0,0,515,0,0,0,0,0.0000000,0.0000000,0.0000000,0.0000000,5.00,38.4061279,-110.7920151,1357.5999756,0.2,352.8,1.5,0.0,0.0,906,126,0,0,863.03,20.72,22.12,# data time:310,pm2.5:6.445,pm10:5.704,O2:0.000,NO2:0.000,SO2:0.000,NH3:3.725
10:19:31,0,0,0,0,0,0,0,0,0,0,0,514,0,0,0,0,0.0000000,0.0000000,0.0000000,0.0000000,5.00,38.4061279,-110.7920151,1357.5999756,0.4,12.3,1.9,0.0,0.0,907,127,0,0,863.02,20.68,22.12,# data time:310,pm2.5:6.445,pm10:5.704,O2:0.000,NO2:0.000,SO2:0.000,NH3:3.725
10:19:32,0,0,0,0,0,0,0,0,0,0,0,514,0,0,0,0,0.0000000,0.0000000,0.0000000,0.0000000,5.00,38.4061279,-110.7920151,1357.5999756,0.4,19.1,1.9,0.0,0.0,906,127,0,0,863.03,20.68,22.12,# data time:310,pm2.5:6.445,pm10:5.704,O2:0.000,NO2:0.000,SO2:0.000,NH3:3.725
10:19:33,0,0,0,0,0,0,0,0,0,0,0,515,0,0,0,0,0.0000000,0.0000000,0.0000000,0.0000000,5.00,38.4061317,-110.7920151,1357.6999512,0.4,24.3,1.5,0.0,0.0,906,129,0,0,863.04,20.68,22.12,# data time:310,pm2.5:6.445,pm10:5.704,O2:0.000,NO2:0.000,SO2:0.000,NH3:3.725
10:19:34,0,0,0,0,0,0,0,0,0,0,0,514,0,0,0,0,0.0000000,0.0000000,0.0000000,0.0000000,5.00,38.4061356,-110.7920151,1357.6999512,0.6,10.4,1.5,0.0,0.0,907,130,0,0,863.02,20.68,22.12,# data time:310,pm2.5:6.445,pm10:5.704,O2:0.000,NO2:0.000,SO2:0.000,NH3:3.725
10:19:35,0,0,0,0,0,0,0,0,0,0,0,514,0,0,0,0,0.0000000,0.0000000,0.0000000,0.0000000,5.00,38.4061470,-110.7920380,1358.9000244,0.6,357.1,1.9,0.0,0.0,906,127,0,0,863.02,20.66,22.12,# data time:310,pm2.5:6.445,pm10:5.704,O2:0.000,NO2:0.000,SO2:0.000,NH3:3.725
10:19:36,0,0,0,0,0,0,0,0,0,0,0,515,0,0,0,0,0.0000000,0.0000000,0.0000000,0.0000000,5.00,38.4061584,-110.7920532,1359.0000000,0.7,354.8,1.9,0.0,0.0,907,126,0,0,862.99,20.66,22.12,# data time:310,pm2.5:6.445,pm10:5.704,O2:0.000,NO2:0.000,SO2:0.000,NH3:3.725
10:19:37,0,0,0,0,0,0,0,0,0,0,0,514,0,0,0,0,0.0000000,0.0000000,0.0000000,0.0000000,5.00,38.4062157,-110.7920914,1360.5000000,0.7,350.4,1.9,0.0,0.0,907,129,0,0,863.02,20.68,22.13,# data time:310,pm2.5:6.445,pm10:5.704,O2:0.000,NO2:0.000,SO2:0.000,NH3:3.725
10:19:38,0,0,0,0,0,0,0,0,0,0,0,514,0,0,0,0,0.0000000,0.0000000,0.0000000,0.0000000,5.00,38.4062538,-110.7921295,1361.8000488,0.6,339.9,1.9,0.0,0.0,907,128,0,0,863.01,20.66,22.13,# data time:320,pm2.5:6.445,pm10:5.704,O2:0.000,NO2:0.000,SO2:0.000,NH3:3.725
10:19:39,0,0,0,0,0,0,0,0,0,0,0,514,0,0,0,0,0.0000000,0.0000000,0.0000000,0.0000000,5.00,38.4062920,-110.7921524,1362.8000488,0.6,337.8,1.5,0.0,0.0,906,125,0,0,862.95,20.65,22.12,# data time:320,pm2.5:6.445,pm10:5.704,O2:0.000,NO2:0.000,SO2:0.000,NH3:3.725
10:19:40,0,0,0,0,0,0,0,0,0,0,0,514,0,0,0,0,0.0000000,0.0000000,0.0000000,0.0000000,5.00,38.4063187,-110.7921829,1363.6999512,0.7,333.9,1.5,0.0,0.0,906,127,0,0,863.00,20.69,22.13,# data time:320,pm2.5:6.445,pm10:5.704,O2:0.000,NO2:0.000,SO2:0.000,NH3:3.725
10:19:41,0,0,0,0,0,0,0,0,0,0,0,514,0,0,0,0,0.0000000,0.0000000,0.0000000,0.0000000,5.00,38.4063492,-110.7922058,1364.4000244,0.8,335.7,1.5,0.0,0.0,906,129,0,0,862.99,20.63,22.12,# data time:320,pm2.5:6.445,pm10:5.704,O2:0.000,NO2:0.000,SO2:0.000,NH3:3.725
10:19:42,0,0,0,0,0,0,0,0,0,0,0,515,0,0,0,0,0.0000000,0.0000000,0.0000000,0.0000000,5.00,38.4063683,-110.7922211,1365.0000000,0.6,338.6,1.5,0.0,0.0,905,127,0,0,862.99,20.66,22.12,# data time:320,pm2.5:6.445,pm10:5.704,O2:0.000,NO2:0.000,SO2:0.000,NH3:3.725
10:19:44,0,0,0,0,0,0,0,0,0,0,0,515,0,0,0,0,0.0000000,0.0000000,0.0000000,0.0000000,5.00,38.4063873,-110.7922287,1365.5000000,0.6,345.0,1.5,0.0,0.0,906,128,0,0,862.99,20.63,22.12,# data time:320,pm2.5:6.445,pm10:5.704,O2:0.000,NO2:0.000,SO2:0.000,NH3:3.725
10:19:45,0,0,0,0,0,0,0,0,0,0,0,514,0,0,0,0,0.0000000,0.0000000,0.0000000,0.0000000,5.00,38.4063988,-110.7922287,1365.6999512,0.6,343.7,1.5,0.0,0.0,906,129,0,0,863.01,20.68,22.12,# data time:320,pm2.5:6.445,pm10:5.704,O2:0.000,NO2:0.000,SO2:0.000,NH3:3.725
10:19:46,0,0,0,0,0,0,0,0,0,0,0,514,0,0,0,0,0.0000000,0.0000000,0.0000000,0.0000000,5.00,38.4064140,-110.7922440,1366.1999512,0.6,343.9,1.5,0.0,0.0,906,126,0,0,862.99,20.74,22.13,# data time:320,pm2.5:6.445,pm10:5.704,O2:0.000,NO2:0.000,SO2:0.000,NH3:3.725
10:19:47,0,0,0,0,0,0,0,0,0,0,0,515,0,0,0,0,0.0000000,0.0000000,0.0000000,0.0000000,5.00,38.4064217,-110.7922440,1366.5999756,0.5,340.6,1.5,0.0,0.0,907,127,0,0,863.01,20.72,22.13,# data time:320,pm2.5:6.445,pm10:5.704,O2:0.000,NO2:0.000,SO2:0.000,NH3:3.725
10:19:48,0,0,0,0,0,0,0,0,0,0,0,515,0,0,0,0,0.0000000,0.0000000,0.0000000,0.0000000,5.00,38.4064255,-110.7922592,1367.0000000,0.3,337.2,1.5,0.0,0.0,906,123,0,0,862.96,20.75,22.13,# data time:330,pm2.5:6.445,pm10:5.704,O2:0.000,NO2:0.000,SO2:0.000,NH3:3.952
10:19:49,0,0,0,0,0,0,0,0,0,0,0,514,0,0,0,0,0.0000000,0.0000000,0.0000000,0.0000000,6.00,38.4064178,-110.7922592,1368.9000244,0.2,357.6,1.2,0.0,0.0,907,127,0,0,863.01,20.77,22.14,# data time:330,pm2.5:6.445,pm10:5.704,O2:0.000,NO2:0.000,SO2:0.000,NH3:3.952
10:19:50,0,0,0,0,0,0,0,0,0,0,0,515,0,0,0,0,0.0000000,0.0000000,0.0000000,0.0000000,6.00,38.4064178,-110.7922592,1368.9000244,0.1,38.0,1.4,0.0,0.0,907,128,0,0,863.00,20.74,22.14,# data time:330,pm2.5:6.445,pm10:5.704,O2:0.000,NO2:0.000,SO2:0.000,NH3:3.952
10:19:51,0,0,0,0,0,0,0,0,0,0,0,514,0,0,0,0,0.0000000,0.0000000,0.0000000,0.0000000,6.00,38.4064178,-110.7922592,1368.9000244,0.2,116.4,1.2,0.0,0.0,907,126,0,0,862.97,20.72,22.14,# data time:330,pm2.5:6.445,pm10:5.704,O2:0.000,NO2:0.000,SO2:0.000,NH3:3.952
10:19:52,0,0,0,0,0,0,0,0,0,0,0,514,0,0,0,0,0.0000000,0.0000000,0.0000000,0.0000000,6.00,38.4064178,-110.7922592,1368.9000244,0.2,126.7,1.2,0.0,0.0,906,128,0,0,863.01,20.69,22.14,# data time:330,pm2.5:6.445,pm10:5.704,O2:0.000,NO2:0.000,SO2:0.000,NH3:3.952
10:19:53,0,0,0,0,0,0,0,0,0,0,0,514,0,0,0,0,0.0000000,0.0000000,0.0000000,0.0000000,6.00,38.4064178,-110.7922592,1368.9000244,0.3,112.9,1.2,0.0,0.0,907,125,0,0,862.99,20.66,22.14,# data time:330,pm2.5:6.445,pm10:5.704,O2:0.000,NO2:0.000,SO2:0.000,NH3:3.952
10:19:54,0,0,0,0,0,0,0,0,0,0,0,515,0,0,0,0,0.0000000,0.0000000,0.0000000,0.0000000,6.00,38.4064178,-110.7922440,1369.0000000,0.4,80.1,1.2,0.0,0.0,906,125,0,0,863.03,20.63,22.14,# data time:330,pm2.5:6.445,pm10:5.704,O2:0.000,NO2:0.000,SO2:0.000,NH3:3.952
10:19:55,0,0,0,0,0,0,0,0,0,0,0,515,0,0,0,0,0.0000000,0.0000000,0.0000000,0.0000000,6.00,38.4064178,-110.7922440,1369.0000000,0.3,70.3,1.2,0.0,0.0,906,127,0,0,863.02,20.60,22.14,# data time:330,pm2.5:6.445,pm10:5.704,O2:0.000,NO2:0.000,SO2:0.000,NH3:3.952
10:19:56,0,0,0,0,0,0,0,0,0,0,0,515,0,0,0,0,0.0000000,0.0000000,0.0000000,0.0000000,6.00,38.4064178,-110.7922440,1369.0000000,0.2,52.2,1.2,0.0,0.0,906,127,0,0,862.97,20.62,22.14,# data time:330,pm2.5:6.445,pm10:5.704,O2:0.000,NO2:0.000,SO2:0.000,NH3:3.952
10:19:57,0,0,0,0,0,0,0,0,0,0,0,514,0,0,0,0,0.0000000,0.0000000,0.0000000,0.0000000,6.00,38.4064178,-110.7922440,1369.0000000,0.2,44.5,1.2,0.0,0.0,907,123,0,0,863.02,20.60,22.14,# data time:330,pm2.5:6.445,pm10:5.704,O2:0.000,NO2:0.000,SO2:0.000,NH3:3.952
10:19:58,0,0,0,0,0,0,0,0,0,0,0,513,0,0,0,0,0.0000000,0.0000000,0.0000000,0.0000000,6.00,38.4064178,-110.7922440,1369.0000000,0.2,44.5,1.2,0.0,0.0,906,133,0,0,862.92,20.60,22.05,# data time:340,pm2.5:6.445,pm10:5.704,O2:0.000,NO2:0.000,SO2:0.000,NH3:3.952
10:19:59,0,0,0,0,0,0,0,0,0,0,0,514,0,0,0,0,0.0000000,0.0000000,0.0000000,0.0000000,6.00,38.4064178,-110.7922440,1369.0000000,0.3,49.0,1.2,0.0,0.0,906,127,0,0,862.92,20.58,22.10,# data time:340,pm2.5:6.445,pm10:5.704,O2:0.000,NO2:0.000,SO2:0.000,NH3:3.952
10:20:00,0,0,0,0,0,0,0,0,0,0,0,514,0,0,0,0,0.0000000,0.0000000,0.0000000,0.0000000,6.00,38.4064178,-110.7922440,1369.0000000,0.2,57.0,1.2,0.0,0.0,907,126,0,0,862.98,20.57,22.15,# data time:340,pm2.5:6.445,pm10:5.704,O2:0.000,NO2:0.000,SO2:0.000,NH3:3.952
10:20:01,0,0,0,0,0,0,0,0,0,0,0,514,0,0,0,0,0.0000000,0.0000000,0.0000000,0.0000000,6.00,38.4064178,-110.7922440,1369.0000000,0.1,30.9,1.2,0.0,0.0,907,129,0,0,863.00,20.51,22.15,# data time:340,pm2.5:6.445,pm10:5.704,O2:0.000,NO2:0.000,SO2:0.000,NH3:3.952
10:20:02,0,0,0,0,0,0,0,0,0,0,0,514,0,0,0,0,0.0000000,0.0000000,0.0000000,0.0000000,6.00,38.4064178,-110.7922440,1369.0000000,0.1,25.9,1.2,0.0,0.0,907,125,0,0,863.00,20.42,22.15,# data time:340,pm2.5:6.445,pm10:5.704,O2:0.000,NO2:0.000,SO2:0.000,NH3:3.952
10:20:03,0,0,0,0,0,0,0,0,0,0,0,514,0,0,0,0,0.0000000,0.0000000,0.0000000,0.0000000,6.00,38.4064178,-110.7922440,1369.0000000,0.1,10.0,1.2,0.0,0.0,907,120,0,0,863.05,20.33,22.16,# data time:340,pm2.5:6.445,pm10:5.704,O2:0.000,NO2:0.000,SO2:0.000,NH3:3.952
10:20:04,0,0,0,0,0,0,0,0,0,0,0,514,0,0,0,0,0.0000000,0.0000000,0.0000000,0.0000000,6.00,38.4064178,-110.7922440,1369.0000000,0.1,50.1,1.4,0.0,0.0,907,126,0,0,863.03,20.26,22.16,# data time:340,pm2.5:6.445,pm10:5.704,O2:0.000,NO2:0.000,SO2:0.000,NH3:3.952
10:20:05,0,0,0,0,0,0,0,0,0,0,0,515,0,0,0,0,0.0000000,0.0000000,0.0000000,0.0000000,6.00,38.4064217,-110.7922440,1369.0999756,0.2,31.6,1.2,0.0,0.0,906,131,0,0,862.98,20.16,22.16,# data time:340,pm2.5:6.445,pm10:5.704,O2:0.000,NO2:0.000,SO2:0.000,NH3:3.952
10:20:06,0,0,0,0,0,0,0,0,0,0,0,515,0,0,0,0,0.0000000,0.0000000,0.0000000,0.0000000,6.00,38.4064217,-110.7922440,1369.0999756,0.2,18.4,1.2,0.0,0.0,907,125,0,0,862.99,20.10,22.16,# data time:340,pm2.5:6.445,pm10:5.704,O2:0.000,NO2:0.000,SO2:0.000,NH3:3.952
10:20:07,0,0,0,0,0,0,0,0,0,0,0,514,0,0,0,0,0.0000000,0.0000000,0.0000000,0.0000000,6.00,38.4064217,-110.7922440,1369.0999756,0.1,252.3,1.2,0.0,0.0,906,126,0,0,863.01,20.04,22.15,# data time:340,pm2.5:6.445,pm10:5.704,O2:0.000,NO2:0.000,SO2:0.000,NH3:3.952
10:20:08,0,0,0,0,0,0,0,0,0,0,0,515,0,0,0,0,0.0000000,0.0000000,0.0000000,0.0000000,6.00,38.4064217,-110.7922440,1369.0999756,0.2,246.7,1.2,0.0,0.0,906,127,0,0,862.99,19.99,22.16,# data time:350,pm2.5:6.445,pm10:5.704,O2:0.000,NO2:0.000,SO2:0.000,NH3:3.725
10:20:09,0,0,0,0,0,0,0,0,0,0,0,514,0,0,0,0,0.0000000,0.0000000,0.0000000,0.0000000,6.00,38.4064217,-110.7922440,1369.0999756,0.2,250.1,1.2,0.0,0.0,906,129,0,0,862.98,19.94,22.16,# data time:350,pm2.5:6.445,pm10:5.704,O2:0.000,NO2:0.000,SO2:0.000,NH3:3.725
10:20:10,0,0,0,0,0,0,0,0,0,0,0,515,0,0,0,0,0.0000000,0.0000000,0.0000000,0.0000000,6.00,38.4064217,-110.7922440,1369.0999756,0.4,248.1,1.2,0.0,0.0,906,125,0,0,863.03,19.93,22.16,# data time:350,pm2.5:6.445,pm10:5.704,O2:0.000,NO2:0.000,SO2:0.000,NH3:3.725
10:20:11,0,0,0,0,0,0,0,0,0,0,0,515,0,0,0,0,0.0000000,0.0000000,0.0000000,0.0000000,6.00,38.4064178,-110.7922440,1369.0999756,0.5,241.2,1.2,0.0,0.0,906,125,0,0,863.01,19.91,22.15,# data time:350,pm2.5:6.445,pm10:5.704,O2:0.000,NO2:0.000,SO2:0.000,NH3:3.725
10:20:12,0,0,0,0,0,0,0,0,0,0,0,514,0,0,0,0,0.0000000,0.0000000,0.0000000,0.0000000,6.00,38.4064178,-110.7922440,1369.0999756,0.4,258.4,1.2,0.0,0.0,906,127,0,0,863.04,19.87,22.16,# data time:350,pm2.5:6.445,pm10:5.704,O2:0.000,NO2:0.000,SO2:0.000,NH3:3.725
10:20:13,0,0,0,0,0,0,0,0,0,0,0,515,0,0,0,0,0.0000000,0.0000000,0.0000000,0.0000000,6.00,38.4064178,-110.7922592,1369.0999756,0.5,235.0,1.2,0.0,0.0,906,126,0,0,862.94,19.90,22.16,# data time:350,pm2.5:6.445,pm10:5.704,O2:0.000,NO2:0.000,SO2:0.000,NH3:3.725
10:20:14,0,0,0,0,0,0,0,0,0,0,0,514,0,0,0,0,0.0000000,0.0000000,0.0000000,0.0000000,6.00,38.4064178,-110.7922592,1369.0999756,0.4,233.3,1.2,0.0,0.0,907,129,0,0,863.00,19.87,22.16,# data time:350,pm2.5:6.445,pm10:5.704,O2:0.000,NO2:0.000,SO2:0.000,NH3:3.725
10:20:15,0,0,0,0,0,0,0,0,0,0,0,515,0,0,0,0,0.0000000,0.0000000,0.0000000,0.0000000,6.00,38.4064178,-110.7922592,1369.0999756,0.4,225.2,1.2,0.0,0.0,906,127,0,0,862.99,19.85,22.16,# data time:350,pm2.5:6.445,pm10:5.704,O2:0.000,NO2:0.000,SO2:0.000,NH3:3.725
10:20:16,0,0,0,0,0,0,0,0,0,0,0,515,0,0,0,0,0.0000000,0.0000000,0.0000000,0.0000000,6.00,38.4064178,-110.7922592,1369.0999756,0.3,234.9,1.2,0.0,0.0,906,125,0,0,863.01,19.82,22.17,# data time:350,pm2.5:6.445,pm10:5.704,O2:0.000,NO2:0.000,SO2:0.000,NH3:3.725
10:20:17,0,0,0,0,0,0,0,0,0,0,0,514,0,0,0,0,0.0000000,0.0000000,0.0000000,0.0000000,6.00,38.4064140,-110.7922592,1369.0999756,0.3,196.5,1.2,0.0,0.0,906,128,0,0,863.02,19.84,22.16,# data time:350,pm2.5:6.445,pm10:5.704,O2:0.000,NO2:0.000,SO2:0.000,NH3:3.725
10:20:18,0,0,0,0,0,0,0,0,0,0,0,515,0,0,0,0,0.0000000,0.0000000,0.0000000,0.0000000,6.00,38.4064140,-110.7922592,1369.0999756,0.3,199.8,1.2,0.0,0.0,906,125,0,0,863.04,19.84,22.17,# data time:360,pm2.5:6.445,pm10:5.704,O2:0.000,NO2:0.000,SO2:0.000,NH3:3.725
10:20:19,0,0,0,0,0,0,0,0,0,0,0,515,0,0,0,0,0.0000000,0.0000000,0.0000000,0.0000000,6.00,38.4064140,-110.7922592,1369.0999756,0.2,199.9,1.2,0.0,0.0,906,126,0,0,862.96,19.78,22.17,# data time:360,pm2.5:6.445,pm10:5.704,O2:0.000,NO2:0.000,SO2:0.000,NH3:3.725
10:20:20,0,0,0,0,0,0,0,0,0,0,0,514,0,0,0,0,0.0000000,0.0000000,0.0000000,0.0000000,6.00,38.4064102,-110.7922592,1369.0999756,0.3,196.3,1.2,0.0,0.0,906,127,0,0,862.95,19.75,22.17,# data time:360,pm2.5:6.445,pm10:5.704,O2:0.000,NO2:0.000,SO2:0.000,NH3:3.725
10:20:21,0,0,0,0,0,0,0,0,0,0,0,514,0,0,0,0,0.0000000,0.0000000,0.0000000,0.0000000,6.00,38.4064102,-110.7922592,1369.0999756,0.2,191.6,1.2,0.0,0.0,906,129,0,0,862.99,19.68,22.17,# data time:360,pm2.5:6.445,pm10:5.704,O2:0.000,NO2:0.000,SO2:0.000,NH3:3.725
10:20:22,0,0,0,0,0,0,0,0,0,0,0,515,0,0,0,0,0.0000000,0.0000000,0.0000000,0.0000000,6.00,38.4064064,-110.7922592,1369.0999756,0.3,182.2,1.2,0.0,0.0,906,129,0,0,863.00,19.62,22.17,# data time:360,pm2.5:6.445,pm10:5.704,O2:0.000,NO2:0.000,SO2:0.000,NH3:3.725
10:20:23,0,0,0,0,0,0,0,0,0,0,0,514,0,0,0,0,0.0000000,0.0000000,0.0000000,0.0000000,6.00,38.4064064,-110.7922592,1369.0999756,0.3,181.4,1.2,0.0,0.0,906,127,0,0,863.04,19.62,22.17,# data time:360,pm2.5:6.445,pm10:5.704,O2:0.000,NO2:0.000,SO2:0.000,NH3:3.725
10:20:24,0,0,0,0,0,0,0,0,0,0,0,515,0,0,0,0,0.0000000,0.0000000,0.0000000,0.0000000,6.00,38.4064026,-110.7922592,1369.0999756,0.3,191.2,1.2,0.0,0.0,906,130,0,0,862.97,19.62,22.17,# data time:360,pm2.5:6.445,pm10:5.704,O2:0.000,NO2:0.000,SO2:0.000,NH3:3.725
10:20:25,0,0,0,0,0,0,0,0,0,0,0,514,0,0,0,0,0.0000000,0.0000000,0.0000000,0.0000000,6.00,38.4064026,-110.7922592,1369.0999756,0.3,207.3,1.2,0.0,0.0,906,127,0,0,862.98,19.59,22.17,# data time:360,pm2.5:6.445,pm10:5.704,O2:0.000,NO2:0.000,SO2:0.000,NH3:3.725
10:20:26,0,0,0,0,0,0,0,0,0,0,0,515,0,0,0,0,0.0000000,0.0000000,0.0000000,0.0000000,6.00,38.4064026,-110.7922592,1369.0999756,0.3,217.3,1.2,0.0,0.0,906,128,0,0,862.97,19.61,22.16,# data time:360,pm2.5:6.445,pm10:5.704,O2:0.000,NO2:0.000,SO2:0.000,NH3:3.725
10:20:27,0,0,0,0,0,0,0,0,0,0,0,515,0,0,0,0,0.0000000,0.0000000,0.0000000,0.0000000,6.00,38.4063988,-110.7922668,1369.0999756,0.3,218.6,1.2,0.0,0.0,906,128,0,0,863.02,19.61,22.17,# data time:360,pm2.5:6.445,pm10:5.704,O2:0.000,NO2:0.000,SO2:0.000,NH3:3.725
10:20:28,0,0,0,0,0,0,0,0,0,0,0,515,0,0,0,0,0.0000000,0.0000000,0.0000000,0.0000000,6.00,38.4063950,-110.7922668,1369.0999756,0.4,227.8,1.2,0.0,0.0,906,129,0,0,862.98,19.68,22.17,# data time:370,pm2.5:6.445,pm10:5.704,O2:0.000,NO2:0.000,SO2:0.000,NH3:3.725
10:20:29,0,0,0,0,0,0,0,0,0,0,0,514,0,0,0,0,0.0000000,0.0000000,0.0000000,0.0000000,6.00,38.4063950,-110.7922668,1369.0999756,0.5,242.1,1.2,0.0,0.0,906,125,0,0,862.97,19.70,22.17,# data time:370,pm2.5:6.445,pm10:5.704,O2:0.000,NO2:0.000,SO2:0.000,NH3:3.725
10:20:30,0,0,0,0,0,0,0,0,0,0,0,514,0,0,0,0,0.0000000,0.0000000,0.0000000,0.0000000,6.00,38.4063950,-110.7922668,1369.0999756,0.5,233.9,1.2,0.0,0.0,906,128,0,0,863.01,19.65,22.17,# data time:370,pm2.5:6.445,pm10:5.704,O2:0.000,NO2:0.000,SO2:0.000,NH3:3.725
10:20:31,0,0,0,0,0,0,0,0,0,0,0,515,0,0,0,0,0.0000000,0.0000000,0.0000000,0.0000000,6.00,38.4063950,-110.7922668,1369.0999756,0.4,238.6,1.2,0.0,0.0,906,126,0,0,863.01,19.68,22.18,# data time:370,pm2.5:6.445,pm10:5.704,O2:0.000,NO2:0.000,SO2:0.000,NH3:3.725
10:20:32,0,0,0,0,0,0,0,0,0,0,0,515,0,0,0,0,0.0000000,0.0000000,0.0000000,0.0000000,6.00,38.4063950,-110.7922668,1369.0999756,0.4,254.9,1.2,0.0,0.0,906,126,0,0,862.99,19.70,22.17,# data time:370,pm2.5:6.445,pm10:5.704,O2:0.000,NO2:0.000,SO2:0.000,NH3:3.725
10:20:33,0,0,0,0,0,0,0,0,0,0,0,515,0,0,0,0,0.0000000,0.0000000,0.0000000,0.0000000,6.00,38.4063950,-110.7922668,1369.0999756,0.4,249.6,1.2,0.0,0.0,906,127,0,0,862.95,19.71,22.18,# data time:370,pm2.5:6.445,pm10:5.704,O2:0.000,NO2:0.000,SO2:0.000,NH3:3.725
10:20:34,0,0,0,0,0,0,0,0,0,0,0,515,0,0,0,0,0.0000000,0.0000000,0.0000000,0.0000000,6.00,38.4063911,-110.7922821,1369.1999512,0.3,237.1,1.2,0.0,0.0,906,131,0,0,862.98,19.73,22.17,# data time:370,pm2.5:6.445,pm10:5.704,O2:0.000,NO2:0.000,SO2:0.000,NH3:3.725
10:20:35,0,0,0,0,0,0,0,0,0,0,0,515,0,0,0,0,0.0000000,0.0000000,0.0000000,0.0000000,6.00,38.4063911,-110.7922821,1369.1999512,0.3,219.3,1.2,0.0,0.0,906,125,0,0,862.98,19.67,22.17,# data time:370,pm2.5:6.445,pm10:5.704,O2:0.000,NO2:0.000,SO2:0.000,NH3:3.725
10:20:36,0,0,0,0,0,0,0,0,0,0,0,515,0,0,0,0,0.0000000,0.0000000,0.0000000,0.0000000,6.00,38.4063911,-110.7922821,1369.1999512,0.3,262.3,1.2,0.0,0.0,906,131,0,0,863.00,19.64,22.17,# data time:370,pm2.5:6.445,pm10:5.704,O2:0.000,NO2:0.000,SO2:0.000,NH3:3.725
10:20:38,0,0,0,0,0,0,0,0,0,0,0,515,0,0,0,0,0.0000000,0.0000000,0.0000000,0.0000000,6.00,38.4063911,-110.7922821,1369.1999512,0.2,243.2,1.2,0.0,0.0,906,127,0,0,863.02,19.59,22.17,# data time:380,pm2.5:6.445,pm10:5.704,O2:0.000,NO2:0.000,SO2:0.000,NH3:3.725
10:20:39,0,0,0,0,0,0,0,0,0,0,0,515,0,0,0,0,0.0000000,0.0000000,0.0000000,0.0000000,6.00,38.4063873,-110.7922821,1369.1999512,0.2,198.2,1.2,0.0,0.0,906,131,0,0,862.98,19.56,22.16,# data time:380,pm2.5:6.445,pm10:5.704,O2:0.000,NO2:0.000,SO2:0.000,NH3:3.725
10:20:40,0,0,0,0,0,0,0,0,0,0,0,515,0,0,0,0,0.0000000,0.0000000,0.0000000,0.0000000,6.00,38.4063873,-110.7922821,1369.1999512,0.2,181.6,1.2,0.0,0.0,906,129,0,0,862.97,19.55,22.16,# data time:380,pm2.5:6.445,pm10:5.704,O2:0.000,NO2:0.000,SO2:0.000,NH3:3.725
10:20:41,0,0,0,0,0,0,0,0,0,0,0,515,0,0,0,0,0.0000000,0.0000000,0.0000000,0.0000000,6.00,38.4063873,-110.7922821,1369.1999512,0.1,140.8,1.2,0.0,0.0,906,124,0,0,862.98,19.55,22.16,# data time:380,pm2.5:6.445,pm10:5.704,O2:0.000,NO2:0.000,SO2:0.000,NH3:3.725
10:20:42,0,0,0,0,0,0,0,0,0,0,0,514,0,0,0,0,0.0000000,0.0000000,0.0000000,0.0000000,6.00,38.4063873,-110.7922821,1369.1999512,0.1,77.3,1.2,0.0,0.0,906,125,0,0,862.95,19.50,22.07,# data time:380,pm2.5:6.445,pm10:5.704,O2:0.000,NO2:0.000,SO2:0.000,NH3:3.725
10:20:43,0,0,0,0,0,0,0,0,0,0,0,514,0,0,0,0,0.0000000,0.0000000,0.0000000,0.0000000,6.00,38.4063873,-110.7922821,1369.1999512,0.2,30.0,1.2,0.0,0.0,907,129,0,0,862.95,19.55,22.05,# data time:380,pm2.5:6.445,pm10:5.704,O2:0.000,NO2:0.000,SO2:0.000,NH3:3.725
10:20:44,0,0,0,0,0,0,0,0,0,0,0,513,0,0,0,0,0.0000000,0.0000000,0.0000000,0.0000000,6.00,38.4063873,-110.7922821,1369.1999512,0.1,14.9,1.2,0.0,0.0,906,129,0,0,862.95,19.53,22.05,# data time:380,pm2.5:6.445,pm10:5.704,O2:0.000,NO2:0.000,SO2:0.000,NH3:3.725
10:20:45,0,0,0,0,0,0,0,0,0,0,0,515,0,0,0,0,0.0000000,0.0000000,0.0000000,0.0000000,6.00,38.4063873,-110.7922821,1369.1999512,0.1,14.9,1.2,0.0,0.0,906,127,0,0,862.94,19.53,22.11,# data time:380,pm2.5:6.445,pm10:5.704,O2:0.000,NO2:0.000,SO2:0.000,NH3:3.725
10:20:46,0,0,0,0,0,0,0,0,0,0,0,514,0,0,0,0,0.0000000,0.0000000,0.0000000,0.0000000,6.00,38.4063835,-110.7922821,1369.1999512,0.1,14.9,1.2,0.0,0.0,906,126,0,0,862.98,19.59,22.11,# data time:380,pm2.5:6.445,pm10:5.704,O2:0.000,NO2:0.000,SO2:0.000,NH3:3.725
10:20:47,0,0,0,0,0,0,0,0,0,0,0,513,0,0,0,0,0.0000000,0.0000000,0.0000000,0.0000000,6.00,38.4063835,-110.7922821,1369.1999512,0.3,223.7,1.2,0.0,0.0,906,127,0,0,862.96,19.59,22.11,# data time:380,pm2.5:6.445,pm10:5.704,O2:0.000,NO2:0.000,SO2:0.000,NH3:3.725
10:20:48,0,0,0,0,0,0,0,0,0,0,0,514,0,0,0,0,0.0000000,0.0000000,0.0000000,0.0000000,7.00,38.4063835,-110.7922821,1369.1999512,0.3,223.7,1.1,0.0,0.0,907,127,0,0,862.99,19.62,22.11,# data time:390,pm2.5:6.445,pm10:5.704,O2:0.000,NO2:0.000,SO2:0.000,NH3:3.273
10:20:49,0,0,0,0,0,0,0,0,0,0,0,514,0,0,0,0,0.0000000,0.0000000,0.0000000,0.0000000,7.00,38.4063797,-110.7922821,1369.1999512,0.4,244.3,1.1,0.0,0.0,906,128,0,0,863.02,19.64,22.17,# data time:390,pm2.5:6.445,pm10:5.704,O2:0.000,NO2:0.000,SO2:0.000,NH3:3.273
10:20:50,0,0,0,0,0,0,0,0,0,0,0,514,0,0,0,0,0.0000000,0.0000000,0.0000000,0.0000000,7.00,38.4063797,-110.7922974,1369.1999512,0.4,250.7,1.1,0.0,0.0,906,130,0,0,863.02,19.62,22.16,# data time:390,pm2.5:6.445,pm10:5.704,O2:0.000,NO2:0.000,SO2:0.000,NH3:3.273
10:20:51,0,0,0,0,0,0,0,0,0,0,0,514,0,0,0,0,0.0000000,0.0000000,0.0000000,0.0000000,7.00,38.4063797,-110.7922974,1369.1999512,0.3,261.0,1.1,0.0,0.0,906,128,0,0,862.98,19.65,22.16,# data time:390,pm2.5:6.445,pm10:5.704,O2:0.000,NO2:0.000,SO2:0.000,NH3:3.273
10:20:52,0,0,0,0,0,0,0,0,0,0,0,515,0,0,0,0,0.0000000,0.0000000,0.0000000,0.0000000,7.00,38.4063797,-110.7922974,1369.1999512,0.3,287.9,1.1,0.0,0.0,906,125,0,0,862.99,19.65,22.16,# data time:390,pm2.5:6.445,pm10:5.704,O2:0.000,NO2:0.000,SO2:0.000,NH3:3.273
10:20:53,0,0,0,0,0,0,0,0,0,0,0,515,0,0,0,0,0.0000000,0.0000000,0.0000000,0.0000000,7.00,38.4063797,-110.7922974,1369.1999512,0.3,272.2,1.1,0.0,0.0,906,128,0,0,863.03,19.59,22.15,# data time:390,pm2.5:6.445,pm10:5.704,O2:0.000,NO2:0.000,SO2:0.000,NH3:3.273
10:20:54,0,0,0,0,0,0,0,0,0,0,0,514,0,0,0,0,0.0000000,0.0000000,0.0000000,0.0000000,7.00,38.4063797,-110.7922974,1369.1999512,0.3,273.1,1.1,0.0,0.0,906,126,0,0,862.97,19.58,22.15,# data time:390,pm2.5:6.445,pm10:5.704,O2:0.000,NO2:0.000,SO2:0.000,NH3:3.273
10:20:55,0,0,0,0,0,0,0,0,0,0,0,514,0,0,0,0,0.0000000,0.0000000,0.0000000,0.0000000,7.00,38.4063797,-110.7922974,1369.1999512,0.4,282.8,1.1,0.0,0.0,906,121,0,0,862.94,19.59,22.15,# data time:390,pm2.5:6.445,pm10:5.704,O2:0.000,NO2:0.000,SO2:0.000,NH3:3.273
10:20:56,0,0,0,0,0,0,0,0,0,0,0,515,0,0,0,0,0.0000000,0.0000000,0.0000000,0.0000000,7.00,38.4063797,-110.7923050,1369.1999512,0.4,287.4,1.1,0.0,0.0,906,128,0,0,863.00,19.64,22.15,# data time:390,pm2.5:6.445,pm10:5.704,O2:0.000,NO2:0.000,SO2:0.000,NH3:3.273
10:20:57,0,0,0,0,0,0,0,0,0,0,0,515,0,0,0,0,0.0000000,0.0000000,0.0000000,0.0000000,7.00,38.4063797,-110.7923050,1369.1999512,0.4,295.4,1.1,0.0,0.0,906,127,0,0,862.99,19.68,22.16,# data time:390,pm2.5:6.445,pm10:5.704,O2:0.000,NO2:0.000,SO2:0.000,NH3:3.273
10:20:58,0,0,0,0,0,0,0,0,0,0,0,514,0,0,0,0,0.0000000,0.0000000,0.0000000,0.0000000,7.00,38.4063797,-110.7923050,1369.1999512,0.4,295.4,1.1,0.0,0.0,906,127,0,0,862.95,19.70,22.06,# data time:400,pm2.5:6.445,pm10:5.704,O2:0.000,NO2:0.000,SO2:0.000,NH3:3.499
10:20:59,0,0,0,0,0,0,0,0,0,0,0,515,0,0,0,0,0.0000000,0.0000000,0.0000000,0.0000000,7.00,38.4063835,-110.7923050,1369.1999512,0.2,299.7,1.1,0.0,0.0,906,133,0,0,862.97,19.81,22.11,# data time:400,pm2.5:6.445,pm10:5.704,O2:0.000,NO2:0.000,SO2:0.000,NH3:3.499
10:21:00,0,0,0,0,0,0,0,0,0,0,0,515,0,0,0,0,0.0000000,0.0000000,0.0000000,0.0000000,7.00,38.4063835,-110.7923050,1369.1999512,0.1,325.5,1.1,0.0,0.0,906,127,0,0,863.01,19.85,22.16,# data time:400,pm2.5:6.445,pm10:5.704,O2:0.000,NO2:0.000,SO2:0.000,NH3:3.499
10:21:01,0,0,0,0,0,0,0,0,0,0,0,514,0,0,0,0,0.0000000,0.0000000,0.0000000,0.0000000,7.00,38.4063835,-110.7923050,1369.1999512,0.2,231.6,1.1,0.0,0.0,905,125,0,0,863.02,19.85,22.16,# data time:400,pm2.5:6.445,pm10:5.704,O2:0.000,NO2:0.000,SO2:0.000,NH3:3.499
10:21:02,0,0,0,0,0,0,0,0,0,0,0,515,0,0,0,0,0.0000000,0.0000000,0.0000000,0.0000000,7.00,38.4063835,-110.7923050,1369.1999512,0.2,226.6,1.1,0.0,0.0,906,127,0,0,863.00,19.87,22.16,# data time:400,pm2.5:6.445,pm10:5.704,O2:0.000,NO2:0.000,SO2:0.000,NH3:3.499
10:21:03,0,0,0,0,0,0,0,0,0,0,0,514,0,0,0,0,0.0000000,0.0000000,0.0000000,0.0000000,7.00,38.4063835,-110.7923050,1369.1999512,0.2,253.3,1.1,0.0,0.0,906,128,0,0,863.04,19.90,22.16,# data time:400,pm2.5:6.445,pm10:5.704,O2:0.000,NO2:0.000,SO2:0.000,NH3:3.499
10:21:04,0,0,0,0,0,0,0,0,0,0,0,515,0,0,0,0,0.0000000,0.0000000,0.0000000,0.0000000,7.00,38.4063797,-110.7923050,1369.1999512,0.2,254.1,1.1,0.0,0.0,906,129,0,0,863.00,19.88,22.17,# data time:400,pm2.5:6.445,pm10:5.704,O2:0.000,NO2:0.000,SO2:0.000,NH3:3.499
10:21:05,0,0,0,0,0,0,0,0,0,0,0,515,0,0,0,0,0.0000000,0.0000000,0.0000000,0.0000000,7.00,38.4063797,-110.7923050,1369.1999512,0.2,239.1,1.1,0.0,0.0,906,126,0,0,863.02,19.88,22.17,# data time:400,pm2.5:6.445,pm10:5.704,O2:0.000,NO2:0.000,SO2:0.000,NH3:3.499
10:21:06,0,0,0,0,0,0,0,0,0,0,0,514,0,0,0,0,0.0000000,0.0000000,0.0000000,0.0000000,7.00,38.4063797,-110.7923050,1369.0999756,0.1,19.3,1.1,0.0,0.0,905,126,0,0,862.99,19.87,22.17,# data time:400,pm2.5:6.445,pm10:5.704,O2:0.000,NO2:0.000,SO2:0.000,NH3:3.499
10:21:07,0,0,0,0,0,0,0,0,0,0,0,514,0,0,0,0,0.0000000,0.0000000,0.0000000,0.0000000,7.00,38.4063759,-110.7922974,1369.0999756,0.2,105.4,1.1,0.0,0.0,906,127,0,0,863.02,19.81,22.17,# data time:400,pm2.5:6.445,pm10:5.704,O2:0.000,NO2:0.000,SO2:0.000,NH3:3.499
10:21:08,0,0,0,0,0,0,0,0,0,0,0,514,0,0,0,0,0.0000000,0.0000000,0.0000000,0.0000000,7.00,38.4063759,-110.7922821,1369.0999756,0.2,64.9,1.1,0.0,0.0,905,128,0,0,862.99,19.78,22.16,# data time:410,pm2.5:5.640,pm10:4.991,O2:0.000,NO2:0.000,SO2:0.000,NH3:3.499
10:21:09,0,0,0,0,0,0,0,0,0,0,0,514,0,0,0,0,0.0000000,0.0000000,0.0000000,0.0000000,7.00,38.4063721,-110.7922821,1369.0999756,0.2,96.2,1.1,0.0,0.0,906,128,0,0,863.01,19.75,22.16,# data time:410,pm2.5:5.640,pm10:4.991,O2:0.000,NO2:0.000,SO2:0.000,NH3:3.499
10:21:10,0,0,0,0,0,0,0,0,0,0,0,513,0,0,0,0,0.0000000,0.0000000,0.0000000,0.0000000,7.00,38.4063683,-110.7922668,1369.0999756,0.2,89.1,1.1,0.0,0.0,906,126,0,0,863.02,19.71,22.16,# data time:410,pm2.5:5.640,pm10:4.991,O2:0.000,NO2:0.000,SO2:0.000,NH3:3.499
10:21:11,0,0,0,0,0,0,0,0,0,0,0,515,0,0,0,0,0.0000000,0.0000000,0.0000000,0.0000000,7.00,38.4063683,-110.7922668,1369.0999756,0.1,73.9,1.1,0.0,0.0,906,129,0,0,863.01,19.70,22.16,# data time:410,pm2.5:5.640,pm10:4.991,O2:0.000,NO2:0.000,SO2:0.000,NH3:3.499
10:21:12,0,0,0,0,0,0,0,0,0,0,0,514,0,0,0,0,0.0000000,0.0000000,0.0000000,0.0000000,7.00,38.4063644,-110.7922668,1369.0000000,0.1,43.7,1.1,0.0,0.0,906,126,0,0,863.03,19.75,22.16,# data time:410,pm2.5:5.640,pm10:4.991,O2:0.000,NO2:0.000,SO2:0.000,NH3:3.499
10:21:13,0,0,0,0,0,0,0,0,0,0,0,515,0,0,0,0,0.0000000,0.0000000,0.0000000,0.0000000,7.00,38.4063644,-110.7922668,1369.0000000,0.0,16.2,1.1,0.0,0.0,905,131,0,0,862.99,19.76,22.16,# data time:410,pm2.5:5.640,pm10:4.991,O2:0.000,NO2:0.000,SO2:0.000,NH3:3.499
10:21:14,0,0,0,0,0,0,0,0,0,0,0,515,0,0,0,0,0.0000000,0.0000000,0.0000000,0.0000000,7.00,38.4063644,-110.7922668,1368.9000244,0.1,66.3,1.1,0.0,0.0,906,128,0,0,862.98,19.78,22.17,# data time:410,pm2.5:5.640,pm10:4.991,O2:0.000,NO2:0.000,SO2:0.000,NH3:3.499
10:21:15,0,0,0,0,0,0,0,0,0,0,0,515,0,0,0,0,0.0000000,0.0000000,0.0000000,0.0000000,7.00,38.4063644,-110.7922592,1368.6999512,0.1,29.6,1.1,0.0,0.0,906,123,0,0,863.04,19.73,22.17,# data time:410,pm2.5:5.640,pm10:4.991,O2:0.000,NO2:0.000,SO2:0.000,NH3:3.499
10:21:16,0,0,0,0,0,0,0,0,0,0,0,514,0,0,0,0,0.0000000,0.0000000,0.0000000,0.0000000,7.00,38.4063683,-110.7922592,1368.5999756,0.2,13.0,1.1,0.0,0.0,906,129,0,0,863.00,19.71,22.17,# data time:410,pm2.5:5.640,pm10:4.991,O2:0.000,NO2:0.000,SO2:0.000,NH3:3.499
10:21:17,0,0,0,0,0,0,0,0,0,0,0,514,0,0,0,0,0.0000000,0.0000000,0.0000000,0.0000000,7.00,38.4063683,-110.7922440,1368.4000244,0.1,19.7,1.3,0.0,0.0,905,129,0,0,862.96,19.71,22.17,# data time:410,pm2.5:5.640,pm10:4.991,O2:0.000,NO2:0.000,SO2:0.000,NH3:3.499
10:21:18,0,0,0,0,0,0,0,0,0,0,0,515,0,0,0,0,0.0000000,0.0000000,0.0000000,0.0000000,7.00,38.4063644,-110.7922440,1368.3000488,0.1,281.2,1.1,0.0,0.0,905,126,0,0,863.04,19.67,22.17,# data time:420,pm2.5:6.445,pm10:5.704,O2:0.000,NO2:0.000,SO2:0.000,NH3:3.725
10:21:19,0,0,0,0,0,0,0,0,0,0,0,515,0,0,0,0,0.0000000,0.0000000,0.0000000,0.0000000,7.00,38.4063644,-110.7922440,1368.3000488,0.1,191.8,1.1,0.0,0.0,906,130,0,0,863.00,19.67,22.17,# data time:420,pm2.5:6.445,pm10:5.704,O2:0.000,NO2:0.000,SO2:0.000,NH3:3.725
10:21:20,0,0,0,0,0,0,0,0,0,0,0,515,0,0,0,0,0.0000000,0.0000000,0.0000000,0.0000000,7.00,38.4063644,-110.7922440,1368.3000488,0.1,220.1,1.1,0.0,0.0,905,126,0,0,863.01,19.68,22.17,# data time:420,pm2.5:6.445,pm10:5.704,O2:0.000,NO2:0.000,SO2:0.000,NH3:3.725
10:21:21,0,0,0,0,0,0,0,0,0,0,0,514,0,0,0,0,0.0000000,0.0000000,0.0000000,0.0000000,7.00,38.4063644,-110.7922440,1368.3000488,0.1,189.2,1.1,0.0,0.0,906,126,0,0,863.05,19.62,22.16,# data time:420,pm2.5:6.445,pm10:5.704,O2:0.000,NO2:0.000,SO2:0.000,NH3:3.725
10:21:22,0,0,0,0,0,0,0,0,0,0,0,513,0,0,0,0,0.0000000,0.0000000,0.0000000,0.0000000,7.00,38.4063644,-110.7922440,1368.3000488,0.1,240.2,1.1,0.0,0.0,906,130,0,0,863.00,19.62,22.17,# data time:420,pm2.5:6.445,pm10:5.704,O2:0.000,NO2:0.000,SO2:0.000,NH3:3.725
10:21:23,0,0,0,0,0,0,0,0,0,0,0,514,0,0,0,0,0.0000000,0.0000000,0.0000000,0.0000000,7.00,38.4063644,-110.7922440,1368.3000488,0.2,208.6,1.1,0.0,0.0,905,129,0,0,863.00,19.61,22.16,# data time:420,pm2.5:6.445,pm10:5.704,O2:0.000,NO2:0.000,SO2:0.000,NH3:3.725
10:21:24,0,0,0,0,0,0,0,0,0,0,0,516,0,0,0,0,0.0000000,0.0000000,0.0000000,0.0000000,7.00,38.4063644,-110.7922440,1368.3000488,0.1,275.1,1.1,0.0,0.0,906,128,0,0,863.11,19.59,22.16,# data time:420,pm2.5:6.445,pm10:5.704,O2:0.000,NO2:0.000,SO2:0.000,NH3:3.725
10:21:26,0,0,0,0,0,0,0,0,0,0,0,514,0,0,0,0,0.0000000,0.0000000,0.0000000,0.0000000,7.00,38.4063644,-110.7922592,1368.3000488,0.0,321.7,1.1,0.0,0.0,905,128,0,0,863.01,19.58,22.16,# data time:420,pm2.5:6.445,pm10:5.704,O2:0.000,NO2:0.000,SO2:0.000,NH3:3.725
10:21:27,0,0,0,0,0,0,0,0,0,0,0,515,0,0,0,0,0.0000000,0.0000000,0.0000000,0.0000000,7.00,38.4063644,-110.7922592,1368.3000488,0.1,42.4,1.1,0.0,0.0,906,130,0,0,862.99,19.62,22.17,# data time:420,pm2.5:6.445,pm10:5.704,O2:0.000,NO2:0.000,SO2:0.000,NH3:3.725
10:21:27,0,0,0,0,0,0,0,0,0,0,0,514,0,0,0,0,0.0000000,0.0000000,0.0000000,0.0000000,7.00,38.4063644,-110.7922440,1368.3000488,0.2,6.7,1.1,0.0,0.0,906,125,0,0,863.00,19.68,22.17,# data time:430,pm2.5:6.445,pm10:5.704,O2:0.000,NO2:0.000,SO2:0.000,NH3:3.499
10:21:29,0,0,0,0,0,0,0,0,0,0,0,515,0,0,0,0,0.0000000,0.0000000,0.0000000,0.0000000,7.00,38.4063644,-110.7922440,1368.3000488,0.2,359.4,1.3,0.0,0.0,906,126,0,0,863.01,19.76,22.17,# data time:430,pm2.5:6.445,pm10:5.704,O2:0.000,NO2:0.000,SO2:0.000,NH3:3.499
10:21:30,0,0,0,0,0,0,0,0,0,0,0,514,0,0,0,0,0.0000000,0.0000000,0.0000000,0.0000000,7.00,38.4063644,-110.7922440,1368.3000488,0.2,20.8,1.3,0.0,0.0,905,127,0,0,862.98,19.93,22.16,# data time:430,pm2.5:6.445,pm10:5.704,O2:0.000,NO2:0.000,SO2:0.000,NH3:3.499
10:21:31,0,0,0,0,0,0,0,0,0,0,0,552,0,0,0,0,0.0000000,0.0000000,0.0000000,0.0000000,7.00,38.4063644,-110.7922440,1368.3000488,0.2,355.7,1.1,0.0,0.0,897,128,0,0,862.98,20.02,22.16,# data time:430,pm2.5:6.445,pm10:5.704,O2:0.000,NO2:0.000,SO2:0.000,NH3:3.499
10:21:32,0,0,0,0,0,0,0,0,0,0,0,517,0,0,0,0,0.0000000,0.0000000,0.0000000,0.0000000,7.00,38.4063683,-110.7922440,1368.3000488,0.2,355.7,1.3,0.0,0.0,905,126,0,0,862.98,20.05,22.12,# data time:430,pm2.5:6.445,pm10:5.704,O2:0.000,NO2:0.000,SO2:0.000,NH3:3.499
10:21:33,0,0,0,0,0,0,0,0,0,0,0,516,0,0,0,0,0.0000000,0.0000000,0.0000000,0.0000000,7.00,38.4063683,-110.7922440,1368.3000488,0.2,95.4,1.3,0.0,0.0,905,128,0,0,862.94,20.05,22.06,# data time:430,pm2.5:6.445,pm10:5.704,O2:0.000,NO2:0.000,SO2:0.000,NH3:3.499
10:21:34,0,0,0,0,0,0,0,0,0,0,0,514,0,0,0,0,0.0000000,0.0000000,0.0000000,0.0000000,7.00,38.4063683,-110.7922440,1368.3000488,0.4,97.9,1.3,0.0,0.0,905,126,0,0,862.96,20.05,22.06,# data time:430,pm2.5:6.445,pm10:5.704,O2:0.000,NO2:0.000,SO2:0.000,NH3:3.499
10:21:35,0,0,0,0,0,0,0,0,0,0,0,515,0,0,0,0,0.0000000,0.0000000,0.0000000,0.0000000,7.00,38.4063683,-110.7922440,1368.3000488,0.4,91.0,1.1,0.0,0.0,905,129,0,0,862.99,20.10,22.11,# data time:430,pm2.5:6.445,pm10:5.704,O2:0.000,NO2:0.000,SO2:0.000,NH3:3.499
10:21:36,0,0,0,0,0,0,0,0,0,0,0,519,0,0,0,0,0.0000000,0.0000000,0.0000000,0.0000000,7.00,38.4063683,-110.7922440,1368.3000488,0.4,91.0,1.1,0.0,0.0,902,126,0,0,862.99,20.08,22.06,# data time:430,pm2.5:6.445,pm10:5.704,O2:0.000,NO2:0.000,SO2:0.000,NH3:3.499
10:21:37,0,0,0,0,0,0,0,0,0,0,0,533,0,0,0,0,0.0000000,0.0000000,0.0000000,0.0000000,7.00,38.4063644,-110.7922440,1368.3000488,0.3,106.8,1.1,0.0,0.0,902,127,0,0,862.99,20.20,22.15,# data time:430,pm2.5:6.445,pm10:5.704,O2:0.000,NO2:0.000,SO2:0.000,NH3:3.499
10:21:38,0,0,0,0,0,0,0,0,0,0,0,534,0,0,0,0,0.0000000,0.0000000,0.0000000,0.0000000,7.00,38.4063644,-110.7922287,1368.3000488,0.4,101.1,1.1,0.0,0.0,903,129,0,0,862.97,20.33,22.16,# data time:440,pm2.5:6.445,pm10:5.704,O2:0.000,NO2:0.000,SO2:0.000,NH3:3.499
10:21:39,0,0,0,0,0,0,0,0,0,0,0,518,0,0,0,0,0.0000000,0.0000000,0.0000000,0.0000000,7.00,38.4063644,-110.7922287,1368.3000488,0.5,91.5,1.1,0.0,0.0,903,125,0,0,862.98,20.37,22.16,# data time:440,pm2.5:6.445,pm10:5.704,O2:0.000,NO2:0.000,SO2:0.000,NH3:3.499
10:21:40,0,0,0,0,0,0,0,0,0,0,0,517,0,0,0,0,0.0000000,0.0000000,0.0000000,0.0000000,7.00,38.4063644,-110.7922287,1368.3000488,0.4,114.4,1.1,0.0,0.0,903,127,0,0,862.97,20.36,22.16,# data time:440,pm2.5:6.445,pm10:5.704,O2:0.000,NO2:0.000,SO2:0.000,NH3:3.499
10:21:41,0,0,0,0,0,0,0,0,0,0,0,534,0,0,0,0,0.0000000,0.0000000,0.0000000,0.0000000,7.00,38.4063644,-110.7922287,1368.3000488,0.4,126.8,1.1,0.0,0.0,902,127,0,0,863.03,20.33,22.17,# data time:440,pm2.5:6.445,pm10:5.704,O2:0.000,NO2:0.000,SO2:0.000,NH3:3.499
10:21:42,0,0,0,0,0,0,0,0,0,0,0,525,0,0,0,0,0.0000000,0.0000000,0.0000000,0.0000000,7.00,38.4063644,-110.7922287,1368.3000488,0.3,114.0,1.1,0.0,0.0,903,128,0,0,863.00,20.31,22.17,# data time:440,pm2.5:6.445,pm10:5.704,O2:0.000,NO2:0.000,SO2:0.000,NH3:3.499
10:21:43,0,0,0,0,0,0,0,0,0,0,0,532,0,0,0,0,0.0000000,0.0000000,0.0000000,0.0000000,7.00,38.4063606,-110.7922287,1368.3000488,0.3,103.2,1.1,0.0,0.0,902,128,0,0,863.01,20.34,22.16,# data time:440,pm2.5:6.445,pm10:5.704,O2:0.000,NO2:0.000,SO2:0.000,NH3:3.499
10:21:44,0,0,0,0,0,0,0,0,0,0,0,533,0,0,0,0,0.0000000,0.0000000,0.0000000,0.0000000,7.00,38.4063606,-110.7922287,1368.3000488,0.2,94.2,1.1,0.0,0.0,902,125,0,0,863.01,20.34,22.17,# data time:440,pm2.5:6.445,pm10:5.704,O2:0.000,NO2:0.000,SO2:0.000,NH3:3.499
10:21:45,0,0,0,0,0,0,0,0,0,0,0,519,0,0,0,0,0.0000000,0.0000000,0.0000000,0.0000000,7.00,38.4063492,-110.7922287,1368.3000488,0.2,116.8,1.1,0.0,0.0,901,125,0,0,863.00,20.36,22.17,# data time:440,pm2.5:6.445,pm10:5.704,O2:0.000,NO2:0.000,SO2:0.000,NH3:3.499
10:21:46,0,0,0,0,0,0,0,0,0,0,0,519,0,0,0,0,0.0000000,0.0000000,0.0000000,0.0000000,7.00,38.4063416,-110.7922211,1368.3000488,0.3,115.5,1.1,0.0,0.0,902,127,0,0,862.99,20.39,22.17,# data time:440,pm2.5:6.445,pm10:5.704,O2:0.000,NO2:0.000,SO2:0.000,NH3:3.499
10:21:47,0,0,0,0,0,0,0,0,0,0,0,533,0,0,0,0,0.0000000,0.0000000,0.0000000,0.0000000,7.00,38.4063377,-110.7922211,1368.3000488,0.3,128.3,1.1,0.0,0.0,903,127,0,0,863.01,20.40,22.18,# data time:440,pm2.5:6.445,pm10:5.704,O2:0.000,NO2:0.000,SO2:0.000,NH3:3.499
10:21:48,0,0,0,0,0,0,0,0,0,0,0,518,0,0,0,0,0.0000000,0.0000000,0.0000000,0.0000000,7.00,38.4063377,-110.7922058,1368.3000488,0.3,100.3,1.1,0.0,0.0,902,128,0,0,862.98,20.39,22.18,# data time:450,pm2.5:6.445,pm10:5.704,O2:0.000,NO2:0.000,SO2:0.000,NH3:3.499
10:21:49,0,0,0,0,0,0,0,0,0,0,0,523,0,0,0,0,0.0000000,0.0000000,0.0000000,0.0000000,7.00,38.4063377,-110.7922058,1368.3000488,0.3,105.7,1.1,0.0,0.0,903,132,0,0,862.94,20.42,22.18,# data time:450,pm2.5:6.445,pm10:5.704,O2:0.000,NO2:0.000,SO2:0.000,NH3:3.499
10:21:50,0,0,0,0,0,0,0,0,0,0,0,534,0,0,0,0,0.0000000,0.0000000,0.0000000,0.0000000,7.00,38.4063339,-110.7922058,1368.3000488,0.2,97.5,1.1,0.0,0.0,902,128,0,0,862.97,20.43,22.18,# data time:450,pm2.5:6.445,pm10:5.704,O2:0.000,NO2:0.000,SO2:0.000,NH3:3.499
10:21:51,0,0,0,0,0,0,0,0,0,0,0,531,0,0,0,0,0.0000000,0.0000000,0.0000000,0.0000000,7.00,38.4063339,-110.7922058,1368.3000488,0.3,121.8,1.1,0.0,0.0,902,126,0,0,862.96,20.43,22.18,# data time:450,pm2.5:6.445,pm10:5.704,O2:0.000,NO2:0.000,SO2:0.000,NH3:3.499
10:21:52,0,0,0,0,0,0,0,0,0,0,0,518,0,0,0,0,0.0000000,0.0000000,0.0000000,0.0000000,7.00,38.4063339,-110.7921906,1368.3000488,0.2,112.7,1.1,0.0,0.0,902,125,0,0,863.01,20.42,22.18,# data time:450,pm2.5:6.445,pm10:5.704,O2:0.000,NO2:0.000,SO2:0.000,NH3:3.499
10:21:53,0,0,0,0,0,0,0,0,0,0,0,520,0,0,0,0,0.0000000,0.0000000,0.0000000,0.0000000,7.00,38.4063339,-110.7921906,1368.3000488,0.3,119.3,1.1,0.0,0.0,903,130,0,0,863.01,20.40,22.19,# data time:450,pm2.5:6.445,pm10:5.704,O2:0.000,NO2:0.000,SO2:0.000,NH3:3.499
10:21:54,0,0,0,0,0,0,0,0,0,0,0,525,0,0,0,0,0.0000000,0.0000000,0.0000000,0.0000000,7.00,38.4063339,-110.7921906,1368.3000488,0.3,138.1,1.1,0.0,0.0,902,124,0,0,863.00,20.40,22.19,# data time:450,pm2.5:6.445,pm10:5.704,O2:0.000,NO2:0.000,SO2:0.000,NH3:3.499
10:21:55,0,0,0,0,0,0,0,0,0,0,0,531,0,0,0,0,0.0000000,0.0000000,0.0000000,0.0000000,7.00,38.4063339,-110.7921906,1368.3000488,0.2,108.8,1.1,0.0,0.0,902,127,0,0,863.00,20.40,22.19,# data time:450,pm2.5:6.445,pm10:5.704,O2:0.000,NO2:0.000,SO2:0.000,NH3:3.499
10:21:56,0,0,0,0,0,0,0,0,0,0,0,518,0,0,0,0,0.0000000,0.0000000,0.0000000,0.0000000,7.00,38.4063339,-110.7921906,1368.3000488,0.1,77.0,1.1,0.0,0.0,903,127,0,0,862.99,20.39,22.19,# data time:450,pm2.5:6.445,pm10:5.704,O2:0.000,NO2:0.000,SO2:0.000,NH3:3.499
10:21:57,0,0,0,0,0,0,0,0,0,0,0,531,0,0,0,0,0.0000000,0.0000000,0.0000000,0.0000000,7.00,38.4063339,-110.7921906,1368.3000488,0.2,103.2,1.1,0.0,0.0,902,130,0,0,863.04,20.39,22.19,# data time:450,pm2.5:6.445,pm10:5.704,O2:0.000,NO2:0.000,SO2:0.000,NH3:3.499
10:21:58,0,0,0,0,0,0,0,0,0,0,0,532,0,0,0,0,0.0000000,0.0000000,0.0000000,0.0000000,7.00,38.4063339,-110.7921906,1368.3000488,0.3,81.3,1.1,0.0,0.0,902,131,0,0,862.99,20.37,22.20,# data time:460,pm2.5:6.445,pm10:5.704,O2:0.000,NO2:0.000,SO2:0.000,NH3:3.725
10:21:59,0,0,0,0,0,0,0,0,0,0,0,526,0,0,0,0,0.0000000,0.0000000,0.0000000,0.0000000,7.00,38.4063339,-110.7921906,1368.3000488,0.3,79.9,1.1,0.0,0.0,902,127,0,0,862.96,20.40,22.20,# data time:460,pm2.5:6.445,pm10:5.704,O2:0.000,NO2:0.000,SO2:0.000,NH3:3.725
10:22:00,0,0,0,0,0,0,0,0,0,0,0,529,0,0,0,0,0.0000000,0.0000000,0.0000000,0.0000000,7.00,38.4063339,-110.7921906,1368.3000488,0.2,67.2,1.1,0.0,0.0,902,131,0,0,863.01,20.39,22.20,# data time:460,pm2.5:6.445,pm10:5.704,O2:0.000,NO2:0.000,SO2:0.000,NH3:3.725
10:22:01,0,0,0,0,0,0,0,0,0,0,0,519,0,0,0,0,0.0000000,0.0000000,0.0000000,0.0000000,7.00,38.4063339,-110.7921906,1368.3000488,0.2,75.9,1.1,0.0,0.0,903,127,0,0,863.01,20.31,22.20,# data time:460,pm2.5:6.445,pm10:5.704,O2:0.000,NO2:0.000,SO2:0.000,NH3:3.725
10:22:02,0,0,0,0,0,0,0,0,0,0,0,520,0,0,0,0,0.0000000,0.0000000,0.0000000,0.0000000,7.00,38.4063339,-110.7921829,1368.3000488,0.1,11.9,1.1,0.0,0.0,903,121,0,0,862.97,20.29,22.20,# data time:460,pm2.5:6.445,pm10:5.704,O2:0.000,NO2:0.000,SO2:0.000,NH3:3.725
10:22:03,0,0,0,0,0,0,0,0,0,0,0,518,0,0,0,0,0.0000000,0.0000000,0.0000000,0.0000000,7.00,38.4063339,-110.7921829,1368.3000488,0.1,335.6,1.3,0.0,0.0,902,125,0,0,863.00,20.29,22.21,# data time:460,pm2.5:6.445,pm10:5.704,O2:0.000,NO2:0.000,SO2:0.000,NH3:3.725
10:22:04,0,0,0,0,0,0,0,0,0,0,0,529,0,0,0,0,0.0000000,0.0000000,0.0000000,0.0000000,7.00,38.4063339,-110.7921829,1368.3000488,0.2,353.5,1.1,0.0,0.0,902,124,0,0,863.04,20.29,22.21,# data time:460,pm2.5:6.445,pm10:5.704,O2:0.000,NO2:0.000,SO2:0.000,NH3:3.725
10:22:05,0,0,0,0,0,0,0,0,0,0,0,522,0,0,0,0,0.0000000,0.0000000,0.0000000,0.0000000,7.00,38.4063339,-110.7921829,1368.3000488,0.2,23.3,1.3,0.0,0.0,902,128,0,0,863.00,20.28,22.21,# data time:460,pm2.5:6.445,pm10:5.704,O2:0.000,NO2:0.000,SO2:0.000,NH3:3.725
10:22:06,0,0,0,0,0,0,0,0,0,0,0,527,0,0,0,0,0.0000000,0.0000000,0.0000000,0.0000000,7.00,38.4063377,-110.7921829,1368.3000488,0.1,2.7,1.1,0.0,0.0,902,129,0,0,862.96,20.25,22.22,# data time:460,pm2.5:6.445,pm10:5.704,O2:0.000,NO2:0.000,SO2:0.000,NH3:3.725
10:22:07,0,0,0,0,0,0,0,0,0,0,0,518,0,0,0,0,0.0000000,0.0000000,0.0000000,0.0000000,7.00,38.4063377,-110.7921829,1368.3000488,0.2,15.5,1.3,0.0,0.0,902,127,0,0,862.96,20.16,22.21,# data time:460,pm2.5:6.445,pm10:5.704,O2:0.000,NO2:0.000,SO2:0.000,NH3:3.725
10:22:08,0,0,0,0,0,0,0,0,0,0,0,519,0,0,0,0,0.0000000,0.0000000,0.0000000,0.0000000,7.00,38.4063339,-110.7921829,1368.3000488,0.1,20.8,1.1,0.0,0.0,902,127,0,0,862.96,20.14,22.22,# data time:470,pm2.5:6.445,pm10:5.704,O2:0.000,NO2:0.000,SO2:0.000,NH3:3.725
10:22:09,0,0,0,0,0,0,0,0,0,0,0,519,0,0,0,0,0.0000000,0.0000000,0.0000000,0.0000000,7.00,38.4063301,-110.7921906,1368.4000244,0.2,18.5,1.1,0.0,0.0,902,124,0,0,862.99,20.11,22.22,# data time:470,pm2.5:6.445,pm10:5.704,O2:0.000,NO2:0.000,SO2:0.000,NH3:3.725
10:22:10,0,0,0,0,0,0,0,0,0,0,0,518,0,0,0,0,0.0000000,0.0000000,0.0000000,0.0000000,7.00,38.4063301,-110.7921829,1368.3000488,0.2,6.9,1.1,0.0,0.0,903,124,0,0,862.98,20.14,22.22,# data time:470,pm2.5:6.445,pm10:5.704,O2:0.000,NO2:0.000,SO2:0.000,NH3:3.725
10:22:11,0,0,0,0,0,0,0,0,0,0,0,520,0,0,0,0,0.0000000,0.0000000,0.0000000,0.0000000,7.00,38.4063301,-110.7921829,1368.3000488,0.1,13.0,1.3,0.0,0.0,902,127,0,0,862.98,20.19,22.23,# data time:470,pm2.5:6.445,pm10:5.704,O2:0.000,NO2:0.000,SO2:0.000,NH3:3.725
10:22:12,0,0,0,0,0,0,0,0,0,0,0,532,0,0,0,0,0.0000000,0.0000000,0.0000000,0.0000000,7.00,38.4063263,-110.7921829,1368.3000488,0.1,82.9,1.3,0.0,0.0,902,124,0,0,862.96,20.22,22.23,# data time:470,pm2.5:6.445,pm10:5.704,O2:0.000,NO2:0.000,SO2:0.000,NH3:3.725
10:22:14,0,0,0,0,0,0,0,0,0,0,0,529,0,0,0,0,0.0000000,0.0000000,0.0000000,0.0000000,7.00,38.4063263,-110.7921829,1368.1999512,0.1,86.8,1.1,0.0,0.0,902,127,0,0,862.96,20.19,22.23,# data time:470,pm2.5:6.445,pm10:5.704,O2:0.000,NO2:0.000,SO2:0.000,NH3:3.725
10:22:15,0,0,0,0,0,0,0,0,0,0,0,517,0,0,0,0,0.0000000,0.0000000,0.0000000,0.0000000,7.00,38.4063263,-110.7921829,1368.1999512,0.1,42.8,1.1,0.0,0.0,902,128,0,0,862.94,20.19,22.24,# data time:470,pm2.5:6.445,pm10:5.704,O2:0.000,NO2:0.000,SO2:0.000,NH3:3.725
10:22:16,0,0,0,0,0,0,0,0,0,0,0,527,0,0,0,0,0.0000000,0.0000000,0.0000000,0.0000000,7.00,38.4063301,-110.7921677,1368.1999512,0.2,56.1,1.1,0.0,0.0,902,133,0,0,862.94,20.17,22.25,# data time:470,pm2.5:6.445,pm10:5.704,O2:0.000,NO2:0.000,SO2:0.000,NH3:3.725
10:22:17,0,0,0,0,0,0,0,0,0,0,0,520,0,0,0,0,0.0000000,0.0000000,0.0000000,0.0000000,7.00,38.4063301,-110.7921677,1368.1999512,0.1,53.0,1.1,0.0,0.0,902,127,0,0,862.95,20.20,22.24,# data time:470,pm2.5:6.445,pm10:5.704,O2:0.000,NO2:0.000,SO2:0.000,NH3:3.725
10:22:18,0,0,0,0,0,0,0,0,0,0,0,528,0,0,0,0,0.0000000,0.0000000,0.0000000,0.0000000,7.00,38.4063301,-110.7921677,1368.1999512,0.2,74.5,1.1,0.0,0.0,901,124,0,0,862.96,20.17,22.25,# data time:480,pm2.5:6.445,pm10:5.704,O2:0.000,NO2:0.000,SO2:0.000,NH3:3.725
