Time, Motor A Speed, Motor A Dir, Motor B Speed, Motor B Dir, Servo Rail Current Sensor, Servo Pos - Arm L, Servo Pos - Arm R, Servo Pos - End, Servo Pos - Hopper, Servo Pos - Lid, Servo Pos - Extra, Servo Current, LED - Front L, LED - Front R, LED - Back L, LED - Back R, IMU Pitch, IMU Roll, IMU Yaw, Compass Heading, GPS Sats, GPS Latitude, GPS Longitude, GPS Altitude, GPS Speed, GPS Angle, GPS HDOP, GPS VDOP, GPS PDOP, Battery, Wind, Comm Xbee Latency, Comm Arduino Latency, Pressure, Humidity, Temperature, uRADMonitor
12:03:43,0,0,0,0,0,2100,2200,0,0,0,0,0,0,0,0,0,0.0000000,0.0000000,0.0000000,0.0000000,0.00,0.0000000,0.0000000,0.0000000,0.0,0.0,0.0,0.0,0.0,0,0,0,0,0.00,0.00,0.00,0
12:03:44,0,0,0,0,0,2100,2200,0,0,0,0,515,0,0,0,0,0.0000000,0.0000000,0.0000000,0.0000000,0.00,0.0000000,0.0000000,0.0000000,0.0,0.0,0.0,0.0,0.0,888,153,0,0,860.91,22.78,30.13,0
12:03:45,0,0,0,0,0,2100,2200,0,0,0,0,515,0,0,0,0,0.0000000,0.0000000,0.0000000,0.0000000,0.00,0.0000000,0.0000000,0.0000000,0.0,0.0,0.0,0.0,0.0,887,153,0,0,860.73,18.91,30.21,0
12:03:46,0,0,0,0,0,2100,2200,0,0,0,0,514,0,0,0,0,0.0000000,0.0000000,0.0000000,0.0000000,0.00,0.0000000,0.0000000,0.0000000,0.0,0.0,0.0,0.0,0.0,888,147,0,0,860.69,18.08,30.24,0
12:03:47,0,0,0,0,0,2100,2200,0,0,0,0,514,0,0,0,0,0.0000000,0.0000000,0.0000000,0.0000000,0.00,0.0000000,0.0000000,0.0000000,0.0,0.0,0.0,0.0,0.0,888,149,0,0,860.72,18.25,30.26,0
12:03:48,0,0,0,0,0,2100,2200,0,0,0,0,514,0,0,0,0,0.0000000,0.0000000,0.0000000,0.0000000,0.00,0.0000000,0.0000000,0.0000000,0.0,0.0,0.0,0.0,0.0,886,149,0,0,860.72,19.20,30.25,0
12:03:49,0,0,0,0,0,2100,2200,0,0,0,0,514,0,0,0,0,0.0000000,0.0000000,0.0000000,0.0000000,0.00,0.0000000,0.0000000,0.0000000,0.0,0.0,0.0,0.0,0.0,887,156,0,0,860.86,21.56,30.22,0
12:03:50,0,0,0,0,0,2100,2200,0,0,0,0,514,0,0,0,0,0.0000000,0.0000000,0.0000000,0.0000000,0.00,0.0000000,0.0000000,0.0000000,0.0,0.0,0.0,0.0,0.0,887,165,0,0,860.80,18.16,30.17,0
12:03:51,0,0,0,0,0,2100,2200,0,0,0,0,514,0,0,0,0,0.0000000,0.0000000,0.0000000,0.0000000,0.00,0.0000000,0.0000000,0.0000000,0.0,0.0,0.0,0.0,0.0,887,158,0,0,860.51,18.02,30.14,# start id:14000016 hw:101 sw:103
# data time:10,pm2.5:590.820,pm10:522.850,O2:0.000,NO2:0.305,SO2:0.000,NH3:6.743
12:03:52,0,0,0,0,0,2100,2200,0,0,0,0,515,0,0,0,0,0.0000000,0.0000000,0.0000000,0.0000000,0.00,0.0000000,0.0000000,0.0000000,0.0,0.0,0.0,0.0,0.0,886,152,0,0,860.68,19.33,29.97,# start id:14000016 hw:101 sw:103
# data time:10,pm2.5:590.820,pm10:522.850,O2:0.000,NO2:0.305,SO2:0.000,NH3:6.743
12:03:53,0,0,0,0,0,2100,2200,0,0,0,0,515,0,0,0,0,0.0000000,0.0000000,0.0000000,0.0000000,0.00,0.0000000,0.0000000,0.0000000,0.0,0.0,0.0,0.0,0.0,888,152,0,0,860.74,20.22,30.15,# start id:14000016 hw:101 sw:103
# data time:10,pm2.5:590.820,pm10:522.850,O2:0.000,NO2:0.305,SO2:0.000,NH3:6.743
12:03:54,0,0,0,0,0,2100,2200,0,0,0,0,514,0,0,0,0,0.0000000,0.0000000,0.0000000,0.0000000,0.00,0.0000000,0.0000000,0.0000000,0.0,0.0,0.0,0.0,0.0,888,149,0,0,860.71,20.26,30.15,# start id:14000016 hw:101 sw:103
# data time:10,pm2.5:590.820,pm10:522.850,O2:0.000,NO2:0.305,SO2:0.000,NH3:6.743
12:03:55,0,0,0,0,0,2100,2200,0,0,0,0,515,0,0,0,0,0.0000000,0.0000000,0.0000000,0.0000000,0.00,0.0000000,0.0000000,0.0000000,0.0,0.0,0.0,0.0,0.0,887,148,0,0,860.78,22.13,30.27,# start id:14000016 hw:101 sw:103
# data time:10,pm2.5:590.820,pm10:522.850,O2:0.000,NO2:0.305,SO2:0.000,NH3:6.743
12:03:56,0,0,0,0,0,2100,2200,0,0,0,0,515,0,0,0,0,0.0000000,0.0000000,0.0000000,0.0000000,0.00,0.0000000,0.0000000,0.0000000,0.0,0.0,0.0,0.0,0.0,887,144,0,0,860.58,17.76,30.36,# start id:14000016 hw:101 sw:103
# data time:10,pm2.5:590.820,pm10:522.850,O2:0.000,NO2:0.305,SO2:0.000,NH3:6.743
12:03:57,0,0,0,0,0,2100,2200,0,0,0,0,514,0,0,0,0,0.0000000,0.0000000,0.0000000,0.0000000,0.00,0.0000000,0.0000000,0.0000000,0.0,0.0,0.0,0.0,0.0,888,139,0,0,860.64,17.41,30.45,# start id:14000016 hw:101 sw:103
# data time:10,pm2.5:590.820,pm10:522.850,O2:0.000,NO2:0.305,SO2:0.000,NH3:6.743
12:03:58,0,0,0,0,0,2100,2200,0,0,0,0,516,0,0,0,0,0.0000000,0.0000000,0.0000000,0.0000000,0.00,0.0000000,0.0000000,0.0000000,0.0,0.0,0.0,0.0,0.0,886,150,0,0,860.64,18.37,30.51,# start id:14000016 hw:101 sw:103
# data time:10,pm2.5:590.820,pm10:522.850,O2:0.000,NO2:0.305,SO2:0.000,NH3:6.743
12:03:59,0,0,0,0,0,2100,2200,0,0,0,0,514,0,0,0,0,0.0000000,0.0000000,0.0000000,0.0000000,0.00,0.0000000,0.0000000,0.0000000,0.0,0.0,0.0,0.0,0.0,886,149,0,0,860.72,19.67,30.58,# start id:14000016 hw:101 sw:103
# data time:10,pm2.5:590.820,pm10:522.850,O2:0.000,NO2:0.305,SO2:0.000,NH3:6.743
12:04:00,0,0,0,0,0,2100,2200,0,0,0,0,515,0,0,0,0,0.0000000,0.0000000,0.0000000,0.0000000,0.00,0.0000000,0.0000000,0.0000000,0.0,0.0,0.0,0.0,0.0,888,151,0,0,859.88,14.37,30.60,# start id:14000016 hw:101 sw:103
# data time:10,pm2.5:590.820,pm10:522.850,O2:0.000,NO2:0.305,SO2:0.000,NH3:6.743
12:04:01,0,0,0,0,0,2100,2200,0,0,0,0,515,0,0,0,0,0.0000000,0.0000000,0.0000000,0.0000000,0.00,0.0000000,0.0000000,0.0000000,0.0,0.0,0.0,0.0,0.0,886,157,0,0,860.01,14.71,30.42,# data time:20,pm2.5:6.445,pm10:5.704,O2:0.000,NO2:0.000,SO2:0.000,NH3:6.441
12:04:02,0,0,0,0,0,2100,2200,0,0,0,0,514,0,0,0,0,0.0000000,0.0000000,0.0000000,0.0000000,0.00,0.0000000,0.0000000,0.0000000,0.0,0.0,0.0,0.0,0.0,888,184,0,0,859.78,13.89,29.84,# data time:20,pm2.5:6.445,pm10:5.704,O2:0.000,NO2:0.000,SO2:0.000,NH3:6.441
12:04:04,0,0,0,0,0,2100,2200,0,0,0,0,513,0,0,0,0,0.0000000,0.0000000,0.0000000,0.0000000,0.00,0.0000000,0.0000000,0.0000000,0.0,0.0,0.0,0.0,0.0,888,184,0,0,858.55,12.96,29.65,# data time:20,pm2.5:6.445,pm10:5.704,O2:0.000,NO2:0.000,SO2:0.000,NH3:6.441
12:04:05,0,0,0,0,0,2100,2200,0,0,0,0,513,0,0,0,0,0.0000000,0.0000000,0.0000000,0.0000000,0.00,0.0000000,0.0000000,0.0000000,0.0,0.0,0.0,0.0,0.0,889,183,0,0,861.76,13.46,29.46,# data time:20,pm2.5:6.445,pm10:5.704,O2:0.000,NO2:0.000,SO2:0.000,NH3:6.441
12:04:06,0,0,0,0,0,2100,2200,0,0,0,0,514,0,0,0,0,0.0000000,0.0000000,0.0000000,0.0000000,0.00,0.0000000,0.0000000,0.0000000,0.0,0.0,0.0,0.0,0.0,889,195,0,0,860.73,14.18,29.24,# data time:20,pm2.5:6.445,pm10:5.704,O2:0.000,NO2:0.000,SO2:0.000,NH3:6.441
12:04:07,0,0,0,0,0,2100,2200,0,0,0,0,514,0,0,0,0,0.0000000,0.0000000,0.0000000,0.0000000,0.00,0.0000000,0.0000000,0.0000000,0.0,0.0,0.0,0.0,0.0,887,189,0,0,859.94,15.14,29.14,# data time:20,pm2.5:6.445,pm10:5.704,O2:0.000,NO2:0.000,SO2:0.000,NH3:6.441
12:04:08,0,0,0,0,0,2100,2200,0,0,0,0,514,0,0,0,0,0.0000000,0.0000000,0.0000000,0.0000000,0.00,0.0000000,0.0000000,0.0000000,0.0,0.0,0.0,0.0,0.0,888,180,0,0,860.71,18.60,29.08,# data time:20,pm2.5:6.445,pm10:5.704,O2:0.000,NO2:0.000,SO2:0.000,NH3:6.441
12:04:09,0,0,0,0,0,2100,2200,0,0,0,0,515,0,0,0,0,0.0000000,0.0000000,0.0000000,0.0000000,0.00,0.0000000,0.0000000,0.0000000,0.0,0.0,0.0,0.0,0.0,888,175,0,0,860.81,19.15,29.03,# data time:20,pm2.5:6.445,pm10:5.704,O2:0.000,NO2:0.000,SO2:0.000,NH3:6.441
12:04:10,0,0,0,0,0,2100,2200,0,0,0,0,514,0,0,0,0,0.0000000,0.0000000,0.0000000,0.0000000,0.00,0.0000000,0.0000000,0.0000000,0.0,0.0,0.0,0.0,0.0,888,185,0,0,860.22,16.11,28.85,# data time:20,pm2.5:6.445,pm10:5.704,O2:0.000,NO2:0.000,SO2:0.000,NH3:6.441
12:04:11,0,0,0,0,0,2100,2200,0,0,0,0,514,0,0,0,0,0.0000000,0.0000000,0.0000000,0.0000000,0.00,0.0000000,0.0000000,0.0000000,0.0,0.0,0.0,0.0,0.0,887,183,0,0,860.88,22.03,28.80,# data time:20,pm2.5:6.445,pm10:5.704,O2:0.000,NO2:0.000,SO2:0.000,NH3:6.441
12:04:12,0,0,0,0,0,2100,2200,0,0,0,0,515,0,0,0,0,0.0000000,0.0000000,0.0000000,0.0000000,0.00,0.0000000,0.0000000,0.0000000,0.0,0.0,0.0,0.0,0.0,887,174,0,0,860.90,19.38,28.73,# data time:30,pm2.5:6.445,pm10:5.704,O2:0.000,NO2:0.010,SO2:0.000,NH3:6.215
12:04:13,0,0,0,0,0,2100,2200,0,0,0,0,515,0,0,0,0,0.0000000,0.0000000,0.0000000,0.0000000,0.00,0.0000000,0.0000000,0.0000000,0.0,0.0,0.0,0.0,0.0,888,176,0,0,860.37,16.30,28.84,# data time:30,pm2.5:6.445,pm10:5.704,O2:0.000,NO2:0.010,SO2:0.000,NH3:6.215
12:04:14,0,0,0,0,0,2100,2200,0,0,0,0,514,0,0,0,0,0.0000000,0.0000000,0.0000000,0.0000000,0.00,0.0000000,0.0000000,0.0000000,0.0,0.0,0.0,0.0,0.0,888,176,0,0,860.35,16.30,28.83,# data time:30,pm2.5:6.445,pm10:5.704,O2:0.000,NO2:0.010,SO2:0.000,NH3:6.215
12:04:15,0,0,0,0,0,2100,2200,0,0,0,0,514,0,0,0,0,0.0000000,0.0000000,0.0000000,0.0000000,0.00,0.0000000,0.0000000,0.0000000,0.0,0.0,0.0,0.0,0.0,888,179,0,0,860.03,15.84,28.78,# data time:30,pm2.5:6.445,pm10:5.704,O2:0.000,NO2:0.010,SO2:0.000,NH3:6.215
12:04:16,0,0,0,0,0,2100,2200,0,0,0,0,515,0,0,0,0,0.0000000,0.0000000,0.0000000,0.0000000,0.00,0.0000000,0.0000000,0.0000000,0.0,0.0,0.0,0.0,0.0,888,176,0,0,860.66,17.91,28.65,# data time:30,pm2.5:6.445,pm10:5.704,O2:0.000,NO2:0.010,SO2:0.000,NH3:6.215
12:04:17,0,0,0,0,0,2100,2200,0,0,0,0,514,0,0,0,0,0.0000000,0.0000000,0.0000000,0.0000000,0.00,0.0000000,0.0000000,0.0000000,0.0,0.0,0.0,0.0,0.0,885,169,0,0,860.02,16.17,28.52,# data time:30,pm2.5:6.445,pm10:5.704,O2:0.000,NO2:0.010,SO2:0.000,NH3:6.215
12:04:18,0,0,0,0,0,2100,2200,0,0,0,0,515,0,0,0,0,0.0000000,0.0000000,0.0000000,0.0000000,0.00,0.0000000,0.0000000,0.0000000,0.0,0.0,0.0,0.0,0.0,886,173,0,0,860.00,16.17,28.45,# data time:30,pm2.5:6.445,pm10:5.704,O2:0.000,NO2:0.010,SO2:0.000,NH3:6.215
12:04:19,0,0,0,0,0,2100,2200,0,0,0,0,515,0,0,0,0,0.0000000,0.0000000,0.0000000,0.0000000,0.00,0.0000000,0.0000000,0.0000000,0.0,0.0,0.0,0.0,0.0,887,166,0,0,859.94,16.25,28.42,# data time:30,pm2.5:6.445,pm10:5.704,O2:0.000,NO2:0.010,SO2:0.000,NH3:6.215
12:04:20,0,0,0,0,0,2100,2200,0,0,0,0,514,0,0,0,0,0.0000000,0.0000000,0.0000000,0.0000000,0.00,0.0000000,0.0000000,0.0000000,0.0,0.0,0.0,0.0,0.0,887,164,0,0,859.97,16.22,28.47,# data time:30,pm2.5:6.445,pm10:5.704,O2:0.000,NO2:0.010,SO2:0.000,NH3:6.215
12:04:21,0,0,0,0,0,2100,2200,0,0,0,0,514,0,0,0,0,0.0000000,0.0000000,0.0000000,0.0000000,0.00,0.0000000,0.0000000,0.0000000,0.0,0.0,0.0,0.0,0.0,889,166,0,0,859.95,16.16,28.45,# data time:30,pm2.5:6.445,pm10:5.704,O2:0.000,NO2:0.010,SO2:0.000,NH3:6.215
12:04:22,0,0,0,0,0,2100,2200,0,0,0,0,514,0,0,0,0,0.0000000,0.0000000,0.0000000,0.0000000,0.00,0.0000000,0.0000000,0.0000000,0.0,0.0,0.0,0.0,0.0,886,167,0,0,860.10,16.10,28.28,# data time:40,pm2.5:6.445,pm10:5.704,O2:0.000,NO2:0.000,SO2:0.000,NH3:5.988
12:04:23,0,0,0,0,0,2100,2200,0,0,0,0,514,0,0,0,0,0.0000000,0.0000000,0.0000000,0.0000000,0.00,0.0000000,0.0000000,0.0000000,0.0,0.0,0.0,0.0,0.0,889,166,0,0,861.76,13.55,28.23,# data time:40,pm2.5:6.445,pm10:5.704,O2:0.000,NO2:0.000,SO2:0.000,NH3:5.988
12:04:24,0,0,0,0,0,2100,2200,0,0,0,0,514,0,0,0,0,0.0000000,0.0000000,0.0000000,0.0000000,0.00,0.0000000,0.0000000,0.0000000,0.0,0.0,0.0,0.0,0.0,887,166,0,0,860.39,16.28,28.04,# data time:40,pm2.5:6.445,pm10:5.704,O2:0.000,NO2:0.000,SO2:0.000,NH3:5.988
12:04:25,0,0,0,0,0,2100,2200,0,0,0,0,514,0,0,0,0,0.0000000,0.0000000,0.0000000,0.0000000,0.00,0.0000000,0.0000000,0.0000000,0.0,0.0,0.0,0.0,0.0,887,173,0,0,860.17,16.28,28.02,# data time:40,pm2.5:6.445,pm10:5.704,O2:0.000,NO2:0.000,SO2:0.000,NH3:5.988
12:04:26,0,0,0,0,0,2100,2200,0,0,0,0,515,0,0,0,0,0.0000000,0.0000000,0.0000000,0.0000000,0.00,0.0000000,0.0000000,0.0000000,0.0,0.0,0.0,0.0,0.0,886,170,0,0,861.50,14.05,28.08,# data time:40,pm2.5:6.445,pm10:5.704,O2:0.000,NO2:0.000,SO2:0.000,NH3:5.988
12:04:27,0,0,0,0,0,2100,2200,0,0,0,0,515,0,0,0,0,0.0000000,0.0000000,0.0000000,0.0000000,0.00,0.0000000,0.0000000,0.0000000,0.0,0.0,0.0,0.0,0.0,887,163,0,0,860.11,16.37,28.06,# data time:40,pm2.5:6.445,pm10:5.704,O2:0.000,NO2:0.000,SO2:0.000,NH3:5.988
12:04:28,0,0,0,0,0,2100,2200,0,0,0,0,515,0,0,0,0,0.0000000,0.0000000,0.0000000,0.0000000,0.00,0.0000000,0.0000000,0.0000000,0.0,0.0,0.0,0.0,0.0,889,172,0,0,861.62,14.27,28.09,# data time:40,pm2.5:6.445,pm10:5.704,O2:0.000,NO2:0.000,SO2:0.000,NH3:5.988
12:04:29,0,0,0,0,0,2100,2200,0,0,0,0,513,0,0,0,0,0.0000000,0.0000000,0.0000000,0.0000000,3.00,0.0000000,0.0000000,0.0000000,0.4,203.9,0.0,0.0,0.0,886,172,0,0,860.86,22.23,28.07,# data time:40,pm2.5:6.445,pm10:5.704,O2:0.000,NO2:0.000,SO2:0.000,NH3:5.988
12:04:30,0,0,0,0,0,2100,2200,0,0,0,0,514,0,0,0,0,0.0000000,0.0000000,0.0000000,0.0000000,3.00,0.0000000,0.0000000,0.0000000,0.3,174.2,0.0,0.0,0.0,888,166,0,0,861.01,23.88,28.16,# data time:40,pm2.5:6.445,pm10:5.704,O2:0.000,NO2:0.000,SO2:0.000,NH3:5.988
12:04:31,0,0,0,0,0,2100,2200,0,0,0,0,514,0,0,0,0,0.0000000,0.0000000,0.0000000,0.0000000,3.00,0.0000000,0.0000000,0.0000000,0.3,174.2,0.0,0.0,0.0,888,166,0,0,861.01,23.88,28.16,# data time:50,pm2.5:6.445,pm10:5.704,O2:0.000,NO2:0.010,SO2:0.000,NH3:5.988
12:04:32,0,0,0,0,0,2100,2200,0,0,0,0,515,0,0,0,0,0.0000000,0.0000000,0.0000000,0.0000000,3.00,0.0000000,0.0000000,0.0000000,0.4,190.2,0.0,0.0,0.0,887,159,0,0,860.94,20.60,28.31,# data time:50,pm2.5:6.445,pm10:5.704,O2:0.000,NO2:0.010,SO2:0.000,NH3:5.988
12:04:33,0,0,0,0,0,2100,2200,0,0,0,0,514,0,0,0,0,0.0000000,0.0000000,0.0000000,0.0000000,3.00,38.4048615,-110.8019943,167.0000000,0.4,197.1,4.8,0.0,0.0,888,167,0,0,860.18,16.19,28.37,# data time:50,pm2.5:6.445,pm10:5.704,O2:0.000,NO2:0.010,SO2:0.000,NH3:5.988
12:04:34,0,0,0,0,0,2100,2200,0,0,0,0,515,0,0,0,0,0.0000000,0.0000000,0.0000000,0.0000000,3.00,38.4048615,-110.8019867,167.0000000,0.5,195.6,4.8,0.0,0.0,887,170,0,0,860.31,16.54,28.25,# data time:50,pm2.5:6.445,pm10:5.704,O2:0.000,NO2:0.010,SO2:0.000,NH3:5.988
12:04:35,0,0,0,0,0,2100,2200,0,0,0,0,514,0,0,0,0,0.0000000,0.0000000,0.0000000,0.0000000,3.00,38.4048576,-110.8019867,167.0000000,0.6,196.2,4.8,0.0,0.0,888,183,0,0,860.11,16.28,27.95,# data time:50,pm2.5:6.445,pm10:5.704,O2:0.000,NO2:0.010,SO2:0.000,NH3:5.988
12:04:36,0,0,0,0,0,2100,2200,0,0,0,0,514,0,0,0,0,0.0000000,0.0000000,0.0000000,0.0000000,3.00,38.4048576,-110.8019867,167.0000000,0.6,196.2,4.8,0.0,0.0,888,183,0,0,860.11,16.28,27.95,# data time:50,pm2.5:6.445,pm10:5.704,O2:0.000,NO2:0.010,SO2:0.000,NH3:5.988
12:04:37,0,0,0,0,0,2100,2200,0,0,0,0,514,0,0,0,0,0.0000000,0.0000000,0.0000000,0.0000000,3.00,38.4048653,-110.8019943,167.0000000,0.6,220.9,4.8,0.0,0.0,889,186,0,0,860.70,18.65,27.70,# data time:50,pm2.5:6.445,pm10:5.704,O2:0.000,NO2:0.010,SO2:0.000,NH3:5.988
12:04:38,0,0,0,0,0,2100,2200,0,0,0,0,514,0,0,0,0,0.0000000,0.0000000,0.0000000,0.0000000,3.00,38.4048767,-110.8020096,167.0000000,0.6,260.5,4.8,0.0,0.0,887,188,0,0,860.23,17.18,27.14,# data time:50,pm2.5:6.445,pm10:5.704,O2:0.000,NO2:0.010,SO2:0.000,NH3:5.988
12:04:39,0,0,0,0,0,2100,2200,0,0,0,0,514,0,0,0,0,0.0000000,0.0000000,0.0000000,0.0000000,3.00,38.4048843,-110.8020248,167.0000000,0.6,262.7,4.8,0.0,0.0,888,183,0,0,860.14,17.44,27.01,# data time:50,pm2.5:6.445,pm10:5.704,O2:0.000,NO2:0.010,SO2:0.000,NH3:5.988
12:04:40,0,0,0,0,0,2100,2200,0,0,0,0,515,0,0,0,0,0.0000000,0.0000000,0.0000000,0.0000000,3.00,38.4048920,-110.8020325,167.0000000,0.6,262.7,4.8,0.0,0.0,888,184,0,0,860.69,21.27,26.97,# data time:50,pm2.5:6.445,pm10:5.704,O2:0.000,NO2:0.010,SO2:0.000,NH3:5.988
12:04:41,0,0,0,0,0,2100,2200,0,0,0,0,514,0,0,0,0,0.0000000,0.0000000,0.0000000,0.0000000,3.00,38.4048958,-110.8020325,167.0000000,0.6,259.1,4.8,0.0,0.0,888,182,0,0,860.54,19.65,27.00,# data time:60,pm2.5:6.445,pm10:5.704,O2:0.000,NO2:0.000,SO2:0.000,NH3:5.762
12:04:43,0,0,0,0,0,2100,2200,0,0,0,0,514,0,0,0,0,0.0000000,0.0000000,0.0000000,0.0000000,3.00,38.4048958,-110.8020477,167.0000000,0.6,254.2,4.8,0.0,0.0,888,193,0,0,860.12,17.32,26.79,# data time:60,pm2.5:6.445,pm10:5.704,O2:0.000,NO2:0.000,SO2:0.000,NH3:5.762
12:04:44,0,0,0,0,0,2100,2200,0,0,0,0,515,0,0,0,0,0.0000000,0.0000000,0.0000000,0.0000000,3.00,38.4048958,-110.8020477,167.0000000,0.8,250.5,4.8,0.0,0.0,888,188,0,0,860.08,17.46,26.74,# data time:60,pm2.5:6.445,pm10:5.704,O2:0.000,NO2:0.000,SO2:0.000,NH3:5.762
12:04:45,0,0,0,0,0,2100,2200,0,0,0,0,514,0,0,0,0,0.0000000,0.0000000,0.0000000,0.0000000,3.00,38.4048958,-110.8020477,167.0000000,0.8,257.5,4.8,0.0,0.0,888,175,0,0,860.05,17.58,26.71,# data time:60,pm2.5:6.445,pm10:5.704,O2:0.000,NO2:0.000,SO2:0.000,NH3:5.762
12:04:46,0,0,0,0,0,2100,2200,0,0,0,0,514,0,0,0,0,0.0000000,0.0000000,0.0000000,0.0000000,3.00,38.4048920,-110.8020477,167.0000000,0.7,251.3,4.8,0.0,0.0,887,170,0,0,860.10,17.61,26.64,# data time:60,pm2.5:6.445,pm10:5.704,O2:0.000,NO2:0.000,SO2:0.000,NH3:5.762
12:04:47,0,0,0,0,0,2100,2200,0,0,0,0,514,0,0,0,0,0.0000000,0.0000000,0.0000000,0.0000000,3.00,38.4048882,-110.8020477,167.0000000,0.6,242.6,4.8,0.0,0.0,888,169,0,0,860.17,17.61,26.67,# data time:60,pm2.5:6.445,pm10:5.704,O2:0.000,NO2:0.000,SO2:0.000,NH3:5.762
12:04:48,0,0,0,0,0,2100,2200,0,0,0,0,514,0,0,0,0,0.0000000,0.0000000,0.0000000,0.0000000,3.00,38.4048882,-110.8020325,167.0000000,0.6,235.7,4.8,0.0,0.0,888,169,0,0,860.17,17.61,26.67,# data time:60,pm2.5:6.445,pm10:5.704,O2:0.000,NO2:0.000,SO2:0.000,NH3:5.762
12:04:49,0,0,0,0,0,2100,2200,0,0,0,0,514,0,0,0,0,0.0000000,0.0000000,0.0000000,0.0000000,3.00,38.4048882,-110.8020477,167.0000000,0.4,246.2,4.8,0.0,0.0,887,169,0,0,861.11,14.74,26.76,# data time:60,pm2.5:6.445,pm10:5.704,O2:0.000,NO2:0.000,SO2:0.000,NH3:5.762
12:04:50,0,0,0,0,0,2100,2200,0,0,0,0,515,0,0,0,0,0.0000000,0.0000000,0.0000000,0.0000000,3.00,38.4048882,-110.8020477,167.0000000,0.5,228.5,4.8,0.0,0.0,887,168,0,0,861.11,14.97,26.61,# data time:60,pm2.5:6.445,pm10:5.704,O2:0.000,NO2:0.000,SO2:0.000,NH3:5.762
12:04:51,0,0,0,0,0,2100,2200,0,0,0,0,514,0,0,0,0,0.0000000,0.0000000,0.0000000,0.0000000,3.00,38.4048843,-110.8020325,167.0000000,0.4,184.3,4.8,0.0,0.0,887,167,0,0,853.70,17.20,26.38,# data time:60,pm2.5:6.445,pm10:5.704,O2:0.000,NO2:0.000,SO2:0.000,NH3:5.762
12:04:52,0,0,0,0,0,2100,2200,0,0,0,0,515,0,0,0,0,0.0000000,0.0000000,0.0000000,0.0000000,3.00,38.4048805,-110.8020325,167.0000000,0.7,178.1,4.8,0.0,0.0,887,171,0,0,857.17,17.00,26.46,# data time:70,pm2.5:6.445,pm10:5.704,O2:0.000,NO2:0.000,SO2:0.000,NH3:5.536
12:04:53,0,0,0,0,0,2100,2200,0,0,0,0,514,0,0,0,0,0.0000000,0.0000000,0.0000000,0.0000000,3.00,38.4048843,-110.8020477,167.0000000,0.5,185.3,4.8,0.0,0.0,886,173,0,0,859.89,16.80,26.71,# data time:70,pm2.5:6.445,pm10:5.704,O2:0.000,NO2:0.000,SO2:0.000,NH3:5.536
12:04:54,0,0,0,0,0,2100,2200,0,0,0,0,514,0,0,0,0,0.0000000,0.0000000,0.0000000,0.0000000,3.00,38.4048843,-110.8020477,167.0000000,0.5,185.3,4.8,0.0,0.0,886,173,0,0,859.89,16.80,26.71,# data time:70,pm2.5:6.445,pm10:5.704,O2:0.000,NO2:0.000,SO2:0.000,NH3:5.536
12:04:55,0,0,0,0,0,2100,2200,0,0,0,0,514,0,0,0,0,0.0000000,0.0000000,0.0000000,0.0000000,3.00,38.4048882,-110.8020477,167.0000000,0.4,192.2,4.8,0.0,0.0,889,168,0,0,858.04,17.73,26.76,# data time:70,pm2.5:6.445,pm10:5.704,O2:0.000,NO2:0.000,SO2:0.000,NH3:5.536
12:04:56,0,0,0,0,0,2100,2200,0,0,0,0,515,0,0,0,0,0.0000000,0.0000000,0.0000000,0.0000000,3.00,38.4048882,-110.8020630,167.0000000,0.4,214.6,4.8,0.0,0.0,889,164,0,0,858.58,17.61,26.93,# data time:70,pm2.5:6.445,pm10:5.704,O2:0.000,NO2:0.000,SO2:0.000,NH3:5.536
12:04:57,0,0,0,0,0,2100,2200,0,0,0,0,514,0,0,0,0,0.0000000,0.0000000,0.0000000,0.0000000,3.00,38.4048920,-110.8020630,167.0000000,0.3,230.0,4.8,0.0,0.0,888,164,0,0,859.99,23.62,27.06,# data time:70,pm2.5:6.445,pm10:5.704,O2:0.000,NO2:0.000,SO2:0.000,NH3:5.536
12:04:58,0,0,0,0,0,2100,2200,0,0,0,0,514,0,0,0,0,0.0000000,0.0000000,0.0000000,0.0000000,3.00,38.4048920,-110.8020706,167.0000000,0.5,255.9,4.8,0.0,0.0,888,156,0,0,860.69,15.05,27.38,# data time:70,pm2.5:6.445,pm10:5.704,O2:0.000,NO2:0.000,SO2:0.000,NH3:5.536
12:04:59,0,0,0,0,0,2100,2200,0,0,0,0,515,0,0,0,0,0.0000000,0.0000000,0.0000000,0.0000000,3.00,38.4048882,-110.8020706,167.0000000,0.5,249.2,4.8,0.0,0.0,888,150,0,0,860.84,15.00,27.52,# data time:70,pm2.5:6.445,pm10:5.704,O2:0.000,NO2:0.000,SO2:0.000,NH3:5.536
12:05:00,0,0,0,0,0,2100,2200,0,0,0,0,515,0,0,0,0,0.0000000,0.0000000,0.0000000,0.0000000,3.00,38.4048882,-110.8020706,167.0000000,0.5,249.2,4.8,0.0,0.0,888,150,0,0,860.84,15.00,27.52,# data time:70,pm2.5:6.445,pm10:5.704,O2:0.000,NO2:0.000,SO2:0.000,NH3:5.536
12:05:01,0,0,0,0,0,2100,2200,0,0,0,0,515,0,0,0,0,0.0000000,0.0000000,0.0000000,0.0000000,3.00,38.4048882,-110.8020706,167.0000000,0.8,234.7,4.8,0.0,0.0,887,146,0,0,860.39,20.57,27.52,# data time:70,pm2.5:6.445,pm10:5.704,O2:0.000,NO2:0.000,SO2:0.000,NH3:5.536
12:05:02,0,0,0,0,0,2100,2200,0,0,0,0,515,0,0,0,0,0.0000000,0.0000000,0.0000000,0.0000000,3.00,38.4048843,-110.8020706,167.0000000,0.6,220.2,4.8,0.0,0.0,888,146,0,0,860.35,20.43,27.67,# data time:80,pm2.5:6.445,pm10:5.704,O2:0.000,NO2:0.000,SO2:0.000,NH3:5.536
12:05:03,0,0,0,0,0,2100,2200,0,0,0,0,515,0,0,0,0,0.0000000,0.0000000,0.0000000,0.0000000,3.00,38.4048729,-110.8020630,167.0000000,0.5,182.0,4.8,0.0,0.0,888,149,0,0,860.40,20.31,27.79,# data time:80,pm2.5:6.445,pm10:5.704,O2:0.000,NO2:0.000,SO2:0.000,NH3:5.536
12:05:04,0,0,0,0,0,2100,2200,0,0,0,0,514,0,0,0,0,0.0000000,0.0000000,0.0000000,0.0000000,3.00,38.4048691,-110.8020477,167.0000000,0.5,168.9,4.8,0.0,0.0,887,172,0,0,860.35,18.74,27.82,# data time:80,pm2.5:6.445,pm10:5.704,O2:0.000,NO2:0.000,SO2:0.000,NH3:5.536
12:05:05,0,0,0,0,0,2100,2200,0,0,0,0,515,0,0,0,0,0.0000000,0.0000000,0.0000000,0.0000000,3.00,38.4048691,-110.8020477,167.0000000,0.4,188.9,4.8,0.0,0.0,888,169,0,0,860.80,26.41,27.90,# data time:80,pm2.5:6.445,pm10:5.704,O2:0.000,NO2:0.000,SO2:0.000,NH3:5.536
12:05:06,0,0,0,0,0,2100,2200,0,0,0,0,515,0,0,0,0,0.0000000,0.0000000,0.0000000,0.0000000,3.00,38.4048691,-110.8020477,167.0000000,0.4,188.9,4.8,0.0,0.0,888,169,0,0,860.80,26.41,27.90,# data time:80,pm2.5:6.445,pm10:5.704,O2:0.000,NO2:0.000,SO2:0.000,NH3:5.536
12:05:07,0,0,0,0,0,2100,2200,0,0,0,0,514,0,0,0,0,0.0000000,0.0000000,0.0000000,0.0000000,3.00,38.4048615,-110.8020477,167.0000000,0.6,200.6,4.8,0.0,0.0,887,162,0,0,860.93,29.01,27.75,# data time:80,pm2.5:6.445,pm10:5.704,O2:0.000,NO2:0.000,SO2:0.000,NH3:5.536
12:05:08,0,0,0,0,0,2100,2200,0,0,0,0,515,0,0,0,0,0.0000000,0.0000000,0.0000000,0.0000000,3.00,38.4048615,-110.8020477,167.0000000,0.5,201.1,4.8,0.0,0.0,888,159,0,0,861.11,37.14,27.73,# data time:80,pm2.5:6.445,pm10:5.704,O2:0.000,NO2:0.000,SO2:0.000,NH3:5.536
12:05:09,0,0,0,0,0,2100,2200,0,0,0,0,514,0,0,0,0,0.0000000,0.0000000,0.0000000,0.0000000,3.00,38.4048576,-110.8020477,167.0000000,0.4,189.0,4.8,0.0,0.0,888,160,0,0,861.27,32.39,27.80,# data time:80,pm2.5:6.445,pm10:5.704,O2:0.000,NO2:0.000,SO2:0.000,NH3:5.536
12:05:10,0,0,0,0,0,2100,2200,0,0,0,0,515,0,0,0,0,0.0000000,0.0000000,0.0000000,0.0000000,3.00,38.4048538,-110.8020477,167.0000000,0.4,195.9,4.8,0.0,0.0,888,151,0,0,861.09,28.53,27.87,# data time:80,pm2.5:6.445,pm10:5.704,O2:0.000,NO2:0.000,SO2:0.000,NH3:5.536
12:05:11,0,0,0,0,0,2100,2200,0,0,0,0,514,0,0,0,0,0.0000000,0.0000000,0.0000000,0.0000000,3.00,38.4048500,-110.8020325,167.0000000,0.3,179.3,4.8,0.0,0.0,888,150,0,0,861.24,31.43,27.94,# data time:90,pm2.5:6.445,pm10:5.704,O2:0.000,NO2:0.000,SO2:0.000,NH3:5.536
12:05:12,0,0,0,0,0,2100,2200,0,0,0,0,514,0,0,0,0,0.0000000,0.0000000,0.0000000,0.0000000,3.00,38.4048500,-110.8020325,167.0000000,0.3,179.3,4.8,0.0,0.0,888,150,0,0,861.24,31.43,27.94,# data time:90,pm2.5:6.445,pm10:5.704,O2:0.000,NO2:0.000,SO2:0.000,NH3:5.536
12:05:13,0,0,0,0,0,2100,2200,0,0,0,0,514,0,0,0,0,0.0000000,0.0000000,0.0000000,0.0000000,3.00,38.4048424,-110.8020248,167.0000000,0.4,170.3,4.8,0.0,0.0,888,153,0,0,861.40,35.02,28.03,# data time:90,pm2.5:6.445,pm10:5.704,O2:0.000,NO2:0.000,SO2:0.000,NH3:5.536
12:05:14,0,0,0,0,0,2100,2200,0,0,0,0,514,0,0,0,0,0.0000000,0.0000000,0.0000000,0.0000000,3.00,38.4048347,-110.8020248,167.0000000,0.4,166.2,4.8,0.0,0.0,887,159,0,0,860.83,20.04,28.13,# data time:90,pm2.5:6.445,pm10:5.704,O2:0.000,NO2:0.000,SO2:0.000,NH3:5.536
12:05:15,0,0,0,0,0,2100,2200,0,0,0,0,515,0,0,0,0,0.0000000,0.0000000,0.0000000,0.0000000,3.00,38.4048347,-110.8020096,167.0000000,0.3,120.0,4.8,0.0,0.0,887,153,0,0,861.80,44.25,28.20,# data time:90,pm2.5:6.445,pm10:5.704,O2:0.000,NO2:0.000,SO2:0.000,NH3:5.536
12:05:16,0,0,0,0,0,2100,2200,0,0,0,0,515,0,0,0,0,0.0000000,0.0000000,0.0000000,0.0000000,3.00,38.4048347,-110.8020096,167.0000000,0.3,87.3,4.8,0.0,0.0,888,147,0,0,862.95,43.72,28.23,# data time:90,pm2.5:6.445,pm10:5.704,O2:0.000,NO2:0.000,SO2:0.000,NH3:5.536
12:05:17,0,0,0,0,0,2100,2200,0,0,0,0,515,0,0,0,0,0.0000000,0.0000000,0.0000000,0.0000000,3.00,38.4048347,-110.8020096,167.0000000,0.2,100.2,4.8,0.0,0.0,887,147,0,0,864.74,37.90,28.41,# data time:90,pm2.5:6.445,pm10:5.704,O2:0.000,NO2:0.000,SO2:0.000,NH3:5.536
12:05:18,0,0,0,0,0,2100,2200,0,0,0,0,515,0,0,0,0,0.0000000,0.0000000,0.0000000,0.0000000,3.00,38.4048347,-110.8020096,167.0000000,0.2,100.2,4.8,0.0,0.0,887,147,0,0,864.74,37.90,28.41,# data time:90,pm2.5:6.445,pm10:5.704,O2:0.000,NO2:0.000,SO2:0.000,NH3:5.536
12:05:19,0,0,0,0,0,2100,2200,0,0,0,0,515,0,0,0,0,0.0000000,0.0000000,0.0000000,0.0000000,3.00,38.4048386,-110.8020096,167.0000000,0.4,63.1,4.8,0.0,0.0,886,147,0,0,861.21,32.91,28.56,# data time:90,pm2.5:6.445,pm10:5.704,O2:0.000,NO2:0.000,SO2:0.000,NH3:5.536
12:05:20,0,0,0,0,0,2100,2200,0,0,0,0,515,0,0,0,0,0.0000000,0.0000000,0.0000000,0.0000000,3.00,38.4048386,-110.8020096,167.0000000,0.2,66.2,4.8,0.0,0.0,888,145,0,0,864.00,33.71,28.54,# data time:90,pm2.5:6.445,pm10:5.704,O2:0.000,NO2:0.000,SO2:0.000,NH3:5.536
12:05:21,0,0,0,0,0,2100,2200,0,0,0,0,514,0,0,0,0,0.0000000,0.0000000,0.0000000,0.0000000,3.00,38.4048347,-110.8020248,167.0000000,0.2,214.6,4.8,0.0,0.0,887,144,0,0,863.74,33.17,28.61,# data time:100,pm2.5:6.445,pm10:5.704,O2:0.000,NO2:0.000,SO2:0.000,NH3:5.536
12:05:22,0,0,0,0,0,2100,2200,0,0,0,0,514,0,0,0,0,0.0000000,0.0000000,0.0000000,0.0000000,3.00,38.4048347,-110.8020248,167.0000000,0.3,187.2,4.8,0.0,0.0,887,146,0,0,863.72,33.13,28.55,# data time:100,pm2.5:6.445,pm10:5.704,O2:0.000,NO2:0.000,SO2:0.000,NH3:5.536
12:05:23,0,0,0,0,0,2100,2200,0,0,0,0,514,0,0,0,0,0.0000000,0.0000000,0.0000000,0.0000000,3.00,38.4048347,-110.8020248,167.0000000,0.4,216.5,4.8,0.0,0.0,888,150,0,0,862.02,31.86,28.54,# data time:100,pm2.5:6.445,pm10:5.704,O2:0.000,NO2:0.000,SO2:0.000,NH3:5.536
12:05:24,0,0,0,0,0,2100,2200,0,0,0,0,515,0,0,0,0,0.0000000,0.0000000,0.0000000,0.0000000,3.00,38.4048347,-110.8020248,167.0000000,0.4,216.5,4.8,0.0,0.0,888,156,0,0,864.80,39.17,28.05,# data time:100,pm2.5:6.445,pm10:5.704,O2:0.000,NO2:0.000,SO2:0.000,NH3:5.536
12:05:25,0,0,0,0,0,2100,2200,0,0,0,0,514,0,0,0,0,0.0000000,0.0000000,0.0000000,0.0000000,4.00,38.4048386,-110.8020325,167.1000061,0.4,216.5,4.5,0.0,0.0,888,168,0,0,863.86,42.28,27.98,# data time:100,pm2.5:6.445,pm10:5.704,O2:0.000,NO2:0.000,SO2:0.000,NH3:5.536
12:05:27,0,0,0,0,0,2100,2200,0,0,0,0,514,0,0,0,0,0.0000000,0.0000000,0.0000000,0.0000000,4.00,38.4048347,-110.8020325,167.1999969,0.6,233.7,4.5,0.0,0.0,888,175,0,0,863.61,42.05,27.99,# data time:100,pm2.5:6.445,pm10:5.704,O2:0.000,NO2:0.000,SO2:0.000,NH3:5.536
12:05:28,0,0,0,0,0,2100,2200,0,0,0,0,515,0,0,0,0,0.0000000,0.0000000,0.0000000,0.0000000,4.00,38.4048309,-110.8020325,167.1999969,0.5,227.8,4.5,0.0,0.0,888,176,0,0,863.67,42.07,27.73,# data time:100,pm2.5:6.445,pm10:5.704,O2:0.000,NO2:0.000,SO2:0.000,NH3:5.536
12:05:29,0,0,0,0,0,2100,2200,0,0,0,0,515,0,0,0,0,0.0000000,0.0000000,0.0000000,0.0000000,4.00,38.4048576,-110.8020477,168.0000000,0.5,257.5,4.5,0.0,0.0,889,186,0,0,863.58,42.34,27.43,# data time:100,pm2.5:6.445,pm10:5.704,O2:0.000,NO2:0.000,SO2:0.000,NH3:5.536
12:05:30,0,0,0,0,0,2100,2200,0,0,0,0,515,0,0,0,0,0.0000000,0.0000000,0.0000000,0.0000000,4.00,38.4048538,-110.8020477,168.1000061,0.5,249.3,4.5,0.0,0.0,890,196,0,0,863.59,40.22,27.34,# data time:100,pm2.5:6.445,pm10:5.704,O2:0.000,NO2:0.000,SO2:0.000,NH3:5.536
12:05:31,0,0,0,0,0,2100,2200,0,0,0,0,514,0,0,0,0,0.0000000,0.0000000,0.0000000,0.0000000,4.00,38.4048500,-110.8020477,168.1000061,0.5,251.8,4.5,0.0,0.0,890,193,0,0,864.50,17.56,27.15,# data time:100,pm2.5:6.445,pm10:5.704,O2:0.000,NO2:0.000,SO2:0.000,NH3:5.536
12:05:32,0,0,0,0,0,2100,2200,0,0,0,0,516,0,0,0,0,0.0000000,0.0000000,0.0000000,0.0000000,4.00,38.4048538,-110.8020477,168.1000061,0.4,276.9,4.5,0.0,0.0,890,178,0,0,862.74,23.73,26.81,# data time:110,pm2.5:6.445,pm10:5.704,O2:0.000,NO2:0.000,SO2:0.000,NH3:5.536
12:05:33,0,0,0,0,0,2100,2200,0,0,0,0,514,0,0,0,0,0.0000000,0.0000000,0.0000000,0.0000000,4.00,38.4048500,-110.8020477,168.1999969,0.3,271.8,4.5,0.0,0.0,890,176,0,0,860.08,16.62,26.82,# data time:110,pm2.5:6.445,pm10:5.704,O2:0.000,NO2:0.000,SO2:0.000,NH3:5.536
12:05:34,0,0,0,0,0,2100,2200,0,0,0,0,515,0,0,0,0,0.0000000,0.0000000,0.0000000,0.0000000,4.00,38.4048500,-110.8020477,168.1999969,0.5,273.1,4.5,0.0,0.0,889,168,0,0,860.24,16.80,26.98,# data time:110,pm2.5:6.445,pm10:5.704,O2:0.000,NO2:0.000,SO2:0.000,NH3:5.536
12:05:35,0,0,0,0,0,2100,2200,0,0,0,0,514,0,0,0,0,0.0000000,0.0000000,0.0000000,0.0000000,4.00,38.4048462,-110.8020477,168.3000031,0.5,259.5,4.5,0.0,0.0,890,175,0,0,860.03,16.37,27.03,# data time:110,pm2.5:6.445,pm10:5.704,O2:0.000,NO2:0.000,SO2:0.000,NH3:5.536
12:05:36,0,0,0,0,0,2100,2200,0,0,0,0,520,0,0,0,0,0.0000000,0.0000000,0.0000000,0.0000000,4.00,38.4048462,-110.8020477,168.3000031,0.5,241.9,4.5,0.0,0.0,893,184,0,0,859.82,16.33,27.03,# data time:110,pm2.5:6.445,pm10:5.704,O2:0.000,NO2:0.000,SO2:0.000,NH3:5.536
12:05:37,0,0,0,0,0,2100,2200,0,0,0,0,509,0,0,0,0,0.0000000,0.0000000,0.0000000,0.0000000,4.00,38.4048462,-110.8020477,168.3999939,0.4,243.9,4.5,0.0,0.0,887,172,0,0,860.04,16.17,26.84,# data time:110,pm2.5:6.445,pm10:5.704,O2:0.000,NO2:0.000,SO2:0.000,NH3:5.536
12:05:38,0,0,0,0,0,2100,2200,0,0,0,0,514,0,0,0,0,0.0000000,0.0000000,0.0000000,0.0000000,4.00,38.4048386,-110.8020477,168.3999939,0.4,238.8,4.5,0.0,0.0,894,177,0,0,860.29,16.75,26.75,# data time:110,pm2.5:6.445,pm10:5.704,O2:0.000,NO2:0.000,SO2:0.000,NH3:5.536
12:05:39,0,0,0,0,0,2100,2200,0,0,0,0,533,0,0,0,0,0.0000000,0.0000000,0.0000000,0.0000000,4.00,38.4048347,-110.8020477,168.5000000,0.4,225.6,4.5,0.0,0.0,906,175,0,0,860.11,16.22,26.73,# data time:110,pm2.5:6.445,pm10:5.704,O2:0.000,NO2:0.000,SO2:0.000,NH3:5.536
12:05:40,0,0,0,0,0,2100,2200,0,0,0,0,513,0,0,0,0,0.0000000,0.0000000,0.0000000,0.0000000,4.00,38.4048309,-110.8020477,168.5000000,0.5,217.7,4.5,0.0,0.0,886,171,0,0,860.37,16.40,26.80,# data time:110,pm2.5:6.445,pm10:5.704,O2:0.000,NO2:0.000,SO2:0.000,NH3:5.536
12:05:41,0,0,0,0,0,2100,2200,0,0,0,0,519,0,0,0,0,0.0000000,0.0000000,0.0000000,0.0000000,4.00,38.4048271,-110.8020325,168.6000061,0.4,191.0,4.5,0.0,0.0,889,125,0,0,860.35,16.27,26.94,# data time:110,pm2.5:6.445,pm10:5.704,O2:0.000,NO2:0.000,SO2:0.000,NH3:5.536
12:05:42,0,0,0,0,0,2100,2200,0,0,0,0,509,0,0,0,0,0.0000000,0.0000000,0.0000000,0.0000000,4.00,38.4048309,-110.8020477,168.6000061,0.4,218.8,4.5,0.0,0.0,891,161,0,0,860.33,16.11,27.02,# data time:120,pm2.5:6.445,pm10:5.704,O2:0.000,NO2:0.000,SO2:0.000,NH3:5.536
12:05:43,0,0,0,0,0,2100,2200,0,0,0,0,513,0,0,0,0,0.0000000,0.0000000,0.0000000,0.0000000,4.00,38.4048309,-110.8020630,168.6000061,0.5,232.7,4.5,0.0,0.0,890,159,0,0,860.39,15.99,27.04,# data time:120,pm2.5:6.445,pm10:5.704,O2:0.000,NO2:0.000,SO2:0.000,NH3:5.536
12:05:44,0,0,0,0,0,2100,2200,0,0,0,0,514,0,0,0,0,0.0000000,0.0000000,0.0000000,0.0000000,4.00,38.4048347,-110.8020630,168.6999969,0.4,245.5,4.5,0.0,0.0,891,158,0,0,860.34,15.98,27.00,# data time:120,pm2.5:6.445,pm10:5.704,O2:0.000,NO2:0.000,SO2:0.000,NH3:5.536
12:05:45,0,0,0,0,0,2100,2200,0,0,0,0,514,0,0,0,0,0.0000000,0.0000000,0.0000000,0.0000000,4.00,38.4048347,-110.8020630,168.6999969,0.3,224.7,4.5,0.0,0.0,890,153,0,0,860.33,16.07,26.97,# data time:120,pm2.5:6.445,pm10:5.704,O2:0.000,NO2:0.000,SO2:0.000,NH3:5.536
12:05:46,0,0,0,0,0,2100,2200,0,0,0,0,514,0,0,0,0,0.0000000,0.0000000,0.0000000,0.0000000,4.00,38.4048347,-110.8020706,168.8000031,0.5,230.5,4.5,0.0,0.0,890,151,0,0,860.35,16.13,26.96,# data time:120,pm2.5:6.445,pm10:5.704,O2:0.000,NO2:0.000,SO2:0.000,NH3:5.536
12:05:47,0,0,0,0,0,2100,2200,0,0,0,0,515,0,0,0,0,0.0000000,0.0000000,0.0000000,0.0000000,4.00,38.4048347,-110.8020706,168.8000031,0.1,249.0,4.5,0.0,0.0,890,157,0,0,860.45,16.11,27.03,# data time:120,pm2.5:6.445,pm10:5.704,O2:0.000,NO2:0.000,SO2:0.000,NH3:5.536
12:05:48,0,0,0,0,0,2100,2200,0,0,0,0,514,0,0,0,0,0.0000000,0.0000000,0.0000000,0.0000000,5.00,38.4048386,-110.8020859,168.8999939,0.3,250.8,1.8,0.0,0.0,892,153,0,0,860.30,16.11,27.06,# data time:120,pm2.5:6.445,pm10:5.704,O2:0.000,NO2:0.000,SO2:0.000,NH3:5.536
12:05:49,0,0,0,0,0,2100,2200,0,0,0,0,515,0,0,0,0,0.0000000,0.0000000,0.0000000,0.0000000,5.00,38.4048386,-110.8020859,169.0000000,0.3,248.5,1.8,0.0,0.0,891,149,0,0,860.33,16.07,27.05,# data time:120,pm2.5:6.445,pm10:5.704,O2:0.000,NO2:0.000,SO2:0.000,NH3:5.536
12:05:50,0,0,0,0,0,2100,2200,0,0,0,0,514,0,0,0,0,0.0000000,0.0000000,0.0000000,0.0000000,5.00,38.4048424,-110.8021011,169.1000061,0.3,249.0,1.8,0.0,0.0,891,154,0,0,860.39,15.93,27.15,# data time:120,pm2.5:6.445,pm10:5.704,O2:0.000,NO2:0.000,SO2:0.000,NH3:5.536
12:05:51,0,0,0,0,0,2100,2200,0,0,0,0,512,0,0,0,0,0.0000000,0.0000000,0.0000000,0.0000000,5.00,38.4048462,-110.8021011,169.1999969,0.4,262.0,1.8,0.0,0.0,891,152,0,0,860.34,15.88,27.21,# data time:120,pm2.5:6.445,pm10:5.704,O2:0.000,NO2:0.000,SO2:0.000,NH3:5.536
12:05:52,0,0,0,0,0,2100,2200,0,0,0,0,514,0,0,0,0,0.0000000,0.0000000,0.0000000,0.0000000,5.00,38.4048462,-110.8021011,169.3000031,0.3,261.2,1.8,0.0,0.0,890,151,0,0,860.31,15.88,27.21,# data time:130,pm2.5:6.445,pm10:5.704,O2:0.000,NO2:0.046,SO2:0.000,NH3:5.536
12:05:53,0,0,0,0,0,2100,2200,0,0,0,0,515,0,0,0,0,0.0000000,0.0000000,0.0000000,0.0000000,5.00,38.4048462,-110.8021088,169.3999939,0.4,259.9,1.8,0.0,0.0,890,155,0,0,860.22,15.84,27.25,# data time:130,pm2.5:6.445,pm10:5.704,O2:0.000,NO2:0.046,SO2:0.000,NH3:5.536
12:05:54,0,0,0,0,0,2100,2200,0,0,0,0,514,0,0,0,0,0.0000000,0.0000000,0.0000000,0.0000000,6.00,38.4048462,-110.8021088,169.5000000,0.3,260.9,1.2,0.0,0.0,890,185,0,0,860.09,15.32,27.13,# data time:130,pm2.5:6.445,pm10:5.704,O2:0.000,NO2:0.046,SO2:0.000,NH3:5.536
12:05:55,0,0,0,0,0,2100,2200,0,0,0,0,514,0,0,0,0,0.0000000,0.0000000,0.0000000,0.0000000,6.00,38.4048462,-110.8021088,169.6000061,0.3,257.4,1.2,0.0,0.0,890,190,0,0,860.22,15.40,26.98,# data time:130,pm2.5:6.445,pm10:5.704,O2:0.000,NO2:0.046,SO2:0.000,NH3:5.536
12:05:57,0,0,0,0,0,2100,2200,0,0,0,0,514,0,0,0,0,0.0000000,0.0000000,0.0000000,0.0000000,6.00,38.4048462,-110.8021088,169.8999939,0.3,259.6,1.2,0.0,0.0,890,165,0,0,860.20,15.37,26.65,# data time:130,pm2.5:6.445,pm10:5.704,O2:0.000,NO2:0.046,SO2:0.000,NH3:5.536
12:05:58,0,0,0,0,0,2100,2200,0,0,0,0,514,0,0,0,0,0.0000000,0.0000000,0.0000000,0.0000000,6.00,38.4048462,-110.8021088,170.1000061,0.3,254.4,1.2,0.0,0.0,890,165,0,0,860.29,15.34,26.65,# data time:130,pm2.5:6.445,pm10:5.704,O2:0.000,NO2:0.046,SO2:0.000,NH3:5.536
12:05:59,0,0,0,0,0,2100,2200,0,0,0,0,515,0,0,0,0,0.0000000,0.0000000,0.0000000,0.0000000,6.00,38.4048462,-110.8021088,170.3000031,0.4,263.5,1.2,0.0,0.0,890,166,0,0,860.49,14.82,26.49,# data time:130,pm2.5:6.445,pm10:5.704,O2:0.000,NO2:0.046,SO2:0.000,NH3:5.536
12:06:00,0,0,0,0,0,2100,2200,0,0,0,0,515,0,0,0,0,0.0000000,0.0000000,0.0000000,0.0000000,8.00,38.4048462,-110.8021088,170.3000031,0.3,235.1,1.2,0.0,0.0,890,160,0,0,860.41,14.97,26.09,# data time:130,pm2.5:6.445,pm10:5.704,O2:0.000,NO2:0.046,SO2:0.000,NH3:5.536
12:06:01,0,0,0,0,0,2100,2200,0,0,0,0,515,0,0,0,0,0.0000000,0.0000000,0.0000000,0.0000000,7.00,38.4048462,-110.8021088,170.3000031,0.3,235.1,1.2,0.0,0.0,890,153,0,0,860.25,15.67,25.90,# data time:140,pm2.5:6.445,pm10:5.704,O2:0.000,NO2:0.010,SO2:0.000,NH3:5.536
12:06:02,0,0,0,0,0,2100,2200,0,0,0,0,514,0,0,0,0,0.0000000,0.0000000,0.0000000,0.0000000,8.00,38.4063721,-110.7920761,1179.0000000,0.3,235.1,1.0,0.0,0.0,889,139,0,0,860.21,15.67,25.94,# data time:140,pm2.5:6.445,pm10:5.704,O2:0.000,NO2:0.010,SO2:0.000,NH3:5.536
12:06:04,0,0,0,0,0,2100,2200,0,0,0,0,514,0,0,0,0,0.0000000,0.0000000,0.0000000,0.0000000,8.00,38.4063568,-110.7920609,1246.6999512,0.2,290.3,1.0,0.0,0.0,891,137,0,0,860.25,15.78,25.94,# data time:140,pm2.5:6.445,pm10:5.704,O2:0.000,NO2:0.010,SO2:0.000,NH3:5.536
12:06:05,0,0,0,0,0,2100,2200,0,0,0,0,514,0,0,0,0,0.0000000,0.0000000,0.0000000,0.0000000,8.00,38.4063492,-110.7920532,1284.9000244,0.0,187.4,1.0,0.0,0.0,890,135,0,0,860.20,16.14,25.90,# data time:140,pm2.5:6.445,pm10:5.704,O2:0.000,NO2:0.010,SO2:0.000,NH3:5.536
12:06:06,0,0,0,0,0,2100,2200,0,0,0,0,514,0,0,0,0,0.0000000,0.0000000,0.0000000,0.0000000,8.00,38.4063416,-110.7920532,1304.8000488,0.0,229.6,1.0,0.0,0.0,890,132,0,0,860.27,16.07,25.95,# data time:140,pm2.5:6.445,pm10:5.704,O2:0.000,NO2:0.010,SO2:0.000,NH3:5.536
12:06:07,0,0,0,0,0,2100,2200,0,0,0,0,515,0,0,0,0,0.0000000,0.0000000,0.0000000,0.0000000,8.00,38.4063377,-110.7920532,1317.6999512,0.0,20.0,1.0,0.0,0.0,890,138,0,0,860.25,15.98,26.07,# data time:140,pm2.5:6.445,pm10:5.704,O2:0.000,NO2:0.010,SO2:0.000,NH3:5.536
12:06:08,0,0,0,0,0,2100,2200,0,0,0,0,515,0,0,0,0,0.0000000,0.0000000,0.0000000,0.0000000,8.00,38.4063339,-110.7920380,1327.4000244,0.0,253.9,1.0,0.0,0.0,890,140,0,0,860.34,15.75,26.11,# data time:140,pm2.5:6.445,pm10:5.704,O2:0.000,NO2:0.010,SO2:0.000,NH3:5.536
12:06:09,0,0,0,0,0,2100,2200,0,0,0,0,515,0,0,0,0,0.0000000,0.0000000,0.0000000,0.0000000,8.00,38.4063339,-110.7920532,1329.0999756,0.1,191.0,1.0,0.0,0.0,890,140,0,0,860.36,15.75,26.14,# data time:140,pm2.5:6.445,pm10:5.704,O2:0.000,NO2:0.010,SO2:0.000,NH3:5.536
12:06:10,0,0,0,0,0,2100,2200,0,0,0,0,514,0,0,0,0,0.0000000,0.0000000,0.0000000,0.0000000,8.00,38.4063339,-110.7920532,1330.8000488,0.0,300.1,1.0,0.0,0.0,890,148,0,0,860.34,15.64,26.14,# data time:140,pm2.5:6.445,pm10:5.704,O2:0.000,NO2:0.010,SO2:0.000,NH3:5.536
12:06:11,0,0,0,0,0,2100,2200,0,0,0,0,515,0,0,0,0,0.0000000,0.0000000,0.0000000,0.0000000,8.00,38.4063301,-110.7920532,1334.5000000,0.0,269.7,1.0,0.0,0.0,890,133,0,0,860.28,15.87,26.08,# data time:140,pm2.5:6.445,pm10:5.704,O2:0.000,NO2:0.010,SO2:0.000,NH3:5.536
12:06:12,0,0,0,0,0,2100,2200,0,0,0,0,514,0,0,0,0,0.0000000,0.0000000,0.0000000,0.0000000,8.00,38.4063301,-110.7920532,1336.0000000,0.0,259.1,1.0,0.0,0.0,890,181,0,0,860.35,15.67,26.05,# data time:150,pm2.5:6.445,pm10:5.704,O2:0.000,NO2:0.000,SO2:0.000,NH3:5.536
12:06:13,0,0,0,0,0,2100,2200,0,0,0,0,514,0,0,0,0,0.0000000,0.0000000,0.0000000,0.0000000,8.00,38.4063263,-110.7920380,1338.0000000,0.0,153.5,1.0,0.0,0.0,890,171,0,0,860.36,15.58,25.98,# data time:150,pm2.5:6.445,pm10:5.704,O2:0.000,NO2:0.000,SO2:0.000,NH3:5.536
12:06:14,0,0,0,0,0,2100,2200,0,0,0,0,515,0,0,0,0,0.0000000,0.0000000,0.0000000,0.0000000,8.00,38.4063263,-110.7920380,1339.3000488,0.0,275.8,1.0,0.0,0.0,890,162,0,0,860.34,15.66,25.93,# data time:150,pm2.5:6.445,pm10:5.704,O2:0.000,NO2:0.000,SO2:0.000,NH3:5.536
12:06:15,0,0,0,0,0,2100,2200,0,0,0,0,514,0,0,0,0,0.0000000,0.0000000,0.0000000,0.0000000,8.00,38.4063263,-110.7920380,1340.8000488,0.0,305.4,1.0,0.0,0.0,890,161,0,0,860.28,15.81,25.88,# data time:150,pm2.5:6.445,pm10:5.704,O2:0.000,NO2:0.000,SO2:0.000,NH3:5.536
12:06:16,0,0,0,0,0,2100,2200,0,0,0,0,515,0,0,0,0,0.0000000,0.0000000,0.0000000,0.0000000,8.00,38.4063301,-110.7920380,1342.3000488,0.1,285.5,1.0,0.0,0.0,890,158,0,0,860.21,16.07,25.84,# data time:150,pm2.5:6.445,pm10:5.704,O2:0.000,NO2:0.000,SO2:0.000,NH3:5.536
12:06:17,0,0,0,0,0,2100,2200,0,0,0,0,514,0,0,0,0,0.0000000,0.0000000,0.0000000,0.0000000,8.00,38.4063301,-110.7920380,1342.4000244,0.0,117.9,1.0,0.0,0.0,890,155,0,0,860.18,16.22,25.84,# data time:150,pm2.5:6.445,pm10:5.704,O2:0.000,NO2:0.000,SO2:0.000,NH3:5.536
12:06:18,0,0,0,0,0,2100,2200,0,0,0,0,514,0,0,0,0,0.0000000,0.0000000,0.0000000,0.0000000,8.00,38.4063301,-110.7920380,1342.4000244,0.1,285.1,1.0,0.0,0.0,890,155,0,0,860.14,16.25,25.81,# data time:150,pm2.5:6.445,pm10:5.704,O2:0.000,NO2:0.000,SO2:0.000,NH3:5.536
12:06:19,0,0,0,0,0,2100,2200,0,0,0,0,514,0,0,0,0,0.0000000,0.0000000,0.0000000,0.0000000,8.00,38.4063301,-110.7920380,1342.4000244,0.0,167.7,1.0,0.0,0.0,890,148,0,0,860.13,16.14,25.82,# data time:150,pm2.5:6.445,pm10:5.704,O2:0.000,NO2:0.000,SO2:0.000,NH3:5.536
12:06:20,0,0,0,0,0,2100,2200,0,0,0,0,515,0,0,0,0,0.0000000,0.0000000,0.0000000,0.0000000,8.00,38.4063301,-110.7920380,1342.5000000,0.0,319.7,1.0,0.0,0.0,890,146,0,0,860.15,16.01,25.85,# data time:150,pm2.5:6.445,pm10:5.704,O2:0.000,NO2:0.000,SO2:0.000,NH3:5.536
12:06:21,0,0,0,0,0,2100,2200,0,0,0,0,514,0,0,0,0,0.0000000,0.0000000,0.0000000,0.0000000,8.00,38.4063301,-110.7920380,1342.5000000,0.1,266.4,1.0,0.0,0.0,890,144,0,0,860.54,15.50,25.93,# data time:150,pm2.5:6.445,pm10:5.704,O2:0.000,NO2:0.000,SO2:0.000,NH3:5.536
12:06:22,0,0,0,0,0,2100,2200,0,0,0,0,515,0,0,0,0,0.0000000,0.0000000,0.0000000,0.0000000,8.00,38.4063301,-110.7920380,1342.5000000,0.0,89.8,1.0,0.0,0.0,890,142,0,0,860.13,16.13,25.94,# data time:160,pm2.5:6.445,pm10:5.704,O2:0.000,NO2:0.010,SO2:0.000,NH3:5.762
12:06:23,0,0,0,0,0,2100,2200,0,0,0,0,513,0,0,0,0,0.0000000,0.0000000,0.0000000,0.0000000,8.00,38.4063301,-110.7920380,1342.5000000,0.0,84.5,1.0,0.0,0.0,890,139,0,0,860.13,16.21,25.94,# data time:160,pm2.5:6.445,pm10:5.704,O2:0.000,NO2:0.010,SO2:0.000,NH3:5.762
12:06:24,0,0,0,0,0,2100,2200,0,0,0,0,514,0,0,0,0,0.0000000,0.0000000,0.0000000,0.0000000,8.00,38.4063263,-110.7920380,1342.5000000,0.0,345.9,1.0,0.0,0.0,890,140,0,0,860.06,16.25,25.99,# data time:160,pm2.5:6.445,pm10:5.704,O2:0.000,NO2:0.010,SO2:0.000,NH3:5.762
12:06:25,0,0,0,0,0,2100,2200,0,0,0,0,514,0,0,0,0,0.0000000,0.0000000,0.0000000,0.0000000,8.00,38.4063263,-110.7920380,1342.5000000,0.0,216.1,1.0,0.0,0.0,890,135,0,0,860.07,16.25,26.04,# data time:160,pm2.5:6.445,pm10:5.704,O2:0.000,NO2:0.010,SO2:0.000,NH3:5.762
12:06:26,0,0,0,0,0,2100,2200,0,0,0,0,515,0,0,0,0,0.0000000,0.0000000,0.0000000,0.0000000,8.00,38.4063263,-110.7920380,1342.5000000,0.0,203.3,1.0,0.0,0.0,890,135,0,0,860.08,16.16,26.13,# data time:160,pm2.5:6.445,pm10:5.704,O2:0.000,NO2:0.010,SO2:0.000,NH3:5.762
12:06:27,0,0,0,0,0,2100,2200,0,0,0,0,514,0,0,0,0,0.0000000,0.0000000,0.0000000,0.0000000,8.00,38.4063263,-110.7920380,1342.5999756,0.1,302.8,1.0,0.0,0.0,889,137,0,0,860.07,16.43,26.15,# data time:160,pm2.5:6.445,pm10:5.704,O2:0.000,NO2:0.010,SO2:0.000,NH3:5.762
12:06:28,0,0,0,0,0,2100,2200,0,0,0,0,514,0,0,0,0,0.0000000,0.0000000,0.0000000,0.0000000,8.00,38.4063263,-110.7920380,1342.5999756,0.1,140.7,1.0,0.0,0.0,890,138,0,0,860.67,19.12,26.17,# data time:160,pm2.5:6.445,pm10:5.704,O2:0.000,NO2:0.010,SO2:0.000,NH3:5.762
12:06:29,0,0,0,0,0,2100,2200,0,0,0,0,514,0,0,0,0,0.0000000,0.0000000,0.0000000,0.0000000,8.00,38.4063263,-110.7920380,1342.5999756,0.1,197.7,1.0,0.0,0.0,890,136,0,0,860.68,18.20,26.26,# data time:160,pm2.5:6.445,pm10:5.704,O2:0.000,NO2:0.010,SO2:0.000,NH3:5.762
12:06:30,0,0,0,0,0,2100,2200,0,0,0,0,515,0,0,0,0,0.0000000,0.0000000,0.0000000,0.0000000,8.00,38.4063263,-110.7920380,1342.5999756,0.2,174.6,1.0,0.0,0.0,890,142,0,0,860.65,18.28,26.29,# data time:160,pm2.5:6.445,pm10:5.704,O2:0.000,NO2:0.010,SO2:0.000,NH3:5.762
12:06:31,0,0,0,0,0,2100,2200,0,0,0,0,514,0,0,0,0,0.0000000,0.0000000,0.0000000,0.0000000,8.00,38.4063263,-110.7920380,1342.6999512,0.1,225.0,1.0,0.0,0.0,890,136,0,0,860.59,18.83,26.37,# data time:170,pm2.5:6.445,pm10:5.704,O2:0.000,NO2:0.046,SO2:0.000,NH3:5.762
12:06:32,0,0,0,0,0,2100,2200,0,0,0,0,514,0,0,0,0,0.0000000,0.0000000,0.0000000,0.0000000,8.00,38.4063263,-110.7920380,1342.6999512,0.2,133.5,1.0,0.0,0.0,890,136,0,0,860.53,18.11,26.50,# data time:170,pm2.5:6.445,pm10:5.704,O2:0.000,NO2:0.046,SO2:0.000,NH3:5.762
12:06:33,0,0,0,0,0,2100,2200,0,0,0,0,515,0,0,0,0,0.0000000,0.0000000,0.0000000,0.0000000,8.00,38.4063263,-110.7920380,1342.6999512,0.1,147.1,1.0,0.0,0.0,890,128,0,0,860.48,18.51,26.65,# data time:170,pm2.5:6.445,pm10:5.704,O2:0.000,NO2:0.046,SO2:0.000,NH3:5.762
12:06:34,0,0,0,0,0,2100,2200,0,0,0,0,514,0,0,0,0,0.0000000,0.0000000,0.0000000,0.0000000,8.00,38.4063225,-110.7920380,1342.6999512,0.1,165.6,1.0,0.0,0.0,890,128,0,0,860.42,17.93,26.77,# data time:170,pm2.5:6.445,pm10:5.704,O2:0.000,NO2:0.046,SO2:0.000,NH3:5.762
12:06:35,0,0,0,0,0,2100,2200,0,0,0,0,514,0,0,0,0,0.0000000,0.0000000,0.0000000,0.0000000,8.00,38.4063225,-110.7920380,1342.6999512,0.1,243.5,1.0,0.0,0.0,890,133,0,0,860.47,18.36,26.88,# data time:170,pm2.5:6.445,pm10:5.704,O2:0.000,NO2:0.046,SO2:0.000,NH3:5.762
12:06:36,0,0,0,0,0,2100,2200,0,0,0,0,514,0,0,0,0,0.0000000,0.0000000,0.0000000,0.0000000,8.00,38.4063225,-110.7920380,1342.8000488,0.1,251.9,1.0,0.0,0.0,890,132,0,0,860.52,18.75,27.04,# data time:170,pm2.5:6.445,pm10:5.704,O2:0.000,NO2:0.046,SO2:0.000,NH3:5.762
12:06:37,0,0,0,0,0,2100,2200,0,0,0,0,515,0,0,0,0,0.0000000,0.0000000,0.0000000,0.0000000,8.00,38.4063225,-110.7920380,1342.8000488,0.1,258.8,1.0,0.0,0.0,890,130,0,0,860.57,18.57,27.18,# data time:170,pm2.5:6.445,pm10:5.704,O2:0.000,NO2:0.046,SO2:0.000,NH3:5.762
12:06:38,0,0,0,0,0,2100,2200,0,0,0,0,514,0,0,0,0,0.0000000,0.0000000,0.0000000,0.0000000,8.00,38.4063225,-110.7920380,1342.8000488,0.2,257.6,1.0,0.0,0.0,890,134,0,0,860.59,18.11,27.30,# data time:170,pm2.5:6.445,pm10:5.704,O2:0.000,NO2:0.046,SO2:0.000,NH3:5.762
12:06:39,0,0,0,0,0,2100,2200,0,0,0,0,514,0,0,0,0,0.0000000,0.0000000,0.0000000,0.0000000,8.00,38.4063225,-110.7920380,1342.9000244,0.1,340.9,1.0,0.0,0.0,890,131,0,0,860.55,18.52,27.44,# data time:170,pm2.5:6.445,pm10:5.704,O2:0.000,NO2:0.046,SO2:0.000,NH3:5.762
12:06:40,0,0,0,0,0,2100,2200,0,0,0,0,514,0,0,0,0,0.0000000,0.0000000,0.0000000,0.0000000,8.00,38.4063225,-110.7920380,1342.9000244,0.3,109.3,1.0,0.0,0.0,890,132,0,0,860.58,18.69,27.53,# data time:170,pm2.5:6.445,pm10:5.704,O2:0.000,NO2:0.046,SO2:0.000,NH3:5.762
12:06:41,0,0,0,0,0,2100,2200,0,0,0,0,514,0,0,0,0,0.0000000,0.0000000,0.0000000,0.0000000,8.00,38.4063225,-110.7920380,1342.9000244,0.1,164.2,1.0,0.0,0.0,890,133,0,0,860.51,18.91,27.60,# data time:180,pm2.5:6.445,pm10:5.704,O2:0.000,NO2:0.000,SO2:0.000,NH3:5.988
12:06:42,0,0,0,0,0,2100,2200,0,0,0,0,514,0,0,0,0,0.0000000,0.0000000,0.0000000,0.0000000,8.00,38.4063225,-110.7920380,1342.9000244,0.2,114.7,1.0,0.0,0.0,890,134,0,0,860.48,18.78,27.63,# data time:180,pm2.5:6.445,pm10:5.704,O2:0.000,NO2:0.000,SO2:0.000,NH3:5.988
12:06:43,0,0,0,0,0,2100,2200,0,0,0,0,515,0,0,0,0,0.0000000,0.0000000,0.0000000,0.0000000,8.00,38.4063225,-110.7920380,1343.0000000,0.1,124.1,1.0,0.0,0.0,890,133,0,0,860.51,18.62,27.76,# data time:180,pm2.5:6.445,pm10:5.704,O2:0.000,NO2:0.000,SO2:0.000,NH3:5.988
12:06:44,0,0,0,0,0,2100,2200,0,0,0,0,515,0,0,0,0,0.0000000,0.0000000,0.0000000,0.0000000,8.00,38.4063225,-110.7920380,1343.0000000,0.0,211.1,1.0,0.0,0.0,890,125,0,0,860.36,17.50,27.68,# data time:180,pm2.5:6.445,pm10:5.704,O2:0.000,NO2:0.000,SO2:0.000,NH3:5.988
12:06:45,0,0,0,0,0,2100,2200,0,0,0,0,515,0,0,0,0,0.0000000,0.0000000,0.0000000,0.0000000,8.00,38.4063225,-110.7920380,1343.0000000,0.1,210.0,1.0,0.0,0.0,890,130,0,0,860.51,20.95,27.46,# data time:180,pm2.5:6.445,pm10:5.704,O2:0.000,NO2:0.000,SO2:0.000,NH3:5.988
12:06:46,0,0,0,0,0,2100,2200,0,0,0,0,514,0,0,0,0,0.0000000,0.0000000,0.0000000,0.0000000,8.00,38.4063225,-110.7920380,1343.0000000,0.0,342.0,1.0,0.0,0.0,890,126,0,0,860.50,20.68,27.49,# data time:180,pm2.5:6.445,pm10:5.704,O2:0.000,NO2:0.000,SO2:0.000,NH3:5.988
12:06:47,0,0,0,0,0,2100,2200,0,0,0,0,514,0,0,0,0,0.0000000,0.0000000,0.0000000,0.0000000,8.00,38.4063225,-110.7920380,1343.0000000,0.0,246.8,1.0,0.0,0.0,890,140,0,0,860.57,19.68,27.67,# data time:180,pm2.5:6.445,pm10:5.704,O2:0.000,NO2:0.000,SO2:0.000,NH3:5.988
12:06:48,0,0,0,0,0,2100,2200,0,0,0,0,515,0,0,0,0,0.0000000,0.0000000,0.0000000,0.0000000,8.00,38.4063225,-110.7920380,1343.0999756,0.0,246.8,1.0,0.0,0.0,890,140,0,0,860.72,23.38,27.78,# data time:180,pm2.5:6.445,pm10:5.704,O2:0.000,NO2:0.000,SO2:0.000,NH3:5.988
12:06:49,0,0,0,0,0,2100,2200,0,0,0,0,514,0,0,0,0,0.0000000,0.0000000,0.0000000,0.0000000,8.00,38.4063225,-110.7920380,1343.0999756,0.0,246.8,1.0,0.0,0.0,890,139,0,0,860.32,18.85,27.84,# data time:180,pm2.5:6.445,pm10:5.704,O2:0.000,NO2:0.000,SO2:0.000,NH3:5.988
12:06:50,0,0,0,0,0,2100,2200,0,0,0,0,515,0,0,0,0,0.0000000,0.0000000,0.0000000,0.0000000,8.00,38.4063225,-110.7920380,1343.0999756,0.0,209.5,1.0,0.0,0.0,890,136,0,0,860.19,16.65,27.90,# data time:180,pm2.5:6.445,pm10:5.704,O2:0.000,NO2:0.000,SO2:0.000,NH3:5.988
12:06:52,0,0,0,0,0,2100,2200,0,0,0,0,514,0,0,0,0,0.0000000,0.0000000,0.0000000,0.0000000,8.00,38.4063225,-110.7920380,1343.0999756,0.0,127.9,1.0,0.0,0.0,890,140,0,0,860.38,18.75,27.79,# data time:190,pm2.5:6.445,pm10:5.704,O2:0.000,NO2:0.010,SO2:0.000,NH3:5.988
12:06:53,0,0,0,0,0,2100,2200,0,0,0,0,514,0,0,0,0,0.0000000,0.0000000,0.0000000,0.0000000,8.00,38.4063225,-110.7920380,1343.0999756,0.0,127.9,1.0,0.0,0.0,890,140,0,0,860.38,18.75,27.79,# data time:190,pm2.5:6.445,pm10:5.704,O2:0.000,NO2:0.010,SO2:0.000,NH3:5.988
12:06:54,0,0,0,0,0,2100,2200,0,0,0,0,514,0,0,0,0,0.0000000,0.0000000,0.0000000,0.0000000,8.00,38.4063225,-110.7920380,1343.0999756,0.0,214.1,1.0,0.0,0.0,890,140,0,0,860.42,18.92,27.62,# data time:190,pm2.5:6.445,pm10:5.704,O2:0.000,NO2:0.010,SO2:0.000,NH3:5.988
12:06:55,0,0,0,0,0,2100,2200,0,0,0,0,515,0,0,0,0,0.0000000,0.0000000,0.0000000,0.0000000,8.00,38.4063225,-110.7920380,1343.0999756,0.0,126.3,1.0,0.0,0.0,890,157,0,0,860.61,20.08,27.55,# data time:190,pm2.5:6.445,pm10:5.704,O2:0.000,NO2:0.010,SO2:0.000,NH3:5.988
12:06:56,0,0,0,0,0,2100,2200,0,0,0,0,515,0,0,0,0,0.0000000,0.0000000,0.0000000,0.0000000,8.00,38.4063225,-110.7920380,1343.0999756,0.0,283.6,1.0,0.0,0.0,890,156,0,0,860.53,19.76,27.50,# data time:190,pm2.5:6.445,pm10:5.704,O2:0.000,NO2:0.010,SO2:0.000,NH3:5.988
12:06:57,0,0,0,0,0,2100,2200,0,0,0,0,515,0,0,0,0,0.0000000,0.0000000,0.0000000,0.0000000,8.00,38.4063225,-110.7920380,1343.0999756,0.0,109.8,1.0,0.0,0.0,890,152,0,0,860.32,19.10,27.51,# data time:190,pm2.5:6.445,pm10:5.704,O2:0.000,NO2:0.010,SO2:0.000,NH3:5.988
12:06:58,0,0,0,0,0,2100,2200,0,0,0,0,515,0,0,0,0,0.0000000,0.0000000,0.0000000,0.0000000,8.00,38.4063225,-110.7920380,1343.0999756,0.0,298.0,1.0,0.0,0.0,890,147,0,0,860.43,19.70,27.56,# data time:190,pm2.5:6.445,pm10:5.704,O2:0.000,NO2:0.010,SO2:0.000,NH3:5.988
12:06:59,0,0,0,0,0,2100,2200,0,0,0,0,514,0,0,0,0,0.0000000,0.0000000,0.0000000,0.0000000,8.00,38.4063225,-110.7920380,1343.0999756,0.0,116.1,1.0,0.0,0.0,890,141,0,0,860.47,19.23,27.67,# data time:190,pm2.5:6.445,pm10:5.704,O2:0.000,NO2:0.010,SO2:0.000,NH3:5.988
12:07:00,0,0,0,0,0,2100,2200,0,0,0,0,514,0,0,0,0,0.0000000,0.0000000,0.0000000,0.0000000,8.00,38.4063225,-110.7920380,1343.0999756,0.0,80.2,1.0,0.0,0.0,890,141,0,0,860.41,18.51,27.80,# data time:190,pm2.5:6.445,pm10:5.704,O2:0.000,NO2:0.010,SO2:0.000,NH3:5.988
12:07:01,0,0,0,0,0,2100,2200,0,0,0,0,515,0,0,0,0,0.0000000,0.0000000,0.0000000,0.0000000,8.00,38.4063225,-110.7920380,1343.0999756,0.0,33.6,1.0,0.0,0.0,890,138,0,0,860.37,18.71,27.99,# data time:190,pm2.5:6.445,pm10:5.704,O2:0.000,NO2:0.010,SO2:0.000,NH3:5.988
12:07:02,0,0,0,0,0,2100,2200,0,0,0,0,514,0,0,0,0,0.0000000,0.0000000,0.0000000,0.0000000,8.00,38.4063225,-110.7920380,1343.1999512,0.0,21.6,1.0,0.0,0.0,890,142,0,0,860.31,19.14,28.12,# data time:200,pm2.5:6.445,pm10:5.704,O2:0.000,NO2:0.000,SO2:0.000,NH3:5.988
12:07:03,0,0,0,0,0,2100,2200,0,0,0,0,514,0,0,0,0,0.0000000,0.0000000,0.0000000,0.0000000,8.00,38.4063225,-110.7920380,1343.1999512,0.0,256.0,1.0,0.0,0.0,890,134,0,0,860.35,19.18,28.22,# data time:200,pm2.5:6.445,pm10:5.704,O2:0.000,NO2:0.000,SO2:0.000,NH3:5.988
12:07:04,0,0,0,0,0,2100,2200,0,0,0,0,514,0,0,0,0,0.0000000,0.0000000,0.0000000,0.0000000,8.00,38.4063225,-110.7920380,1343.4000244,0.0,124.2,1.0,0.0,0.0,890,136,0,0,860.36,19.17,28.39,# data time:200,pm2.5:6.445,pm10:5.704,O2:0.000,NO2:0.000,SO2:0.000,NH3:5.988
12:07:05,0,0,0,0,0,2100,2200,0,0,0,0,514,0,0,0,0,0.0000000,0.0000000,0.0000000,0.0000000,8.00,38.4063225,-110.7920380,1343.8000488,0.0,276.3,1.0,0.0,0.0,890,135,0,0,860.28,18.97,28.56,# data time:200,pm2.5:6.445,pm10:5.704,O2:0.000,NO2:0.000,SO2:0.000,NH3:5.988
12:07:06,0,0,0,0,0,2100,2200,0,0,0,0,515,0,0,0,0,0.0000000,0.0000000,0.0000000,0.0000000,8.00,38.4063225,-110.7920380,1344.0999756,0.0,192.8,1.0,0.0,0.0,889,131,0,0,860.31,18.89,28.73,# data time:200,pm2.5:6.445,pm10:5.704,O2:0.000,NO2:0.000,SO2:0.000,NH3:5.988
12:07:07,0,0,0,0,0,2100,2200,0,0,0,0,514,0,0,0,0,0.0000000,0.0000000,0.0000000,0.0000000,8.00,38.4063187,-110.7920380,1344.4000244,0.0,92.2,1.0,0.0,0.0,890,131,0,0,860.34,18.36,28.94,# data time:200,pm2.5:6.445,pm10:5.704,O2:0.000,NO2:0.000,SO2:0.000,NH3:5.988
12:07:08,0,0,0,0,0,2100,2200,0,0,0,0,516,0,0,0,0,0.0000000,0.0000000,0.0000000,0.0000000,8.00,38.4063187,-110.7920380,1344.8000488,0.0,206.5,1.0,0.0,0.0,890,134,0,0,860.36,18.27,29.06,# data time:200,pm2.5:6.445,pm10:5.704,O2:0.000,NO2:0.000,SO2:0.000,NH3:5.988
12:07:09,0,0,0,0,0,2100,2200,0,0,0,0,515,0,0,0,0,0.0000000,0.0000000,0.0000000,0.0000000,8.00,38.4063187,-110.7920380,1344.8000488,0.0,290.1,1.0,0.0,0.0,890,130,0,0,860.40,18.16,29.05,# data time:200,pm2.5:6.445,pm10:5.704,O2:0.000,NO2:0.000,SO2:0.000,NH3:5.988
12:07:10,0,0,0,0,0,2100,2200,0,0,0,0,515,0,0,0,0,0.0000000,0.0000000,0.0000000,0.0000000,8.00,38.4063187,-110.7920380,1344.8000488,0.0,58.3,1.0,0.0,0.0,890,127,0,0,860.25,18.25,29.04,# data time:200,pm2.5:6.445,pm10:5.704,O2:0.000,NO2:0.000,SO2:0.000,NH3:5.988
12:07:11,0,0,0,0,0,2100,2200,0,0,0,0,514,0,0,0,0,0.0000000,0.0000000,0.0000000,0.0000000,8.00,38.4063187,-110.7920380,1344.8000488,0.0,340.8,1.0,0.0,0.0,890,131,0,0,860.41,18.25,29.06,# data time:210,pm2.5:5.640,pm10:4.991,O2:0.000,NO2:0.000,SO2:0.000,NH3:6.215
12:07:12,0,0,0,0,0,2100,2200,0,0,0,0,514,0,0,0,0,0.0000000,0.0000000,0.0000000,0.0000000,8.00,38.4063187,-110.7920380,1344.8000488,0.0,116.3,1.0,0.0,0.0,890,125,0,0,860.40,18.13,29.13,# data time:210,pm2.5:5.640,pm10:4.991,O2:0.000,NO2:0.000,SO2:0.000,NH3:6.215
12:07:13,0,0,0,0,0,2100,2200,0,0,0,0,515,0,0,0,0,0.0000000,0.0000000,0.0000000,0.0000000,8.00,38.4063187,-110.7920380,1344.8000488,0.0,299.3,1.0,0.0,0.0,890,129,0,0,860.35,18.43,29.25,# data time:210,pm2.5:5.640,pm10:4.991,O2:0.000,NO2:0.000,SO2:0.000,NH3:6.215
12:07:14,0,0,0,0,0,2100,2200,0,0,0,0,516,0,0,0,0,0.0000000,0.0000000,0.0000000,0.0000000,8.00,38.4063187,-110.7920380,1344.8000488,0.0,318.7,1.0,0.0,0.0,890,127,0,0,860.31,18.57,29.30,# data time:210,pm2.5:5.640,pm10:4.991,O2:0.000,NO2:0.000,SO2:0.000,NH3:6.215
12:07:15,0,0,0,0,0,2100,2200,0,0,0,0,514,0,0,0,0,0.0000000,0.0000000,0.0000000,0.0000000,8.00,38.4063187,-110.7920380,1344.8000488,0.0,158.4,1.0,0.0,0.0,890,132,0,0,860.32,18.65,29.37,# data time:210,pm2.5:5.640,pm10:4.991,O2:0.000,NO2:0.000,SO2:0.000,NH3:6.215
12:07:16,0,0,0,0,0,2100,2200,0,0,0,0,515,0,0,0,0,0.0000000,0.0000000,0.0000000,0.0000000,8.00,38.4063187,-110.7920380,1344.8000488,0.0,115.7,1.0,0.0,0.0,890,134,0,0,860.29,18.48,29.39,# data time:210,pm2.5:5.640,pm10:4.991,O2:0.000,NO2:0.000,SO2:0.000,NH3:6.215
12:07:17,0,0,0,0,0,2100,2200,0,0,0,0,515,0,0,0,0,0.0000000,0.0000000,0.0000000,0.0000000,8.00,38.4063187,-110.7920380,1344.8000488,0.0,283.9,1.0,0.0,0.0,890,134,0,0,860.32,18.31,29.39,# data time:210,pm2.5:5.640,pm10:4.991,O2:0.000,NO2:0.000,SO2:0.000,NH3:6.215
12:07:18,0,0,0,0,0,2100,2200,0,0,0,0,514,0,0,0,0,0.0000000,0.0000000,0.0000000,0.0000000,8.00,38.4063187,-110.7920380,1344.9000244,0.0,174.1,1.0,0.0,0.0,890,137,0,0,860.31,18.43,29.35,# data time:210,pm2.5:5.640,pm10:4.991,O2:0.000,NO2:0.000,SO2:0.000,NH3:6.215
12:07:19,0,0,0,0,0,2100,2200,0,0,0,0,514,0,0,0,0,0.0000000,0.0000000,0.0000000,0.0000000,8.00,38.4063187,-110.7920380,1344.9000244,0.0,258.6,1.0,0.0,0.0,890,131,0,0,860.30,18.52,29.38,# data time:210,pm2.5:5.640,pm10:4.991,O2:0.000,NO2:0.000,SO2:0.000,NH3:6.215
12:07:20,0,0,0,0,0,2100,2200,0,0,0,0,514,0,0,0,0,0.0000000,0.0000000,0.0000000,0.0000000,8.00,38.4063187,-110.7920380,1344.9000244,0.0,226.4,1.0,0.0,0.0,890,133,0,0,860.27,18.46,29.39,# data time:210,pm2.5:5.640,pm10:4.991,O2:0.000,NO2:0.000,SO2:0.000,NH3:6.215
12:07:21,0,0,0,0,0,2100,2200,0,0,0,0,516,0,0,0,0,0.0000000,0.0000000,0.0000000,0.0000000,8.00,38.4063187,-110.7920380,1344.9000244,0.0,276.6,1.0,0.0,0.0,890,125,0,0,860.30,18.19,29.32,# data time:220,pm2.5:6.445,pm10:5.704,O2:0.000,NO2:0.000,SO2:0.000,NH3:6.215
12:07:22,0,0,0,0,0,2100,2200,0,0,0,0,514,0,0,0,0,0.0000000,0.0000000,0.0000000,0.0000000,8.00,38.4063187,-110.7920380,1344.9000244,0.0,198.9,1.0,0.0,0.0,891,133,0,0,860.35,17.90,29.21,# data time:220,pm2.5:6.445,pm10:5.704,O2:0.000,NO2:0.000,SO2:0.000,NH3:6.215
12:07:23,0,0,0,0,0,2100,2200,0,0,0,0,514,0,0,0,0,0.0000000,0.0000000,0.0000000,0.0000000,8.00,38.4063187,-110.7920380,1344.9000244,0.0,109.4,1.0,0.0,0.0,890,140,0,0,860.31,18.60,29.22,# data time:220,pm2.5:6.445,pm10:5.704,O2:0.000,NO2:0.000,SO2:0.000,NH3:6.215
12:07:24,0,0,0,0,0,2100,2200,0,0,0,0,517,0,0,0,0,0.0000000,0.0000000,0.0000000,0.0000000,8.00,38.4063187,-110.7920380,1344.9000244,0.0,248.0,1.0,0.0,0.0,891,146,0,0,860.34,18.65,29.29,# data time:220,pm2.5:6.445,pm10:5.704,O2:0.000,NO2:0.000,SO2:0.000,NH3:6.215
12:07:25,0,0,0,0,0,2100,2200,0,0,0,0,515,0,0,0,0,0.0000000,0.0000000,0.0000000,0.0000000,8.00,38.4063187,-110.7920380,1344.9000244,0.0,55.8,1.0,0.0,0.0,890,146,0,0,860.36,17.88,29.35,# data time:220,pm2.5:6.445,pm10:5.704,O2:0.000,NO2:0.000,SO2:0.000,NH3:6.215
12:07:26,0,0,0,0,0,2100,2200,0,0,0,0,515,0,0,0,0,0.0000000,0.0000000,0.0000000,0.0000000,8.00,38.4063187,-110.7920380,1344.9000244,0.0,282.1,1.0,0.0,0.0,890,144,0,0,860.43,18.65,29.39,# data time:220,pm2.5:6.445,pm10:5.704,O2:0.000,NO2:0.000,SO2:0.000,NH3:6.215
12:07:27,0,0,0,0,0,2100,2200,0,0,0,0,515,0,0,0,0,0.0000000,0.0000000,0.0000000,0.0000000,8.00,38.4063187,-110.7920380,1344.9000244,0.0,13.7,1.0,0.0,0.0,890,143,0,0,860.57,20.34,29.51,# data time:220,pm2.5:6.445,pm10:5.704,O2:0.000,NO2:0.000,SO2:0.000,NH3:6.215
12:07:28,0,0,0,0,0,2100,2200,0,0,0,0,515,0,0,0,0,0.0000000,0.0000000,0.0000000,0.0000000,8.00,38.4063187,-110.7920380,1345.0000000,0.0,181.3,1.0,0.0,0.0,890,139,0,0,860.63,21.07,29.69,# data time:220,pm2.5:6.445,pm10:5.704,O2:0.000,NO2:0.000,SO2:0.000,NH3:6.215
12:07:29,0,0,0,0,0,2100,2200,0,0,0,0,514,0,0,0,0,0.0000000,0.0000000,0.0000000,0.0000000,8.00,38.4063187,-110.7920380,1345.0000000,0.0,343.0,1.0,0.0,0.0,890,141,0,0,860.59,19.71,29.77,# data time:220,pm2.5:6.445,pm10:5.704,O2:0.000,NO2:0.000,SO2:0.000,NH3:6.215
12:07:30,0,0,0,0,0,2100,2200,0,0,0,0,515,0,0,0,0,0.0000000,0.0000000,0.0000000,0.0000000,8.00,38.4063187,-110.7920380,1345.0000000,0.0,248.1,1.0,0.0,0.0,890,138,0,0,860.42,18.83,29.78,# data time:220,pm2.5:6.445,pm10:5.704,O2:0.000,NO2:0.000,SO2:0.000,NH3:6.215
12:07:31,0,0,0,0,0,2100,2200,0,0,0,0,515,0,0,0,0,0.0000000,0.0000000,0.0000000,0.0000000,8.00,38.4063187,-110.7920380,1345.0000000,0.0,329.5,1.0,0.0,0.0,891,136,0,0,860.48,18.81,29.83,# data time:230,pm2.5:6.445,pm10:5.704,O2:0.000,NO2:0.000,SO2:0.000,NH3:6.215
12:07:32,0,0,0,0,0,2100,2200,0,0,0,0,514,0,0,0,0,0.0000000,0.0000000,0.0000000,0.0000000,8.00,38.4063187,-110.7920380,1345.0000000,0.0,295.3,1.0,0.0,0.0,890,136,0,0,860.38,18.80,29.91,# data time:230,pm2.5:6.445,pm10:5.704,O2:0.000,NO2:0.000,SO2:0.000,NH3:6.215
12:07:34,0,0,0,0,0,2100,2200,0,0,0,0,513,0,0,0,0,0.0000000,0.0000000,0.0000000,0.0000000,8.00,38.4063225,-110.7920380,1345.0000000,0.0,254.5,1.0,0.0,0.0,892,132,0,0,860.29,18.36,30.06,# data time:230,pm2.5:6.445,pm10:5.704,O2:0.000,NO2:0.000,SO2:0.000,NH3:6.215
12:07:35,0,0,0,0,0,2100,2200,0,0,0,0,514,0,0,0,0,0.0000000,0.0000000,0.0000000,0.0000000,8.00,38.4063225,-110.7920380,1345.0000000,0.0,150.5,1.0,0.0,0.0,890,133,0,0,860.40,19.00,30.18,# data time:230,pm2.5:6.445,pm10:5.704,O2:0.000,NO2:0.000,SO2:0.000,NH3:6.215
12:07:36,0,0,0,0,0,2100,2200,0,0,0,0,514,0,0,0,0,0.0000000,0.0000000,0.0000000,0.0000000,8.00,38.4063187,-110.7920380,1345.0000000,0.0,241.8,1.0,0.0,0.0,890,139,0,0,860.33,18.33,30.23,# data time:230,pm2.5:6.445,pm10:5.704,O2:0.000,NO2:0.000,SO2:0.000,NH3:6.215
12:07:37,0,0,0,0,0,2100,2200,0,0,0,0,513,0,0,0,0,0.0000000,0.0000000,0.0000000,0.0000000,8.00,38.4063187,-110.7920380,1345.0000000,0.0,0.0,1.0,0.0,0.0,889,135,0,0,860.34,18.08,30.34,# data time:230,pm2.5:6.445,pm10:5.704,O2:0.000,NO2:0.000,SO2:0.000,NH3:6.215
12:07:38,0,0,0,0,0,2100,2200,0,0,0,0,515,0,0,0,0,0.0000000,0.0000000,0.0000000,0.0000000,8.00,38.4063187,-110.7920380,1345.0000000,0.0,206.9,1.0,0.0,0.0,891,133,0,0,860.36,17.93,30.50,# data time:230,pm2.5:6.445,pm10:5.704,O2:0.000,NO2:0.000,SO2:0.000,NH3:6.215
