Time, Motor A Speed, Motor A Dir, Motor B Speed, Motor B Dir, Servo Rail Current Sensor, Servo Pos - Arm L, Servo Pos - Arm R, Servo Pos - End, Servo Pos - Hopper, Servo Pos - Lid, Servo Pos - Extra, Servo Current, LED - Front L, LED - Front R, LED - Back L, LED - Back R, IMU Pitch, IMU Roll, IMU Yaw, Compass Heading, GPS Sats, GPS Latitude, GPS Longitude, GPS Altitude, GPS Speed, GPS Angle, GPS HDOP, GPS VDOP, GPS PDOP, Battery, Wind, Comm Xbee Latency, Comm Arduino Latency, Pressure, Humidity, Temperature, uRADMonitor
11:31:14,0,0,0,0,0,2100,2200,0,0,0,0,0,0,0,0,0,0.0000000,0.0000000,0.0000000,0.0000000,0.00,0.0000000,0.0000000,0.0000000,0.0,0.0,0.0,0.0,0.0,0,0,0,0,0.00,0.00,0.00,0
11:31:15,0,0,0,0,0,2100,2200,0,0,0,0,514,0,0,0,0,0.0000000,0.0000000,0.0000000,0.0000000,0.00,0.0000000,0.0000000,0.0000000,0.0,0.0,0.0,0.0,0.0,899,147,0,0,860.49,17.65,28.55,0
11:31:16,0,0,0,0,0,2100,2200,0,0,0,0,514,0,0,0,0,0.0000000,0.0000000,0.0000000,0.0000000,0.00,0.0000000,0.0000000,0.0000000,0.0,0.0,0.0,0.0,0.0,900,149,0,0,860.47,18.62,28.53,0
11:31:17,0,0,0,0,0,2100,2200,0,0,0,0,514,0,0,0,0,0.0000000,0.0000000,0.0000000,0.0000000,0.00,0.0000000,0.0000000,0.0000000,0.0,0.0,0.0,0.0,0.0,900,146,0,0,860.42,18.65,28.70,0
11:31:18,0,0,0,0,0,2100,2200,0,0,0,0,514,0,0,0,0,0.0000000,0.0000000,0.0000000,0.0000000,0.00,0.0000000,0.0000000,0.0000000,0.0,0.0,0.0,0.0,0.0,898,146,0,0,862.55,12.70,29.05,0
11:31:19,0,0,0,0,0,2100,2200,0,0,0,0,514,0,0,0,0,0.0000000,0.0000000,0.0000000,0.0000000,0.00,0.0000000,0.0000000,0.0000000,0.0,0.0,0.0,0.0,0.0,899,142,0,0,860.44,18.39,28.80,0
11:31:20,0,0,0,0,0,2100,2200,0,0,0,0,514,0,0,0,0,0.0000000,0.0000000,0.0000000,0.0000000,0.00,0.0000000,0.0000000,0.0000000,0.0,0.0,0.0,0.0,0.0,900,143,0,0,860.46,18.30,28.89,0
11:31:21,0,0,0,0,0,2100,2200,0,0,0,0,514,0,0,0,0,0.0000000,0.0000000,0.0000000,0.0000000,0.00,0.0000000,0.0000000,0.0000000,0.0,0.0,0.0,0.0,0.0,900,144,0,0,862.78,11.89,29.02,0
11:31:22,0,0,0,0,0,2100,2200,0,0,0,0,514,0,0,0,0,0.0000000,0.0000000,0.0000000,0.0000000,0.00,0.0000000,0.0000000,0.0000000,0.0,0.0,0.0,0.0,0.0,900,143,0,0,861.77,12.38,29.09,# start id:14000016 hw:101 sw:103
# data time:10,pm2.5:591.895,pm10:523.800,O2:0.000,NO2:0.446,SO2:0.000,NH3:0.708
11:31:23,0,0,0,0,0,2100,2200,0,0,0,0,515,0,0,0,0,0.0000000,0.0000000,0.0000000,0.0000000,0.00,0.0000000,0.0000000,0.0000000,0.0,0.0,0.0,0.0,0.0,899,139,0,0,860.28,18.46,28.87,# start id:14000016 hw:101 sw:103
# data time:10,pm2.5:591.895,pm10:523.800,O2:0.000,NO2:0.446,SO2:0.000,NH3:0.708
11:31:24,0,0,0,0,0,2100,2200,0,0,0,0,514,0,0,0,0,0.0000000,0.0000000,0.0000000,0.0000000,0.00,0.0000000,0.0000000,0.0000000,0.0,0.0,0.0,0.0,0.0,899,145,0,0,860.26,18.62,29.08,# start id:14000016 hw:101 sw:103
# data time:10,pm2.5:591.895,pm10:523.800,O2:0.000,NO2:0.446,SO2:0.000,NH3:0.708
11:31:25,0,0,0,0,0,2100,2200,0,0,0,0,514,0,0,0,0,0.0000000,0.0000000,0.0000000,0.0000000,0.00,0.0000000,0.0000000,0.0000000,0.0,0.0,0.0,0.0,0.0,899,141,0,0,860.33,17.87,29.21,# start id:14000016 hw:101 sw:103
# data time:10,pm2.5:591.895,pm10:523.800,O2:0.000,NO2:0.446,SO2:0.000,NH3:0.708
11:31:26,0,0,0,0,0,2100,2200,0,0,0,0,515,0,0,0,0,0.0000000,0.0000000,0.0000000,0.0000000,0.00,0.0000000,0.0000000,0.0000000,0.0,0.0,0.0,0.0,0.0,899,140,0,0,862.31,11.87,29.41,# start id:14000016 hw:101 sw:103
# data time:10,pm2.5:591.895,pm10:523.800,O2:0.000,NO2:0.446,SO2:0.000,NH3:0.708
11:31:27,0,0,0,0,0,2100,2200,0,0,0,0,514,0,0,0,0,0.0000000,0.0000000,0.0000000,0.0000000,0.00,0.0000000,0.0000000,0.0000000,0.0,0.0,0.0,0.0,0.0,900,140,0,0,862.08,12.63,29.24,# start id:14000016 hw:101 sw:103
# data time:10,pm2.5:591.895,pm10:523.800,O2:0.000,NO2:0.446,SO2:0.000,NH3:0.708
11:31:28,0,0,0,0,0,2100,2200,0,0,0,0,514,0,0,0,0,0.0000000,0.0000000,0.0000000,0.0000000,0.00,0.0000000,0.0000000,0.0000000,0.0,0.0,0.0,0.0,0.0,899,137,0,0,862.34,12.19,29.12,# start id:14000016 hw:101 sw:103
# data time:10,pm2.5:591.895,pm10:523.800,O2:0.000,NO2:0.446,SO2:0.000,NH3:0.708
11:31:29,0,0,0,0,0,2100,2200,0,0,0,0,514,0,0,0,0,0.0000000,0.0000000,0.0000000,0.0000000,0.00,0.0000000,0.0000000,0.0000000,0.0,0.0,0.0,0.0,0.0,900,131,0,0,862.33,12.22,28.98,# start id:14000016 hw:101 sw:103
# data time:10,pm2.5:591.895,pm10:523.800,O2:0.000,NO2:0.446,SO2:0.000,NH3:0.708
11:31:30,0,0,0,0,0,2100,2200,0,0,0,0,514,0,0,0,0,0.0000000,0.0000000,0.0000000,0.0000000,0.00,0.0000000,0.0000000,0.0000000,0.0,0.0,0.0,0.0,0.0,897,134,0,0,862.32,12.25,28.84,# start id:14000016 hw:101 sw:103
# data time:10,pm2.5:591.895,pm10:523.800,O2:0.000,NO2:0.446,SO2:0.000,NH3:0.708
11:31:31,0,0,0,0,0,2100,2200,0,0,0,0,514,0,0,0,0,0.0000000,0.0000000,0.0000000,0.0000000,0.00,0.0000000,0.0000000,0.0000000,0.0,0.0,0.0,0.0,0.0,900,133,0,0,862.09,13.09,28.76,# start id:14000016 hw:101 sw:103
# data time:10,pm2.5:591.895,pm10:523.800,O2:0.000,NO2:0.446,SO2:0.000,NH3:0.708
11:31:32,0,0,0,0,0,2100,2200,0,0,0,0,515,0,0,0,0,0.0000000,0.0000000,0.0000000,0.0000000,0.00,0.0000000,0.0000000,0.0000000,0.0,0.0,0.0,0.0,0.0,899,134,0,0,862.37,12.60,28.61,# data time:20,pm2.5:6.445,pm10:5.704,O2:0.000,NO2:0.010,SO2:0.000,NH3:1.236
11:31:33,0,0,0,0,0,2100,2200,0,0,0,0,513,0,0,0,0,0.0000000,0.0000000,0.0000000,0.0000000,0.00,0.0000000,0.0000000,0.0000000,0.0,0.0,0.0,0.0,0.0,900,135,0,0,862.18,13.02,28.32,# data time:20,pm2.5:6.445,pm10:5.704,O2:0.000,NO2:0.010,SO2:0.000,NH3:1.236
11:31:34,0,0,0,0,0,2100,2200,0,0,0,0,514,0,0,0,0,0.0000000,0.0000000,0.0000000,0.0000000,0.00,0.0000000,0.0000000,0.0000000,0.0,0.0,0.0,0.0,0.0,900,135,0,0,862.30,12.68,28.30,# data time:20,pm2.5:6.445,pm10:5.704,O2:0.000,NO2:0.010,SO2:0.000,NH3:1.236
11:31:35,0,0,0,0,0,2100,2200,0,0,0,0,515,0,0,0,0,0.0000000,0.0000000,0.0000000,0.0000000,0.00,0.0000000,0.0000000,0.0000000,0.0,0.0,0.0,0.0,0.0,899,128,0,0,862.36,12.54,28.35,# data time:20,pm2.5:6.445,pm10:5.704,O2:0.000,NO2:0.010,SO2:0.000,NH3:1.236
11:31:36,0,0,0,0,0,2100,2200,0,0,0,0,514,0,0,0,0,0.0000000,0.0000000,0.0000000,0.0000000,0.00,0.0000000,0.0000000,0.0000000,0.0,0.0,0.0,0.0,0.0,899,129,0,0,862.43,12.63,28.16,# data time:20,pm2.5:6.445,pm10:5.704,O2:0.000,NO2:0.010,SO2:0.000,NH3:1.236
11:31:37,0,0,0,0,0,2100,2200,0,0,0,0,509,0,0,0,0,0.0000000,0.0000000,0.0000000,0.0000000,0.00,0.0000000,0.0000000,0.0000000,0.0,0.0,0.0,0.0,0.0,898,130,0,0,862.34,12.82,27.93,# data time:20,pm2.5:6.445,pm10:5.704,O2:0.000,NO2:0.010,SO2:0.000,NH3:1.236
11:31:39,0,0,0,0,0,2100,2200,0,0,0,0,514,0,0,0,0,0.0000000,0.0000000,0.0000000,0.0000000,0.00,0.0000000,0.0000000,0.0000000,0.0,0.0,0.0,0.0,0.0,900,130,0,0,862.32,12.96,27.98,# data time:20,pm2.5:6.445,pm10:5.704,O2:0.000,NO2:0.010,SO2:0.000,NH3:1.236
11:31:40,0,0,0,0,0,2100,2200,0,0,0,0,513,0,0,0,0,0.0000000,0.0000000,0.0000000,0.0000000,0.00,0.0000000,0.0000000,0.0000000,0.0,0.0,0.0,0.0,0.0,898,131,0,0,862.29,12.96,27.99,# data time:20,pm2.5:6.445,pm10:5.704,O2:0.000,NO2:0.010,SO2:0.000,NH3:1.236
11:31:41,0,0,0,0,0,2100,2200,0,0,0,0,515,0,0,0,0,0.0000000,0.0000000,0.0000000,0.0000000,0.00,0.0000000,0.0000000,0.0000000,0.0,0.0,0.0,0.0,0.0,897,136,0,0,862.32,12.97,28.02,# data time:20,pm2.5:6.445,pm10:5.704,O2:0.000,NO2:0.010,SO2:0.000,NH3:1.236
11:31:42,0,0,0,0,0,2100,2200,0,0,0,0,515,0,0,0,0,0.0000000,0.0000000,0.0000000,0.0000000,0.00,0.0000000,0.0000000,0.0000000,0.0,0.0,0.0,0.0,0.0,897,129,0,0,862.30,13.11,28.04,# data time:20,pm2.5:6.445,pm10:5.704,O2:0.000,NO2:0.010,SO2:0.000,NH3:1.236
11:31:43,0,0,0,0,0,2100,2200,0,0,0,0,513,0,0,0,0,0.0000000,0.0000000,0.0000000,0.0000000,0.00,0.0000000,0.0000000,0.0000000,0.0,0.0,0.0,0.0,0.0,902,131,0,0,861.15,15.29,27.98,# data time:30,pm2.5:6.445,pm10:5.704,O2:0.000,NO2:0.000,SO2:0.000,NH3:1.462
11:31:44,0,0,0,0,0,2100,2200,0,0,0,0,513,0,0,0,0,0.0000000,0.0000000,0.0000000,0.0000000,0.00,0.0000000,0.0000000,0.0000000,0.0,0.0,0.0,0.0,0.0,899,132,0,0,860.26,19.01,27.98,# data time:30,pm2.5:6.445,pm10:5.704,O2:0.000,NO2:0.000,SO2:0.000,NH3:1.462
11:31:45,0,0,0,0,0,2100,2200,0,0,0,0,514,0,0,0,0,0.0000000,0.0000000,0.0000000,0.0000000,0.00,0.0000000,0.0000000,0.0000000,0.0,0.0,0.0,0.0,0.0,899,125,0,0,860.25,18.98,28.21,# data time:30,pm2.5:6.445,pm10:5.704,O2:0.000,NO2:0.000,SO2:0.000,NH3:1.462
11:31:46,0,0,0,0,0,2100,2200,0,0,0,0,514,0,0,0,0,0.0000000,0.0000000,0.0000000,0.0000000,0.00,0.0000000,0.0000000,0.0000000,0.0,0.0,0.0,0.0,0.0,898,126,0,0,860.22,18.92,28.44,# data time:30,pm2.5:6.445,pm10:5.704,O2:0.000,NO2:0.000,SO2:0.000,NH3:1.462
11:31:47,0,0,0,0,0,2100,2200,0,0,0,0,514,0,0,0,0,0.0000000,0.0000000,0.0000000,0.0000000,0.00,0.0000000,0.0000000,0.0000000,0.0,0.0,0.0,0.0,0.0,898,135,0,0,860.20,18.78,28.63,# data time:30,pm2.5:6.445,pm10:5.704,O2:0.000,NO2:0.000,SO2:0.000,NH3:1.462
11:31:48,0,0,0,0,0,2100,2200,0,0,0,0,515,0,0,0,0,0.0000000,0.0000000,0.0000000,0.0000000,0.00,0.0000000,0.0000000,0.0000000,0.0,0.0,0.0,0.0,0.0,900,127,0,0,860.28,18.46,28.95,# data time:30,pm2.5:6.445,pm10:5.704,O2:0.000,NO2:0.000,SO2:0.000,NH3:1.462
11:31:49,0,0,0,0,0,2100,2200,0,0,0,0,513,0,0,0,0,0.0000000,0.0000000,0.0000000,0.0000000,0.00,0.0000000,0.0000000,0.0000000,0.0,0.0,0.0,0.0,0.0,900,130,0,0,860.27,18.31,29.01,# data time:30,pm2.5:6.445,pm10:5.704,O2:0.000,NO2:0.000,SO2:0.000,NH3:1.462
11:31:50,0,0,0,0,0,2100,2200,0,0,0,0,514,0,0,0,0,0.0000000,0.0000000,0.0000000,0.0000000,0.00,0.0000000,0.0000000,0.0000000,0.0,0.0,0.0,0.0,0.0,899,129,0,0,860.25,18.25,29.14,# data time:30,pm2.5:6.445,pm10:5.704,O2:0.000,NO2:0.000,SO2:0.000,NH3:1.462
11:31:51,0,0,0,0,0,2100,2200,0,0,0,0,514,0,0,0,0,0.0000000,0.0000000,0.0000000,0.0000000,0.00,0.0000000,0.0000000,0.0000000,0.0,0.0,0.0,0.0,0.0,896,123,0,0,860.18,18.17,29.34,# data time:30,pm2.5:6.445,pm10:5.704,O2:0.000,NO2:0.000,SO2:0.000,NH3:1.462
11:31:52,0,0,0,0,0,2100,2200,0,0,0,0,514,0,0,0,0,0.0000000,0.0000000,0.0000000,0.0000000,0.00,0.0000000,0.0000000,0.0000000,0.0,0.0,0.0,0.0,0.0,898,129,0,0,860.28,17.94,29.48,# data time:30,pm2.5:6.445,pm10:5.704,O2:0.000,NO2:0.000,SO2:0.000,NH3:1.462
11:31:53,0,0,0,0,0,2100,2200,0,0,0,0,514,0,0,0,0,0.0000000,0.0000000,0.0000000,0.0000000,0.00,0.0000000,0.0000000,0.0000000,0.0,0.0,0.0,0.0,0.0,900,129,0,0,860.26,17.82,29.59,# data time:40,pm2.5:6.445,pm10:5.704,O2:0.000,NO2:0.000,SO2:
11:31:54,0,0,0,0,0,2100,2200,0,0,0,0,515,0,0,0,0,0.0000000,0.0000000,0.0000000,0.0000000,0.00,0.0000000,0.0000000,0.0000000,0.0,0.0,0.0,0.0,0.0,898,128,0,0,860.29,17.79,29.62,# data time:40,pm2.5:6.445,pm10:5.704,O2:0.000,NO2:0.000,SO2:
11:31:55,0,0,0,0,0,2100,2200,0,0,0,0,514,0,0,0,0,0.0000000,0.0000000,0.0000000,0.0000000,0.00,0.0000000,0.0000000,0.0000000,0.0,0.0,0.0,0.0,0.0,899,127,0,0,860.26,17.78,29.62,# data time:40,pm2.5:6.445,pm10:5.704,O2:0.000,NO2:0.000,SO2:
11:31:56,0,0,0,0,0,2100,2200,0,0,0,0,514,0,0,0,0,0.0000000,0.0000000,0.0000000,0.0000000,0.00,0.0000000,0.0000000,0.0000000,0.0,0.0,0.0,0.0,0.0,900,128,0,0,860.24,17.73,29.81,# data time:40,pm2.5:6.445,pm10:5.704,O2:0.000,NO2:0.000,SO2:
11:31:57,0,0,0,0,0,2100,2200,0,0,0,0,515,0,0,0,0,0.0000000,0.0000000,0.0000000,0.0000000,0.00,0.0000000,0.0000000,0.0000000,0.0,0.0,0.0,0.0,0.0,899,129,0,0,860.25,17.70,29.99,# data time:40,pm2.5:6.445,pm10:5.704,O2:0.000,NO2:0.000,SO2:
11:31:58,0,0,0,0,0,2100,2200,0,0,0,0,514,0,0,0,0,0.0000000,0.0000000,0.0000000,0.0000000,0.00,0.0000000,0.0000000,0.0000000,0.0,0.0,0.0,0.0,0.0,899,130,0,0,860.24,17.59,30.13,# data time:40,pm2.5:6.445,pm10:5.704,O2:0.000,NO2:0.000,SO2:
11:31:59,0,0,0,0,0,2100,2200,0,0,0,0,514,0,0,0,0,0.0000000,0.0000000,0.0000000,0.0000000,0.00,0.0000000,0.0000000,0.0000000,0.0,0.0,0.0,0.0,0.0,899,125,0,0,860.21,17.49,30.36,# data time:40,pm2.5:6.445,pm10:5.704,O2:0.000,NO2:0.000,SO2:
11:32:00,0,0,0,0,0,2100,2200,0,0,0,0,514,0,0,0,0,0.0000000,0.0000000,0.0000000,0.0000000,0.00,0.0000000,0.0000000,0.0000000,0.0,0.0,0.0,0.0,0.0,899,127,0,0,860.26,17.47,30.45,# data time:40,pm2.5:6.445,pm10:5.704,O2:0.000,NO2:0.000,SO2:
11:32:01,0,0,0,0,0,2100,2200,0,0,0,0,514,0,0,0,0,0.0000000,0.0000000,0.0000000,0.0000000,0.00,0.0000000,0.0000000,0.0000000,0.0,0.0,0.0,0.0,0.0,900,132,0,0,860.24,17.37,30.48,# data time:40,pm2.5:6.445,pm10:5.704,O2:0.000,NO2:0.000,SO2:
11:32:02,0,0,0,0,0,2100,2200,0,0,0,0,514,0,0,0,0,0.0000000,0.0000000,0.0000000,0.0000000,0.00,0.0000000,0.0000000,0.0000000,0.0,0.0,0.0,0.0,0.0,900,129,0,0,860.27,17.26,30.54,# data time:40,pm2.5:6.445,pm10:5.704,O2:0.000,NO2:0.000,SO2:
11:32:03,0,0,0,0,0,2100,2200,0,0,0,0,514,0,0,0,0,0.0000000,0.0000000,0.0000000,0.0000000,0.00,0.0000000,0.0000000,0.0000000,0.0,0.0,0.0,0.0,0.0,898,128,0,0,860.26,17.20,30.63,# data time:50,pm2.5:6.445,pm10:5.704,O2:0.000,NO2:0.000,SO2:0.000,NH3:1.462
11:32:04,0,0,0,0,0,2100,2200,0,0,0,0,514,0,0,0,0,0.0000000,0.0000000,0.0000000,0.0000000,0.00,0.0000000,0.0000000,0.0000000,0.0,0.0,0.0,0.0,0.0,900,126,0,0,860.26,17.09,30.63,# data time:50,pm2.5:6.445,pm10:5.704,O2:0.000,NO2:0.000,SO2:0.000,NH3:1.462
11:32:05,0,0,0,0,0,2100,2200,0,0,0,0,515,0,0,0,0,0.0000000,0.0000000,0.0000000,0.0000000,0.00,0.0000000,0.0000000,0.0000000,0.0,0.0,0.0,0.0,0.0,898,126,0,0,860.23,17.06,30.67,# data time:50,pm2.5:6.445,pm10:5.704,O2:0.000,NO2:0.000,SO2:0.000,NH3:1.462
11:32:06,0,0,0,0,0,2100,2200,0,0,0,0,514,0,0,0,0,0.0000000,0.0000000,0.0000000,0.0000000,0.00,0.0000000,0.0000000,0.0000000,0.0,0.0,0.0,0.0,0.0,899,136,0,0,860.18,17.01,30.80,# data time:50,pm2.5:6.445,pm10:5.704,O2:0.000,NO2:0.000,SO2:0.000,NH3:1.462
11:32:07,0,0,0,0,0,2100,2200,0,0,0,0,513,0,0,0,0,0.0000000,0.0000000,0.0000000,0.0000000,0.00,0.0000000,0.0000000,0.0000000,0.0,0.0,0.0,0.0,0.0,901,130,0,0,860.21,16.97,30.88,# data time:50,pm2.5:6.445,pm10:5.704,O2:0.000,NO2:0.000,SO2:0.000,NH3:1.462
11:32:08,0,0,0,0,0,2100,2200,0,0,0,0,514,0,0,0,0,0.0000000,0.0000000,0.0000000,0.0000000,0.00,0.0000000,0.0000000,0.0000000,0.0,0.0,0.0,0.0,0.0,897,132,0,0,860.25,16.91,30.95,# data time:50,pm2.5:6.445,pm10:5.704,O2:0.000,NO2:0.000,SO2:0.000,NH3:1.462
11:32:09,0,0,0,0,0,2100,2200,0,0,0,0,515,0,0,0,0,0.0000000,0.0000000,0.0000000,0.0000000,0.00,0.0000000,0.0000000,0.0000000,0.0,0.0,0.0,0.0,0.0,896,131,0,0,860.20,16.88,31.04,# data time:50,pm2.5:6.445,pm10:5.704,O2:0.000,NO2:0.000,SO2:0.000,NH3:1.462
11:32:10,0,0,0,0,0,2100,2200,0,0,0,0,514,0,0,0,0,0.0000000,0.0000000,0.0000000,0.0000000,0.00,0.0000000,0.0000000,0.0000000,0.0,0.0,0.0,0.0,0.0,899,131,0,0,860.20,16.88,31.00,# data time:50,pm2.5:6.445,pm10:5.704,O2:0.000,NO2:0.000,SO2:0.000,NH3:1.462
11:32:11,0,0,0,0,0,2100,2200,0,0,0,0,515,0,0,0,0,0.0000000,0.0000000,0.0000000,0.0000000,0.00,0.0000000,0.0000000,0.0000000,0.0,0.0,0.0,0.0,0.0,900,141,0,0,860.19,16.83,30.99,# data time:50,pm2.5:6.445,pm10:5.704,O2:0.000,NO2:0.000,SO2:0.000,NH3:1.462
11:32:12,0,0,0,0,0,2100,2200,0,0,0,0,515,0,0,0,0,0.0000000,0.0000000,0.0000000,0.0000000,0.00,0.0000000,0.0000000,0.0000000,0.0,0.0,0.0,0.0,0.0,897,134,0,0,860.18,16.83,31.09,# data time:60,pm2.5:6.445,pm10:5.704,O2:0.000,NO2:0.000,SO2:0.000,NH3:1.462
11:32:13,0,0,0,0,0,2100,2200,0,0,0,0,514,0,0,0,0,0.0000000,0.0000000,0.0000000,0.0000000,0.00,0.0000000,0.0000000,0.0000000,0.0,0.0,0.0,0.0,0.0,900,137,0,0,860.19,16.85,31.23,# data time:60,pm2.5:6.445,pm10:5.704,O2:0.000,NO2:0.000,SO2:0.000,NH3:1.462
11:32:14,0,0,0,0,0,2100,2200,0,0,0,0,513,0,0,0,0,0.0000000,0.0000000,0.0000000,0.0000000,0.00,0.0000000,0.0000000,0.0000000,0.0,0.0,0.0,0.0,0.0,898,134,0,0,860.22,16.80,31.30,# data time:60,pm2.5:6.445,pm10:5.704,O2:0.000,NO2:0.000,SO2:0.000,NH3:1.462
11:32:15,0,0,0,0,0,2100,2200,0,0,0,0,514,0,0,0,0,0.0000000,0.0000000,0.0000000,0.0000000,0.00,0.0000000,0.0000000,0.0000000,0.0,0.0,0.0,0.0,0.0,898,133,0,0,860.18,16.80,31.31,# data time:60,pm2.5:6.445,pm10:5.704,O2:0.000,NO2:0.000,SO2:0.000,NH3:1.462
11:32:16,0,0,0,0,0,2100,2200,0,0,0,0,514,0,0,0,0,0.0000000,0.0000000,0.0000000,0.0000000,0.00,0.0000000,0.0000000,0.0000000,0.0,0.0,0.0,0.0,0.0,898,136,0,0,860.19,16.80,31.41,# data time:60,pm2.5:6.445,pm10:5.704,O2:0.000,NO2:0.000,SO2:0.000,NH3:1.462
11:32:17,0,0,0,0,0,2100,2200,0,0,0,0,514,0,0,0,0,0.0000000,0.0000000,0.0000000,0.0000000,0.00,0.0000000,0.0000000,0.0000000,0.0,0.0,0.0,0.0,0.0,898,137,0,0,860.30,16.71,31.46,# data time:60,pm2.5:6.445,pm10:5.704,O2:0.000,NO2:0.000,SO2:0.000,NH3:1.462
11:32:18,0,0,0,0,0,2100,2200,0,0,0,0,515,0,0,0,0,0.0000000,0.0000000,0.0000000,0.0000000,0.00,0.0000000,0.0000000,0.0000000,0.0,0.0,0.0,0.0,0.0,899,136,0,0,860.23,16.80,31.32,# data time:60,pm2.5:6.445,pm10:5.704,O2:0.000,NO2:0.000,SO2:0.000,NH3:1.462
11:32:19,0,0,0,0,0,2100,2200,0,0,0,0,514,0,0,0,0,0.0000000,0.0000000,0.0000000,0.0000000,0.00,0.0000000,0.0000000,0.0000000,0.0,0.0,0.0,0.0,0.0,900,138,0,0,860.21,16.82,31.32,# data time:60,pm2.5:6.445,pm10:5.704,O2:0.000,NO2:0.000,SO2:0.000,NH3:1.462
11:32:20,0,0,0,0,0,2100,2200,0,0,0,0,515,0,0,0,0,0.0000000,0.0000000,0.0000000,0.0000000,0.00,0.0000000,0.0000000,0.0000000,0.0,0.0,0.0,0.0,0.0,897,136,0,0,860.17,16.83,31.43,# data time:60,pm2.5:6.445,pm10:5.704,O2:0.000,NO2:0.000,SO2:0.000,NH3:1.462
11:32:21,0,0,0,0,0,2100,2200,0,0,0,0,515,0,0,0,0,0.0000000,0.0000000,0.0000000,0.0000000,0.00,0.0000000,0.0000000,0.0000000,0.0,0.0,0.0,0.0,0.0,899,134,0,0,860.20,16.75,31.47,# data time:60,pm2.5:6.445,pm10:5.704,O2:0.000,NO2:0.000,SO2:0.000,NH3:1.462
11:32:22,0,0,0,0,0,2100,2200,0,0,0,0,515,0,0,0,0,0.0000000,0.0000000,0.0000000,0.0000000,0.00,0.0000000,0.0000000,0.0000000,0.0,0.0,0.0,0.0,0.0,899,140,0,0,860.16,16.69,31.42,# data time:70,pm2.5:6.445,pm10:5.704,O2:0.000,NO2:0.000,SO2:0..462
11:32:23,0,0,0,0,0,2100,2200,0,0,0,0,514,0,0,0,0,0.0000000,0.0000000,0.0000000,0.0000000,0.00,0.0000000,0.0000000,0.0000000,0.0,0.0,0.0,0.0,0.0,899,133,0,0,860.21,16.60,31.63,# data time:70,pm2.5:6.445,pm10:5.704,O2:0.000,NO2:0.000,SO2:0..462
11:32:24,0,0,0,0,0,2100,2200,0,0,0,0,513,0,0,0,0,0.0000000,0.0000000,0.0000000,0.0000000,0.00,0.0000000,0.0000000,0.0000000,0.0,0.0,0.0,0.0,0.0,899,134,0,0,860.25,16.42,31.70,# data time:70,pm2.5:6.445,pm10:5.704,O2:0.000,NO2:0.000,SO2:0..462
11:32:25,0,0,0,0,0,2100,2200,0,0,0,0,514,0,0,0,0,0.0000000,0.0000000,0.0000000,0.0000000,0.00,0.0000000,0.0000000,0.0000000,0.0,0.0,0.0,0.0,0.0,899,133,0,0,860.30,16.33,31.70,# data time:70,pm2.5:6.445,pm10:5.704,O2:0.000,NO2:0.000,SO2:0..462
11:32:27,0,0,0,0,0,2100,2200,0,0,0,0,514,0,0,0,0,0.0000000,0.0000000,0.0000000,0.0000000,0.00,0.0000000,0.0000000,0.0000000,0.0,0.0,0.0,0.0,0.0,897,132,0,0,860.31,16.25,31.68,# data time:70,pm2.5:6.445,pm10:5.704,O2:0.000,NO2:0.000,SO2:0..462
11:32:28,0,0,0,0,0,2100,2200,0,0,0,0,515,0,0,0,0,0.0000000,0.0000000,0.0000000,0.0000000,0.00,0.0000000,0.0000000,0.0000000,0.0,0.0,0.0,0.0,0.0,899,133,0,0,860.34,16.21,31.61,# data time:70,pm2.5:6.445,pm10:5.704,O2:0.000,NO2:0.000,SO2:0..462
11:32:29,0,0,0,0,0,2100,2200,0,0,0,0,514,0,0,0,0,0.0000000,0.0000000,0.0000000,0.0000000,0.00,0.0000000,0.0000000,0.0000000,0.0,0.0,0.0,0.0,0.0,897,134,0,0,860.31,16.24,31.37,# data time:70,pm2.5:6.445,pm10:5.704,O2:0.000,NO2:0.000,SO2:0..462
11:32:30,0,0,0,0,0,2100,2200,0,0,0,0,515,0,0,0,0,0.0000000,0.0000000,0.0000000,0.0000000,0.00,0.0000000,0.0000000,0.0000000,0.0,0.0,0.0,0.0,0.0,899,139,0,0,860.35,16.25,31.39,# data time:70,pm2.5:6.445,pm10:5.704,O2:0.000,NO2:0.000,SO2:0..462
11:32:31,0,0,0,0,0,2100,2200,0,0,0,0,514,0,0,0,0,0.0000000,0.0000000,0.0000000,0.0000000,3.00,0.0000000,0.0000000,0.0000000,0.0,0.0,0.0,0.0,0.0,900,136,0,0,860.32,16.16,31.58,# data time:70,pm2.5:6.445,pm10:5.704,O2:0.000,NO2:0.000,SO2:0..462
11:32:32,0,0,0,0,0,2100,2200,0,0,0,0,515,0,0,0,0,0.0000000,0.0000000,0.0000000,0.0000000,3.00,0.0000000,0.0000000,0.0000000,0.4,196.8,0.0,0.0,0.0,899,139,0,0,860.33,16.17,31.69,# data time:70,pm2.5:6.445,pm10:5.704,O2:0.000,NO2:0.000,SO2:0..462
11:32:33,0,0,0,0,0,2100,2200,0,0,0,0,514,0,0,0,0,0.0000000,0.0000000,0.0000000,0.0000000,3.00,0.0000000,0.0000000,0.0000000,0.1,199.3,0.0,0.0,0.0,897,134,0,0,860.30,16.14,31.78,# data time:80,pm2.5:6.445,pm10:5.704,O2:0.000,NO2:0.000,SO2:
11:32:34,0,0,0,0,0,2100,2200,0,0,0,0,514,0,0,0,0,0.0000000,0.0000000,0.0000000,0.0000000,3.00,0.0000000,0.0000000,0.0000000,0.1,199.3,0.0,0.0,0.0,897,134,0,0,860.30,16.14,31.78,# data time:80,pm2.5:6.445,pm10:5.704,O2:0.000,NO2:0.000,SO2:
11:32:35,0,0,0,0,0,2100,2200,0,0,0,0,515,0,0,0,0,0.0000000,0.0000000,0.0000000,0.0000000,3.00,0.0000000,0.0000000,0.0000000,0.3,206.8,0.0,0.0,0.0,898,135,0,0,860.29,16.33,31.36,# data time:80,pm2.5:6.445,pm10:5.704,O2:0.000,NO2:0.000,SO2:
11:32:36,0,0,0,0,0,2100,2200,0,0,0,0,514,0,0,0,0,0.0000000,0.0000000,0.0000000,0.0000000,3.00,38.4044571,-110.7910690,167.0000000,0.2,186.3,1.9,0.0,0.0,900,132,0,0,860.33,16.46,31.27,# data time:80,pm2.5:6.445,pm10:5.704,O2:0.000,NO2:0.000,SO2:
11:32:37,0,0,0,0,0,2100,2200,0,0,0,0,514,0,0,0,0,0.0000000,0.0000000,0.0000000,0.0000000,3.00,38.4044571,-110.7910690,167.0000000,0.2,186.3,1.9,0.0,0.0,900,132,0,0,860.33,16.46,31.27,# data time:80,pm2.5:6.445,pm10:5.704,O2:0.000,NO2:0.000,SO2:
11:32:38,0,0,0,0,0,2100,2200,0,0,0,0,515,0,0,0,0,0.0000000,0.0000000,0.0000000,0.0000000,3.00,38.4044495,-110.7910690,167.0000000,0.3,208.9,1.9,0.0,0.0,897,136,0,0,860.23,16.54,31.49,# data time:80,pm2.5:6.445,pm10:5.704,O2:0.000,NO2:0.000,SO2:
11:32:39,0,0,0,0,0,2100,2200,0,0,0,0,514,0,0,0,0,0.0000000,0.0000000,0.0000000,0.0000000,3.00,38.4044495,-110.7910690,167.0000000,0.4,189.2,1.9,0.0,0.0,898,132,0,0,860.28,16.53,31.72,# data time:80,pm2.5:6.445,pm10:5.704,O2:0.000,NO2:0.000,SO2:
11:32:40,0,0,0,0,0,2100,2200,0,0,0,0,514,0,0,0,0,0.0000000,0.0000000,0.0000000,0.0000000,3.00,38.4044418,-110.7910690,167.0000000,0.4,209.7,1.9,0.0,0.0,900,133,0,0,860.30,16.46,31.87,# data time:80,pm2.5:6.445,pm10:5.704,O2:0.000,NO2:0.000,SO2:
11:32:41,0,0,0,0,0,2100,2200,0,0,0,0,514,0,0,0,0,0.0000000,0.0000000,0.0000000,0.0000000,3.00,38.4044342,-110.7910690,167.0000000,0.6,218.7,1.9,0.0,0.0,898,133,0,0,860.25,16.42,31.91,# data time:80,pm2.5:6.445,pm10:5.704,O2:0.000,NO2:0.000,SO2:
11:32:42,0,0,0,0,0,2100,2200,0,0,0,0,514,0,0,0,0,0.0000000,0.0000000,0.0000000,0.0000000,3.00,38.4044304,-110.7910690,167.0000000,0.7,213.8,1.9,0.0,0.0,898,129,0,0,860.22,16.42,32.00,# data time:80,pm2.5:6.445,pm10:5.704,O2:0.000,NO2:0.000,SO2:
11:32:43,0,0,0,0,0,2100,2200,0,0,0,0,514,0,0,0,0,0.0000000,0.0000000,0.0000000,0.0000000,3.00,38.4044304,-110.7910690,167.0000000,0.7,213.8,1.9,0.0,0.0,898,129,0,0,860.22,16.42,32.00,# data time:90,pm2.5:6.445,pm10:5.704,O2:0.000,NO2:0.000,SO2:0.000,NH3:1.009
11:32:44,0,0,0,0,0,2100,2200,0,0,0,0,514,0,0,0,0,0.0000000,0.0000000,0.0000000,0.0000000,3.00,38.4044189,-110.7910690,167.0000000,0.6,199.0,1.9,0.0,0.0,899,131,0,0,860.21,16.34,32.36,# data time:90,pm2.5:6.445,pm10:5.704,O2:0.000,NO2:0.000,SO2:0.000,NH3:1.009
11:32:45,0,0,0,0,0,2100,2200,0,0,0,0,515,0,0,0,0,0.0000000,0.0000000,0.0000000,0.0000000,3.00,38.4044151,-110.7910690,167.0000000,0.6,196.9,1.9,0.0,0.0,897,132,0,0,860.21,16.28,32.48,# data time:90,pm2.5:6.445,pm10:5.704,O2:0.000,NO2:0.000,SO2:0.000,NH3:1.009
11:32:46,0,0,0,0,0,2100,2200,0,0,0,0,515,0,0,0,0,0.0000000,0.0000000,0.0000000,0.0000000,3.00,38.4044075,-110.7910690,167.0000000,0.6,196.9,1.9,0.0,0.0,897,128,0,0,860.25,16.21,32.65,# data time:90,pm2.5:6.445,pm10:5.704,O2:0.000,NO2:0.000,SO2:0.000,NH3:1.009
11:32:47,0,0,0,0,0,2100,2200,0,0,0,0,514,0,0,0,0,0.0000000,0.0000000,0.0000000,0.0000000,3.00,38.4044075,-110.7910690,167.0000000,0.6,196.9,1.9,0.0,0.0,899,131,0,0,860.20,16.19,32.84,# data time:90,pm2.5:6.445,pm10:5.704,O2:0.000,NO2:0.000,SO2:0.000,NH3:1.009
11:32:48,0,0,0,0,0,2100,2200,0,0,0,0,514,0,0,0,0,0.0000000,0.0000000,0.0000000,0.0000000,3.00,38.4044075,-110.7910690,167.0000000,0.5,199.6,1.9,0.0,0.0,899,131,0,0,860.20,16.22,32.93,# data time:90,pm2.5:6.445,pm10:5.704,O2:0.000,NO2:0.000,SO2:0.000,NH3:1.009
11:32:49,0,0,0,0,0,2100,2200,0,0,0,0,514,0,0,0,0,0.0000000,0.0000000,0.0000000,0.0000000,3.00,38.4043922,-110.7910767,167.0000000,0.7,212.4,1.9,0.0,0.0,899,127,0,0,860.20,16.02,33.14,# data time:90,pm2.5:6.445,pm10:5.704,O2:0.000,NO2:0.000,SO2:0.000,NH3:1.009
11:32:50,0,0,0,0,0,2100,2200,0,0,0,0,515,0,0,0,0,0.0000000,0.0000000,0.0000000,0.0000000,3.00,38.4043884,-110.7910767,167.0000000,0.7,191.1,1.9,0.0,0.0,900,133,0,0,860.22,16.05,33.27,# data time:90,pm2.5:6.445,pm10:5.704,O2:0.000,NO2:0.000,SO2:0.000,NH3:1.009
11:32:51,0,0,0,0,0,2100,2200,0,0,0,0,515,0,0,0,0,0.0000000,0.0000000,0.0000000,0.0000000,3.00,38.4043884,-110.7910690,167.0000000,0.5,190.0,1.9,0.0,0.0,898,130,0,0,860.23,16.05,33.38,# data time:90,pm2.5:6.445,pm10:5.704,O2:0.000,NO2:0.000,SO2:0.000,NH3:1.009
11:32:52,0,0,0,0,0,2100,2200,0,0,0,0,514,0,0,0,0,0.0000000,0.0000000,0.0000000,0.0000000,3.00,38.4043808,-110.7910767,167.0000000,0.6,203.3,1.9,0.0,0.0,900,129,0,0,860.20,16.01,33.48,# data time:100,pm2.5:6.445,pm10:5.704,O2:0.000,NO2:0.000,SO2
11:32:53,0,0,0,0,0,2100,2200,0,0,0,0,514,0,0,0,0,0.0000000,0.0000000,0.0000000,0.0000000,3.00,38.4043770,-110.7910767,167.0000000,0.6,210.7,1.9,0.0,0.0,898,125,0,0,860.24,15.98,33.59,# data time:100,pm2.5:6.445,pm10:5.704,O2:0.000,NO2:0.000,SO2
11:32:54,0,0,0,0,0,2100,2200,0,0,0,0,514,0,0,0,0,0.0000000,0.0000000,0.0000000,0.0000000,3.00,38.4043770,-110.7910767,167.0000000,0.6,210.7,1.9,0.0,0.0,898,125,0,0,860.24,15.98,33.59,# data time:100,pm2.5:6.445,pm10:5.704,O2:0.000,NO2:0.000,SO2
11:32:55,0,0,0,0,0,2100,2200,0,0,0,0,514,0,0,0,0,0.0000000,0.0000000,0.0000000,0.0000000,3.00,38.4043694,-110.7910767,167.0000000,0.6,196.5,1.9,0.0,0.0,898,129,0,0,860.21,15.90,33.71,# data time:100,pm2.5:6.445,pm10:5.704,O2:0.000,NO2:0.000,SO2
11:32:56,0,0,0,0,0,2100,2200,0,0,0,0,514,0,0,0,0,0.0000000,0.0000000,0.0000000,0.0000000,3.00,38.4043655,-110.7910767,167.0000000,0.5,192.9,1.9,0.0,0.0,899,128,0,0,860.17,15.88,33.82,# data time:100,pm2.5:6.445,pm10:5.704,O2:0.000,NO2:0.000,SO2
11:32:57,0,0,0,0,0,2100,2200,0,0,0,0,515,0,0,0,0,0.0000000,0.0000000,0.0000000,0.0000000,3.00,38.4043617,-110.7910767,167.0000000,0.5,199.8,1.9,0.0,0.0,899,128,0,0,860.17,15.84,33.93,# data time:100,pm2.5:6.445,pm10:5.704,O2:0.000,NO2:0.000,SO2
11:32:58,0,0,0,0,0,2100,2200,0,0,0,0,514,0,0,0,0,0.0000000,0.0000000,0.0000000,0.0000000,3.00,38.4043579,-110.7910767,167.0000000,0.5,198.9,1.9,0.0,0.0,897,125,0,0,860.23,15.73,33.94,# data time:100,pm2.5:6.445,pm10:5.704,O2:0.000,NO2:0.000,SO2
11:32:59,0,0,0,0,0,2100,2200,0,0,0,0,514,0,0,0,0,0.0000000,0.0000000,0.0000000,0.0000000,3.00,38.4043541,-110.7910767,167.0000000,0.5,201.8,1.9,0.0,0.0,898,132,0,0,860.18,15.79,33.82,# data time:100,pm2.5:6.445,pm10:5.704,O2:0.000,NO2:0.000,SO2
11:33:00,0,0,0,0,0,2100,2200,0,0,0,0,514,0,0,0,0,0.0000000,0.0000000,0.0000000,0.0000000,3.00,38.4043541,-110.7910767,167.0000000,0.5,201.8,1.9,0.0,0.0,898,132,0,0,860.18,15.79,33.82,# data time:100,pm2.5:6.445,pm10:5.704,O2:0.000,NO2:0.000,SO2
11:33:01,0,0,0,0,0,2100,2200,0,0,0,0,514,0,0,0,0,0.0000000,0.0000000,0.0000000,0.0000000,3.00,38.4043503,-110.7910767,167.0000000,0.5,206.7,1.9,0.0,0.0,899,131,0,0,860.14,15.76,34.07,# data time:100,pm2.5:6.445,pm10:5.704,O2:0.000,NO2:0.000,SO2
11:33:02,0,0,0,0,0,2100,2200,0,0,0,0,514,0,0,0,0,0.0000000,0.0000000,0.0000000,0.0000000,3.00,38.4043503,-110.7910767,167.0000000,0.5,206.7,1.9,0.0,0.0,897,129,0,0,860.19,15.66,34.20,# data time:110,pm2.5:5.640,pm10:4.991,O2:0.000,NO2:0.000,SO2
11:33:03,0,0,0,0,0,2100,2200,0,0,0,0,514,0,0,0,0,0.0000000,0.0000000,0.0000000,0.0000000,3.00,38.4043503,-110.7910767,167.0000000,0.5,213.9,1.9,0.0,0.0,898,129,0,0,860.21,15.64,34.35,# data time:110,pm2.5:5.640,pm10:4.991,O2:0.000,NO2:0.000,SO2
11:33:04,0,0,0,0,0,2100,2200,0,0,0,0,514,0,0,0,0,0.0000000,0.0000000,0.0000000,0.0000000,3.00,38.4043503,-110.7910767,167.0000000,0.5,218.1,1.9,0.0,0.0,898,126,0,0,860.20,15.63,34.51,# data time:110,pm2.5:5.640,pm10:4.991,O2:0.000,NO2:0.000,SO2
11:33:05,0,0,0,0,0,2100,2200,0,0,0,0,514,0,0,0,0,0.0000000,0.0000000,0.0000000,0.0000000,3.00,38.4043503,-110.7910767,167.0000000,0.5,204.1,1.9,0.0,0.0,898,120,0,0,860.21,15.58,34.62,# data time:110,pm2.5:5.640,pm10:4.991,O2:0.000,NO2:0.000,SO2
11:33:06,0,0,0,0,0,2100,2200,0,0,0,0,514,0,0,0,0,0.0000000,0.0000000,0.0000000,0.0000000,3.00,38.4043503,-110.7910767,167.0000000,0.5,204.1,1.9,0.0,0.0,898,120,0,0,860.21,15.58,34.62,# data time:110,pm2.5:5.640,pm10:4.991,O2:0.000,NO2:0.000,SO2
11:33:07,0,0,0,0,0,2100,2200,0,0,0,0,514,0,0,0,0,0.0000000,0.0000000,0.0000000,0.0000000,3.00,38.4043503,-110.7910767,167.0000000,0.5,195.7,1.9,0.0,0.0,898,132,0,0,860.13,15.61,34.75,# data time:110,pm2.5:5.640,pm10:4.991,O2:0.000,NO2:0.000,SO2
11:33:08,0,0,0,0,0,2100,2200,0,0,0,0,514,0,0,0,0,0.0000000,0.0000000,0.0000000,0.0000000,3.00,38.4043503,-110.7910767,167.0000000,0.5,198.8,1.9,0.0,0.0,899,128,0,0,860.15,15.58,34.84,# data time:110,pm2.5:5.640,pm10:4.991,O2:0.000,NO2:0.000,SO2
11:33:09,0,0,0,0,0,2100,2200,0,0,0,0,515,0,0,0,0,0.0000000,0.0000000,0.0000000,0.0000000,3.00,38.4043503,-110.7910767,167.0000000,0.6,214.7,1.9,0.0,0.0,898,126,0,0,860.13,15.55,34.86,# data time:110,pm2.5:5.640,pm10:4.991,O2:0.000,NO2:0.000,SO2
11:33:11,0,0,0,0,0,2100,2200,0,0,0,0,514,0,0,0,0,0.0000000,0.0000000,0.0000000,0.0000000,3.00,38.4043503,-110.7910767,167.0000000,0.4,203.7,1.9,0.0,0.0,899,126,0,0,860.16,15.52,34.87,# data time:110,pm2.5:5.640,pm10:4.991,O2:0.000,NO2:0.000,SO2
11:33:12,0,0,0,0,0,2100,2200,0,0,0,0,515,0,0,0,0,0.0000000,0.0000000,0.0000000,0.0000000,3.00,38.4043465,-110.7910919,167.0000000,0.5,211.2,1.9,0.0,0.0,898,124,0,0,860.19,15.53,34.77,# data time:110,pm2.5:5.640,pm10:4.991,O2:0.000,NO2:0.000,SO2
11:33:13,0,0,0,0,0,2100,2200,0,0,0,0,515,0,0,0,0,0.0000000,0.0000000,0.0000000,0.0000000,3.00,38.4043465,-110.7910919,167.0000000,0.5,211.2,1.9,0.0,0.0,898,124,0,0,860.19,15.53,34.77,# data time:120,pm2.5:6.445,pm10:5.704,O2:0.000,NO2:0.000,SO2:0.000,NH3:0.783
11:33:14,0,0,0,0,0,2100,2200,0,0,0,0,514,0,0,0,0,0.0000000,0.0000000,0.0000000,0.0000000,3.00,38.4043503,-110.7910919,167.0000000,0.4,207.4,1.9,0.0,0.0,899,129,0,0,860.13,15.58,34.62,# data time:120,pm2.5:6.445,pm10:5.704,O2:0.000,NO2:0.000,SO2:0.000,NH3:0.783
11:33:15,0,0,0,0,0,2100,2200,0,0,0,0,514,0,0,0,0,0.0000000,0.0000000,0.0000000,0.0000000,3.00,38.4043503,-110.7910919,167.0000000,0.3,207.8,1.9,0.0,0.0,898,126,0,0,860.13,15.60,34.65,# data time:120,pm2.5:6.445,pm10:5.704,O2:0.000,NO2:0.000,SO2:0.000,NH3:0.783
11:33:16,0,0,0,0,0,2100,2200,0,0,0,0,515,0,0,0,0,0.0000000,0.0000000,0.0000000,0.0000000,3.00,38.4043465,-110.7910919,167.0000000,0.5,203.0,1.9,0.0,0.0,898,127,0,0,860.13,15.55,34.80,# data time:120,pm2.5:6.445,pm10:5.704,O2:0.000,NO2:0.000,SO2:0.000,NH3:0.783
11:33:17,0,0,0,0,0,2100,2200,0,0,0,0,514,0,0,0,0,0.0000000,0.0000000,0.0000000,0.0000000,3.00,38.4043465,-110.7910919,167.0000000,0.6,210.6,1.9,0.0,0.0,895,126,0,0,860.18,15.55,34.96,# data time:120,pm2.5:6.445,pm10:5.704,O2:0.000,NO2:0.000,SO2:0.000,NH3:0.783
11:33:18,0,0,0,0,0,2100,2200,0,0,0,0,514,0,0,0,0,0.0000000,0.0000000,0.0000000,0.0000000,3.00,38.4043427,-110.7911072,167.0000000,0.6,207.1,1.9,0.0,0.0,898,126,0,0,860.16,15.56,35.22,# data time:120,pm2.5:6.445,pm10:5.704,O2:0.000,NO2:0.000,SO2:0.000,NH3:0.783
11:33:19,0,0,0,0,0,2100,2200,0,0,0,0,514,0,0,0,0,0.0000000,0.0000000,0.0000000,0.0000000,3.00,38.4043427,-110.7911072,167.0000000,0.6,207.1,1.9,0.0,0.0,898,126,0,0,860.16,15.56,35.22,# data time:120,pm2.5:6.445,pm10:5.704,O2:0.000,NO2:0.000,SO2:0.000,NH3:0.783
11:33:20,0,0,0,0,0,2100,2200,0,0,0,0,514,0,0,0,0,0.0000000,0.0000000,0.0000000,0.0000000,3.00,38.4043350,-110.7911072,167.0000000,0.7,197.9,1.9,0.0,0.0,898,126,0,0,860.11,15.49,35.51,# data time:120,pm2.5:6.445,pm10:5.704,O2:0.000,NO2:0.000,SO2:0.000,NH3:0.783
11:33:21,0,0,0,0,0,2100,2200,0,0,0,0,514,0,0,0,0,0.0000000,0.0000000,0.0000000,0.0000000,3.00,38.4043350,-110.7911072,167.0000000,0.6,194.3,1.9,0.0,0.0,897,129,0,0,860.12,15.41,35.64,# data time:120,pm2.5:6.445,pm10:5.704,O2:0.000,NO2:0.000,SO2:0.000,NH3:0.783
11:33:22,0,0,0,0,0,2100,2200,0,0,0,0,514,0,0,0,0,0.0000000,0.0000000,0.0000000,0.0000000,3.00,38.4043350,-110.7911072,167.0000000,0.7,199.1,1.9,0.0,0.0,897,127,0,0,860.18,15.32,35.75,# data time:120,pm2.5:6.445,pm10:5.704,O2:0.000,NO2:0.000,SO2:0.000,NH3:0.783
11:33:23,0,0,0,0,0,2100,2200,0,0,0,0,514,0,0,0,0,0.0000000,0.0000000,0.0000000,0.0000000,3.00,38.4043350,-110.7911072,167.0000000,0.7,199.1,1.9,0.0,0.0,897,126,0,0,860.19,15.26,35.80,# data time:130,pm2.5:6.445,pm10:5.704,O2:0.000,NO2:0.000,SO2:0.000,NH3:0.557
11:33:24,0,0,0,0,0,2100,2200,0,0,0,0,514,0,0,0,0,0.0000000,0.0000000,0.0000000,0.0000000,3.00,38.4043312,-110.7911072,167.0000000,0.7,194.0,1.9,0.0,0.0,899,126,0,0,860.19,15.12,35.96,# data time:130,pm2.5:6.445,pm10:5.704,O2:0.000,NO2:0.000,SO2:0.000,NH3:0.557
11:33:25,0,0,0,0,0,2100,2200,0,0,0,0,514,0,0,0,0,0.0000000,0.0000000,0.0000000,0.0000000,4.00,38.4043312,-110.7911072,167.1000061,0.5,197.3,1.5,0.0,0.0,899,127,0,0,860.24,14.98,36.06,# data time:130,pm2.5:6.445,pm10:5.704,O2:0.000,NO2:0.000,SO2:0.000,NH3:0.557
11:33:27,0,0,0,0,0,2100,2200,0,0,0,0,514,0,0,0,0,0.0000000,0.0000000,0.0000000,0.0000000,4.00,38.4043274,-110.7911148,167.1000061,0.6,202.0,1.5,0.0,0.0,899,126,0,0,860.19,14.79,36.11,# data time:130,pm2.5:6.445,pm10:5.704,O2:0.000,NO2:0.000,SO2:0.000,NH3:0.557
11:33:28,0,0,0,0,0,2100,2200,0,0,0,0,512,0,0,0,0,0.0000000,0.0000000,0.0000000,0.0000000,4.00,38.4043236,-110.7911148,167.1000061,0.4,198.7,1.5,0.0,0.0,897,130,0,0,860.23,14.71,36.24,# data time:130,pm2.5:6.445,pm10:5.704,O2:0.000,NO2:0.000,SO2:0.000,NH3:0.557
11:33:29,0,0,0,0,0,2100,2200,0,0,0,0,519,0,0,0,0,0.0000000,0.0000000,0.0000000,0.0000000,4.00,38.4043274,-110.7911148,167.3999939,0.5,210.4,1.5,0.0,0.0,898,126,0,0,860.24,14.69,36.28,# data time:130,pm2.5:6.445,pm10:5.704,O2:0.000,NO2:0.000,SO2:0.000,NH3:0.557
11:33:30,0,0,0,0,0,2100,2200,0,0,0,0,514,0,0,0,0,0.0000000,0.0000000,0.0000000,0.0000000,4.00,38.4043274,-110.7911148,167.3999939,0.3,208.4,1.5,0.0,0.0,899,134,0,0,860.23,14.71,36.33,# data time:130,pm2.5:6.445,pm10:5.704,O2:0.000,NO2:0.000,SO2:0.000,NH3:0.557
11:33:31,0,0,0,0,0,2100,2200,0,0,0,0,514,0,0,0,0,0.0000000,0.0000000,0.0000000,0.0000000,4.00,38.4043274,-110.7911148,167.3999939,0.2,206.7,1.5,0.0,0.0,899,129,0,0,861.37,12.18,36.50,# data time:130,pm2.5:6.445,pm10:5.704,O2:0.000,NO2:0.000,SO2:0.000,NH3:0.557
11:33:32,0,0,0,0,0,2100,2200,0,0,0,0,515,0,0,0,0,0.0000000,0.0000000,0.0000000,0.0000000,4.00,38.4043274,-110.7911148,167.3999939,0.5,231.5,1.5,0.0,0.0,899,131,0,0,860.82,12.65,36.37,# data time:140,pm2.5:6.445,pm10:5.704,O2:0.000,NO2:0.000,SO2:0.000,NH3:0.557
11:33:33,0,0,0,0,0,2100,2200,0,0,0,0,515,0,0,0,0,0.0000000,0.0000000,0.0000000,0.0000000,4.00,38.4043236,-110.7911148,167.3999939,0.5,214.4,1.5,0.0,0.0,898,128,0,0,861.81,10.38,36.39,# data time:140,pm2.5:6.445,pm10:5.704,O2:0.000,NO2:0.000,SO2:0.000,NH3:0.557
11:33:34,0,0,0,0,0,2100,2200,0,0,0,0,514,0,0,0,0,0.0000000,0.0000000,0.0000000,0.0000000,4.00,38.4043198,-110.7911148,167.3999939,0.5,208.3,1.5,0.0,0.0,898,126,0,0,861.87,9.40,36.34,# data time:140,pm2.5:6.445,pm10:5.704,O2:0.000,NO2:0.000,SO2:0.000,NH3:0.557
11:33:35,0,0,0,0,0,2100,2200,0,0,0,0,510,0,0,0,0,0.0000000,0.0000000,0.0000000,0.0000000,4.00,38.4043159,-110.7911148,167.5000000,0.5,205.0,1.5,0.0,0.0,896,129,0,0,861.77,10.36,36.25,# data time:140,pm2.5:6.445,pm10:5.704,O2:0.000,NO2:0.000,SO2:0.000,NH3:0.557
11:33:36,0,0,0,0,0,2100,2200,0,0,0,0,519,0,0,0,0,0.0000000,0.0000000,0.0000000,0.0000000,4.00,38.4043159,-110.7911148,167.5000000,0.4,214.1,1.5,0.0,0.0,906,125,0,0,861.04,11.31,36.18,# data time:140,pm2.5:6.445,pm10:5.704,O2:0.000,NO2:0.000,SO2:0.000,NH3:0.557
11:33:37,0,0,0,0,0,2100,2200,0,0,0,0,513,0,0,0,0,0.0000000,0.0000000,0.0000000,0.0000000,4.00,38.4043121,-110.7911301,167.5000000,0.4,207.5,1.5,0.0,0.0,897,121,0,0,861.40,10.53,36.23,# data time:140,pm2.5:6.445,pm10:5.704,O2:0.000,NO2:0.000,SO2:0.000,NH3:0.557
11:33:38,0,0,0,0,0,2100,2200,0,0,0,0,518,0,0,0,0,0.0000000,0.0000000,0.0000000,0.0000000,4.00,38.4043121,-110.7911301,167.5000000,0.5,185.1,1.5,0.0,0.0,897,133,0,0,862.09,9.08,36.27,# data time:140,pm2.5:6.445,pm10:5.704,O2:0.000,NO2:0.000,SO2:0.000,NH3:0.557
11:33:39,0,0,0,0,0,2100,2200,0,0,0,0,515,0,0,0,0,0.0000000,0.0000000,0.0000000,0.0000000,4.00,38.4043121,-110.7911301,167.5000000,0.6,187.3,1.5,0.0,0.0,900,128,0,0,861.44,10.82,36.14,# data time:140,pm2.5:6.445,pm10:5.704,O2:0.000,NO2:0.000,SO2:0.000,NH3:0.557
11:33:40,0,0,0,0,0,2100,2200,0,0,0,0,520,0,0,0,0,0.0000000,0.0000000,0.0000000,0.0000000,4.00,38.4043083,-110.7911301,167.5000000,0.4,201.0,1.5,0.0,0.0,900,130,0,0,861.74,10.42,36.12,# data time:140,pm2.5:6.445,pm10:5.704,O2:0.000,NO2:0.000,SO2:0.000,NH3:0.557
11:33:41,0,0,0,0,0,2100,2200,0,0,0,0,511,0,0,0,0,0.0000000,0.0000000,0.0000000,0.0000000,4.00,38.4043083,-110.7911301,167.5000000,0.5,198.0,1.5,0.0,0.0,900,124,0,0,861.48,10.77,36.08,# data time:140,pm2.5:6.445,pm10:5.704,O2:0.000,NO2:0.000,SO2:0.000,NH3:0.557
11:33:42,0,0,0,0,0,2100,2200,0,0,0,0,514,0,0,0,0,0.0000000,0.0000000,0.0000000,0.0000000,4.00,38.4043045,-110.7911301,167.5000000,0.5,199.1,1.5,0.0,0.0,899,124,0,0,861.47,10.54,36.06,# data time:150,pm2.5:6.445,pm10:5.704,O2:0.000,NO2:0.000,SO2:0.000,NH3:0.557
11:33:43,0,0,0,0,0,2100,2200,0,0,0,0,513,0,0,0,0,0.0000000,0.0000000,0.0000000,0.0000000,4.00,38.4043045,-110.7911301,167.6000061,0.5,197.2,1.5,0.0,0.0,895,128,0,0,861.88,10.07,36.03,# data time:150,pm2.5:6.445,pm10:5.704,O2:0.000,NO2:0.000,SO2:0.000,NH3:0.557
11:33:44,0,0,0,0,0,2100,2200,0,0,0,0,513,0,0,0,0,0.0000000,0.0000000,0.0000000,0.0000000,4.00,38.4043045,-110.7911301,167.6000061,0.4,187.5,1.5,0.0,0.0,896,127,0,0,862.07,9.40,35.96,# data time:150,pm2.5:6.445,pm10:5.704,O2:0.000,NO2:0.000,SO2:0.000,NH3:0.557
11:33:45,0,0,0,0,0,2100,2200,0,0,0,0,515,0,0,0,0,0.0000000,0.0000000,0.0000000,0.0000000,4.00,38.4043007,-110.7911301,167.6999969,0.4,185.2,1.5,0.0,0.0,894,126,0,0,861.98,10.13,35.81,# data time:150,pm2.5:6.445,pm10:5.704,O2:0.000,NO2:0.000,SO2:0.000,NH3:0.557
11:33:46,0,0,0,0,0,2100,2200,0,0,0,0,522,0,0,0,0,0.0000000,0.0000000,0.0000000,0.0000000,4.00,38.4043007,-110.7911301,167.6999969,0.4,184.1,1.5,0.0,0.0,897,129,0,0,861.57,10.18,35.69,# data time:150,pm2.5:6.445,pm10:5.704,O2:0.000,NO2:0.000,SO2:0.000,NH3:0.557
11:33:47,0,0,0,0,0,2100,2200,0,0,0,0,521,0,0,0,0,0.0000000,0.0000000,0.0000000,0.0000000,4.00,38.4042969,-110.7911301,167.8000031,0.5,186.9,1.5,0.0,0.0,902,133,0,0,861.68,10.09,35.57,# data time:150,pm2.5:6.445,pm10:5.704,O2:0.000,NO2:0.000,SO2:0.000,NH3:0.557
11:33:48,0,0,0,0,0,2100,2200,0,0,0,0,515,0,0,0,0,0.0000000,0.0000000,0.0000000,0.0000000,5.00,38.4042969,-110.7911301,167.8999939,0.4,204.7,1.3,0.0,0.0,892,126,0,0,861.85,10.65,35.47,# data time:150,pm2.5:6.445,pm10:5.704,O2:0.000,NO2:0.000,SO2:0.000,NH3:0.557
11:33:49,0,0,0,0,0,2100,2200,0,0,0,0,516,0,0,0,0,0.0000000,0.0000000,0.0000000,0.0000000,5.00,38.4042969,-110.7911301,168.0000000,0.3,210.2,1.3,0.0,0.0,901,135,0,0,861.85,10.15,35.53,# data time:150,pm2.5:6.445,pm10:5.704,O2:0.000,NO2:0.000,SO2:0.000,NH3:0.557
11:33:50,0,0,0,0,0,2100,2200,0,0,0,0,514,0,0,0,0,0.0000000,0.0000000,0.0000000,0.0000000,5.00,38.4042931,-110.7911301,168.0000000,0.5,211.8,1.3,0.0,0.0,898,133,0,0,861.65,10.09,35.47,# data time:150,pm2.5:6.445,pm10:5.704,O2:0.000,NO2:0.000,SO2:0.000,NH3:0.557
11:33:51,0,0,0,0,0,2100,2200,0,0,0,0,512,0,0,0,0,0.0000000,0.0000000,0.0000000,0.0000000,5.00,38.4042931,-110.7911301,168.1000061,0.4,205.3,1.3,0.0,0.0,894,128,0,0,860.99,12.53,35.38,# data time:150,pm2.5:6.445,pm10:5.704,O2:0.000,NO2:0.000,SO2:0.000,NH3:0.557
11:33:53,0,0,0,0,0,2100,2200,0,0,0,0,514,0,0,0,0,0.0000000,0.0000000,0.0000000,0.0000000,5.00,38.4042931,-110.7911301,168.1999969,0.4,198.7,1.3,0.0,0.0,899,130,0,0,861.80,10.22,35.45,# data time:160,pm2.5:6.445,pm10:5.704,O2:0.000,NO2:0.169,SO2:0.000,NH3:0.331
11:33:54,0,0,0,0,0,2100,2200,0,0,0,0,514,0,0,0,0,0.0000000,0.0000000,0.0000000,0.0000000,5.00,38.4042931,-110.7911301,168.3000031,0.4,213.6,1.3,0.0,0.0,898,134,0,0,860.21,15.72,35.27,# data time:160,pm2.5:6.445,pm10:5.704,O2:0.000,NO2:0.169,SO2:0.000,NH3:0.331
11:33:55,0,0,0,0,0,2100,2200,0,0,0,0,515,0,0,0,0,0.0000000,0.0000000,0.0000000,0.0000000,6.00,38.4042931,-110.7911453,168.3000031,0.4,222.4,1.3,0.0,0.0,897,133,0,0,860.14,15.69,35.44,# data time:160,pm2.5:6.445,pm10:5.704,O2:0.000,NO2:0.169,SO2:0.000,NH3:0.331
11:33:56,0,0,0,0,0,2100,2200,0,0,0,0,514,0,0,0,0,0.0000000,0.0000000,0.0000000,0.0000000,6.00,38.4042892,-110.7911453,168.3999939,0.4,227.9,1.3,0.0,0.0,898,134,0,0,860.22,15.44,35.68,# data time:160,pm2.5:6.445,pm10:5.704,O2:0.000,NO2:0.169,SO2:0.000,NH3:0.331
11:33:57,0,0,0,0,0,2100,2200,0,0,0,0,515,0,0,0,0,0.0000000,0.0000000,0.0000000,0.0000000,6.00,38.4042892,-110.7911453,168.3999939,0.4,210.3,1.3,0.0,0.0,897,132,0,0,860.25,15.05,35.81,# data time:160,pm2.5:6.445,pm10:5.704,O2:0.000,NO2:0.169,SO2:0.000,NH3:0.331
11:33:58,0,0,0,0,0,2100,2200,0,0,0,0,515,0,0,0,0,0.0000000,0.0000000,0.0000000,0.0000000,6.00,38.4042892,-110.7911453,168.5000000,0.4,216.8,1.3,0.0,0.0,897,132,0,0,860.35,14.69,35.93,# data time:160,pm2.5:6.445,pm10:5.704,O2:0.000,NO2:0.169,SO2:0.000,NH3:0.331
11:33:59,0,0,0,0,0,2100,2200,0,0,0,0,515,0,0,0,0,0.0000000,0.0000000,0.0000000,0.0000000,6.00,38.4042854,-110.7911453,168.6000061,0.4,213.0,1.3,0.0,0.0,899,134,0,0,860.42,14.33,36.08,# data time:160,pm2.5:6.445,pm10:5.704,O2:0.000,NO2:0.169,SO2:0.000,NH3:0.331
11:34:00,0,0,0,0,0,2100,2200,0,0,0,0,514,0,0,0,0,0.0000000,0.0000000,0.0000000,0.0000000,6.00,38.4042816,-110.7911453,168.6999969,0.6,202.4,1.2,0.0,0.0,898,131,0,0,860.43,14.15,36.23,# data time:160,pm2.5:6.445,pm10:5.704,O2:0.000,NO2:0.169,SO2:0.000,NH3:0.331
11:34:01,0,0,0,0,0,2100,2200,0,0,0,0,515,0,0,0,0,0.0000000,0.0000000,0.0000000,0.0000000,6.00,38.4042740,-110.7911453,168.6999969,0.6,200.3,1.3,0.0,0.0,898,132,0,0,860.41,14.13,36.34,# data time:160,pm2.5:6.445,pm10:5.704,O2:0.000,NO2:0.169,SO2:0.000,NH3:0.331
11:34:02,0,0,0,0,0,2100,2200,0,0,0,0,515,0,0,0,0,0.0000000,0.0000000,0.0000000,0.0000000,6.00,38.4042740,-110.7911453,168.8000031,0.6,207.3,1.3,0.0,0.0,898,135,0,0,860.46,14.19,36.34,# data time:160,pm2.5:6.445,pm10:5.704,O2:0.000,NO2:0.169,SO2:0.000,NH3:0.331
11:34:03,0,0,0,0,0,2100,2200,0,0,0,0,514,0,0,0,0,0.0000000,0.0000000,0.0000000,0.0000000,6.00,38.4042702,-110.7911530,168.8000031,0.6,222.2,1.3,0.0,0.0,898,131,0,0,860.50,13.55,35.92,# data time:170,pm2.5:6.445,pm10:5.704,O2:0.000,NO2:0.000,SO2:0.000,NH3:0.104
11:34:04,0,0,0,0,0,2100,2200,0,0,0,0,514,0,0,0,0,0.0000000,0.0000000,0.0000000,0.0000000,6.00,38.4042702,-110.7911530,168.8999939,0.6,222.2,1.2,0.0,0.0,897,132,0,0,860.51,13.63,35.79,# data time:170,pm2.5:6.445,pm10:5.704,O2:0.000,NO2:0.000,SO2:0.000,NH3:0.104
11:34:05,0,0,0,0,0,2100,2200,0,0,0,0,514,0,0,0,0,0.0000000,0.0000000,0.0000000,0.0000000,6.00,38.4042702,-110.7911530,168.8999939,0.6,222.2,1.2,0.0,0.0,898,138,0,0,860.40,14.05,35.89,# data time:170,pm2.5:6.445,pm10:5.704,O2:0.000,NO2:0.000,SO2:0.000,NH3:0.104
11:34:06,0,0,0,0,0,2100,2200,0,0,0,0,515,0,0,0,0,0.0000000,0.0000000,0.0000000,0.0000000,6.00,38.4042702,-110.7911530,169.0000000,0.3,222.9,1.3,0.0,0.0,897,142,0,0,860.36,14.50,35.97,# data time:170,pm2.5:6.445,pm10:5.704,O2:0.000,NO2:0.000,SO2:0.000,NH3:0.104
11:34:07,0,0,0,0,0,2100,2200,0,0,0,0,514,0,0,0,0,0.0000000,0.0000000,0.0000000,0.0000000,6.00,38.4042702,-110.7911530,169.0000000,0.4,219.7,1.3,0.0,0.0,897,141,0,0,860.37,14.56,35.56,# data time:170,pm2.5:6.445,pm10:5.704,O2:0.000,NO2:0.000,SO2:0.000,NH3:0.104
11:34:08,0,0,0,0,0,2100,2200,0,0,0,0,514,0,0,0,0,0.0000000,0.0000000,0.0000000,0.0000000,6.00,38.4042664,-110.7911530,169.0000000,0.6,208.2,1.3,0.0,0.0,899,141,0,0,860.45,14.54,35.63,# data time:170,pm2.5:6.445,pm10:5.704,O2:0.000,NO2:0.000,SO2:0.000,NH3:0.104
11:34:09,0,0,0,0,0,2100,2200,0,0,0,0,514,0,0,0,0,0.0000000,0.0000000,0.0000000,0.0000000,6.00,38.4042625,-110.7911530,169.0000000,0.5,202.6,1.3,0.0,0.0,898,141,0,0,860.49,14.16,35.52,# data time:170,pm2.5:6.445,pm10:5.704,O2:0.000,NO2:0.000,SO2:0.000,NH3:0.104
11:34:10,0,0,0,0,0,2100,2200,0,0,0,0,514,0,0,0,0,0.0000000,0.0000000,0.0000000,0.0000000,6.00,38.4042587,-110.7911530,169.0000000,0.5,182.7,1.3,0.0,0.0,898,142,0,0,860.55,14.28,35.61,# data time:170,pm2.5:6.445,pm10:5.704,O2:0.000,NO2:0.000,SO2:0.000,NH3:0.104
11:34:11,0,0,0,0,0,2100,2200,0,0,0,0,515,0,0,0,0,0.0000000,0.0000000,0.0000000,0.0000000,6.00,38.4042587,-110.7911530,169.1000061,0.6,203.7,1.3,0.0,0.0,896,139,0,0,860.50,14.15,35.71,# data time:170,pm2.5:6.445,pm10:5.704,O2:0.000,NO2:0.000,SO2:0.000,NH3:0.104
11:34:12,0,0,0,0,0,2100,2200,0,0,0,0,515,0,0,0,0,0.0000000,0.0000000,0.0000000,0.0000000,6.00,38.4042549,-110.7911530,169.1999969,0.6,193.3,1.2,0.0,0.0,898,143,0,0,861.71,13.75,35.88,# data time:180,pm2.5:6.445,pm10:5.704,O2:0.000,NO2:0.010,SO2:0.000,NH3:0.104
11:34:13,0,0,0,0,0,2100,2200,0,0,0,0,515,0,0,0,0,0.0000000,0.0000000,0.0000000,0.0000000,6.00,38.4042549,-110.7911530,169.1999969,0.3,218.0,1.3,0.0,0.0,898,137,0,0,860.68,13.93,35.72,# data time:180,pm2.5:6.445,pm10:5.704,O2:0.000,NO2:0.010,SO2:0.000,NH3:0.104
11:34:14,0,0,0,0,0,2100,2200,0,0,0,0,514,0,0,0,0,0.0000000,0.0000000,0.0000000,0.0000000,6.00,38.4042549,-110.7911530,169.3000031,0.5,197.1,1.3,0.0,0.0,898,152,0,0,860.53,13.81,35.69,# data time:180,pm2.5:6.445,pm10:5.704,O2:0.000,NO2:0.010,SO2:0.000,NH3:0.104
11:34:15,0,0,0,0,0,2100,2200,0,0,0,0,515,0,0,0,0,0.0000000,0.0000000,0.0000000,0.0000000,6.00,38.4042511,-110.7911530,169.3000031,0.4,194.4,1.3,0.0,0.0,897,146,0,0,860.60,14.40,35.71,# data time:180,pm2.5:6.445,pm10:5.704,O2:0.000,NO2:0.010,SO2:0.000,NH3:0.104
11:34:16,0,0,0,0,0,2100,2200,0,0,0,0,514,0,0,0,0,0.0000000,0.0000000,0.0000000,0.0000000,6.00,38.4042511,-110.7911530,169.3000031,0.5,223.3,1.2,0.0,0.0,896,150,0,0,860.62,14.13,35.72,# data time:180,pm2.5:6.445,pm10:5.704,O2:0.000,NO2:0.010,SO2:0.000,NH3:0.104
11:34:17,0,0,0,0,0,2100,2200,0,0,0,0,514,0,0,0,0,0.0000000,0.0000000,0.0000000,0.0000000,6.00,38.4042511,-110.7911530,169.3000031,0.4,227.9,1.3,0.0,0.0,897,145,0,0,860.65,13.75,35.75,# data time:180,pm2.5:6.445,pm10:5.704,O2:0.000,NO2:0.010,SO2:0.000,NH3:0.104
11:34:18,0,0,0,0,0,2100,2200,0,0,0,0,514,0,0,0,0,0.0000000,0.0000000,0.0000000,0.0000000,6.00,38.4042511,-110.7911682,169.3999939,0.4,222.3,1.3,0.0,0.0,896,150,0,0,860.66,13.60,35.79,# data time:180,pm2.5:6.445,pm10:5.704,O2:0.000,NO2:0.010,SO2:0.000,NH3:0.104
11:34:19,0,0,0,0,0,2100,2200,0,0,0,0,514,0,0,0,0,0.0000000,0.0000000,0.0000000,0.0000000,6.00,38.4042511,-110.7911682,169.3999939,0.4,209.6,1.3,0.0,0.0,898,152,0,0,860.61,13.70,35.82,# data time:180,pm2.5:6.445,pm10:5.704,O2:0.000,NO2:0.010,SO2:0.000,NH3:0.104
11:34:20,0,0,0,0,0,2100,2200,0,0,0,0,514,0,0,0,0,0.0000000,0.0000000,0.0000000,0.0000000,6.00,38.4042473,-110.7911682,169.3999939,0.4,205.1,1.3,0.0,0.0,898,150,0,0,860.70,13.70,35.86,# data time:180,pm2.5:6.445,pm10:5.704,O2:0.000,NO2:0.010,SO2:0.000,NH3:0.104
11:34:21,0,0,0,0,0,2100,2200,0,0,0,0,514,0,0,0,0,0.0000000,0.0000000,0.0000000,0.0000000,6.00,38.4042473,-110.7911682,169.5000000,0.5,230.7,1.3,0.0,0.0,897,146,0,0,860.58,13.78,35.90,# data time:180,pm2.5:6.445,pm10:5.704,O2:0.000,NO2:0.010,SO2:0.000,NH3:0.104
11:34:22,0,0,0,0,0,2100,2200,0,0,0,0,514,0,0,0,0,0.0000000,0.0000000,0.0000000,0.0000000,6.00,38.4042435,-110.7911682,169.5000000,0.3,201.7,1.3,0.0,0.0,898,143,0,0,860.57,13.84,35.91,# data time:190,pm2.5:6.445,pm10:5.704,O2:0.000,NO2:0.000,SO2:0.000,NH3:0.104
11:34:23,0,0,0,0,0,2100,2200,0,0,0,0,514,0,0,0,0,0.0000000,0.0000000,0.0000000,0.0000000,6.00,38.4042473,-110.7911682,169.6000061,0.3,210.1,1.3,0.0,0.0,899,146,0,0,860.54,13.81,35.90,# data time:190,pm2.5:6.445,pm10:5.704,O2:0.000,NO2:0.000,SO2:0.000,NH3:0.104
11:34:24,0,0,0,0,0,2100,2200,0,0,0,0,515,0,0,0,0,0.0000000,0.0000000,0.0000000,0.0000000,6.00,38.4042435,-110.7911682,169.6000061,0.3,195.9,1.3,0.0,0.0,898,145,0,0,860.56,13.81,35.96,# data time:190,pm2.5:6.445,pm10:5.704,O2:0.000,NO2:0.000,SO2:0.000,NH3:0.104
11:34:25,0,0,0,0,0,2100,2200,0,0,0,0,515,0,0,0,0,0.0000000,0.0000000,0.0000000,0.0000000,6.00,38.4042435,-110.7911682,169.6999969,0.3,188.8,1.3,0.0,0.0,897,147,0,0,860.59,13.82,35.96,# data time:190,pm2.5:6.445,pm10:5.704,O2:0.000,NO2:0.000,SO2:0.000,NH3:0.104
11:34:26,0,0,0,0,0,2100,2200,0,0,0,0,515,0,0,0,0,0.0000000,0.0000000,0.0000000,0.0000000,6.00,38.4042435,-110.7911682,169.6999969,0.2,189.2,1.3,0.0,0.0,895,145,0,0,860.52,13.73,36.01,# data time:190,pm2.5:6.445,pm10:5.704,O2:0.000,NO2:0.000,SO2:0.000,NH3:0.104
11:34:27,0,0,0,0,0,2100,2200,0,0,0,0,514,0,0,0,0,0.0000000,0.0000000,0.0000000,0.0000000,6.00,38.4042397,-110.7911682,169.8000031,0.3,191.6,1.3,0.0,0.0,898,135,0,0,860.49,13.86,36.07,# data time:190,pm2.5:6.445,pm10:5.704,O2:0.000,NO2:0.000,SO2:0.000,NH3:0.104
11:34:28,0,0,0,0,0,2100,2200,0,0,0,0,515,0,0,0,0,0.0000000,0.0000000,0.0000000,0.0000000,6.00,38.4042358,-110.7911682,169.8000031,0.4,210.1,1.3,0.0,0.0,899,142,0,0,860.55,13.90,36.11,# data time:190,pm2.5:6.445,pm10:5.704,O2:0.000,NO2:0.000,SO2:0.000,NH3:0.104
11:34:29,0,0,0,0,0,2100,2200,0,0,0,0,514,0,0,0,0,0.0000000,0.0000000,0.0000000,0.0000000,6.00,38.4042358,-110.7911682,169.8999939,0.4,182.4,1.3,0.0,0.0,898,142,0,0,860.53,13.95,36.19,# data time:190,pm2.5:6.445,pm10:5.704,O2:0.000,NO2:0.000,SO2:0.000,NH3:0.104
11:34:30,0,0,0,0,0,2100,2200,0,0,0,0,514,0,0,0,0,0.0000000,0.0000000,0.0000000,0.0000000,6.00,38.4042358,-110.7911682,169.8999939,0.4,189.0,1.3,0.0,0.0,898,138,0,0,860.52,13.95,36.19,# data time:190,pm2.5:6.445,pm10:5.704,O2:0.000,NO2:0.000,SO2:0.000,NH3:0.104
11:34:31,0,0,0,0,0,2100,2200,0,0,0,0,515,0,0,0,0,0.0000000,0.0000000,0.0000000,0.0000000,6.00,38.4042320,-110.7911682,170.0000000,0.5,214.7,1.3,0.0,0.0,898,139,0,0,860.55,13.96,35.71,# data time:190,pm2.5:6.445,pm10:5.704,O2:0.000,NO2:0.000,SO2:0.000,NH3:0.104
11:34:32,0,0,0,0,0,2100,2200,0,0,0,0,515,0,0,0,0,0.0000000,0.0000000,0.0000000,0.0000000,6.00,38.4042320,-110.7911682,170.0000000,0.5,214.7,1.3,0.0,0.0,896,136,0,0,860.46,14.18,35.10,# data time:200,pm2.5:6.445,pm10:5.704,O2:0.000,NO2:0.000,SO2:0.000,NH3:0.104
11:34:33,0,0,0,0,0,2100,2200,0,0,0,0,514,0,0,0,0,0.0000000,0.0000000,0.0000000,0.0000000,6.00,38.4042320,-110.7911835,170.1000061,0.5,226.1,1.3,0.0,0.0,898,139,0,0,860.48,14.31,34.87,# data time:200,pm2.5:6.445,pm10:5.704,O2:0.000,NO2:0.000,SO2:0.000,NH3:0.104
11:34:34,0,0,0,0,0,2100,2200,0,0,0,0,514,0,0,0,0,0.0000000,0.0000000,0.0000000,0.0000000,6.00,38.4042320,-110.7911835,170.1000061,0.4,211.6,1.3,0.0,0.0,898,139,0,0,860.47,14.69,34.73,# data time:200,pm2.5:6.445,pm10:5.704,O2:0.000,NO2:0.000,SO2:0.000,NH3:0.104
11:34:36,0,0,0,0,0,2100,2200,0,0,0,0,515,0,0,0,0,0.0000000,0.0000000,0.0000000,0.0000000,6.00,38.4042320,-110.7911835,170.1999969,0.5,220.7,1.3,0.0,0.0,896,139,0,0,860.56,14.47,34.74,# data time:200,pm2.5:6.445,pm10:5.704,O2:0.000,NO2:0.000,SO2:0.000,NH3:0.104
11:34:37,0,0,0,0,0,2100,2200,0,0,0,0,514,0,0,0,0,0.0000000,0.0000000,0.0000000,0.0000000,6.00,38.4042320,-110.7911835,170.1999969,0.4,189.3,1.3,0.0,0.0,899,137,0,0,860.73,14.19,34.77,# data time:200,pm2.5:6.445,pm10:5.704,O2:0.000,NO2:0.000,SO2:0.000,NH3:0.104
11:34:38,0,0,0,0,0,2100,2200,0,0,0,0,515,0,0,0,0,0.0000000,0.0000000,0.0000000,0.0000000,6.00,38.4042320,-110.7911835,170.3000031,0.4,187.4,1.3,0.0,0.0,897,135,0,0,862.18,12.02,34.88,# data time:200,pm2.5:6.445,pm10:5.704,O2:0.000,NO2:0.000,SO2:0.000,NH3:0.104
11:34:39,0,0,0,0,0,2100,2200,0,0,0,0,514,0,0,0,0,0.0000000,0.0000000,0.0000000,0.0000000,6.00,38.4042320,-110.7911835,170.3000031,0.4,190.1,1.3,0.0,0.0,897,137,0,0,860.65,14.15,34.86,# data time:200,pm2.5:6.445,pm10:5.704,O2:0.000,NO2:0.000,SO2:0.000,NH3:0.104
11:34:40,0,0,0,0,0,2100,2200,0,0,0,0,514,0,0,0,0,0.0000000,0.0000000,0.0000000,0.0000000,6.00,38.4042320,-110.7911835,170.3999939,0.3,205.3,1.3,0.0,0.0,898,131,0,0,860.53,14.30,35.06,# data time:200,pm2.5:6.445,pm10:5.704,O2:0.000,NO2:0.000,SO2:0.000,NH3:0.104
11:34:41,0,0,0,0,0,2100,2200,0,0,0,0,514,0,0,0,0,0.0000000,0.0000000,0.0000000,0.0000000,6.00,38.4042320,-110.7911835,170.3999939,0.5,195.3,1.3,0.0,0.0,896,134,0,0,861.29,14.07,35.32,# data time:200,pm2.5:6.445,pm10:5.704,O2:0.000,NO2:0.000,SO2:0.000,NH3:0.104
11:34:42,0,0,0,0,0,2100,2200,0,0,0,0,515,0,0,0,0,0.0000000,0.0000000,0.0000000,0.0000000,6.00,38.4042320,-110.7911835,170.5000000,0.4,197.9,1.3,0.0,0.0,897,133,0,0,860.54,14.13,35.24,# data time:200,pm2.5:6.445,pm10:5.704,O2:0.000,NO2:0.000,SO2:0.000,NH3:0.104
11:34:43,0,0,0,0,0,2100,2200,0,0,0,0,515,0,0,0,0,0.0000000,0.0000000,0.0000000,0.0000000,6.00,38.4042320,-110.7911835,170.5000000,0.4,197.9,1.3,0.0,0.0,898,131,0,0,860.52,14.01,35.22,# data time:210,pm2.5:6.445,pm10:5.704,O2:0.000,NO2:0.000,SO2:0.000,NH3:0.104
11:34:44,0,0,0,0,0,2100,2200,0,0,0,0,515,0,0,0,0,0.0000000,0.0000000,0.0000000,0.0000000,6.00,38.4042320,-110.7911835,170.6000061,0.4,201.5,1.3,0.0,0.0,897,135,0,0,860.55,14.04,35.37,# data time:210,pm2.5:6.445,pm10:5.704,O2:0.000,NO2:0.000,SO2:0.000,NH3:0.104
11:34:45,0,0,0,0,0,2100,2200,0,0,0,0,515,0,0,0,0,0.0000000,0.0000000,0.0000000,0.0000000,6.00,38.4042320,-110.7911835,170.6000061,0.3,175.9,1.3,0.0,0.0,897,132,0,0,860.60,14.07,35.59,# data time:210,pm2.5:6.445,pm10:5.704,O2:0.000,NO2:0.000,SO2:0.000,NH3:0.104
11:34:46,0,0,0,0,0,2100,2200,0,0,0,0,514,0,0,0,0,0.0000000,0.0000000,0.0000000,0.0000000,6.00,38.4042320,-110.7911835,170.6999969,0.3,183.2,1.3,0.0,0.0,898,129,0,0,860.59,13.96,35.70,# data time:210,pm2.5:6.445,pm10:5.704,O2:0.000,NO2:0.000,SO2:0.000,NH3:0.104
11:34:47,0,0,0,0,0,2100,2200,0,0,0,0,514,0,0,0,0,0.0000000,0.0000000,0.0000000,0.0000000,6.00,38.4042320,-110.7911835,170.6999969,0.2,166.6,1.3,0.0,0.0,899,129,0,0,860.64,13.75,35.80,# data time:210,pm2.5:6.445,pm10:5.704,O2:0.000,NO2:0.000,SO2:0.000,NH3:0.104
11:34:48,0,0,0,0,0,2100,2200,0,0,0,0,515,0,0,0,0,0.0000000,0.0000000,0.0000000,0.0000000,6.00,38.4042282,-110.7911835,170.8000031,0.3,193.1,1.3,0.0,0.0,895,131,0,0,860.69,13.63,35.89,# data time:210,pm2.5:6.445,pm10:5.704,O2:0.000,NO2:0.000,SO2:0.000,NH3:0.104
11:34:49,0,0,0,0,0,2100,2200,0,0,0,0,515,0,0,0,0,0.0000000,0.0000000,0.0000000,0.0000000,6.00,38.4042282,-110.7911835,170.8999939,0.4,222.3,1.3,0.0,0.0,897,130,0,0,860.68,13.49,36.03,# data time:210,pm2.5:6.445,pm10:5.704,O2:0.000,NO2:0.000,SO2:0.000,NH3:0.104
11:34:50,0,0,0,0,0,2100,2200,0,0,0,0,515,0,0,0,0,0.0000000,0.0000000,0.0000000,0.0000000,6.00,38.4042244,-110.7911835,171.0000000,0.4,213.8,1.3,0.0,0.0,896,127,0,0,860.71,13.29,36.15,# data time:210,pm2.5:6.445,pm10:5.704,O2:0.000,NO2:0.000,SO2:0.000,NH3:0.104
11:34:51,0,0,0,0,0,2100,2200,0,0,0,0,515,0,0,0,0,0.0000000,0.0000000,0.0000000,0.0000000,6.00,38.4042206,-110.7911835,171.1000061,0.5,206.5,1.3,0.0,0.0,899,129,0,0,860.76,13.26,36.21,# data time:210,pm2.5:6.445,pm10:5.704,O2:0.000,NO2:0.000,SO2:0.000,NH3:0.104
11:34:52,0,0,0,0,0,2100,2200,0,0,0,0,514,0,0,0,0,0.0000000,0.0000000,0.0000000,0.0000000,6.00,38.4042206,-110.7911835,171.1999969,0.5,216.2,1.3,0.0,0.0,897,129,0,0,860.70,13.31,36.18,# data time:210,pm2.5:6.445,pm10:5.704,O2:0.000,NO2:0.000,SO2:0.000,NH3:0.104
11:34:53,0,0,0,0,0,2100,2200,0,0,0,0,514,0,0,0,0,0.0000000,0.0000000,0.0000000,0.0000000,6.00,38.4042206,-110.7911835,171.1999969,0.5,216.2,1.3,0.0,0.0,898,127,0,0,860.72,13.29,36.13,# data time:220,pm2.5:6.445,pm10:5.704,O2:0.000,NO2:0.000,SO2:0.000,NH3:0.104
11:34:54,0,0,0,0,0,2100,2200,0,0,0,0,514,0,0,0,0,0.0000000,0.0000000,0.0000000,0.0000000,6.00,38.4042168,-110.7911835,171.3000031,0.5,209.6,1.3,0.0,0.0,897,128,0,0,860.69,13.40,36.26,# data time:220,pm2.5:6.445,pm10:5.704,O2:0.000,NO2:0.000,SO2:0.000,NH3:0.104
11:34:55,0,0,0,0,0,2100,2200,0,0,0,0,514,0,0,0,0,0.0000000,0.0000000,0.0000000,0.0000000,6.00,38.4042168,-110.7911835,171.3999939,0.4,197.6,1.3,0.0,0.0,898,127,0,0,860.68,13.46,36.22,# data time:220,pm2.5:6.445,pm10:5.704,O2:0.000,NO2:0.000,SO2:0.000,NH3:0.104
11:34:56,0,0,0,0,0,2100,2200,0,0,0,0,515,0,0,0,0,0.0000000,0.0000000,0.0000000,0.0000000,6.00,38.4042130,-110.7911835,171.5000000,0.5,223.7,1.3,0.0,0.0,897,127,0,0,860.73,13.49,35.62,# data time:220,pm2.5:6.445,pm10:5.704,O2:0.000,NO2:0.000,SO2:0.000,NH3:0.104
11:34:57,0,0,0,0,0,2100,2200,0,0,0,0,515,0,0,0,0,0.0000000,0.0000000,0.0000000,0.0000000,6.00,38.4042130,-110.7911835,171.6000061,0.3,211.9,1.3,0.0,0.0,897,128,0,0,860.56,13.96,34.84,# data time:220,pm2.5:6.445,pm10:5.704,O2:0.000,NO2:0.000,SO2:0.000,NH3:0.104
11:34:58,0,0,0,0,0,2100,2200,0,0,0,0,514,0,0,0,0,0.0000000,0.0000000,0.0000000,0.0000000,6.00,38.4042130,-110.7911835,171.6000061,0.3,211.9,1.3,0.0,0.0,899,125,0,0,860.61,14.05,35.08,# data time:220,pm2.5:6.445,pm10:5.704,O2:0.000,NO2:0.000,SO2:0.000,NH3:0.104
11:34:59,0,0,0,0,0,2100,2200,0,0,0,0,515,0,0,0,0,0.0000000,0.0000000,0.0000000,0.0000000,6.00,38.4042091,-110.7911835,171.8000031,0.4,212.6,1.3,0.0,0.0,896,129,0,0,860.61,13.92,35.20,# data time:220,pm2.5:6.445,pm10:5.704,O2:0.000,NO2:0.000,SO2:0.000,NH3:0.104
11:35:00,0,0,0,0,0,2100,2200,0,0,0,0,514,0,0,0,0,0.0000000,0.0000000,0.0000000,0.0000000,6.00,38.4042053,-110.7911835,171.8000031,0.4,192.8,1.3,0.0,0.0,898,126,0,0,860.57,14.01,35.17,# data time:220,pm2.5:6.445,pm10:5.704,O2:0.000,NO2:0.000,SO2:0.000,NH3:0.104
11:35:01,0,0,0,0,0,2100,2200,0,0,0,0,514,0,0,0,0,0.0000000,0.0000000,0.0000000,0.0000000,6.00,38.4042053,-110.7911835,171.8999939,0.5,212.0,1.3,0.0,0.0,896,129,0,0,860.54,14.25,35.39,# data time:220,pm2.5:6.445,pm10:5.704,O2:0.000,NO2:0.000,SO2:0.000,NH3:0.104
11:35:02,0,0,0,0,0,2100,2200,0,0,0,0,514,0,0,0,0,0.0000000,0.0000000,0.0000000,0.0000000,6.00,38.4042053,-110.7911835,171.8999939,0.5,212.0,1.3,0.0,0.0,898,130,0,0,860.59,14.10,35.56,# data time:230,pm2.5:6.445,pm10:5.704,O2:0.000,NO2:0.010,SO2:0.000,NH3:0.557
11:35:03,0,0,0,0,0,2100,2200,0,0,0,0,515,0,0,0,0,0.0000000,0.0000000,0.0000000,0.0000000,6.00,38.4041977,-110.7911835,172.0000000,0.3,199.5,1.2,0.0,0.0,897,128,0,0,860.49,14.15,35.80,# data time:230,pm2.5:6.445,pm10:5.704,O2:0.000,NO2:0.010,SO2:0.000,NH3:0.557
11:35:04,0,0,0,0,0,2100,2200,0,0,0,0,515,0,0,0,0,0.0000000,0.0000000,0.0000000,0.0000000,6.00,38.4041977,-110.7911835,172.1000061,0.4,201.6,1.2,0.0,0.0,897,125,0,0,860.55,14.13,36.02,# data time:230,pm2.5:6.445,pm10:5.704,O2:0.000,NO2:0.010,SO2:0.000,NH3:0.557
11:35:05,0,0,0,0,0,2100,2200,0,0,0,0,515,0,0,0,0,0.0000000,0.0000000,0.0000000,0.0000000,6.00,38.4041939,-110.7911835,172.1000061,0.6,202.9,1.2,0.0,0.0,897,123,0,0,860.57,14.56,36.15,# data time:230,pm2.5:6.445,pm10:5.704,O2:0.000,NO2:0.010,SO2:0.000,NH3:0.557
11:35:06,0,0,0,0,0,2100,2200,0,0,0,0,514,0,0,0,0,0.0000000,0.0000000,0.0000000,0.0000000,6.00,38.4041939,-110.7911835,172.1999969,0.5,213.1,1.2,0.0,0.0,897,126,0,0,860.52,14.34,36.25,# data time:230,pm2.5:6.445,pm10:5.704,O2:0.000,NO2:0.010,SO2:0.000,NH3:0.557
11:35:07,0,0,0,0,0,2100,2200,0,0,0,0,515,0,0,0,0,0.0000000,0.0000000,0.0000000,0.0000000,6.00,38.4041901,-110.7911835,172.1999969,0.5,201.3,1.3,0.0,0.0,898,125,0,0,860.51,14.42,36.29,# data time:230,pm2.5:6.445,pm10:5.704,O2:0.000,NO2:0.010,SO2:0.000,NH3:0.557
11:35:08,0,0,0,0,0,2100,2200,0,0,0,0,515,0,0,0,0,0.0000000,0.0000000,0.0000000,0.0000000,6.00,38.4041862,-110.7911835,172.1999969,0.5,203.4,1.2,0.0,0.0,898,128,0,0,860.47,14.37,36.32,# data time:230,pm2.5:6.445,pm10:5.704,O2:0.000,NO2:0.010,SO2:0.000,NH3:0.557
11:35:09,0,0,0,0,0,2100,2200,0,0,0,0,515,0,0,0,0,0.0000000,0.0000000,0.0000000,0.0000000,6.00,38.4041862,-110.7911835,172.3000031,0.4,219.9,1.3,0.0,0.0,898,127,0,0,860.42,14.54,36.35,# data time:230,pm2.5:6.445,pm10:5.704,O2:0.000,NO2:0.010,SO2:0.000,NH3:0.557
11:35:10,0,0,0,0,0,2100,2200,0,0,0,0,514,0,0,0,0,0.0000000,0.0000000,0.0000000,0.0000000,6.00,38.4041862,-110.7911835,172.3999939,0.3,199.6,1.3,0.0,0.0,899,136,0,0,860.38,14.66,36.43,# data time:230,pm2.5:6.445,pm10:5.704,O2:0.000,NO2:0.010,SO2:0.000,NH3:0.557
11:35:11,0,0,0,0,0,2100,2200,0,0,0,0,515,0,0,0,0,0.0000000,0.0000000,0.0000000,0.0000000,6.00,38.4041824,-110.7911911,172.3999939,0.5,202.9,1.3,0.0,0.0,898,135,0,0,860.36,14.62,36.54,# data time:230,pm2.5:6.445,pm10:5.704,O2:0.000,NO2:0.010,SO2:0.000,NH3:0.557
11:35:12,0,0,0,0,0,2100,2200,0,0,0,0,515,0,0,0,0,0.0000000,0.0000000,0.0000000,0.0000000,6.00,38.4041824,-110.7911911,172.3999939,0.5,202.9,1.3,0.0,0.0,897,135,0,0,860.34,14.66,36.58,# data time:240,pm2.5:6.445,pm10:5.704,O2:0.000,NO2:0.000,SO2:0.000,NH3:0.557
