Time, Motor A Speed, Motor A Dir, Motor B Speed, Motor B Dir, Servo Rail Current Sensor, Servo Pos - Arm L, Servo Pos - Arm R, Servo Pos - End, Servo Pos - Hopper, Servo Pos - Lid, Servo Pos - Extra, Servo Current, LED - Front L, LED - Front R, LED - Back L, LED - Back R, IMU Pitch, IMU Roll, IMU Yaw, Compass Heading, GPS Sats, GPS Latitude, GPS Longitude, GPS Altitude, GPS Speed, GPS Angle, GPS HDOP, GPS VDOP, GPS PDOP, Battery, Wind, Comm Xbee Latency, Comm Arduino Latency, Pressure, Humidity, Temperature, uRADMonitor
9:53:25,0,0,0,0,0,0,0,0,0,0,0,0,0,0,0,0,0.0000000,0.0000000,0.0000000,0.0000000,0.00,0.0000000,0.0000000,0.0000000,0.0,0.0,0.0,0.0,0.0,0,0,0,0,0.00,0.00,0.00,0
9:53:26,0,0,0,0,0,0,0,0,0,0,0,514,0,0,0,0,0.0000000,0.0000000,0.0000000,0.0000000,10.00,38.4064217,-110.7921524,1379.9000244,0.0,0.0,0.8,0.0,0.0,894,128,0,0,863.27,23.01,19.87,0
9:53:27,0,0,0,0,0,0,0,0,0,0,0,514,0,0,0,0,0.0000000,0.0000000,0.0000000,0.0000000,10.00,38.4064217,-110.7921524,1379.9000244,0.0,0.0,0.8,0.0,0.0,895,127,0,0,863.24,23.01,19.88,0
9:53:28,0,0,0,0,0,0,0,0,0,0,0,516,0,0,0,0,0.0000000,0.0000000,0.0000000,0.0000000,10.00,38.4064217,-110.7921524,1380.0000000,0.1,76.2,0.8,0.0,0.0,893,125,0,0,863.22,22.96,19.87,0
9:53:29,0,0,0,0,0,0,0,0,0,0,0,515,0,0,0,0,0.0000000,0.0000000,0.0000000,0.0000000,10.00,38.4064217,-110.7921524,1380.0000000,0.1,69.3,0.8,0.0,0.0,893,125,0,0,863.26,22.95,19.92,0
9:53:30,0,0,0,0,0,0,0,0,0,0,0,515,0,0,0,0,0.0000000,0.0000000,0.0000000,0.0000000,10.00,38.4064217,-110.7921524,1380.0000000,0.1,69.3,0.8,0.0,0.0,894,129,0,0,863.25,22.92,19.88,0
9:53:31,0,0,0,0,0,0,0,0,0,0,0,514,0,0,0,0,0.0000000,0.0000000,0.0000000,0.0000000,10.00,38.4064217,-110.7921524,1380.0000000,0.1,153.6,0.8,0.0,0.0,893,130,0,0,863.26,22.84,19.93,0
9:53:32,0,0,0,0,0,0,0,0,0,0,0,514,0,0,0,0,0.0000000,0.0000000,0.0000000,0.0000000,10.00,38.4064217,-110.7921524,1380.0000000,0.2,107.7,0.8,0.0,0.0,894,129,0,0,863.28,22.78,19.92,0
9:53:33,0,0,0,0,0,0,0,0,0,0,0,516,0,0,0,0,0.0000000,0.0000000,0.0000000,0.0000000,10.00,38.4064217,-110.7921524,1380.0000000,0.2,130.5,0.8,0.0,0.0,893,126,0,0,863.26,22.80,19.93,# data time:1410,pm2.5:5.640,pm10:4.991,O2:0.000,NO2:0.000,SO2:0.000,NH3:3.499
9:53:34,0,0,0,0,0,0,0,0,0,0,0,515,0,0,0,0,0.0000000,0.0000000,0.0000000,0.0000000,10.00,38.4064217,-110.7921524,1380.0000000,0.2,114.4,0.8,0.0,0.0,894,128,0,0,863.27,22.78,19.92,# data time:1410,pm2.5:5.640,pm10:4.991,O2:0.000,NO2:0.000,SO2:0.000,NH3:3.499
9:53:35,0,0,0,0,0,0,0,0,0,0,0,515,0,0,0,0,0.0000000,0.0000000,0.0000000,0.0000000,10.00,38.4064178,-110.7921524,1380.0000000,0.2,131.6,0.8,0.0,0.0,893,126,0,0,863.24,22.78,19.93,# data time:1410,pm2.5:5.640,pm10:4.991,O2:0.000,NO2:0.000,SO2:0.000,NH3:3.499
9:53:36,0,0,0,0,0,0,0,0,0,0,0,514,0,0,0,0,0.0000000,0.0000000,0.0000000,0.0000000,10.00,38.4064178,-110.7921524,1380.0000000,0.2,150.0,0.8,0.0,0.0,894,126,0,0,863.31,22.78,19.93,# data time:1410,pm2.5:5.640,pm10:4.991,O2:0.000,NO2:0.000,SO2:0.000,NH3:3.499
9:53:37,0,0,0,0,0,0,0,0,0,0,0,521,0,0,0,0,0.0000000,0.0000000,0.0000000,0.0000000,10.00,38.4064178,-110.7921524,1380.0000000,0.2,138.7,0.8,0.0,0.0,893,127,0,0,863.31,22.80,19.93,# data time:1410,pm2.5:5.640,pm10:4.991,O2:0.000,NO2:0.000,SO2:0.000,NH3:3.499
9:53:38,0,0,0,0,0,0,0,0,0,0,0,515,0,0,0,0,0.0000000,0.0000000,0.0000000,0.0000000,10.00,38.4064178,-110.7921524,1380.0000000,0.2,160.5,0.8,0.0,0.0,894,127,0,0,863.26,22.77,19.94,# data time:1410,pm2.5:5.640,pm10:4.991,O2:0.000,NO2:0.000,SO2:0.000,NH3:3.499
9:53:39,0,0,0,0,0,0,0,0,0,0,0,514,0,0,0,0,0.0000000,0.0000000,0.0000000,0.0000000,10.00,38.4064178,-110.7921524,1380.0000000,0.2,164.9,0.8,0.0,0.0,894,132,0,0,863.30,22.77,19.94,# data time:1410,pm2.5:5.640,pm10:4.991,O2:0.000,NO2:0.000,SO2:0.000,NH3:3.499
9:53:40,0,0,0,0,0,0,0,0,0,0,0,516,0,0,0,0,0.0000000,0.0000000,0.0000000,0.0000000,10.00,38.4064178,-110.7921524,1380.0000000,0.2,187.3,0.8,0.0,0.0,893,125,0,0,863.30,22.71,19.94,# data time:1410,pm2.5:5.640,pm10:4.991,O2:0.000,NO2:0.000,SO2:0.000,NH3:3.499
9:53:41,0,0,0,0,0,0,0,0,0,0,0,519,0,0,0,0,0.0000000,0.0000000,0.0000000,0.0000000,10.00,38.4064178,-110.7921524,1380.0000000,0.2,197.1,0.8,0.0,0.0,890,129,0,0,863.25,22.64,19.94,# data time:1410,pm2.5:5.640,pm10:4.991,O2:0.000,NO2:0.000,SO2:0.000,NH3:3.499
9:53:42,0,0,0,0,0,0,0,0,0,0,0,514,0,0,0,0,0.0000000,0.0000000,0.0000000,0.0000000,10.00,38.4064178,-110.7921524,1380.0000000,0.3,195.6,0.8,0.0,0.0,894,126,0,0,863.26,22.64,19.95,# data time:1420,pm2.5:6.445,pm10:5.704,O2:0.000,NO2:0.000,SO2:0.000,NH3:3.273
9:53:43,0,0,0,0,0,0,0,0,0,0,0,514,0,0,0,0,0.0000000,0.0000000,0.0000000,0.0000000,10.00,38.4064140,-110.7921524,1380.0000000,0.3,191.8,0.8,0.0,0.0,894,128,0,0,863.24,22.63,19.95,# data time:1420,pm2.5:6.445,pm10:5.704,O2:0.000,NO2:0.000,SO2:0.000,NH3:3.273
9:53:44,0,0,0,0,0,0,0,0,0,0,0,515,0,0,0,0,0.0000000,0.0000000,0.0000000,0.0000000,10.00,38.4064140,-110.7921524,1380.0000000,0.2,193.1,0.8,0.0,0.0,894,124,0,0,863.28,22.61,19.95,# data time:1420,pm2.5:6.445,pm10:5.704,O2:0.000,NO2:0.000,SO2:0.000,NH3:3.273
9:53:45,0,0,0,0,0,0,0,0,0,0,0,528,0,0,0,0,0.0000000,0.0000000,0.0000000,0.0000000,10.00,38.4064140,-110.7921524,1380.0000000,0.3,209.8,0.8,0.0,0.0,892,127,0,0,863.27,22.60,19.95,# data time:1420,pm2.5:6.445,pm10:5.704,O2:0.000,NO2:0.000,SO2:0.000,NH3:3.273
9:53:46,0,0,0,0,0,0,0,0,0,0,0,516,0,0,0,0,0.0000000,0.0000000,0.0000000,0.0000000,10.00,38.4064102,-110.7921524,1380.0000000,0.3,201.6,0.8,0.0,0.0,892,127,0,0,863.24,22.61,19.96,# data time:1420,pm2.5:6.445,pm10:5.704,O2:0.000,NO2:0.000,SO2:0.000,NH3:3.273
9:53:47,0,0,0,0,0,0,0,0,0,0,0,515,0,0,0,0,0.0000000,0.0000000,0.0000000,0.0000000,10.00,38.4064102,-110.7921524,1380.0000000,0.4,195.7,0.8,0.0,0.0,894,127,0,0,863.25,22.61,19.97,# data time:1420,pm2.5:6.445,pm10:5.704,O2:0.000,NO2:0.000,SO2:0.000,NH3:3.273
9:53:48,0,0,0,0,0,0,0,0,0,0,0,514,0,0,0,0,0.0000000,0.0000000,0.0000000,0.0000000,10.00,38.4064064,-110.7921524,1380.0000000,0.4,184.4,0.8,0.0,0.0,894,125,0,0,863.27,22.60,19.97,# data time:1420,pm2.5:6.445,pm10:5.704,O2:0.000,NO2:0.000,SO2:0.000,NH3:3.273
9:53:50,0,0,0,0,0,0,0,0,0,0,0,515,0,0,0,0,0.0000000,0.0000000,0.0000000,0.0000000,10.00,38.4064064,-110.7921524,1380.0000000,0.4,174.5,0.8,0.0,0.0,894,131,0,0,863.27,22.55,19.97,# data time:1420,pm2.5:6.445,pm10:5.704,O2:0.000,NO2:0.000,SO2:0.000,NH3:3.273
9:53:51,0,0,0,0,0,0,0,0,0,0,0,582,0,0,0,0,0.0000000,0.0000000,0.0000000,0.0000000,10.00,38.4064026,-110.7921524,1380.0000000,0.4,165.5,0.8,0.0,0.0,880,125,0,0,863.30,22.52,19.97,# data time:1420,pm2.5:6.445,pm10:5.704,O2:0.000,NO2:0.000,SO2:0.000,NH3:3.273
9:53:52,0,0,0,0,0,0,0,0,0,0,0,515,0,0,0,0,0.0000000,0.0000000,0.0000000,0.0000000,10.00,38.4063988,-110.7921524,1380.0000000,0.4,154.1,0.8,0.0,0.0,893,127,0,0,863.27,22.52,19.97,# data time:1420,pm2.5:6.445,pm10:5.704,O2:0.000,NO2:0.000,SO2:0.000,NH3:3.273
9:53:53,0,0,0,0,0,0,0,0,0,0,0,515,0,0,0,0,0.0000000,0.0000000,0.0000000,0.0000000,10.00,38.4063950,-110.7921524,1380.0000000,0.4,150.4,0.8,0.0,0.0,894,126,0,0,863.24,22.51,19.97,# data time:1430,pm2.5:6.445,pm10:5.704,O2:0.000,NO2:0.000,SO2:0.000,NH3:3.273
9:53:54,0,0,0,0,0,0,0,0,0,0,0,517,0,0,0,0,0.0000000,0.0000000,0.0000000,0.0000000,10.00,38.4063950,-110.7921524,1380.0000000,0.4,154.4,0.8,0.0,0.0,894,127,0,0,863.28,22.49,19.97,# data time:1430,pm2.5:6.445,pm10:5.704,O2:0.000,NO2:0.000,SO2:0.000,NH3:3.273
9:53:55,0,0,0,0,0,0,0,0,0,0,0,514,0,0,0,0,0.0000000,0.0000000,0.0000000,0.0000000,10.00,38.4063950,-110.7921524,1380.0000000,0.5,149.8,0.8,0.0,0.0,894,128,0,0,863.28,22.49,19.97,# data time:1430,pm2.5:6.445,pm10:5.704,O2:0.000,NO2:0.000,SO2:0.000,NH3:3.273
9:53:56,0,0,0,0,0,0,0,0,0,0,0,515,0,0,0,0,0.0000000,0.0000000,0.0000000,0.0000000,10.00,38.4063950,-110.7921524,1380.0000000,0.5,145.6,0.8,0.0,0.0,894,127,0,0,863.27,22.45,19.97,# data time:1430,pm2.5:6.445,pm10:5.704,O2:0.000,NO2:0.000,SO2:0.000,NH3:3.273
9:53:57,0,0,0,0,0,0,0,0,0,0,0,516,0,0,0,0,0.0000000,0.0000000,0.0000000,0.0000000,10.00,38.4063911,-110.7921524,1380.0000000,0.5,143.2,0.8,0.0,0.0,894,128,0,0,863.29,22.43,19.98,# data time:1430,pm2.5:6.445,pm10:5.704,O2:0.000,NO2:0.000,SO2:0.000,NH3:3.273
9:53:58,0,0,0,0,0,0,0,0,0,0,0,524,0,0,0,0,0.0000000,0.0000000,0.0000000,0.0000000,10.00,38.4063873,-110.7921524,1380.0000000,0.6,146.8,0.8,0.0,0.0,892,126,0,0,863.24,22.45,19.98,# data time:1430,pm2.5:6.445,pm10:5.704,O2:0.000,NO2:0.000,SO2:0.000,NH3:3.273
9:53:59,0,0,0,0,0,0,0,0,0,0,0,514,0,0,0,0,0.0000000,0.0000000,0.0000000,0.0000000,10.00,38.4063721,-110.7921524,1380.0000000,0.7,157.4,0.8,0.0,0.0,894,128,0,0,863.33,22.45,19.98,# data time:1430,pm2.5:6.445,pm10:5.704,O2:0.000,NO2:0.000,SO2:0.000,NH3:3.273
9:54:00,0,0,0,0,0,0,0,0,0,0,0,514,0,0,0,0,0.0000000,0.0000000,0.0000000,0.0000000,10.00,38.4063568,-110.7921524,1380.0000000,0.8,166.1,0.8,0.0,0.0,894,129,0,0,863.25,22.42,19.97,# data time:1430,pm2.5:6.445,pm10:5.704,O2:0.000,NO2:0.000,SO2:0.000,NH3:3.273
9:54:01,0,0,0,0,0,0,0,0,0,0,0,515,0,0,0,0,0.0000000,0.0000000,0.0000000,0.0000000,10.00,38.4063377,-110.7921524,1380.0000000,1.0,169.0,0.8,0.0,0.0,894,127,0,0,863.23,22.42,19.97,# data time:1430,pm2.5:6.445,pm10:5.704,O2:0.000,NO2:0.000,SO2:0.000,NH3:3.273
9:54:02,0,0,0,0,0,0,0,0,0,0,0,515,0,0,0,0,0.0000000,0.0000000,0.0000000,0.0000000,10.00,38.4063263,-110.7921524,1380.0000000,1.0,168.9,0.8,0.0,0.0,894,126,0,0,863.31,22.39,19.97,# data time:1430,pm2.5:6.445,pm10:5.704,O2:0.000,NO2:0.000,SO2:0.000,NH3:3.273
9:54:03,0,0,0,0,0,0,0,0,0,0,0,515,0,0,0,0,0.0000000,0.0000000,0.0000000,0.0000000,10.00,38.4063225,-110.7921371,1380.0000000,0.9,162.6,0.8,0.0,0.0,894,126,0,0,863.27,22.39,19.97,# data time:1440,pm2.5:6.445,pm10:5.704,O2:0.000,NO2:0.000,SO2:0.000,NH3:3.273
9:54:04,0,0,0,0,0,0,0,0,0,0,0,521,0,0,0,0,0.0000000,0.0000000,0.0000000,0.0000000,10.00,38.4063187,-110.7921371,1380.0000000,0.8,156.9,0.8,0.0,0.0,892,127,0,0,863.25,22.35,19.98,# data time:1440,pm2.5:6.445,pm10:5.704,O2:0.000,NO2:0.000,SO2:0.000,NH3:3.273
9:54:05,0,0,0,0,0,0,0,0,0,0,0,515,0,0,0,0,0.0000000,0.0000000,0.0000000,0.0000000,10.00,38.4062843,-110.7921295,1379.9000244,0.9,153.9,0.8,0.0,0.0,894,127,0,0,863.29,22.35,19.98,# data time:1440,pm2.5:6.445,pm10:5.704,O2:0.000,NO2:0.000,SO2:0.000,NH3:3.273
9:54:06,0,0,0,0,0,0,0,0,0,0,0,515,0,0,0,0,0.0000000,0.0000000,0.0000000,0.0000000,10.00,38.4062614,-110.7921143,1379.9000244,0.8,146.6,0.8,0.0,0.0,894,129,0,0,863.24,22.35,19.98,# data time:1440,pm2.5:6.445,pm10:5.704,O2:0.000,NO2:0.000,SO2:0.000,NH3:3.273
9:54:07,0,0,0,0,0,0,0,0,0,0,0,515,0,0,0,0,0.0000000,0.0000000,0.0000000,0.0000000,10.00,38.4062462,-110.7921143,1379.8000488,0.7,145.4,0.8,0.0,0.0,894,128,0,0,863.26,22.35,19.98,# data time:1440,pm2.5:6.445,pm10:5.704,O2:0.000,NO2:0.000,SO2:0.000,NH3:3.273
9:54:08,0,0,0,0,0,0,0,0,0,0,0,517,0,0,0,0,0.0000000,0.0000000,0.0000000,0.0000000,10.00,38.4062347,-110.7921143,1379.8000488,0.5,145.9,0.8,0.0,0.0,891,126,0,0,863.24,22.35,19.99,# data time:1440,pm2.5:6.445,pm10:5.704,O2:0.000,NO2:0.000,SO2:0.000,NH3:3.273
9:54:09,0,0,0,0,0,0,0,0,0,0,0,516,0,0,0,0,0.0000000,0.0000000,0.0000000,0.0000000,10.00,38.4062195,-110.7921143,1379.8000488,0.5,155.7,0.8,0.0,0.0,893,128,0,0,863.24,22.39,20.00,# data time:1440,pm2.5:6.445,pm10:5.704,O2:0.000,NO2:0.000,SO2:0.000,NH3:3.273
9:54:10,0,0,0,0,0,0,0,0,0,0,0,514,0,0,0,0,0.0000000,0.0000000,0.0000000,0.0000000,10.00,38.4062119,-110.7921295,1379.5000000,0.5,181.1,0.8,0.0,0.0,892,131,0,0,863.27,22.39,20.00,# data time:1440,pm2.5:6.445,pm10:5.704,O2:0.000,NO2:0.000,SO2:0.000,NH3:3.273
9:54:11,0,0,0,0,0,0,0,0,0,0,0,516,0,0,0,0,0.0000000,0.0000000,0.0000000,0.0000000,10.00,38.4061966,-110.7921295,1379.4000244,0.5,182.2,0.8,0.0,0.0,893,126,0,0,863.25,22.39,20.00,# data time:1440,pm2.5:6.445,pm10:5.704,O2:0.000,NO2:0.000,SO2:0.000,NH3:3.273
9:54:12,0,0,0,0,0,0,0,0,0,0,0,523,0,0,0,0,0.0000000,0.0000000,0.0000000,0.0000000,10.00,38.4061966,-110.7921295,1379.4000244,0.5,175.6,0.8,0.0,0.0,892,128,0,0,863.27,22.39,20.00,# data time:1440,pm2.5:6.445,pm10:5.704,O2:0.000,NO2:0.000,SO2:0.000,NH3:3.273
9:54:13,0,0,0,0,0,0,0,0,0,0,0,514,0,0,0,0,0.0000000,0.0000000,0.0000000,0.0000000,10.00,38.4061928,-110.7921295,1379.4000244,0.5,172.4,0.8,0.0,0.0,894,127,0,0,863.21,22.35,19.91,# data time:1450,pm2.5:6.445,pm10:5.704,O2:0.000,NO2:0.000,SO2:0.000,NH3:3.273
9:54:14,0,0,0,0,0,0,0,0,0,0,0,515,0,0,0,0,0.0000000,0.0000000,0.0000000,0.0000000,10.00,38.4061890,-110.7921295,1379.4000244,0.4,159.8,0.8,0.0,0.0,894,126,0,0,863.15,22.40,19.91,# data time:1450,pm2.5:6.445,pm10:5.704,O2:0.000,NO2:0.000,SO2:0.000,NH3:3.273
9:54:15,0,0,0,0,0,0,0,0,0,0,0,514,0,0,0,0,0.0000000,0.0000000,0.0000000,0.0000000,10.00,38.4061890,-110.7921295,1379.4000244,0.4,156.4,0.8,0.0,0.0,894,128,0,0,863.25,22.39,19.91,# data time:1450,pm2.5:6.445,pm10:5.704,O2:0.000,NO2:0.000,SO2:0.000,NH3:3.273
9:54:16,0,0,0,0,0,0,0,0,0,0,0,515,0,0,0,0,0.0000000,0.0000000,0.0000000,0.0000000,10.00,38.4061852,-110.7921295,1379.4000244,0.4,156.4,0.8,0.0,0.0,894,127,0,0,863.28,22.37,19.96,# data time:1450,pm2.5:6.445,pm10:5.704,O2:0.000,NO2:0.000,SO2:0.000,NH3:3.273
9:54:17,0,0,0,0,0,0,0,0,0,0,0,515,0,0,0,0,0.0000000,0.0000000,0.0000000,0.0000000,10.00,38.4061813,-110.7921295,1379.4000244,0.4,156.4,0.8,0.0,0.0,893,123,0,0,863.20,22.37,19.90,# data time:1450,pm2.5:6.445,pm10:5.704,O2:0.000,NO2:0.000,SO2:0.000,NH3:3.273
9:54:18,0,0,0,0,0,0,0,0,0,0,0,576,0,0,0,0,0.0000000,0.0000000,0.0000000,0.0000000,10.00,38.4061813,-110.7921295,1379.4000244,0.3,177.0,0.8,0.0,0.0,883,131,0,0,863.23,22.39,19.96,# data time:1450,pm2.5:6.445,pm10:5.704,O2:0.000,NO2:0.000,SO2:0.000,NH3:3.273
9:54:19,0,0,0,0,0,0,0,0,0,0,0,514,0,0,0,0,0.0000000,0.0000000,0.0000000,0.0000000,10.00,38.4061775,-110.7921295,1379.4000244,0.3,182.0,0.8,0.0,0.0,894,125,0,0,863.26,22.37,19.96,# data time:1450,pm2.5:6.445,pm10:5.704,O2:0.000,NO2:0.000,SO2:0.000,NH3:3.273
9:54:20,0,0,0,0,0,0,0,0,0,0,0,514,0,0,0,0,0.0000000,0.0000000,0.0000000,0.0000000,10.00,38.4061775,-110.7921295,1379.4000244,0.3,214.7,0.8,0.0,0.0,894,127,0,0,863.27,22.35,20.01,# data time:1450,pm2.5:6.445,pm10:5.704,O2:0.000,NO2:0.000,SO2:0.000,NH3:3.273
9:54:21,0,0,0,0,0,0,0,0,0,0,0,515,0,0,0,0,0.0000000,0.0000000,0.0000000,0.0000000,10.00,38.4061775,-110.7921295,1379.4000244,0.4,219.0,0.8,0.0,0.0,893,129,0,0,863.20,22.35,20.01,# data time:1450,pm2.5:6.445,pm10:5.704,O2:0.000,NO2:0.000,SO2:0.000,NH3:3.273
9:54:22,0,0,0,0,0,0,0,0,0,0,0,522,0,0,0,0,0.0000000,0.0000000,0.0000000,0.0000000,10.00,38.4061775,-110.7921295,1379.4000244,0.3,211.4,0.8,0.0,0.0,890,128,0,0,863.23,22.39,20.01,# data time:1450,pm2.5:6.445,pm10:5.704,O2:0.000,NO2:0.000,SO2:0.000,NH3:3.273
9:54:23,0,0,0,0,0,0,0,0,0,0,0,518,0,0,0,0,0.0000000,0.0000000,0.0000000,0.0000000,10.00,38.4061775,-110.7921371,1379.4000244,0.3,217.1,0.8,0.0,0.0,891,120,0,0,863.23,22.37,20.01,# data time:1460,pm2.5:6.445,pm10:5.704,O2:0.000,NO2:0.000,SO2:0.000,NH3:3.273
9:54:24,0,0,0,0,0,0,0,0,0,0,0,515,0,0,0,0,0.0000000,0.0000000,0.0000000,0.0000000,10.00,38.4061737,-110.7921371,1379.4000244,0.3,198.5,0.8,0.0,0.0,894,128,0,0,863.24,22.35,20.01,# data time:1460,pm2.5:6.445,pm10:5.704,O2:0.000,NO2:0.000,SO2:0.000,NH3:3.273
9:54:25,0,0,0,0,0,0,0,0,0,0,0,515,0,0,0,0,0.0000000,0.0000000,0.0000000,0.0000000,10.00,38.4061737,-110.7921371,1379.4000244,0.3,194.4,0.8,0.0,0.0,894,129,0,0,863.24,22.32,20.01,# data time:1460,pm2.5:6.445,pm10:5.704,O2:0.000,NO2:0.000,SO2:0.000,NH3:3.273
9:54:26,0,0,0,0,0,0,0,0,0,0,0,515,0,0,0,0,0.0000000,0.0000000,0.0000000,0.0000000,10.00,38.4061737,-110.7921371,1379.4000244,0.2,285.2,0.8,0.0,0.0,894,126,0,0,863.31,22.34,20.02,# data time:1460,pm2.5:6.445,pm10:5.704,O2:0.000,NO2:0.000,SO2:0.000,NH3:3.273
9:54:27,0,0,0,0,0,0,0,0,0,0,0,544,0,0,0,0,0.0000000,0.0000000,0.0000000,0.0000000,10.00,38.4061737,-110.7921371,1379.4000244,0.2,248.6,0.8,0.0,0.0,889,128,0,0,863.26,22.35,20.02,# data time:1460,pm2.5:6.445,pm10:5.704,O2:0.000,NO2:0.000,SO2:0.000,NH3:3.273
9:54:28,0,0,0,0,0,0,0,0,0,0,0,523,0,0,0,0,0.0000000,0.0000000,0.0000000,0.0000000,10.00,38.4061737,-110.7921371,1379.4000244,0.1,211.5,0.8,0.0,0.0,892,127,0,0,863.28,22.42,20.01,# data time:1460,pm2.5:6.445,pm10:5.704,O2:0.000,NO2:0.000,SO2:0.000,NH3:3.273
9:54:29,0,0,0,0,0,0,0,0,0,0,0,513,0,0,0,0,0.0000000,0.0000000,0.0000000,0.0000000,10.00,38.4061737,-110.7921371,1379.4000244,0.3,173.2,0.8,0.0,0.0,894,118,0,0,863.24,22.46,20.01,# data time:1460,pm2.5:6.445,pm10:5.704,O2:0.000,NO2:0.000,SO2:0.000,NH3:3.273
9:54:30,0,0,0,0,0,0,0,0,0,0,0,515,0,0,0,0,0.0000000,0.0000000,0.0000000,0.0000000,10.00,38.4061699,-110.7921371,1379.4000244,0.2,187.3,0.8,0.0,0.0,894,131,0,0,863.26,22.49,20.01,# data time:1460,pm2.5:6.445,pm10:5.704,O2:0.000,NO2:0.000,SO2:0.000,NH3:3.273
9:54:31,0,0,0,0,0,0,0,0,0,0,0,524,0,0,0,0,0.0000000,0.0000000,0.0000000,0.0000000,10.00,38.4061699,-110.7921371,1379.4000244,0.2,261.0,0.8,0.0,0.0,891,126,0,0,863.22,22.51,20.02,# data time:1460,pm2.5:6.445,pm10:5.704,O2:0.000,NO2:0.000,SO2:0.000,NH3:3.273
9:54:32,0,0,0,0,0,0,0,0,0,0,0,515,0,0,0,0,0.0000000,0.0000000,0.0000000,0.0000000,10.00,38.4061699,-110.7921371,1379.4000244,0.2,254.3,0.8,0.0,0.0,893,126,0,0,863.22,22.57,20.02,# data time:1470,pm2.5:6.445,pm10:5.704,O2:0.000,NO2:0.000,SO2:0.000,NH3:3.273
9:54:33,0,0,0,0,0,0,0,0,0,0,0,524,0,0,0,0,0.0000000,0.0000000,0.0000000,0.0000000,10.00,38.4061699,-110.7921371,1379.4000244,0.1,232.0,0.8,0.0,0.0,891,129,0,0,863.27,22.71,20.02,# data time:1470,pm2.5:6.445,pm10:5.704,O2:0.000,NO2:0.000,SO2:0.000,NH3:3.273
9:54:34,0,0,0,0,0,0,0,0,0,0,0,521,0,0,0,0,0.0000000,0.0000000,0.0000000,0.0000000,10.00,38.4061699,-110.7921371,1379.4000244,0.1,281.4,0.8,0.0,0.0,890,126,0,0,863.23,22.81,20.02,# data time:1470,pm2.5:6.445,pm10:5.704,O2:0.000,NO2:0.000,SO2:0.000,NH3:3.273
9:54:35,0,0,0,0,0,0,0,0,0,0,0,516,0,0,0,0,0.0000000,0.0000000,0.0000000,0.0000000,10.00,38.4061699,-110.7921371,1379.4000244,0.1,276.5,0.8,0.0,0.0,893,136,0,0,863.26,22.90,20.02,# data time:1470,pm2.5:6.445,pm10:5.704,O2:0.000,NO2:0.000,SO2:0.000,NH3:3.273
9:54:36,0,0,0,0,0,0,0,0,0,0,0,515,0,0,0,0,0.0000000,0.0000000,0.0000000,0.0000000,10.00,38.4061699,-110.7921371,1379.4000244,0.2,261.0,0.8,0.0,0.0,894,128,0,0,863.22,22.90,20.02,# data time:1470,pm2.5:6.445,pm10:5.704,O2:0.000,NO2:0.000,SO2:0.000,NH3:3.273
9:54:37,0,0,0,0,0,0,0,0,0,0,0,514,0,0,0,0,0.0000000,0.0000000,0.0000000,0.0000000,10.00,38.4061699,-110.7921371,1379.4000244,0.2,254.6,0.8,0.0,0.0,894,128,0,0,863.26,22.92,20.02,# data time:1470,pm2.5:6.445,pm10:5.704,O2:0.000,NO2:0.000,SO2:0.000,NH3:3.273
9:54:38,0,0,0,0,0,0,0,0,0,0,0,539,0,0,0,0,0.0000000,0.0000000,0.0000000,0.0000000,10.00,38.4061699,-110.7921371,1379.4000244,0.1,323.5,0.8,0.0,0.0,888,125,0,0,863.26,22.87,20.03,# data time:1470,pm2.5:6.445,pm10:5.704,O2:0.000,NO2:0.000,SO2:0.000,NH3:3.273
9:54:39,0,0,0,0,0,0,0,0,0,0,0,515,0,0,0,0,0.0000000,0.0000000,0.0000000,0.0000000,10.00,38.4061699,-110.7921371,1379.4000244,0.1,252.8,0.8,0.0,0.0,894,127,0,0,863.26,22.77,20.02,# data time:1470,pm2.5:6.445,pm10:5.704,O2:0.000,NO2:0.000,SO2:0.000,NH3:3.273
9:54:41,0,0,0,0,0,0,0,0,0,0,0,515,0,0,0,0,0.0000000,0.0000000,0.0000000,0.0000000,10.00,38.4061699,-110.7921524,1379.4000244,0.1,279.3,0.8,0.0,0.0,894,127,0,0,863.28,22.69,20.02,# data time:1470,pm2.5:6.445,pm10:5.704,O2:0.000,NO2:0.000,SO2:0.000,NH3:3.273
9:54:42,0,0,0,0,0,0,0,0,0,0,0,515,0,0,0,0,0.0000000,0.0000000,0.0000000,0.0000000,10.00,38.4061699,-110.7921524,1379.4000244,0.3,283.7,0.8,0.0,0.0,894,126,0,0,863.27,22.61,20.03,# data time:1470,pm2.5:6.445,pm10:5.704,O2:0.000,NO2:0.000,SO2:0.000,NH3:3.273
9:54:43,0,0,0,0,0,0,0,0,0,0,0,515,0,0,0,0,0.0000000,0.0000000,0.0000000,0.0000000,10.00,38.4061699,-110.7921524,1379.4000244,0.2,261.7,0.8,0.0,0.0,894,130,0,0,863.26,22.52,20.03,# data time:1480,pm2.5:6.445,pm10:5.704,O2:0.000,NO2:0.000,SO2:0.000,NH3:3.273
9:54:44,0,0,0,0,0,0,0,0,0,0,0,514,0,0,0,0,0.0000000,0.0000000,0.0000000,0.0000000,10.00,38.4061699,-110.7921524,1379.4000244,0.2,303.2,0.8,0.0,0.0,893,127,0,0,863.29,22.52,20.03,# data time:1480,pm2.5:6.445,pm10:5.704,O2:0.000,NO2:0.000,SO2:0.000,NH3:3.273
9:54:45,0,0,0,0,0,0,0,0,0,0,0,515,0,0,0,0,0.0000000,0.0000000,0.0000000,0.0000000,10.00,38.4061699,-110.7921524,1379.4000244,0.2,297.4,0.8,0.0,0.0,894,125,0,0,863.26,22.49,20.03,# data time:1480,pm2.5:6.445,pm10:5.704,O2:0.000,NO2:0.000,SO2:0.000,NH3:3.273
9:54:46,0,0,0,0,0,0,0,0,0,0,0,546,0,0,0,0,0.0000000,0.0000000,0.0000000,0.0000000,10.00,38.4061699,-110.7921524,1379.4000244,0.3,303.8,0.8,0.0,0.0,888,126,0,0,863.22,22.54,20.03,# data time:1480,pm2.5:6.445,pm10:5.704,O2:0.000,NO2:0.000,SO2:0.000,NH3:3.273
9:54:47,0,0,0,0,0,0,0,0,0,0,0,515,0,0,0,0,0.0000000,0.0000000,0.0000000,0.0000000,10.00,38.4061737,-110.7921524,1379.4000244,0.3,325.0,0.8,0.0,0.0,894,127,0,0,863.25,22.63,20.03,# data time:1480,pm2.5:6.445,pm10:5.704,O2:0.000,NO2:0.000,SO2:0.000,NH3:3.273
9:54:48,0,0,0,0,0,0,0,0,0,0,0,515,0,0,0,0,0.0000000,0.0000000,0.0000000,0.0000000,10.00,38.4061737,-110.7921524,1379.4000244,0.3,344.8,0.8,0.0,0.0,892,125,0,0,863.24,22.68,20.03,# data time:1480,pm2.5:6.445,pm10:5.704,O2:0.000,NO2:0.000,SO2:0.000,NH3:3.273
9:54:49,0,0,0,0,0,0,0,0,0,0,0,533,0,0,0,0,0.0000000,0.0000000,0.0000000,0.0000000,10.00,38.4061737,-110.7921524,1379.4000244,0.2,357.2,0.8,0.0,0.0,890,129,0,0,863.21,22.69,20.03,# data time:1480,pm2.5:6.445,pm10:5.704,O2:0.000,NO2:0.000,SO2:0.000,NH3:3.273
9:54:50,0,0,0,0,0,0,0,0,0,0,0,515,0,0,0,0,0.0000000,0.0000000,0.0000000,0.0000000,10.00,38.4061737,-110.7921524,1379.4000244,0.2,20.5,0.8,0.0,0.0,894,127,0,0,863.30,22.68,20.03,# data time:1480,pm2.5:6.445,pm10:5.704,O2:0.000,NO2:0.000,SO2:0.000,NH3:3.273
9:54:51,0,0,0,0,0,0,0,0,0,0,0,519,0,0,0,0,0.0000000,0.0000000,0.0000000,0.0000000,10.00,38.4061775,-110.7921524,1379.4000244,0.2,20.1,0.8,0.0,0.0,892,127,0,0,863.26,22.64,20.03,# data time:1480,pm2.5:6.445,pm10:5.704,O2:0.000,NO2:0.000,SO2:0.000,NH3:3.273
9:54:52,0,0,0,0,0,0,0,0,0,0,0,515,0,0,0,0,0.0000000,0.0000000,0.0000000,0.0000000,10.00,38.4061775,-110.7921524,1379.4000244,0.2,18.5,0.8,0.0,0.0,894,126,0,0,863.23,22.63,20.04,# data time:1480,pm2.5:6.445,pm10:5.704,O2:0.000,NO2:0.000,SO2:0.000,NH3:3.273
9:54:53,0,0,0,0,0,0,0,0,0,0,0,515,0,0,0,0,0.0000000,0.0000000,0.0000000,0.0000000,10.00,38.4061775,-110.7921524,1379.4000244,0.2,310.0,0.8,0.0,0.0,894,130,0,0,863.24,22.57,20.04,# data time:1490,pm2.5:6.445,pm10:5.704,O2:0.000,NO2:0.000,SO2:0.000,NH3:3.273
9:54:54,0,0,0,0,0,0,0,0,0,0,0,516,0,0,0,0,0.0000000,0.0000000,0.0000000,0.0000000,10.00,38.4061775,-110.7921524,1379.4000244,0.2,316.5,0.8,0.0,0.0,893,127,0,0,863.25,22.58,20.04,# data time:1490,pm2.5:6.445,pm10:5.704,O2:0.000,NO2:0.000,SO2:0.000,NH3:3.273
9:54:55,0,0,0,0,0,0,0,0,0,0,0,519,0,0,0,0,0.0000000,0.0000000,0.0000000,0.0000000,10.00,38.4061775,-110.7921524,1379.4000244,0.2,336.1,0.8,0.0,0.0,892,128,0,0,863.25,22.55,20.04,# data time:1490,pm2.5:6.445,pm10:5.704,O2:0.000,NO2:0.000,SO2:0.000,NH3:3.273
9:54:56,0,0,0,0,0,0,0,0,0,0,0,518,0,0,0,0,0.0000000,0.0000000,0.0000000,0.0000000,10.00,38.4061775,-110.7921524,1379.4000244,0.3,344.0,0.8,0.0,0.0,893,132,0,0,863.24,22.52,20.04,# data time:1490,pm2.5:6.445,pm10:5.704,O2:0.000,NO2:0.000,SO2:0.000,NH3:3.273
9:54:57,0,0,0,0,0,0,0,0,0,0,0,515,0,0,0,0,0.0000000,0.0000000,0.0000000,0.0000000,10.00,38.4061775,-110.7921524,1379.4000244,0.3,346.1,0.8,0.0,0.0,893,126,0,0,863.24,22.58,20.04,# data time:1490,pm2.5:6.445,pm10:5.704,O2:0.000,NO2:0.000,SO2:0.000,NH3:3.273
9:54:58,0,0,0,0,0,0,0,0,0,0,0,516,0,0,0,0,0.0000000,0.0000000,0.0000000,0.0000000,10.00,38.4061813,-110.7921524,1379.4000244,0.4,354.6,0.8,0.0,0.0,893,129,0,0,863.25,22.57,20.04,# data time:1490,pm2.5:6.445,pm10:5.704,O2:0.000,NO2:0.000,SO2:0.000,NH3:3.273
9:54:59,0,0,0,0,0,0,0,0,0,0,0,547,0,0,0,0,0.0000000,0.0000000,0.0000000,0.0000000,10.00,38.4061813,-110.7921524,1379.4000244,0.2,10.0,0.8,0.0,0.0,888,126,0,0,863.25,22.57,20.04,# data time:1490,pm2.5:6.445,pm10:5.704,O2:0.000,NO2:0.000,SO2:0.000,NH3:3.273
9:55:00,0,0,0,0,0,0,0,0,0,0,0,514,0,0,0,0,0.0000000,0.0000000,0.0000000,0.0000000,10.00,38.4061813,-110.7921524,1379.4000244,0.2,331.3,0.8,0.0,0.0,893,128,0,0,863.25,22.58,20.04,# data time:1490,pm2.5:6.445,pm10:5.704,O2:0.000,NO2:0.000,SO2:0.000,NH3:3.273
9:55:01,0,0,0,0,0,0,0,0,0,0,0,515,0,0,0,0,0.0000000,0.0000000,0.0000000,0.0000000,10.00,38.4061852,-110.7921524,1379.4000244,0.3,294.8,0.8,0.0,0.0,894,127,0,0,863.27,22.57,20.05,# data time:1490,pm2.5:6.445,pm10:5.704,O2:0.000,NO2:0.000,SO2:0.000,NH3:3.273
9:55:02,0,0,0,0,0,0,0,0,0,0,0,547,0,0,0,0,0.0000000,0.0000000,0.0000000,0.0000000,10.00,38.4061852,-110.7921677,1379.4000244,0.3,294.8,0.8,0.0,0.0,886,129,0,0,863.21,22.58,20.01,# data time:1490,pm2.5:6.445,pm10:5.704,O2:0.000,NO2:0.000,SO2:0.000,NH3:3.273
9:55:03,0,0,0,0,0,0,0,0,0,0,0,516,0,0,0,0,0.0000000,0.0000000,0.0000000,0.0000000,10.00,38.4061852,-110.7921677,1379.4000244,0.3,285.6,0.8,0.0,0.0,893,128,0,0,863.19,22.60,19.96,# data time:1500,pm2.5:6.445,pm10:5.704,O2:0.000,NO2:0.000,SO2:0.000,NH3:3.273
9:55:04,0,0,0,0,0,0,0,0,0,0,0,514,0,0,0,0,0.0000000,0.0000000,0.0000000,0.0000000,10.00,38.4061852,-110.7921677,1379.4000244,0.2,322.8,0.8,0.0,0.0,893,125,0,0,863.19,22.66,19.96,# data time:1500,pm2.5:6.445,pm10:5.704,O2:0.000,NO2:0.000,SO2:0.000,NH3:3.273
9:55:05,0,0,0,0,0,0,0,0,0,0,0,515,0,0,0,0,0.0000000,0.0000000,0.0000000,0.0000000,10.00,38.4061852,-110.7921677,1379.4000244,0.2,322.8,0.8,0.0,0.0,894,125,0,0,863.20,22.63,20.00,# data time:1500,pm2.5:6.445,pm10:5.704,O2:0.000,NO2:0.000,SO2:0.000,NH3:3.273
9:55:06,0,0,0,0,0,0,0,0,0,0,0,514,0,0,0,0,0.0000000,0.0000000,0.0000000,0.0000000,10.00,38.4061890,-110.7921677,1379.4000244,0.2,308.5,0.8,0.0,0.0,894,127,0,0,863.22,22.74,19.95,# data time:1500,pm2.5:6.445,pm10:5.704,O2:0.000,NO2:0.000,SO2:0.000,NH3:3.273
9:55:07,0,0,0,0,0,0,0,0,0,0,0,514,0,0,0,0,0.0000000,0.0000000,0.0000000,0.0000000,10.00,38.4061890,-110.7921677,1379.4000244,0.1,29.4,0.8,0.0,0.0,893,126,0,0,863.21,22.78,19.94,# data time:1500,pm2.5:6.445,pm10:5.704,O2:0.000,NO2:0.000,SO2:0.000,NH3:3.273
9:55:08,0,0,0,0,0,0,0,0,0,0,0,514,0,0,0,0,0.0000000,0.0000000,0.0000000,0.0000000,10.00,38.4061890,-110.7921677,1379.4000244,0.1,29.4,0.8,0.0,0.0,894,128,0,0,863.24,22.80,20.00,# data time:1500,pm2.5:6.445,pm10:5.704,O2:0.000,NO2:0.000,SO2:0.000,NH3:3.273
9:55:09,0,0,0,0,0,0,0,0,0,0,0,515,0,0,0,0,0.0000000,0.0000000,0.0000000,0.0000000,10.00,38.4061890,-110.7921677,1379.4000244,0.1,29.4,0.8,0.0,0.0,895,131,0,0,863.20,22.84,19.95,# data time:1500,pm2.5:6.445,pm10:5.704,O2:0.000,NO2:0.000,SO2:0.000,NH3:3.273
9:55:10,0,0,0,0,0,0,0,0,0,0,0,515,0,0,0,0,0.0000000,0.0000000,0.0000000,0.0000000,10.00,38.4061890,-110.7921677,1379.4000244,0.3,37.8,0.8,0.0,0.0,894,128,0,0,863.23,22.86,20.05,# data time:1500,pm2.5:6.445,pm10:5.704,O2:0.000,NO2:0.000,SO2:0.000,NH3:3.273
9:55:11,0,0,0,0,0,0,0,0,0,0,0,514,0,0,0,0,0.0000000,0.0000000,0.0000000,0.0000000,10.00,38.4061928,-110.7921677,1379.4000244,0.2,41.7,0.8,0.0,0.0,894,128,0,0,863.25,22.87,20.06,# data time:1500,pm2.5:6.445,pm10:5.704,O2:0.000,NO2:0.000,SO2:0.000,NH3:3.273
9:55:12,0,0,0,0,0,0,0,0,0,0,0,514,0,0,0,0,0.0000000,0.0000000,0.0000000,0.0000000,10.00,38.4061928,-110.7921677,1379.4000244,0.2,26.7,0.8,0.0,0.0,894,129,0,0,863.20,22.89,20.06,# data time:1500,pm2.5:6.445,pm10:5.704,O2:0.000,NO2:0.000,SO2:0.000,NH3:3.273
9:55:13,0,0,0,0,0,0,0,0,0,0,0,515,0,0,0,0,0.0000000,0.0000000,0.0000000,0.0000000,10.00,38.4061928,-110.7921677,1379.4000244,0.1,352.5,0.8,0.0,0.0,894,131,0,0,863.28,22.86,20.07,# data time:1510,pm2.5:6.445,pm10:5.704,O2:0.000,NO2:0.000,SO2:0.000,NH3:3.273
9:55:14,0,0,0,0,0,0,0,0,0,0,0,517,0,0,0,0,0.0000000,0.0000000,0.0000000,0.0000000,10.00,38.4061928,-110.7921677,1379.4000244,0.1,17.2,0.8,0.0,0.0,894,127,0,0,863.24,22.84,20.07,# data time:1510,pm2.5:6.445,pm10:5.704,O2:0.000,NO2:0.000,SO2:0.000,NH3:3.273
9:55:15,0,0,0,0,0,0,0,0,0,0,0,565,0,0,0,0,0.0000000,0.0000000,0.0000000,0.0000000,10.00,38.4061928,-110.7921677,1379.4000244,0.1,6.8,0.8,0.0,0.0,885,126,0,0,863.20,22.84,20.07,# data time:1510,pm2.5:6.445,pm10:5.704,O2:0.000,NO2:0.000,SO2:0.000,NH3:3.273
9:55:16,0,0,0,0,0,0,0,0,0,0,0,516,0,0,0,0,0.0000000,0.0000000,0.0000000,0.0000000,10.00,38.4061966,-110.7921677,1379.4000244,0.2,34.1,0.8,0.0,0.0,893,126,0,0,863.23,22.81,20.08,# data time:1510,pm2.5:6.445,pm10:5.704,O2:0.000,NO2:0.000,SO2:0.000,NH3:3.273
9:55:17,0,0,0,0,0,0,0,0,0,0,0,523,0,0,0,0,0.0000000,0.0000000,0.0000000,0.0000000,10.00,38.4061966,-110.7921677,1379.4000244,0.1,351.4,0.8,0.0,0.0,891,126,0,0,863.24,22.80,20.08,# data time:1510,pm2.5:6.445,pm10:5.704,O2:0.000,NO2:0.000,SO2:0.000,NH3:3.273
9:55:18,0,0,0,0,0,0,0,0,0,0,0,519,0,0,0,0,0.0000000,0.0000000,0.0000000,0.0000000,10.00,38.4061966,-110.7921677,1379.4000244,0.1,14.9,0.8,0.0,0.0,890,125,0,0,863.23,22.71,20.08,# data time:1510,pm2.5:6.445,pm10:5.704,O2:0.000,NO2:0.000,SO2:0.000,NH3:3.273
9:55:19,0,0,0,0,0,0,0,0,0,0,0,515,0,0,0,0,0.0000000,0.0000000,0.0000000,0.0000000,10.00,38.4061966,-110.7921677,1379.4000244,0.1,7.2,0.8,0.0,0.0,893,126,0,0,863.23,22.68,20.09,# data time:1510,pm2.5:6.445,pm10:5.704,O2:0.000,NO2:0.000,SO2:0.000,NH3:3.273
9:55:20,0,0,0,0,0,0,0,0,0,0,0,515,0,0,0,0,0.0000000,0.0000000,0.0000000,0.0000000,10.00,38.4061966,-110.7921677,1379.4000244,0.0,275.0,0.8,0.0,0.0,893,129,0,0,863.26,22.63,20.09,# data time:1510,pm2.5:6.445,pm10:5.704,O2:0.000,NO2:0.000,SO2:0.000,NH3:3.273
9:55:21,0,0,0,0,0,0,0,0,0,0,0,514,0,0,0,0,0.0000000,0.0000000,0.0000000,0.0000000,10.00,38.4061966,-110.7921677,1379.4000244,0.0,290.3,0.8,0.0,0.0,893,128,0,0,863.25,22.57,20.09,# data time:1510,pm2.5:6.445,pm10:5.704,O2:0.000,NO2:0.000,SO2:0.000,NH3:3.273
9:55:22,0,0,0,0,0,0,0,0,0,0,0,514,0,0,0,0,0.0000000,0.0000000,0.0000000,0.0000000,10.00,38.4061966,-110.7921677,1379.4000244,0.1,320.4,0.8,0.0,0.0,894,128,0,0,863.24,22.60,20.09,# data time:1520,pm2.5:5.640,pm10:4.991,O2:0.000,NO2:0.000,SO2:0.000,NH3:3.273
9:55:23,0,0,0,0,0,0,0,0,0,0,0,567,0,0,0,0,0.0000000,0.0000000,0.0000000,0.0000000,10.00,38.4061966,-110.7921677,1379.4000244,0.1,21.7,0.8,0.0,0.0,882,126,0,0,863.25,22.54,20.09,# data time:1520,pm2.5:5.640,pm10:4.991,O2:0.000,NO2:0.000,SO2:0.000,NH3:3.273
9:55:24,0,0,0,0,0,0,0,0,0,0,0,524,0,0,0,0,0.0000000,0.0000000,0.0000000,0.0000000,10.00,38.4061966,-110.7921677,1379.4000244,0.1,341.0,0.8,0.0,0.0,892,127,0,0,863.23,22.55,20.10,# data time:1520,pm2.5:5.640,pm10:4.991,O2:0.000,NO2:0.000,SO2:0.000,NH3:3.273
9:55:25,0,0,0,0,0,0,0,0,0,0,0,515,0,0,0,0,0.0000000,0.0000000,0.0000000,0.0000000,10.00,38.4061966,-110.7921677,1379.4000244,0.2,316.3,0.8,0.0,0.0,894,128,0,0,863.24,22.64,20.10,# data time:1520,pm2.5:5.640,pm10:4.991,O2:0.000,NO2:0.000,SO2:0.000,NH3:3.273
9:55:26,0,0,0,0,0,0,0,0,0,0,0,514,0,0,0,0,0.0000000,0.0000000,0.0000000,0.0000000,10.00,38.4061966,-110.7921677,1379.4000244,0.2,318.4,0.8,0.0,0.0,893,128,0,0,863.25,22.83,20.10,# data time:1520,pm2.5:5.640,pm10:4.991,O2:0.000,NO2:0.000,SO2:0.000,NH3:3.273
9:55:27,0,0,0,0,0,0,0,0,0,0,0,514,0,0,0,0,0.0000000,0.0000000,0.0000000,0.0000000,10.00,38.4061966,-110.7921677,1379.4000244,0.2,292.4,0.8,0.0,0.0,894,126,0,0,863.25,22.98,20.10,# data time:1520,pm2.5:5.640,pm10:4.991,O2:0.000,NO2:0.000,SO2:0.000,NH3:3.273
9:55:28,0,0,0,0,0,0,0,0,0,0,0,515,0,0,0,0,0.0000000,0.0000000,0.0000000,0.0000000,10.00,38.4061966,-110.7921677,1379.4000244,0.1,290.6,0.8,0.0,0.0,894,124,0,0,863.23,23.00,20.10,# data time:1520,pm2.5:5.640,pm10:4.991,O2:0.000,NO2:0.000,SO2:0.000,NH3:3.273
9:55:29,0,0,0,0,0,0,0,0,0,0,0,515,0,0,0,0,0.0000000,0.0000000,0.0000000,0.0000000,10.00,38.4062004,-110.7921677,1379.4000244,0.1,12.4,0.8,0.0,0.0,895,126,0,0,863.25,22.95,20.10,# data time:1520,pm2.5:5.640,pm10:4.991,O2:0.000,NO2:0.000,SO2:0.000,NH3:3.273
9:55:30,0,0,0,0,0,0,0,0,0,0,0,523,0,0,0,0,0.0000000,0.0000000,0.0000000,0.0000000,10.00,38.4062004,-110.7921677,1379.4000244,0.1,323.6,0.8,0.0,0.0,890,128,0,0,863.20,22.90,20.10,# data time:1520,pm2.5:5.640,pm10:4.991,O2:0.000,NO2:0.000,SO2:0.000,NH3:3.273
9:55:31,0,0,0,0,0,0,0,0,0,0,0,515,0,0,0,0,0.0000000,0.0000000,0.0000000,0.0000000,10.00,38.4062004,-110.7921677,1379.4000244,0.1,45.1,0.8,0.0,0.0,894,126,0,0,863.21,22.80,20.10,# data time:1520,pm2.5:5.640,pm10:4.991,O2:0.000,NO2:0.000,SO2:0.000,NH3:3.273
9:55:33,0,0,0,0,0,0,0,0,0,0,0,514,0,0,0,0,0.0000000,0.0000000,0.0000000,0.0000000,10.00,38.4062004,-110.7921677,1379.4000244,0.0,67.5,0.8,0.0,0.0,894,128,0,0,863.23,22.80,20.10,# data time:1530,pm2.5:6.445,pm10:5.704,O2:0.000,NO2:0.000,SO2:0.000,NH3:3.273
9:55:34,0,0,0,0,0,0,0,0,0,0,0,515,0,0,0,0,0.0000000,0.0000000,0.0000000,0.0000000,10.00,38.4062004,-110.7921677,1379.4000244,0.1,150.4,0.8,0.0,0.0,893,125,0,0,863.20,22.74,20.10,# data time:1530,pm2.5:6.445,pm10:5.704,O2:0.000,NO2:0.000,SO2:0.000,NH3:3.273
9:55:35,0,0,0,0,0,0,0,0,0,0,0,514,0,0,0,0,0.0000000,0.0000000,0.0000000,0.0000000,10.00,38.4062004,-110.7921677,1379.4000244,0.1,190.3,0.8,0.0,0.0,893,128,0,0,863.26,22.71,20.10,# data time:1530,pm2.5:6.445,pm10:5.704,O2:0.000,NO2:0.000,SO2:0.000,NH3:3.273
9:55:36,0,0,0,0,0,0,0,0,0,0,0,514,0,0,0,0,0.0000000,0.0000000,0.0000000,0.0000000,10.00,38.4062004,-110.7921677,1379.4000244,0.0,165.4,0.8,0.0,0.0,894,128,0,0,863.19,22.71,20.11,# data time:1530,pm2.5:6.445,pm10:5.704,O2:0.000,NO2:0.000,SO2:0.000,NH3:3.273
9:55:37,0,0,0,0,0,0,0,0,0,0,0,515,0,0,0,0,0.0000000,0.0000000,0.0000000,0.0000000,9.00,38.4062004,-110.7921677,1379.4000244,0.1,86.5,0.9,0.0,0.0,894,123,0,0,863.24,22.71,20.11,# data time:1530,pm2.5:6.445,pm10:5.704,O2:0.000,NO2:0.000,SO2:0.000,NH3:3.273
9:55:38,0,0,0,0,0,0,0,0,0,0,0,515,0,0,0,0,0.0000000,0.0000000,0.0000000,0.0000000,10.00,38.4062004,-110.7921677,1379.4000244,0.1,127.3,0.8,0.0,0.0,894,127,0,0,863.22,22.66,20.11,# data time:1530,pm2.5:6.445,pm10:5.704,O2:0.000,NO2:0.000,SO2:0.000,NH3:3.273
9:55:39,0,0,0,0,0,0,0,0,0,0,0,516,0,0,0,0,0.0000000,0.0000000,0.0000000,0.0000000,10.00,38.4061966,-110.7921677,1379.4000244,0.1,153.3,0.8,0.0,0.0,894,128,0,0,863.17,22.66,20.11,# data time:1530,pm2.5:6.445,pm10:5.704,O2:0.000,NO2:0.000,SO2:0.000,NH3:3.273
9:55:40,0,0,0,0,0,0,0,0,0,0,0,517,0,0,0,0,0.0000000,0.0000000,0.0000000,0.0000000,10.00,38.4061966,-110.7921677,1379.4000244,0.1,142.4,0.8,0.0,0.0,894,129,0,0,863.22,22.64,20.11,# data time:1530,pm2.5:6.445,pm10:5.704,O2:0.000,NO2:0.000,SO2:0.000,NH3:3.273
9:55:41,0,0,0,0,0,0,0,0,0,0,0,514,0,0,0,0,0.0000000,0.0000000,0.0000000,0.0000000,10.00,38.4061928,-110.7921677,1379.1999512,0.1,189.1,0.8,0.0,0.0,894,127,0,0,863.23,22.64,20.12,# data time:1530,pm2.5:6.445,pm10:5.704,O2:0.000,NO2:0.000,SO2:0.000,NH3:3.273
9:55:42,0,0,0,0,0,0,0,0,0,0,0,515,0,0,0,0,0.0000000,0.0000000,0.0000000,0.0000000,10.00,38.4061928,-110.7921829,1379.0999756,0.1,202.1,0.8,0.0,0.0,893,129,0,0,863.25,22.64,20.12,# data time:1530,pm2.5:6.445,pm10:5.704,O2:0.000,NO2:0.000,SO2:0.000,NH3:3.273
9:55:43,0,0,0,0,0,0,0,0,0,0,0,517,0,0,0,0,0.0000000,0.0000000,0.0000000,0.0000000,10.00,38.4061852,-110.7921829,1379.0000000,0.2,139.8,0.8,0.0,0.0,893,129,0,0,863.23,22.63,20.13,# data time:1540,pm2.5:6.445,pm10:5.704,O2:0.000,NO2:0.000,SO2:0.000,NH3:3.273
9:55:44,0,0,0,0,0,0,0,0,0,0,0,515,0,0,0,0,0.0000000,0.0000000,0.0000000,0.0000000,10.00,38.4061852,-110.7921829,1379.0000000,0.2,149.2,0.8,0.0,0.0,894,126,0,0,863.21,22.61,20.12,# data time:1540,pm2.5:6.445,pm10:5.704,O2:0.000,NO2:0.000,SO2:0.000,NH3:3.273
9:55:45,0,0,0,0,0,0,0,0,0,0,0,515,0,0,0,0,0.0000000,0.0000000,0.0000000,0.0000000,10.00,38.4061813,-110.7921829,1379.0000000,0.2,166.2,0.8,0.0,0.0,894,129,0,0,863.24,22.68,20.12,# data time:1540,pm2.5:6.445,pm10:5.704,O2:0.000,NO2:0.000,SO2:0.000,NH3:3.273
9:55:46,0,0,0,0,0,0,0,0,0,0,0,514,0,0,0,0,0.0000000,0.0000000,0.0000000,0.0000000,10.00,38.4061813,-110.7921829,1379.0000000,0.1,152.8,0.8,0.0,0.0,893,128,0,0,863.19,22.64,20.12,# data time:1540,pm2.5:6.445,pm10:5.704,O2:0.000,NO2:0.000,SO2:0.000,NH3:3.273
9:55:47,0,0,0,0,0,0,0,0,0,0,0,515,0,0,0,0,0.0000000,0.0000000,0.0000000,0.0000000,10.00,38.4061813,-110.7921829,1379.0000000,0.2,83.0,0.8,0.0,0.0,893,125,0,0,863.20,22.66,20.12,# data time:1540,pm2.5:6.445,pm10:5.704,O2:0.000,NO2:0.000,SO2:0.000,NH3:3.273
9:55:48,0,0,0,0,0,0,0,0,0,0,0,515,0,0,0,0,0.0000000,0.0000000,0.0000000,0.0000000,10.00,38.4061813,-110.7921829,1379.0000000,0.2,68.4,0.8,0.0,0.0,894,124,0,0,863.19,22.66,20.12,# data time:1540,pm2.5:6.445,pm10:5.704,O2:0.000,NO2:0.000,SO2:0.000,NH3:3.273
9:55:49,0,0,0,0,0,0,0,0,0,0,0,515,0,0,0,0,0.0000000,0.0000000,0.0000000,0.0000000,10.00,38.4061813,-110.7921677,1379.0000000,0.2,57.5,0.8,0.0,0.0,893,129,0,0,863.24,22.71,20.13,# data time:1540,pm2.5:6.445,pm10:5.704,O2:0.000,NO2:0.000,SO2:0.000,NH3:3.273
9:55:50,0,0,0,0,0,0,0,0,0,0,0,515,0,0,0,0,0.0000000,0.0000000,0.0000000,0.0000000,10.00,38.4061813,-110.7921677,1379.0000000,0.1,45.8,0.8,0.0,0.0,894,127,0,0,863.22,22.71,20.13,# data time:1540,pm2.5:6.445,pm10:5.704,O2:0.000,NO2:0.000,SO2:0.000,NH3:3.273
9:55:51,0,0,0,0,0,0,0,0,0,0,0,562,0,0,0,0,0.0000000,0.0000000,0.0000000,0.0000000,10.00,38.4061813,-110.7921677,1379.0000000,0.1,14.2,0.8,0.0,0.0,884,127,0,0,863.19,22.71,20.14,# data time:1540,pm2.5:6.445,pm10:5.704,O2:0.000,NO2:0.000,SO2:0.000,NH3:3.273
9:55:52,0,0,0,0,0,0,0,0,0,0,0,523,0,0,0,0,0.0000000,0.0000000,0.0000000,0.0000000,10.00,38.4061813,-110.7921677,1379.0000000,0.1,19.7,0.8,0.0,0.0,892,128,0,0,863.23,22.68,20.13,# data time:1540,pm2.5:6.445,pm10:5.704,O2:0.000,NO2:0.000,SO2:0.000,NH3:3.273
9:55:53,0,0,0,0,0,0,0,0,0,0,0,514,0,0,0,0,0.0000000,0.0000000,0.0000000,0.0000000,10.00,38.4061852,-110.7921677,1379.0000000,0.1,29.9,0.8,0.0,0.0,894,126,0,0,863.21,22.72,20.13,# data time:1550,pm2.5:6.445,pm10:5.704,O2:0.000,NO2:0.000,SO2:0.000,NH3:3.273
9:55:54,0,0,0,0,0,0,0,0,0,0,0,515,0,0,0,0,0.0000000,0.0000000,0.0000000,0.0000000,10.00,38.4061852,-110.7921677,1379.0000000,0.2,47.7,0.8,0.0,0.0,894,125,0,0,863.23,22.71,20.13,# data time:1550,pm2.5:6.445,pm10:5.704,O2:0.000,NO2:0.000,SO2:0.000,NH3:3.273
9:55:55,0,0,0,0,0,0,0,0,0,0,0,515,0,0,0,0,0.0000000,0.0000000,0.0000000,0.0000000,10.00,38.4061852,-110.7921677,1379.0000000,0.3,347.1,0.8,0.0,0.0,894,131,0,0,863.20,22.72,20.13,# data time:1550,pm2.5:6.445,pm10:5.704,O2:0.000,NO2:0.000,SO2:0.000,NH3:3.273
9:55:56,0,0,0,0,0,0,0,0,0,0,0,534,0,0,0,0,0.0000000,0.0000000,0.0000000,0.0000000,10.00,38.4061852,-110.7921677,1379.0000000,0.4,323.7,0.8,0.0,0.0,891,129,0,0,863.20,22.71,20.14,# data time:1550,pm2.5:6.445,pm10:5.704,O2:0.000,NO2:0.000,SO2:0.000,NH3:3.273
9:55:57,0,0,0,0,0,0,0,0,0,0,0,515,0,0,0,0,0.0000000,0.0000000,0.0000000,0.0000000,10.00,38.4061890,-110.7921677,1379.0000000,0.5,330.2,0.8,0.0,0.0,894,129,0,0,863.17,22.75,20.06,# data time:1550,pm2.5:6.445,pm10:5.704,O2:0.000,NO2:0.000,SO2:0.000,NH3:3.273
9:55:58,0,0,0,0,0,0,0,0,0,0,0,515,0,0,0,0,0.0000000,0.0000000,0.0000000,0.0000000,10.00,38.4061890,-110.7921829,1379.0000000,0.5,337.1,0.8,0.0,0.0,893,130,0,0,863.23,22.77,20.05,# data time:1550,pm2.5:6.445,pm10:5.704,O2:0.000,NO2:0.000,SO2:0.000,NH3:3.273
9:55:59,0,0,0,0,0,0,0,0,0,0,0,515,0,0,0,0,0.0000000,0.0000000,0.0000000,0.0000000,10.00,38.4061966,-110.7921829,1379.0000000,0.5,337.1,0.8,0.0,0.0,893,128,0,0,863.21,22.75,20.04,# data time:1550,pm2.5:6.445,pm10:5.704,O2:0.000,NO2:0.000,SO2:0.000,NH3:3.273
9:56:00,0,0,0,0,0,0,0,0,0,0,0,515,0,0,0,0,0.0000000,0.0000000,0.0000000,0.0000000,10.00,38.4061966,-110.7921829,1379.0000000,0.5,337.1,0.8,0.0,0.0,894,128,0,0,863.21,22.72,20.04,# data time:1550,pm2.5:6.445,pm10:5.704,O2:0.000,NO2:0.000,SO2:0.000,NH3:3.273
9:56:01,0,0,0,0,0,0,0,0,0,0,0,550,0,0,0,0,0.0000000,0.0000000,0.0000000,0.0000000,10.00,38.4061966,-110.7921829,1379.0000000,0.5,311.0,0.8,0.0,0.0,886,125,0,0,863.25,22.71,20.10,# data time:1550,pm2.5:6.445,pm10:5.704,O2:0.000,NO2:0.000,SO2:0.000,NH3:3.273
9:56:02,0,0,0,0,0,0,0,0,0,0,0,516,0,0,0,0,0.0000000,0.0000000,0.0000000,0.0000000,10.00,38.4062004,-110.7921829,1379.0000000,0.5,339.6,0.8,0.0,0.0,893,127,0,0,863.18,22.71,20.09,# data time:1550,pm2.5:6.445,pm10:5.704,O2:0.000,NO2:0.000,SO2:0.000,NH3:3.273
9:56:03,0,0,0,0,0,0,0,0,0,0,0,514,0,0,0,0,0.0000000,0.0000000,0.0000000,0.0000000,10.00,38.4062004,-110.7921829,1379.0000000,0.5,340.1,0.8,0.0,0.0,893,126,0,0,863.25,22.72,20.14,# data time:1560,pm2.5:6.445,pm10:5.704,O2:0.000,NO2:0.000,SO2:0.000,NH3:3.273
9:56:04,0,0,0,0,0,0,0,0,0,0,0,517,0,0,0,0,0.0000000,0.0000000,0.0000000,0.0000000,10.00,38.4062042,-110.7921829,1379.0000000,0.5,329.5,0.8,0.0,0.0,892,129,0,0,863.25,22.74,20.14,# data time:1560,pm2.5:6.445,pm10:5.704,O2:0.000,NO2:0.000,SO2:0.000,NH3:3.273
9:56:05,0,0,0,0,0,0,0,0,0,0,0,520,0,0,0,0,0.0000000,0.0000000,0.0000000,0.0000000,10.00,38.4062042,-110.7921906,1379.0000000,0.5,324.2,0.8,0.0,0.0,892,127,0,0,863.24,22.78,20.13,# data time:1560,pm2.5:6.445,pm10:5.704,O2:0.000,NO2:0.000,SO2:0.000,NH3:3.273
9:56:06,0,0,0,0,0,0,0,0,0,0,0,514,0,0,0,0,0.0000000,0.0000000,0.0000000,0.0000000,10.00,38.4062080,-110.7921906,1379.0000000,0.6,307.3,0.8,0.0,0.0,894,126,0,0,863.23,22.78,20.13,# data time:1560,pm2.5:6.445,pm10:5.704,O2:0.000,NO2:0.000,SO2:0.000,NH3:3.273
9:56:07,0,0,0,0,0,0,0,0,0,0,0,583,0,0,0,0,0.0000000,0.0000000,0.0000000,0.0000000,10.00,38.4062119,-110.7921906,1379.0000000,0.6,315.4,0.8,0.0,0.0,880,127,0,0,863.23,22.75,20.14,# data time:1560,pm2.5:6.445,pm10:5.704,O2:0.000,NO2:0.000,SO2:0.000,NH3:3.273
9:56:08,0,0,0,0,0,0,0,0,0,0,0,519,0,0,0,0,0.0000000,0.0000000,0.0000000,0.0000000,10.00,38.4062195,-110.7922058,1379.0000000,0.6,318.5,0.8,0.0,0.0,892,128,0,0,863.19,22.74,20.13,# data time:1560,pm2.5:6.445,pm10:5.704,O2:0.000,NO2:0.000,SO2:0.000,NH3:3.273
9:56:09,0,0,0,0,0,0,0,0,0,0,0,515,0,0,0,0,0.0000000,0.0000000,0.0000000,0.0000000,10.00,38.4062233,-110.7922058,1379.0000000,0.6,310.2,0.8,0.0,0.0,894,129,0,0,863.21,22.77,20.14,# data time:1560,pm2.5:6.445,pm10:5.704,O2:0.000,NO2:0.000,SO2:0.000,NH3:3.273
9:56:10,0,0,0,0,0,0,0,0,0,0,0,539,0,0,0,0,0.0000000,0.0000000,0.0000000,0.0000000,10.00,38.4062309,-110.7922211,1379.0000000,0.5,322.0,0.8,0.0,0.0,889,125,0,0,863.27,22.74,20.14,# data time:1560,pm2.5:6.445,pm10:5.704,O2:0.000,NO2:0.000,SO2:0.000,NH3:3.273
9:56:11,0,0,0,0,0,0,0,0,0,0,0,520,0,0,0,0,0.0000000,0.0000000,0.0000000,0.0000000,10.00,38.4062309,-110.7922211,1379.0000000,0.4,335.0,0.8,0.0,0.0,893,124,0,0,863.22,22.78,20.14,# data time:1560,pm2.5:6.445,pm10:5.704,O2:0.000,NO2:0.000,SO2:0.000,NH3:3.273
9:56:12,0,0,0,0,0,0,0,0,0,0,0,533,0,0,0,0,0.0000000,0.0000000,0.0000000,0.0000000,10.00,38.4062347,-110.7922211,1379.0000000,0.4,329.1,0.8,0.0,0.0,890,127,0,0,863.21,22.81,20.14,# data time:1570,pm2.5:6.445,pm10:5.704,O2:0.000,NO2:0.000,SO2:0.000,NH3:3.273
9:56:13,0,0,0,0,0,0,0,0,0,0,0,515,0,0,0,0,0.0000000,0.0000000,0.0000000,0.0000000,10.00,38.4062347,-110.7922211,1379.0000000,0.3,353.4,0.8,0.0,0.0,892,131,0,0,863.22,22.84,20.15,# data time:1570,pm2.5:6.445,pm10:5.704,O2:0.000,NO2:0.000,SO2:0.000,NH3:3.273
9:56:14,0,0,0,0,0,0,0,0,0,0,0,514,0,0,0,0,0.0000000,0.0000000,0.0000000,0.0000000,10.00,38.4062386,-110.7922211,1379.0000000,0.4,356.6,0.8,0.0,0.0,894,126,0,0,863.20,22.81,20.15,# data time:1570,pm2.5:6.445,pm10:5.704,O2:0.000,NO2:0.000,SO2:0.000,NH3:3.273
9:56:15,0,0,0,0,0,0,0,0,0,0,0,514,0,0,0,0,0.0000000,0.0000000,0.0000000,0.0000000,10.00,38.4062386,-110.7922211,1379.0000000,0.3,345.3,0.8,0.0,0.0,894,129,0,0,863.17,22.86,20.15,# data time:1570,pm2.5:6.445,pm10:5.704,O2:0.000,NO2:0.000,SO2:0.000,NH3:3.273
9:56:16,0,0,0,0,0,0,0,0,0,0,0,514,0,0,0,0,0.0000000,0.0000000,0.0000000,0.0000000,10.00,38.4062386,-110.7922211,1379.0000000,0.3,335.5,0.8,0.0,0.0,893,129,0,0,863.21,22.87,20.15,# data time:1570,pm2.5:6.445,pm10:5.704,O2:0.000,NO2:0.000,SO2:0.000,NH3:3.273
9:56:17,0,0,0,0,0,0,0,0,0,0,0,516,0,0,0,0,0.0000000,0.0000000,0.0000000,0.0000000,10.00,38.4062424,-110.7922211,1379.0000000,0.3,341.1,0.8,0.0,0.0,892,128,0,0,863.19,22.81,20.16,# data time:1570,pm2.5:6.445,pm10:5.704,O2:0.000,NO2:0.000,SO2:0.000,NH3:3.273
9:56:18,0,0,0,0,0,0,0,0,0,0,0,518,0,0,0,0,0.0000000,0.0000000,0.0000000,0.0000000,10.00,38.4062424,-110.7922211,1379.0000000,0.4,332.5,0.8,0.0,0.0,892,129,0,0,863.19,22.81,20.15,# data time:1570,pm2.5:6.445,pm10:5.704,O2:0.000,NO2:0.000,SO2:0.000,NH3:3.273
9:56:19,0,0,0,0,0,0,0,0,0,0,0,515,0,0,0,0,0.0000000,0.0000000,0.0000000,0.0000000,10.00,38.4062462,-110.7922287,1379.0000000,0.4,318.5,0.8,0.0,0.0,893,128,0,0,863.20,22.87,20.15,# data time:1570,pm2.5:6.445,pm10:5.704,O2:0.000,NO2:0.000,SO2:0.000,NH3:3.273
9:56:20,0,0,0,0,0,0,0,0,0,0,0,525,0,0,0,0,0.0000000,0.0000000,0.0000000,0.0000000,10.00,38.4062462,-110.7922287,1379.0000000,0.4,338.4,0.8,0.0,0.0,891,125,0,0,863.24,22.87,20.16,# data time:1570,pm2.5:6.445,pm10:5.704,O2:0.000,NO2:0.000,SO2:0.000,NH3:3.273
9:56:22,0,0,0,0,0,0,0,0,0,0,0,514,0,0,0,0,0.0000000,0.0000000,0.0000000,0.0000000,10.00,38.4062500,-110.7922287,1379.0000000,0.4,328.9,0.8,0.0,0.0,894,128,0,0,863.23,22.89,20.17,# data time:1570,pm2.5:6.445,pm10:5.704,O2:0.000,NO2:0.000,SO2:0.000,NH3:3.273
9:56:23,0,0,0,0,0,0,0,0,0,0,0,515,0,0,0,0,0.0000000,0.0000000,0.0000000,0.0000000,10.00,38.4062500,-110.7922287,1379.0000000,0.4,314.5,0.8,0.0,0.0,894,127,0,0,863.21,22.90,20.17,# data time:1580,pm2.5:6.445,pm10:5.704,O2:0.000,NO2:0.000,SO2:0.000,NH3:3.273
9:56:24,0,0,0,0,0,0,0,0,0,0,0,515,0,0,0,0,0.0000000,0.0000000,0.0000000,0.0000000,10.00,38.4062538,-110.7922287,1379.0000000,0.4,304.0,0.8,0.0,0.0,894,127,0,0,863.18,22.92,20.17,# data time:1580,pm2.5:6.445,pm10:5.704,O2:0.000,NO2:0.000,SO2:0.000,NH3:3.273
9:56:25,0,0,0,0,0,0,0,0,0,0,0,514,0,0,0,0,0.0000000,0.0000000,0.0000000,0.0000000,10.00,38.4062538,-110.7922440,1379.0000000,0.4,314.5,0.8,0.0,0.0,894,129,0,0,863.24,22.90,20.17,# data time:1580,pm2.5:6.445,pm10:5.704,O2:0.000,NO2:0.000,SO2:0.000,NH3:3.273
9:56:26,0,0,0,0,0,0,0,0,0,0,0,520,0,0,0,0,0.0000000,0.0000000,0.0000000,0.0000000,10.00,38.4062576,-110.7922440,1379.0000000,0.3,338.1,0.8,0.0,0.0,892,125,0,0,863.20,22.84,20.18,# data time:1580,pm2.5:6.445,pm10:5.704,O2:0.000,NO2:0.000,SO2:0.000,NH3:3.273
9:56:27,0,0,0,0,0,0,0,0,0,0,0,530,0,0,0,0,0.0000000,0.0000000,0.0000000,0.0000000,10.00,38.4062576,-110.7922440,1379.0000000,0.3,345.4,0.8,0.0,0.0,889,126,0,0,863.17,22.83,20.17,# data time:1580,pm2.5:6.445,pm10:5.704,O2:0.000,NO2:0.000,SO2:0.000,NH3:3.273
9:56:28,0,0,0,0,0,0,0,0,0,0,0,514,0,0,0,0,0.0000000,0.0000000,0.0000000,0.0000000,10.00,38.4062576,-110.7922440,1379.0000000,0.3,325.3,0.8,0.0,0.0,894,127,0,0,863.23,22.81,20.18,# data time:1580,pm2.5:6.445,pm10:5.704,O2:0.000,NO2:0.000,SO2:0.000,NH3:3.273
9:56:29,0,0,0,0,0,0,0,0,0,0,0,515,0,0,0,0,0.0000000,0.0000000,0.0000000,0.0000000,10.00,38.4062614,-110.7922440,1379.0000000,0.3,303.0,0.8,0.0,0.0,894,126,0,0,863.18,22.83,20.17,# data time:1580,pm2.5:6.445,pm10:5.704,O2:0.000,NO2:0.000,SO2:0.000,NH3:3.273
9:56:30,0,0,0,0,0,0,0,0,0,0,0,514,0,0,0,0,0.0000000,0.0000000,0.0000000,0.0000000,10.00,38.4062614,-110.7922440,1379.0000000,0.2,316.0,0.8,0.0,0.0,893,127,0,0,863.16,22.80,20.18,# data time:1580,pm2.5:6.445,pm10:5.704,O2:0.000,NO2:0.000,SO2:0.000,NH3:3.273
9:56:31,0,0,0,0,0,0,0,0,0,0,0,515,0,0,0,0,0.0000000,0.0000000,0.0000000,0.0000000,10.00,38.4062614,-110.7922440,1379.0000000,0.3,311.8,0.8,0.0,0.0,893,129,0,0,863.19,22.77,20.18,# data time:1580,pm2.5:6.445,pm10:5.704,O2:0.000,NO2:0.000,SO2:0.000,NH3:3.273
9:56:32,0,0,0,0,0,0,0,0,0,0,0,570,0,0,0,0,0.0000000,0.0000000,0.0000000,0.0000000,10.00,38.4062614,-110.7922440,1379.0000000,0.3,311.5,0.8,0.0,0.0,881,126,0,0,863.22,22.77,20.18,# data time:1580,pm2.5:6.445,pm10:5.704,O2:0.000,NO2:0.000,SO2:0.000,NH3:3.273
9:56:33,0,0,0,0,0,0,0,0,0,0,0,519,0,0,0,0,0.0000000,0.0000000,0.0000000,0.0000000,10.00,38.4062653,-110.7922440,1379.0999756,0.2,343.8,0.8,0.0,0.0,891,126,0,0,863.16,22.72,20.18,# data time:1590,pm2.5:6.445,pm10:5.704,O2:0.000,NO2:0.000,SO2:0.000,NH3:3.273
9:56:34,0,0,0,0,0,0,0,0,0,0,0,515,0,0,0,0,0.0000000,0.0000000,0.0000000,0.0000000,10.00,38.4062691,-110.7922440,1379.0999756,0.3,329.9,0.8,0.0,0.0,893,128,0,0,863.21,22.74,20.17,# data time:1590,pm2.5:6.445,pm10:5.704,O2:0.000,NO2:0.000,SO2:0.000,NH3:3.273
9:56:35,0,0,0,0,0,0,0,0,0,0,0,521,0,0,0,0,0.0000000,0.0000000,0.0000000,0.0000000,10.00,38.4062691,-110.7922592,1379.1999512,0.3,319.6,0.8,0.0,0.0,893,125,0,0,863.20,22.74,20.17,# data time:1590,pm2.5:6.445,pm10:5.704,O2:0.000,NO2:0.000,SO2:0.000,NH3:3.273
9:56:36,0,0,0,0,0,0,0,0,0,0,0,547,0,0,0,0,0.0000000,0.0000000,0.0000000,0.0000000,10.00,38.4062729,-110.7922592,1379.1999512,0.3,320.4,0.8,0.0,0.0,888,127,0,0,863.22,22.75,20.18,# data time:1590,pm2.5:6.445,pm10:5.704,O2:0.000,NO2:0.000,SO2:0.000,NH3:3.273
9:56:37,0,0,0,0,0,0,0,0,0,0,0,514,0,0,0,0,0.0000000,0.0000000,0.0000000,0.0000000,10.00,38.4062729,-110.7922592,1379.3000488,0.3,310.9,0.8,0.0,0.0,894,126,0,0,863.19,22.75,20.18,# data time:1590,pm2.5:6.445,pm10:5.704,O2:0.000,NO2:0.000,SO2:0.000,NH3:3.273
9:56:38,0,0,0,0,0,0,0,0,0,0,0,516,0,0,0,0,0.0000000,0.0000000,0.0000000,0.0000000,10.00,38.4062729,-110.7922592,1379.3000488,0.2,289.5,0.8,0.0,0.0,892,127,0,0,863.20,22.68,20.18,# data time:1590,pm2.5:6.445,pm10:5.704,O2:0.000,NO2:0.000,SO2:0.000,NH3:3.273
