Time, Motor A Speed, Motor A Dir, Motor B Speed, Motor B Dir, Servo Rail Current Sensor, Servo Pos - Arm L, Servo Pos - Arm R, Servo Pos - End, Servo Pos - Hopper, Servo Pos - Lid, Servo Pos - Extra, Servo Current, LED - Front L, LED - Front R, LED - Back L, LED - Back R, IMU Pitch, IMU Roll, IMU Yaw, Compass Heading, GPS Sats, GPS Latitude, GPS Longitude, GPS Altitude, GPS Speed, GPS Angle, GPS HDOP, GPS VDOP, GPS PDOP, Battery, Wind, Comm Xbee Latency, Comm Arduino Latency, Pressure, Humidity, Temperature, uRADMonitor
13:19:23,0,0,0,0,0,2700,2200,1,0,0,0,515,0,0,0,0,0.0000000,0.0000000,0.0000000,0.0000000,9.00,38.3977394,-110.7923813,1362.3000488,0.4,307.2,0.9,0.0,0.0,874,207,0,0,860.97,15.63,26.54,# data time:3600,pm2.5:6.445,pm10:5.704,O2:0.000,NO2:0.000,SO2:0.000,NH3:7.572
13:19:24,0,0,0,0,0,2700,2200,1,0,0,0,526,0,0,0,0,0.0000000,0.0000000,0.0000000,0.0000000,9.00,38.3977394,-110.7923813,1362.3000488,0.3,178.6,0.9,0.0,0.0,870,222,0,0,860.94,18.46,26.63,# data time:3600,pm2.5:6.445,pm10:5.704,O2:0.000,NO2:0.000,SO2:0.000,NH3:7.572
13:19:26,0,0,0,0,0,2700,2200,1,0,0,0,531,0,0,0,0,0.0000000,0.0000000,0.0000000,0.0000000,9.00,38.3977394,-110.7923813,1362.3000488,0.0,5.5,0.9,0.0,0.0,870,201,0,0,860.97,18.22,26.64,# data time:3600,pm2.5:6.445,pm10:5.704,O2:0.000,NO2:0.000,SO2:0.000,NH3:7.572
13:19:27,0,0,0,0,0,2700,2200,1,0,0,0,515,0,0,0,0,0.0000000,0.0000000,0.0000000,0.0000000,9.00,38.3977394,-110.7923813,1362.3000488,0.1,157.5,0.9,0.0,0.0,873,218,0,0,860.92,17.17,26.54,# data time:3600,pm2.5:6.445,pm10:5.704,O2:0.000,NO2:0.000,SO2:0.000,NH3:7.572
13:19:28,0,0,0,0,0,2700,2200,1,0,0,0,515,0,0,0,0,0.0000000,0.0000000,0.0000000,0.0000000,9.00,38.3977394,-110.7923813,1362.3000488,0.2,162.1,0.9,0.0,0.0,873,193,0,0,861.37,16.56,26.46,# data time:3600,pm2.5:6.445,pm10:5.704,O2:0.000,NO2:0.000,SO2:0.000,NH3:7.572
13:19:29,0,0,0,0,0,2700,2200,1,0,0,0,515,0,0,0,0,0.0000000,0.0000000,0.0000000,0.0000000,9.00,38.3977394,-110.7923813,1362.3000488,0.1,239.0,0.9,0.0,0.0,873,173,0,0,861.75,39.73,26.26,# data time:3600,pm2.5:6.445,pm10:5.704,O2:0.000,NO2:0.000,SO2:0.000,NH3:7.572
13:19:30,0,0,0,0,0,2700,2200,1,0,0,0,514,0,0,0,0,0.0000000,0.0000000,0.0000000,0.0000000,9.00,38.3977394,-110.7923813,1362.3000488,0.1,301.6,0.9,0.0,0.0,873,170,0,0,861.84,52.14,26.21,# data time:3610,pm2.5:6.445,pm10:5.704,O2:0.000,NO2:0.010,SO2:0.000,NH3:7.572
13:19:31,0,0,0,0,0,2700,2200,1,0,0,0,515,0,0,0,0,0.0000000,0.0000000,0.0000000,0.0000000,9.00,38.3977394,-110.7923813,1362.3000488,0.5,340.3,0.9,0.0,0.0,873,172,0,0,861.65,26.75,26.37,# data time:3610,pm2.5:6.445,pm10:5.704,O2:0.000,NO2:0.010,SO2:0.000,NH3:7.572
13:19:32,0,0,0,0,0,2700,2200,1,0,0,0,516,0,0,0,0,0.0000000,0.0000000,0.0000000,0.0000000,9.00,38.3977394,-110.7923813,1362.3000488,0.5,340.3,0.9,0.0,0.0,873,171,0,0,861.69,17.35,26.40,# data time:3610,pm2.5:6.445,pm10:5.704,O2:0.000,NO2:0.010,SO2:0.000,NH3:7.572
13:19:33,0,0,0,0,0,2700,2200,1,0,0,0,515,0,0,0,0,0.0000000,0.0000000,0.0000000,0.0000000,9.00,38.3977432,-110.7923813,1362.3000488,0.5,340.3,0.9,0.0,0.0,874,167,0,0,863.11,20.66,26.28,# data time:3610,pm2.5:6.445,pm10:5.704,O2:0.000,NO2:0.010,SO2:0.000,NH3:7.572
13:19:34,0,0,0,0,0,2700,2200,1,0,0,0,516,0,0,0,0,0.0000000,0.0000000,0.0000000,0.0000000,9.00,38.3977432,-110.7923965,1362.3000488,0.2,27.6,0.9,0.0,0.0,873,161,0,0,863.09,21.48,26.27,# data time:3610,pm2.5:6.445,pm10:5.704,O2:0.000,NO2:0.010,SO2:0.000,NH3:7.572
13:19:35,0,0,0,0,0,2700,2200,1,0,0,0,515,0,0,0,0,0.0000000,0.0000000,0.0000000,0.0000000,9.00,38.3977432,-110.7923813,1362.3000488,0.1,78.2,0.9,0.0,0.0,873,159,0,0,864.02,26.63,26.26,# data time:3610,pm2.5:6.445,pm10:5.704,O2:0.000,NO2:0.010,SO2:0.000,NH3:7.572
13:19:36,0,0,0,0,0,2700,2200,1,0,0,0,515,0,0,0,0,0.0000000,0.0000000,0.0000000,0.0000000,9.00,38.3977432,-110.7923813,1362.3000488,0.1,113.5,0.9,0.0,0.0,873,152,0,0,864.16,25.97,26.34,# data time:3610,pm2.5:6.445,pm10:5.704,O2:0.000,NO2:0.010,SO2:0.000,NH3:7.572
13:19:37,0,0,0,0,0,2700,2200,1,0,0,0,514,0,0,0,0,0.0000000,0.0000000,0.0000000,0.0000000,9.00,38.3977432,-110.7923813,1362.3000488,0.2,17.1,0.9,0.0,0.0,875,168,0,0,864.07,25.47,26.42,# data time:3610,pm2.5:6.445,pm10:5.704,O2:0.000,NO2:0.010,SO2:0.000,NH3:7.572
13:19:38,0,0,0,0,0,2700,2200,1,0,0,0,504,0,0,0,0,0.0000000,0.0000000,0.0000000,0.0000000,9.00,38.3977470,-110.7923813,1362.3000488,0.3,343.4,0.9,0.0,0.0,874,157,0,0,864.04,25.50,26.51,# data time:3610,pm2.5:6.445,pm10:5.704,O2:0.000,NO2:0.010,SO2:0.000,NH3:7.572
13:19:39,0,0,0,0,0,2700,2200,1,0,0,0,520,0,0,0,0,0.0000000,0.0000000,0.0000000,0.0000000,9.00,38.3977470,-110.7923813,1362.3000488,0.3,343.0,0.9,0.0,0.0,881,158,0,0,864.07,25.79,26.59,# data time:3620,pm2.5:6.445,pm10:5.704,O2:0.000,NO2:0.028,SO2:0.000,NH3:7.799
13:19:40,0,0,0,0,0,2700,2200,1,0,0,0,520,0,0,0,0,0.0000000,0.0000000,0.0000000,0.0000000,9.00,38.3977470,-110.7923813,1362.3000488,0.2,336.3,0.9,0.0,0.0,879,168,0,0,864.17,25.85,26.68,# data time:3620,pm2.5:6.445,pm10:5.704,O2:0.000,NO2:0.028,SO2:0.000,NH3:7.799
13:19:41,0,0,0,0,0,2700,2200,1,0,0,0,515,0,0,0,0,0.0000000,0.0000000,0.0000000,0.0000000,9.00,38.3977470,-110.7923813,1362.3000488,0.1,359.6,0.9,0.0,0.0,873,171,0,0,864.09,25.79,26.74,# data time:3620,pm2.5:6.445,pm10:5.704,O2:0.000,NO2:0.028,SO2:0.000,NH3:7.799
13:19:42,0,0,0,0,0,2700,2200,1,0,0,0,516,0,0,0,0,0.0000000,0.0000000,0.0000000,0.0000000,9.00,38.3977509,-110.7923813,1362.3000488,0.1,56.1,0.9,0.0,0.0,874,172,0,0,864.23,26.18,26.80,# data time:3620,pm2.5:6.445,pm10:5.704,O2:0.000,NO2:0.028,SO2:0.000,NH3:7.799
13:19:43,0,0,0,0,0,2700,2200,1,0,0,0,515,0,0,0,0,0.0000000,0.0000000,0.0000000,0.0000000,9.00,38.3977509,-110.7923813,1362.3000488,0.2,70.5,0.9,0.0,0.0,873,174,0,0,864.50,27.24,26.81,# data time:3620,pm2.5:6.445,pm10:5.704,O2:0.000,NO2:0.028,SO2:0.000,NH3:7.799
13:19:44,0,0,0,0,0,2700,2200,1,0,0,0,514,0,0,0,0,0.0000000,0.0000000,0.0000000,0.0000000,9.00,38.3977509,-110.7923813,1362.3000488,0.0,224.6,0.9,0.0,0.0,873,161,0,0,864.66,28.03,26.86,# data time:3620,pm2.5:6.445,pm10:5.704,O2:0.000,NO2:0.028,SO2:0.000,NH3:7.799
13:19:45,0,0,0,0,0,2700,2200,1,0,0,0,513,0,0,0,0,0.0000000,0.0000000,0.0000000,0.0000000,9.00,38.3977509,-110.7923813,1362.3000488,0.1,13.0,0.9,0.0,0.0,874,170,0,0,864.84,28.79,26.94,# data time:3620,pm2.5:6.445,pm10:5.704,O2:0.000,NO2:0.028,SO2:0.000,NH3:7.799
13:19:46,0,0,0,0,0,2700,2200,1,0,0,0,514,0,0,0,0,0.0000000,0.0000000,0.0000000,0.0000000,9.00,38.3977509,-110.7923813,1362.3000488,0.1,82.9,0.9,0.0,0.0,873,165,0,0,865.02,29.53,27.03,# data time:3620,pm2.5:6.445,pm10:5.704,O2:0.000,NO2:0.028,SO2:0.000,NH3:7.799
13:19:47,0,0,0,0,0,2700,2200,1,0,0,0,515,0,0,0,0,0.0000000,0.0000000,0.0000000,0.0000000,9.00,38.3977509,-110.7923813,1362.3000488,0.1,321.2,0.9,0.0,0.0,873,165,0,0,865.08,30.05,27.12,# data time:3620,pm2.5:6.445,pm10:5.704,O2:0.000,NO2:0.028,SO2:0.000,NH3:7.799
13:19:48,0,0,0,0,0,2700,2200,1,0,0,0,515,0,0,0,0,0.0000000,0.0000000,0.0000000,0.0000000,9.00,38.3977509,-110.7923813,1362.3000488,0.1,317.2,0.9,0.0,0.0,873,160,0,0,865.16,30.38,27.24,# data time:3620,pm2.5:6.445,pm10:5.704,O2:0.000,NO2:0.028,SO2:0.000,NH3:7.799
13:19:49,0,0,0,0,0,2700,2200,1,0,0,0,515,0,0,0,0,0.0000000,0.0000000,0.0000000,0.0000000,9.00,38.3977509,-110.7923813,1362.3000488,0.3,327.7,0.9,0.0,0.0,873,159,0,0,865.22,30.53,27.34,# data time:3630,pm2.5:5.640,pm10:4.991,O2:0.000,NO2:0.028,SO2:0.000,NH3:7.799
13:19:50,0,0,0,0,0,2700,2200,1,0,0,0,516,0,0,0,0,0.0000000,0.0000000,0.0000000,0.0000000,9.00,38.3977509,-110.7923965,1362.3000488,0.3,308.0,0.9,0.0,0.0,873,158,0,0,865.20,30.40,27.40,# data time:3630,pm2.5:5.640,pm10:4.991,O2:0.000,NO2:0.028,SO2:0.000,NH3:7.799
13:19:51,0,0,0,0,0,2700,2200,1,0,0,0,515,0,0,0,0,0.0000000,0.0000000,0.0000000,0.0000000,9.00,38.3977547,-110.7923965,1362.3000488,0.3,270.3,0.9,0.0,0.0,873,161,0,0,865.44,29.54,27.35,# data time:3630,pm2.5:5.640,pm10:4.991,O2:0.000,NO2:0.028,SO2:0.000,NH3:7.799
13:19:53,0,0,0,0,0,2700,2200,1,0,0,0,515,0,0,0,0,0.0000000,0.0000000,0.0000000,0.0000000,9.00,38.3977547,-110.7923965,1362.3000488,0.2,272.7,0.9,0.0,0.0,872,156,0,0,863.52,25.02,27.52,# data time:3630,pm2.5:5.640,pm10:4.991,O2:0.000,NO2:0.028,SO2:0.000,NH3:7.799
13:19:54,0,0,0,0,0,2700,2200,1,0,0,0,515,0,0,0,0,0.0000000,0.0000000,0.0000000,0.0000000,9.00,38.3977547,-110.7923965,1362.3000488,0.2,294.2,0.9,0.0,0.0,873,155,0,0,863.60,23.88,27.59,# data time:3630,pm2.5:5.640,pm10:4.991,O2:0.000,NO2:0.028,SO2:0.000,NH3:7.799
13:19:55,0,0,0,0,0,2700,2200,1,0,0,0,515,0,0,0,0,0.0000000,0.0000000,0.0000000,0.0000000,9.00,38.3977547,-110.7923965,1362.3000488,0.2,325.4,0.9,0.0,0.0,873,151,0,0,863.65,23.90,27.65,# data time:3630,pm2.5:5.640,pm10:4.991,O2:0.000,NO2:0.028,SO2:0.000,NH3:7.799
13:19:56,0,0,0,0,0,2700,2200,1,0,0,0,515,0,0,0,0,0.0000000,0.0000000,0.0000000,0.0000000,9.00,38.3977547,-110.7923965,1362.3000488,0.1,307.8,0.9,0.0,0.0,872,150,0,0,863.63,24.16,27.73,# data time:3630,pm2.5:5.640,pm10:4.991,O2:0.000,NO2:0.028,SO2:0.000,NH3:7.799
13:19:57,0,0,0,0,0,2700,2200,1,0,0,0,514,0,0,0,0,0.0000000,0.0000000,0.0000000,0.0000000,9.00,38.3977547,-110.7923965,1362.3000488,0.3,352.9,0.9,0.0,0.0,873,149,0,0,863.75,23.82,27.76,# data time:3630,pm2.5:5.640,pm10:4.991,O2:0.000,NO2:0.028,SO2:0.000,NH3:7.799
13:19:58,0,0,0,0,0,2700,2200,1,0,0,0,515,0,0,0,0,0.0000000,0.0000000,0.0000000,0.0000000,9.00,38.3977547,-110.7923965,1362.3000488,0.3,352.9,0.9,0.0,0.0,873,145,0,0,863.63,23.68,27.95,# data time:3630,pm2.5:5.640,pm10:4.991,O2:0.000,NO2:0.028,SO2:0.000,NH3:7.799
13:19:59,0,0,0,0,0,2700,2200,1,0,0,0,515,0,0,0,0,0.0000000,0.0000000,0.0000000,0.0000000,9.00,38.3977547,-110.7923965,1362.3000488,0.1,280.9,0.9,0.0,0.0,873,146,0,0,863.62,23.36,28.08,# data time:3630,pm2.5:5.640,pm10:4.991,O2:0.000,NO2:0.028,SO2:0.000,NH3:7.799
13:20:00,0,0,0,0,0,2700,2200,1,0,0,0,515,0,0,0,0,0.0000000,0.0000000,0.0000000,0.0000000,9.00,38.3977585,-110.7923965,1362.3000488,0.0,314.6,0.9,0.0,0.0,873,146,0,0,863.71,23.29,28.23,# data time:3640,pm2.5:6.445,pm10:5.704,O2:0.000,NO2:0.028,SO2:0.000,NH3:7.799
13:20:01,0,0,0,0,0,2700,2200,1,0,0,0,516,0,0,0,0,0.0000000,0.0000000,0.0000000,0.0000000,9.00,38.3977585,-110.7923965,1362.3000488,0.2,297.1,0.9,0.0,0.0,873,143,0,0,863.66,23.16,28.34,# data time:3640,pm2.5:6.445,pm10:5.704,O2:0.000,NO2:0.028,SO2:0.000,NH3:7.799
13:20:02,0,0,0,0,0,2700,2200,1,0,0,0,515,0,0,0,0,0.0000000,0.0000000,0.0000000,0.0000000,9.00,38.3977585,-110.7923965,1362.3000488,0.1,328.6,0.9,0.0,0.0,873,144,0,0,863.63,22.93,28.47,# data time:3640,pm2.5:6.445,pm10:5.704,O2:0.000,NO2:0.028,SO2:0.000,NH3:7.799
13:20:03,0,0,0,0,0,2700,2200,1,0,0,0,516,0,0,0,0,0.0000000,0.0000000,0.0000000,0.0000000,9.00,38.3977585,-110.7923965,1362.3000488,0.1,265.1,0.9,0.0,0.0,872,139,0,0,863.68,22.35,28.54,# data time:3640,pm2.5:6.445,pm10:5.704,O2:0.000,NO2:0.028,SO2:0.000,NH3:7.799
13:20:04,0,0,0,0,0,2700,2200,1,0,0,0,514,0,0,0,0,0.0000000,0.0000000,0.0000000,0.0000000,9.00,38.3977585,-110.7923965,1362.3000488,0.1,229.3,0.9,0.0,0.0,873,143,0,0,863.75,22.19,28.59,# data time:3640,pm2.5:6.445,pm10:5.704,O2:0.000,NO2:0.028,SO2:0.000,NH3:7.799
13:20:05,0,0,0,0,0,2700,2200,1,0,0,0,515,0,0,0,0,0.0000000,0.0000000,0.0000000,0.0000000,9.00,38.3977585,-110.7923965,1362.4000244,0.1,105.2,0.9,0.0,0.0,872,141,0,0,863.05,23.06,28.69,# data time:3640,pm2.5:6.445,pm10:5.704,O2:0.000,NO2:0.028,SO2:0.000,NH3:7.799
13:20:06,0,0,0,0,0,2700,2200,1,0,0,0,515,0,0,0,0,0.0000000,0.0000000,0.0000000,0.0000000,9.00,38.3977585,-110.7923965,1362.4000244,0.1,32.3,0.9,0.0,0.0,872,139,0,0,863.13,22.23,28.74,# data time:3640,pm2.5:6.445,pm10:5.704,O2:0.000,NO2:0.028,SO2:0.000,NH3:7.799
13:20:07,0,0,0,0,0,2700,2200,1,0,0,0,515,0,0,0,0,0.0000000,0.0000000,0.0000000,0.0000000,9.00,38.3977585,-110.7923965,1362.4000244,0.0,31.9,0.9,0.0,0.0,873,136,0,0,863.40,21.39,28.72,# data time:3640,pm2.5:6.445,pm10:5.704,O2:0.000,NO2:0.028,SO2:0.000,NH3:7.799
13:20:08,0,0,0,0,0,2700,2200,1,0,0,0,515,0,0,0,0,0.0000000,0.0000000,0.0000000,0.0000000,9.00,38.3977585,-110.7923965,1362.4000244,0.1,345.1,0.9,0.0,0.0,872,139,0,0,863.42,21.07,28.70,# data time:3640,pm2.5:6.445,pm10:5.704,O2:0.000,NO2:0.028,SO2:0.000,NH3:7.799
13:20:09,0,0,0,0,0,2700,2200,1,0,0,0,514,0,0,0,0,0.0000000,0.0000000,0.0000000,0.0000000,9.00,38.3977585,-110.7923965,1362.4000244,0.1,349.5,0.9,0.0,0.0,873,136,0,0,862.85,23.18,28.79,# data time:3650,pm2.5:6.445,pm10:5.704,O2:0.000,NO2:0.046,SO2:0.000,NH3:7.799
13:20:10,0,0,0,0,0,2700,2200,1,0,0,0,516,0,0,0,0,0.0000000,0.0000000,0.0000000,0.0000000,9.00,38.3977585,-110.7923965,1362.4000244,0.1,342.2,0.9,0.0,0.0,873,136,0,0,864.21,26.99,28.76,# data time:3650,pm2.5:6.445,pm10:5.704,O2:0.000,NO2:0.046,SO2:0.000,NH3:7.799
13:20:11,0,0,0,0,0,2700,2200,1,0,0,0,516,0,0,0,0,0.0000000,0.0000000,0.0000000,0.0000000,9.00,38.3977585,-110.7923965,1362.4000244,0.1,206.9,0.9,0.0,0.0,873,137,0,0,864.27,27.15,28.83,# data time:3650,pm2.5:6.445,pm10:5.704,O2:0.000,NO2:0.046,SO2:0.000,NH3:7.799
13:20:12,0,0,0,0,0,2700,2200,1,0,0,0,515,0,0,0,0,0.0000000,0.0000000,0.0000000,0.0000000,9.00,38.3977585,-110.7923965,1362.4000244,0.0,136.6,0.9,0.0,0.0,872,134,0,0,864.14,27.44,28.91,# data time:3650,pm2.5:6.445,pm10:5.704,O2:0.000,NO2:0.046,SO2:0.000,NH3:7.799
13:20:13,0,0,0,0,0,2700,2200,1,0,0,0,515,0,0,0,0,0.0000000,0.0000000,0.0000000,0.0000000,9.00,38.3977585,-110.7923965,1362.4000244,0.0,352.6,0.9,0.0,0.0,873,136,0,0,864.37,27.65,28.96,# data time:3650,pm2.5:6.445,pm10:5.704,O2:0.000,NO2:0.046,SO2:0.000,NH3:7.799
13:20:14,0,0,0,0,0,2700,2200,1,0,0,0,515,0,0,0,0,0.0000000,0.0000000,0.0000000,0.0000000,9.00,38.3977585,-110.7923965,1362.3000488,0.1,322.3,0.9,0.0,0.0,873,134,0,0,864.19,27.41,29.01,# data time:3650,pm2.5:6.445,pm10:5.704,O2:0.000,NO2:0.046,SO2:0.000,NH3:7.799
13:20:15,0,0,0,0,0,2700,2200,1,0,0,0,515,0,0,0,0,0.0000000,0.0000000,0.0000000,0.0000000,9.00,38.3977585,-110.7923965,1362.3000488,0.1,137.7,0.9,0.0,0.0,873,133,0,0,864.42,27.30,28.98,# data time:3650,pm2.5:6.445,pm10:5.704,O2:0.000,NO2:0.046,SO2:0.000,NH3:7.799
13:20:16,0,0,0,0,0,2700,2200,1,0,0,0,515,0,0,0,0,0.0000000,0.0000000,0.0000000,0.0000000,9.00,38.3977585,-110.7923965,1362.3000488,0.1,223.7,0.9,0.0,0.0,873,140,0,0,864.06,27.01,28.95,# data time:3650,pm2.5:6.445,pm10:5.704,O2:0.000,NO2:0.046,SO2:0.000,NH3:7.799
13:20:18,0,0,0,0,0,2700,2200,1,0,0,0,516,0,0,0,0,0.0000000,0.0000000,0.0000000,0.0000000,9.00,38.3977585,-110.7923965,1362.3000488,0.1,164.1,0.9,0.0,0.0,873,137,0,0,864.24,26.58,28.94,# data time:3650,pm2.5:6.445,pm10:5.704,O2:0.000,NO2:0.046,SO2:0.000,NH3:7.799
13:20:19,0,0,0,0,0,2700,2200,1,0,0,0,515,0,0,0,0,0.0000000,0.0000000,0.0000000,0.0000000,9.00,38.3977585,-110.7923965,1362.3000488,0.1,170.7,0.9,0.0,0.0,872,137,0,0,864.25,26.40,29.04,# data time:3650,pm2.5:6.445,pm10:5.704,O2:0.000,NO2:0.046,SO2:0.000,NH3:7.799
13:20:20,0,0,0,0,0,2700,2200,1,0,0,0,515,0,0,0,0,0.0000000,0.0000000,0.0000000,0.0000000,9.00,38.3977585,-110.7923965,1362.3000488,0.1,192.4,0.9,0.0,0.0,873,134,0,0,864.30,26.57,29.07,# data time:3660,pm2.5:6.445,pm10:5.704,O2:0.000,NO2:0.010,SO2:0.000,NH3:8.025
13:20:21,0,0,0,0,0,2700,2200,1,0,0,0,516,0,0,0,0,0.0000000,0.0000000,0.0000000,0.0000000,9.00,38.3977585,-110.7923965,1362.3000488,0.1,178.8,0.9,0.0,0.0,872,128,0,0,864.31,26.66,28.93,# data time:3660,pm2.5:6.445,pm10:5.704,O2:0.000,NO2:0.010,SO2:0.000,NH3:8.025
13:20:22,0,0,0,0,0,2700,2200,1,0,0,0,515,0,0,0,0,0.0000000,0.0000000,0.0000000,0.0000000,9.00,38.3977547,-110.7923965,1362.3000488,0.0,279.5,0.9,0.0,0.0,873,139,0,0,864.28,26.90,28.85,# data time:3660,pm2.5:6.445,pm10:5.704,O2:0.000,NO2:0.010,SO2:0.000,NH3:8.025
13:20:23,0,0,0,0,0,2700,2200,1,0,0,0,515,0,0,0,0,0.0000000,0.0000000,0.0000000,0.0000000,9.00,38.3977585,-110.7923965,1362.3000488,0.0,279.5,0.9,0.0,0.0,873,140,0,0,864.32,27.04,28.96,# data time:3660,pm2.5:6.445,pm10:5.704,O2:0.000,NO2:0.010,SO2:0.000,NH3:8.025
13:20:24,0,0,0,0,0,2700,2200,1,0,0,0,516,0,0,0,0,0.0000000,0.0000000,0.0000000,0.0000000,9.00,38.3977585,-110.7923965,1362.3000488,0.0,279.5,0.9,0.0,0.0,873,142,0,0,864.34,27.13,28.93,# data time:3660,pm2.5:6.445,pm10:5.704,O2:0.000,NO2:0.010,SO2:0.000,NH3:8.025
13:20:25,0,0,0,0,0,2700,2200,1,0,0,0,515,0,0,0,0,0.0000000,0.0000000,0.0000000,0.0000000,9.00,38.3977585,-110.7923965,1362.3000488,0.0,5.5,0.9,0.0,0.0,872,139,0,0,864.36,27.07,29.00,# data time:3660,pm2.5:6.445,pm10:5.704,O2:0.000,NO2:0.010,SO2:0.000,NH3:8.025
13:20:26,0,0,0,0,0,2700,2200,1,0,0,0,515,0,0,0,0,0.0000000,0.0000000,0.0000000,0.0000000,9.00,38.3977585,-110.7923965,1362.3000488,0.0,341.7,0.9,0.0,0.0,873,139,0,0,864.36,27.25,29.04,# data time:3660,pm2.5:6.445,pm10:5.704,O2:0.000,NO2:0.010,SO2:0.000,NH3:8.025
13:20:27,0,0,0,0,0,2700,2200,1,0,0,0,515,0,0,0,0,0.0000000,0.0000000,0.0000000,0.0000000,9.00,38.3977585,-110.7923965,1362.3000488,0.0,121.4,0.9,0.0,0.0,872,141,0,0,864.33,27.28,29.02,# data time:3660,pm2.5:6.445,pm10:5.704,O2:0.000,NO2:0.010,SO2:0.000,NH3:8.025
13:20:28,0,0,0,0,0,2700,2200,1,0,0,0,515,0,0,0,0,0.0000000,0.0000000,0.0000000,0.0000000,9.00,38.3977585,-110.7923965,1362.3000488,0.0,156.4,0.9,0.0,0.0,873,144,0,0,864.28,27.04,29.06,# data time:3660,pm2.5:6.445,pm10:5.704,O2:0.000,NO2:0.010,SO2:0.000,NH3:8.025
13:20:29,0,0,0,0,0,2700,2200,1,0,0,0,516,0,0,0,0,0.0000000,0.0000000,0.0000000,0.0000000,9.00,38.3977585,-110.7923965,1362.3000488,0.0,165.1,0.9,0.0,0.0,873,147,0,0,864.33,26.89,29.10,# data time:3670,pm2.5:6.445,pm10:5.704,O2:0.000,NO2:0.000,SO2:0.000,NH3:7.799
13:20:30,0,0,0,0,0,2700,2200,1,0,0,0,515,0,0,0,0,0.0000000,0.0000000,0.0000000,0.0000000,9.00,38.3977585,-110.7923965,1362.3000488,0.0,184.8,0.9,0.0,0.0,872,153,0,0,864.37,26.87,29.10,# data time:3670,pm2.5:6.445,pm10:5.704,O2:0.000,NO2:0.000,SO2:0.000,NH3:7.799
13:20:31,0,0,0,0,0,2700,2200,1,0,0,0,515,0,0,0,0,0.0000000,0.0000000,0.0000000,0.0000000,9.00,38.3977585,-110.7923965,1362.3000488,0.0,176.9,0.9,0.0,0.0,873,147,0,0,864.33,26.60,29.10,# data time:3670,pm2.5:6.445,pm10:5.704,O2:0.000,NO2:0.000,SO2:0.000,NH3:7.799
13:20:32,0,0,0,0,0,2700,2200,1,0,0,0,515,0,0,0,0,0.0000000,0.0000000,0.0000000,0.0000000,9.00,38.3977585,-110.7923965,1362.3000488,0.0,194.3,0.9,0.0,0.0,872,145,0,0,864.37,26.40,29.13,# data time:3670,pm2.5:6.445,pm10:5.704,O2:0.000,NO2:0.000,SO2:0.000,NH3:7.799
13:20:33,0,0,0,0,0,2700,2200,1,0,0,0,514,0,0,0,0,0.0000000,0.0000000,0.0000000,0.0000000,9.00,38.3977585,-110.7923965,1362.3000488,0.0,293.1,0.9,0.0,0.0,872,142,0,0,864.28,26.44,29.18,# data time:3670,pm2.5:6.445,pm10:5.704,O2:0.000,NO2:0.000,SO2:0.000,NH3:7.799
13:20:34,0,0,0,0,0,2700,2200,1,0,0,0,515,0,0,0,0,0.0000000,0.0000000,0.0000000,0.0000000,9.00,38.3977585,-110.7923965,1362.3000488,0.0,275.3,0.9,0.0,0.0,873,140,0,0,864.37,26.63,29.22,# data time:3670,pm2.5:6.445,pm10:5.704,O2:0.000,NO2:0.000,SO2:0.000,NH3:7.799
13:20:35,0,0,0,0,0,2700,2200,1,0,0,0,514,0,0,0,0,0.0000000,0.0000000,0.0000000,0.0000000,9.00,38.3977585,-110.7923965,1362.3000488,0.0,353.5,0.9,0.0,0.0,873,138,0,0,864.34,26.37,29.22,# data time:3670,pm2.5:6.445,pm10:5.704,O2:0.000,NO2:0.000,SO2:0.000,NH3:7.799
13:20:36,0,0,0,0,0,2700,2200,1,0,0,0,516,0,0,0,0,0.0000000,0.0000000,0.0000000,0.0000000,9.00,38.3977585,-110.7923965,1362.3000488,0.0,334.0,0.9,0.0,0.0,872,137,0,0,864.32,26.18,29.22,# data time:3670,pm2.5:6.445,pm10:5.704,O2:0.000,NO2:0.000,SO2:0.000,NH3:7.799
13:20:37,0,0,0,0,0,2700,2200,1,0,0,0,515,0,0,0,0,0.0000000,0.0000000,0.0000000,0.0000000,9.00,38.3977585,-110.7923965,1362.3000488,0.0,349.9,0.9,0.0,0.0,872,137,0,0,864.21,26.02,29.25,# data time:3670,pm2.5:6.445,pm10:5.704,O2:0.000,NO2:0.000,SO2:0.000,NH3:7.799
13:20:38,0,0,0,0,0,2700,2200,1,0,0,0,515,0,0,0,0,0.0000000,0.0000000,0.0000000,0.0000000,9.00,38.3977585,-110.7923965,1362.3000488,0.0,336.5,0.9,0.0,0.0,873,135,0,0,864.21,25.77,29.23,# data time:3670,pm2.5:6.445,pm10:5.704,O2:0.000,NO2:0.000,SO2:0.000,NH3:7.799
13:20:39,0,0,0,0,0,2700,2200,1,0,0,0,515,0,0,0,0,0.0000000,0.0000000,0.0000000,0.0000000,9.00,38.3977585,-110.7923965,1362.3000488,0.0,107.2,0.9,0.0,0.0,873,132,0,0,864.20,25.57,29.26,# data time:3680,pm2.5:6.445,pm10:5.704,O2:0.000,NO2:0.028,SO2:0.000,NH3:7.799
13:20:40,0,0,0,0,0,2700,2200,1,0,0,0,515,0,0,0,0,0.0000000,0.0000000,0.0000000,0.0000000,9.00,38.3977585,-110.7923965,1362.3000488,0.0,124.0,0.9,0.0,0.0,873,129,0,0,864.12,25.31,29.28,# data time:3680,pm2.5:6.445,pm10:5.704,O2:0.000,NO2:0.028,SO2:0.000,NH3:7.799
13:20:41,0,0,0,0,0,2700,2200,1,0,0,0,515,0,0,0,0,0.0000000,0.0000000,0.0000000,0.0000000,9.00,38.3977585,-110.7923965,1362.3000488,0.0,140.5,0.9,0.0,0.0,873,128,0,0,864.14,25.02,29.22,# data time:3680,pm2.5:6.445,pm10:5.704,O2:0.000,NO2:0.028,SO2:0.000,NH3:7.799
13:20:43,0,0,0,0,0,2700,2200,1,0,0,0,514,0,0,0,0,0.0000000,0.0000000,0.0000000,0.0000000,9.00,38.3977585,-110.7923965,1362.3000488,0.0,173.6,0.9,0.0,0.0,872,124,0,0,864.05,25.04,29.19,# data time:3680,pm2.5:6.445,pm10:5.704,O2:0.000,NO2:0.028,SO2:0.000,NH3:7.799
13:20:44,0,0,0,0,0,2700,2200,1,0,0,0,514,0,0,0,0,0.0000000,0.0000000,0.0000000,0.0000000,9.00,38.3977585,-110.7923965,1362.3000488,0.0,216.9,0.9,0.0,0.0,872,129,0,0,864.16,25.28,29.20,# data time:3680,pm2.5:6.445,pm10:5.704,O2:0.000,NO2:0.028,SO2:0.000,NH3:7.799
13:20:45,0,0,0,0,0,2700,2200,1,0,0,0,515,0,0,0,0,0.0000000,0.0000000,0.0000000,0.0000000,9.00,38.3977585,-110.7923965,1362.3000488,0.0,165.1,0.9,0.0,0.0,872,130,0,0,864.25,25.57,29.22,# data time:3680,pm2.5:6.445,pm10:5.704,O2:0.000,NO2:0.028,SO2:0.000,NH3:7.799
13:20:46,0,0,0,0,0,2700,2200,1,0,0,0,515,0,0,0,0,0.0000000,0.0000000,0.0000000,0.0000000,9.00,38.3977585,-110.7923965,1362.3000488,0.0,258.5,0.9,0.0,0.0,872,127,0,0,864.22,25.83,29.24,# data time:3680,pm2.5:6.445,pm10:5.704,O2:0.000,NO2:0.028,SO2:0.000,NH3:7.799
13:20:47,0,0,0,0,0,2700,2200,1,0,0,0,515,0,0,0,0,0.0000000,0.0000000,0.0000000,0.0000000,9.00,38.3977585,-110.7923965,1362.3000488,0.0,247.6,0.9,0.0,0.0,873,130,0,0,864.19,25.82,29.15,# data time:3680,pm2.5:6.445,pm10:5.704,O2:0.000,NO2:0.028,SO2:0.000,NH3:7.799
13:20:48,0,0,0,0,0,2700,2200,1,0,0,0,515,0,0,0,0,0.0000000,0.0000000,0.0000000,0.0000000,9.00,38.3977585,-110.7923965,1362.3000488,0.0,263.4,0.9,0.0,0.0,872,130,0,0,864.22,25.76,29.26,# data time:3680,pm2.5:6.445,pm10:5.704,O2:0.000,NO2:0.028,SO2:0.000,NH3:7.799
13:20:49,0,0,0,0,0,2700,2200,1,0,0,0,516,0,0,0,0,0.0000000,0.0000000,0.0000000,0.0000000,9.00,38.3977585,-110.7923965,1362.3000488,0.0,264.3,0.9,0.0,0.0,873,127,0,0,864.12,25.59,29.26,# data time:3680,pm2.5:6.445,pm10:5.704,O2:0.000,NO2:0.028,SO2:0.000,NH3:7.799
13:20:50,0,0,0,0,0,2700,2200,1,0,0,0,516,0,0,0,0,0.0000000,0.0000000,0.0000000,0.0000000,9.00,38.3977585,-110.7923965,1362.3000488,0.0,258.9,0.9,0.0,0.0,872,129,0,0,864.14,25.28,29.39,# data time:3690,pm2.5:6.445,pm10:5.704,O2:0.000,NO2:0.046,SO2:0.000,NH3:7.799
13:20:51,0,0,0,0,0,2700,2200,1,0,0,0,515,0,0,0,0,0.0000000,0.0000000,0.0000000,0.0000000,8.00,38.3977585,-110.7923965,1362.3000488,0.0,17.0,1.4,0.0,0.0,872,124,0,0,864.11,25.24,29.45,# data time:3690,pm2.5:6.445,pm10:5.704,O2:0.000,NO2:0.046,SO2:0.000,NH3:7.799
13:20:52,0,0,0,0,0,2700,2200,1,0,0,0,515,0,0,0,0,0.0000000,0.0000000,0.0000000,0.0000000,8.00,38.3977585,-110.7923965,1362.3000488,0.0,41.0,1.4,0.0,0.0,873,127,0,0,864.09,25.22,29.43,# data time:3690,pm2.5:6.445,pm10:5.704,O2:0.000,NO2:0.046,SO2:0.000,NH3:7.799
13:20:53,0,0,0,0,0,2700,2200,1,0,0,0,515,0,0,0,0,0.0000000,0.0000000,0.0000000,0.0000000,8.00,38.3977585,-110.7923965,1362.3000488,0.0,49.5,1.4,0.0,0.0,873,128,0,0,864.17,25.22,29.42,# data time:3690,pm2.5:6.445,pm10:5.704,O2:0.000,NO2:0.046,SO2:0.000,NH3:7.799
13:20:54,0,0,0,0,0,2700,2200,1,0,0,0,515,0,0,0,0,0.0000000,0.0000000,0.0000000,0.0000000,8.00,38.3977585,-110.7923965,1362.3000488,0.0,61.5,1.4,0.0,0.0,873,128,0,0,864.15,25.18,29.46,# data time:3690,pm2.5:6.445,pm10:5.704,O2:0.000,NO2:0.046,SO2:0.000,NH3:7.799
13:20:55,0,0,0,0,0,2700,2200,1,0,0,0,515,0,0,0,0,0.0000000,0.0000000,0.0000000,0.0000000,8.00,38.3977585,-110.7923965,1362.3000488,0.0,50.5,1.4,0.0,0.0,872,140,0,0,864.11,24.98,29.50,# data time:3690,pm2.5:6.445,pm10:5.704,O2:0.000,NO2:0.046,SO2:0.000,NH3:7.799
13:20:56,0,0,0,0,0,2700,2200,1,0,0,0,515,0,0,0,0,0.0000000,0.0000000,0.0000000,0.0000000,8.00,38.3977585,-110.7923965,1362.3000488,0.0,128.7,1.4,0.0,0.0,872,135,0,0,864.06,24.86,29.50,# data time:3690,pm2.5:6.445,pm10:5.704,O2:0.000,NO2:0.046,SO2:0.000,NH3:7.799
13:20:57,0,0,0,0,0,2700,2200,1,0,0,0,515,0,0,0,0,0.0000000,0.0000000,0.0000000,0.0000000,8.00,38.3977585,-110.7923965,1362.3000488,0.0,162.6,1.4,0.0,0.0,872,135,0,0,864.11,24.99,29.55,# data time:3690,pm2.5:6.445,pm10:5.704,O2:0.000,NO2:0.046,SO2:0.000,NH3:7.799
13:20:58,0,0,0,0,0,2700,2200,1,0,0,0,515,0,0,0,0,0.0000000,0.0000000,0.0000000,0.0000000,8.00,38.3977585,-110.7923965,1362.3000488,0.0,287.0,1.4,0.0,0.0,873,133,0,0,864.18,25.10,29.58,# data time:3690,pm2.5:6.445,pm10:5.704,O2:0.000,NO2:0.046,SO2:0.000,NH3:7.799
13:20:59,0,0,0,0,0,2700,2200,1,0,0,0,515,0,0,0,0,0.0000000,0.0000000,0.0000000,0.0000000,8.00,38.3977585,-110.7923965,1362.3000488,0.0,278.1,1.4,0.0,0.0,872,137,0,0,864.14,25.15,29.57,# data time:3700,pm2.5:6.445,pm10:5.704,O2:0.000,NO2:0.028,SO2:0.000,NH3:7.799
13:21:00,0,0,0,0,0,2700,2200,1,0,0,0,515,0,0,0,0,0.0000000,0.0000000,0.0000000,0.0000000,8.00,38.3977585,-110.7923965,1362.3000488,0.0,231.8,1.4,0.0,0.0,873,137,0,0,864.10,25.04,29.49,# data time:3700,pm2.5:6.445,pm10:5.704,O2:0.000,NO2:0.028,SO2:0.000,NH3:7.799
13:21:01,0,0,0,0,0,2700,2200,1,0,0,0,515,0,0,0,0,0.0000000,0.0000000,0.0000000,0.0000000,8.00,38.3977585,-110.7923965,1362.3000488,0.0,297.9,1.4,0.0,0.0,872,139,0,0,864.04,24.69,29.44,# data time:3700,pm2.5:6.445,pm10:5.704,O2:0.000,NO2:0.028,SO2:0.000,NH3:7.799
13:21:02,0,0,0,0,0,2700,2200,1,0,0,0,515,0,0,0,0,0.0000000,0.0000000,0.0000000,0.0000000,8.00,38.3977585,-110.7923965,1362.3000488,0.0,270.1,1.4,0.0,0.0,873,145,0,0,863.99,24.40,29.38,# data time:3700,pm2.5:6.445,pm10:5.704,O2:0.000,NO2:0.028,SO2:0.000,NH3:7.799
13:21:03,0,0,0,0,0,2700,2200,1,0,0,0,516,0,0,0,0,0.0000000,0.0000000,0.0000000,0.0000000,8.00,38.3977585,-110.7923965,1362.3000488,0.0,40.0,1.4,0.0,0.0,872,140,0,0,864.00,24.23,29.33,# data time:3700,pm2.5:6.445,pm10:5.704,O2:0.000,NO2:0.028,SO2:0.000,NH3:7.799
13:21:04,0,0,0,0,0,2700,2200,1,0,0,0,514,0,0,0,0,0.0000000,0.0000000,0.0000000,0.0000000,8.00,38.3977585,-110.7923965,1362.3000488,0.0,56.6,1.4,0.0,0.0,872,140,0,0,864.02,24.26,29.30,# data time:3700,pm2.5:6.445,pm10:5.704,O2:0.000,NO2:0.028,SO2:0.000,NH3:7.799
13:21:05,0,0,0,0,0,2700,2200,1,0,0,0,515,0,0,0,0,0.0000000,0.0000000,0.0000000,0.0000000,8.00,38.3977585,-110.7923965,1362.3000488,0.0,58.3,1.4,0.0,0.0,872,135,0,0,863.99,24.46,29.24,# data time:3700,pm2.5:6.445,pm10:5.704,O2:0.000,NO2:0.028,SO2:0.000,NH3:7.799
13:21:06,0,0,0,0,0,2700,2200,1,0,0,0,515,0,0,0,0,0.0000000,0.0000000,0.0000000,0.0000000,8.00,38.3977585,-110.7923965,1362.3000488,0.0,42.2,1.4,0.0,0.0,872,135,0,0,864.02,24.37,29.10,# data time:3700,pm2.5:6.445,pm10:5.704,O2:0.000,NO2:0.028,SO2:0.000,NH3:7.799
13:21:07,0,0,0,0,0,2700,2200,1,0,0,0,515,0,0,0,0,0.0000000,0.0000000,0.0000000,0.0000000,8.00,38.3977585,-110.7923965,1362.3000488,0.0,33.2,1.4,0.0,0.0,873,135,0,0,863.94,24.11,29.06,# data time:3700,pm2.5:6.445,pm10:5.704,O2:0.000,NO2:0.028,SO2:0.000,NH3:7.799
13:21:08,0,0,0,0,0,2700,2200,1,0,0,0,515,0,0,0,0,0.0000000,0.0000000,0.0000000,0.0000000,8.00,38.3977585,-110.7923965,1362.3000488,0.0,67.1,1.4,0.0,0.0,872,135,0,0,863.93,23.88,29.07,# data time:3700,pm2.5:6.445,pm10:5.704,O2:0.000,NO2:0.028,SO2:0.000,NH3:7.799
13:21:09,0,0,0,0,0,2700,2200,1,0,0,0,515,0,0,0,0,0.0000000,0.0000000,0.0000000,0.0000000,8.00,38.3977585,-110.7923965,1362.3000488,0.0,232.1,1.4,0.0,0.0,872,137,0,0,863.85,23.61,29.09,# data time:3710,pm2.5:6.445,pm10:5.704,O2:0.000,NO2:0.028,SO2:0.000,NH3:7.799
13:21:11,0,0,0,0,0,2700,2200,1,0,0,0,515,0,0,0,0,0.0000000,0.0000000,0.0000000,0.0000000,8.00,38.3977585,-110.7923965,1362.3000488,0.0,281.9,1.4,0.0,0.0,872,136,0,0,863.85,23.29,29.11,# data time:3710,pm2.5:6.445,pm10:5.704,O2:0.000,NO2:0.028,SO2:0.000,NH3:7.799
13:21:12,0,0,0,0,0,2700,2200,1,0,0,0,515,0,0,0,0,0.0000000,0.0000000,0.0000000,0.0000000,8.00,38.3977585,-110.7923965,1362.3000488,0.0,246.5,1.4,0.0,0.0,873,134,0,0,863.81,23.12,29.14,# data time:3710,pm2.5:6.445,pm10:5.704,O2:0.000,NO2:0.028,SO2:0.000,NH3:7.799
13:21:13,0,0,0,0,0,2700,2200,1,0,0,0,515,0,0,0,0,0.0000000,0.0000000,0.0000000,0.0000000,8.00,38.3977585,-110.7923965,1362.3000488,0.0,228.4,1.4,0.0,0.0,872,135,0,0,863.86,23.35,29.13,# data time:3710,pm2.5:6.445,pm10:5.704,O2:0.000,NO2:0.028,SO2:0.000,NH3:7.799
13:21:14,0,0,0,0,0,2700,2200,1,0,0,0,515,0,0,0,0,0.0000000,0.0000000,0.0000000,0.0000000,8.00,38.3977585,-110.7923965,1362.3000488,0.0,256.6,1.4,0.0,0.0,873,137,0,0,863.89,24.00,28.96,# data time:3710,pm2.5:6.445,pm10:5.704,O2:0.000,NO2:0.028,SO2:0.000,NH3:7.799
13:21:15,0,0,0,0,0,2700,2200,1,0,0,0,515,0,0,0,0,0.0000000,0.0000000,0.0000000,0.0000000,8.00,38.3977585,-110.7923965,1362.3000488,0.0,256.6,1.4,0.0,0.0,872,134,0,0,863.88,24.05,28.88,# data time:3710,pm2.5:6.445,pm10:5.704,O2:0.000,NO2:0.028,SO2:0.000,NH3:7.799
13:21:16,0,0,0,0,0,2700,2200,1,0,0,0,516,0,0,0,0,0.0000000,0.0000000,0.0000000,0.0000000,9.00,38.3977585,-110.7923965,1362.3000488,0.0,256.6,0.9,0.0,0.0,872,137,0,0,863.92,23.94,28.95,# data time:3710,pm2.5:6.445,pm10:5.704,O2:0.000,NO2:0.028,SO2:0.000,NH3:7.799
13:21:17,0,0,0,0,0,2700,2200,1,0,0,0,515,0,0,0,0,0.0000000,0.0000000,0.0000000,0.0000000,9.00,38.3977585,-110.7923965,1362.3000488,0.0,256.6,0.9,0.0,0.0,872,137,0,0,863.91,23.82,28.87,# data time:3710,pm2.5:6.445,pm10:5.704,O2:0.000,NO2:0.028,SO2:0.000,NH3:7.799
13:21:18,0,0,0,0,0,2700,2200,1,0,0,0,515,0,0,0,0,0.0000000,0.0000000,0.0000000,0.0000000,9.00,38.3977585,-110.7923965,1362.3000488,0.0,27.0,0.9,0.0,0.0,872,137,0,0,863.96,24.02,28.93,# data time:3710,pm2.5:6.445,pm10:5.704,O2:0.000,NO2:0.028,SO2:0.000,NH3:7.799
13:21:19,0,0,0,0,0,2700,2200,1,0,0,0,515,0,0,0,0,0.0000000,0.0000000,0.0000000,0.0000000,9.00,38.3977585,-110.7923965,1362.3000488,0.0,97.5,0.9,0.0,0.0,872,143,0,0,863.94,24.14,28.86,# data time:3720,pm2.5:6.445,pm10:5.704,O2:0.000,NO2:0.028,SO2:0.000,NH3:7.799
13:21:20,0,0,0,0,0,2700,2200,1,0,0,0,514,0,0,0,0,0.0000000,0.0000000,0.0000000,0.0000000,9.00,38.3977585,-110.7923965,1362.3000488,0.0,47.0,0.9,0.0,0.0,872,136,0,0,863.96,24.35,28.88,# data time:3720,pm2.5:6.445,pm10:5.704,O2:0.000,NO2:0.028,SO2:0.000,NH3:7.799
13:21:21,0,0,0,0,0,2700,2200,1,0,0,0,515,0,0,0,0,0.0000000,0.0000000,0.0000000,0.0000000,9.00,38.3977585,-110.7923965,1362.3000488,0.0,118.1,0.9,0.0,0.0,872,135,0,0,863.93,24.40,28.84,# data time:3720,pm2.5:6.445,pm10:5.704,O2:0.000,NO2:0.028,SO2:0.000,NH3:7.799
13:21:22,0,0,0,0,0,2700,2200,1,0,0,0,515,0,0,0,0,0.0000000,0.0000000,0.0000000,0.0000000,9.00,38.3977585,-110.7923965,1362.3000488,0.0,231.7,0.9,0.0,0.0,872,134,0,0,864.00,24.49,28.84,# data time:3720,pm2.5:6.445,pm10:5.704,O2:0.000,NO2:0.028,SO2:0.000,NH3:7.799
13:21:23,0,0,0,0,0,2700,2200,1,0,0,0,515,0,0,0,0,0.0000000,0.0000000,0.0000000,0.0000000,9.00,38.3977585,-110.7923965,1362.3000488,0.0,270.4,0.9,0.0,0.0,872,136,0,0,864.04,24.77,28.78,# data time:3720,pm2.5:6.445,pm10:5.704,O2:0.000,NO2:0.028,SO2:0.000,NH3:7.799
13:21:24,0,0,0,0,0,2700,2200,1,0,0,0,515,0,0,0,0,0.0000000,0.0000000,0.0000000,0.0000000,9.00,38.3977585,-110.7923965,1362.3000488,0.0,264.0,0.9,0.0,0.0,872,133,0,0,864.06,24.95,28.73,# data time:3720,pm2.5:6.445,pm10:5.704,O2:0.000,NO2:0.028,SO2:0.000,NH3:7.799
13:21:25,0,0,0,0,0,2700,2200,1,0,0,0,516,0,0,0,0,0.0000000,0.0000000,0.0000000,0.0000000,9.00,38.3977585,-110.7923965,1362.3000488,0.0,193.6,0.9,0.0,0.0,872,134,0,0,864.01,24.80,28.71,# data time:3720,pm2.5:6.445,pm10:5.704,O2:0.000,NO2:0.028,SO2:0.000,NH3:7.799
13:21:26,0,0,0,0,0,2700,2200,1,0,0,0,515,0,0,0,0,0.0000000,0.0000000,0.0000000,0.0000000,9.00,38.3977585,-110.7923965,1362.3000488,0.0,292.0,0.9,0.0,0.0,872,135,0,0,864.03,24.70,28.69,# data time:3720,pm2.5:6.445,pm10:5.704,O2:0.000,NO2:0.028,SO2:0.000,NH3:7.799
13:21:27,0,0,0,0,0,2700,2200,1,0,0,0,516,0,0,0,0,0.0000000,0.0000000,0.0000000,0.0000000,9.00,38.3977585,-110.7923965,1362.3000488,0.0,197.6,0.9,0.0,0.0,872,134,0,0,863.93,24.69,28.67,# data time:3720,pm2.5:6.445,pm10:5.704,O2:0.000,NO2:0.028,SO2:0.000,NH3:7.799
13:21:28,0,0,0,0,0,2700,2200,1,0,0,0,516,0,0,0,0,0.0000000,0.0000000,0.0000000,0.0000000,9.00,38.3977585,-110.7923965,1362.3000488,0.0,154.8,0.9,0.0,0.0,872,138,0,0,864.01,24.54,28.66,# data time:3720,pm2.5:6.445,pm10:5.704,O2:0.000,NO2:0.028,SO2:0.000,NH3:7.799
13:21:29,0,0,0,0,0,2700,2200,1,0,0,0,515,0,0,0,0,0.0000000,0.0000000,0.0000000,0.0000000,9.00,38.3977585,-110.7923965,1362.3000488,0.0,125.6,0.9,0.0,0.0,872,134,0,0,863.89,24.32,28.70,# data time:3730,pm2.5:6.445,pm10:5.704,O2:0.000,NO2:0.046,SO2:0.000,NH3:7.799
13:21:30,0,0,0,0,0,2700,2200,1,0,0,0,516,0,0,0,0,0.0000000,0.0000000,0.0000000,0.0000000,9.00,38.3977585,-110.7923965,1362.3000488,0.0,154.2,0.9,0.0,0.0,872,134,0,0,863.91,24.14,28.74,# data time:3730,pm2.5:6.445,pm10:5.704,O2:0.000,NO2:0.046,SO2:0.000,NH3:7.799
13:21:31,0,0,0,0,0,2700,2200,1,0,0,0,515,0,0,0,0,0.0000000,0.0000000,0.0000000,0.0000000,9.00,38.3977585,-110.7923965,1362.3000488,0.0,109.6,0.9,0.0,0.0,872,133,0,0,863.92,24.17,28.75,# data time:3730,pm2.5:6.445,pm10:5.704,O2:0.000,NO2:0.046,SO2:0.000,NH3:7.799
13:21:32,0,0,0,0,0,2700,2200,1,0,0,0,515,0,0,0,0,0.0000000,0.0000000,0.0000000,0.0000000,9.00,38.3977585,-110.7923965,1362.3000488,0.0,122.3,0.9,0.0,0.0,872,132,0,0,863.86,23.96,28.77,# data time:3730,pm2.5:6.445,pm10:5.704,O2:0.000,NO2:0.046,SO2:0.000,NH3:7.799
13:21:34,0,0,0,0,0,2700,2200,1,0,0,0,516,0,0,0,0,0.0000000,0.0000000,0.0000000,0.0000000,9.00,38.3977585,-110.7923965,1362.3000488,0.0,21.7,0.9,0.0,0.0,872,133,0,0,863.87,23.96,28.76,# data time:3730,pm2.5:6.445,pm10:5.704,O2:0.000,NO2:0.046,SO2:0.000,NH3:7.799
13:21:35,0,0,0,0,0,2700,2200,1,0,0,0,515,0,0,0,0,0.0000000,0.0000000,0.0000000,0.0000000,9.00,38.3977585,-110.7923965,1362.3000488,0.0,301.8,0.9,0.0,0.0,872,136,0,0,863.87,23.96,28.62,# data time:3730,pm2.5:6.445,pm10:5.704,O2:0.000,NO2:0.046,SO2:0.000,NH3:7.799
13:21:36,0,0,0,0,0,2700,2200,1,0,0,0,515,0,0,0,0,0.0000000,0.0000000,0.0000000,0.0000000,9.00,38.3977585,-110.7923965,1362.3000488,0.0,281.4,0.9,0.0,0.0,872,140,0,0,863.86,24.25,28.53,# data time:3730,pm2.5:6.445,pm10:5.704,O2:0.000,NO2:0.046,SO2:0.000,NH3:7.799
13:21:37,0,0,0,0,0,2700,2200,1,0,0,0,514,0,0,0,0,0.0000000,0.0000000,0.0000000,0.0000000,9.00,38.3977585,-110.7923965,1362.3000488,0.0,299.3,0.9,0.0,0.0,872,130,0,0,863.95,24.87,28.55,# data time:3730,pm2.5:6.445,pm10:5.704,O2:0.000,NO2:0.046,SO2:0.000,NH3:7.799
13:21:38,0,0,0,0,0,2700,2200,1,0,0,0,515,0,0,0,0,0.0000000,0.0000000,0.0000000,0.0000000,9.00,38.3977585,-110.7923965,1362.3000488,0.0,329.5,0.9,0.0,0.0,872,139,0,0,864.00,25.27,28.54,# data time:3730,pm2.5:6.445,pm10:5.704,O2:0.000,NO2:0.046,SO2:0.000,NH3:7.799
13:21:39,0,0,0,0,0,2700,2200,1,0,0,0,515,0,0,0,0,0.0000000,0.0000000,0.0000000,0.0000000,9.00,38.3977585,-110.7923965,1362.3000488,0.0,329.5,0.9,0.0,0.0,872,139,0,0,863.94,24.87,28.59,# data time:3730,pm2.5:6.445,pm10:5.704,O2:0.000,NO2:0.046,SO2:0.000,NH3:7.799
13:21:40,0,0,0,0,0,2700,2200,1,0,0,0,515,0,0,0,0,0.0000000,0.0000000,0.0000000,0.0000000,9.00,38.3977585,-110.7923965,1362.3000488,0.0,200.3,0.9,0.0,0.0,872,136,0,0,863.89,24.48,28.64,# data time:3740,pm2.5:6.445,pm10:5.704,O2:0.000,NO2:0.028,SO2:0.000,NH3:7.799
13:21:41,0,0,0,0,0,2700,2200,1,0,0,0,516,0,0,0,0,0.0000000,0.0000000,0.0000000,0.0000000,9.00,38.3977585,-110.7923965,1362.3000488,0.0,108.9,0.9,0.0,0.0,872,138,0,0,863.86,24.05,28.72,# data time:3740,pm2.5:6.445,pm10:5.704,O2:0.000,NO2:0.028,SO2:0.000,NH3:7.799
13:21:42,0,0,0,0,0,2700,2200,1,0,0,0,515,0,0,0,0,0.0000000,0.0000000,0.0000000,0.0000000,9.00,38.3977585,-110.7923965,1362.3000488,0.0,128.3,0.9,0.0,0.0,872,137,0,0,863.79,23.74,28.76,# data time:3740,pm2.5:6.445,pm10:5.704,O2:0.000,NO2:0.028,SO2:0.000,NH3:7.799
13:21:43,0,0,0,0,0,2700,2200,1,0,0,0,514,0,0,0,0,0.0000000,0.0000000,0.0000000,0.0000000,9.00,38.3977585,-110.7923965,1362.3000488,0.0,128.6,0.9,0.0,0.0,872,143,0,0,863.81,23.47,28.80,# data time:3740,pm2.5:6.445,pm10:5.704,O2:0.000,NO2:0.028,SO2:0.000,NH3:7.799
13:21:44,0,0,0,0,0,2700,2200,1,0,0,0,515,0,0,0,0,0.0000000,0.0000000,0.0000000,0.0000000,9.00,38.3977585,-110.7923965,1362.3000488,0.0,138.2,0.9,0.0,0.0,872,133,0,0,863.74,23.10,28.84,# data time:3740,pm2.5:6.445,pm10:5.704,O2:0.000,NO2:0.028,SO2:0.000,NH3:7.799
13:21:45,0,0,0,0,0,2700,2200,1,0,0,0,516,0,0,0,0,0.0000000,0.0000000,0.0000000,0.0000000,9.00,38.3977585,-110.7923965,1362.3000488,0.0,56.0,0.9,0.0,0.0,872,143,0,0,863.70,22.74,28.86,# data time:3740,pm2.5:6.445,pm10:5.704,O2:0.000,NO2:0.028,SO2:0.000,NH3:7.799
13:21:46,0,0,0,0,0,2700,2200,1,0,0,0,515,0,0,0,0,0.0000000,0.0000000,0.0000000,0.0000000,9.00,38.3977585,-110.7923965,1362.3000488,0.0,319.5,0.9,0.0,0.0,872,137,0,0,863.69,22.42,28.93,# data time:3740,pm2.5:6.445,pm10:5.704,O2:0.000,NO2:0.028,SO2:0.000,NH3:7.799
13:21:47,0,0,0,0,0,2700,2200,1,0,0,0,515,0,0,0,0,0.0000000,0.0000000,0.0000000,0.0000000,9.00,38.3977585,-110.7923965,1362.3000488,0.0,309.0,0.9,0.0,0.0,872,134,0,0,863.64,22.20,29.02,# data time:3740,pm2.5:6.445,pm10:5.704,O2:0.000,NO2:0.028,SO2:0.000,NH3:7.799
13:21:48,0,0,0,0,0,2700,2200,1,0,0,0,515,0,0,0,0,0.0000000,0.0000000,0.0000000,0.0000000,9.00,38.3977585,-110.7923965,1362.3000488,0.0,327.5,0.9,0.0,0.0,872,134,0,0,863.54,21.82,29.11,# data time:3740,pm2.5:6.445,pm10:5.704,O2:0.000,NO2:0.028,SO2:0.000,NH3:7.799
13:21:49,0,0,0,0,0,2700,2200,1,0,0,0,515,0,0,0,0,0.0000000,0.0000000,0.0000000,0.0000000,9.00,38.3977585,-110.7923965,1362.1999512,0.0,314.9,0.9,0.0,0.0,871,133,0,0,863.53,21.44,29.18,# data time:3750,pm2.5:6.445,pm10:5.704,O2:0.000,NO2:0.028,SO2:0.000,NH3:7.799
13:21:50,0,0,0,0,0,2700,2200,1,0,0,0,516,0,0,0,0,0.0000000,0.0000000,0.0000000,0.0000000,9.00,38.3977585,-110.7923965,1362.1999512,0.0,320.3,0.9,0.0,0.0,872,133,0,0,863.46,21.35,29.23,# data time:3750,pm2.5:6.445,pm10:5.704,O2:0.000,NO2:0.028,SO2:0.000,NH3:7.799
13:21:51,0,0,0,0,0,2700,2200,1,0,0,0,515,0,0,0,0,0.0000000,0.0000000,0.0000000,0.0000000,9.00,38.3977585,-110.7923965,1362.1999512,0.0,169.8,0.9,0.0,0.0,872,135,0,0,863.51,21.58,29.27,# data time:3750,pm2.5:6.445,pm10:5.704,O2:0.000,NO2:0.028,SO2:0.000,NH3:7.799
13:21:52,0,0,0,0,0,2700,2200,1,0,0,0,515,0,0,0,0,0.0000000,0.0000000,0.0000000,0.0000000,9.00,38.3977585,-110.7923965,1362.1999512,0.0,109.7,0.9,0.0,0.0,872,137,0,0,863.54,21.68,29.27,# data time:3750,pm2.5:6.445,pm10:5.704,O2:0.000,NO2:0.028,SO2:0.000,NH3:7.799
13:21:53,0,0,0,0,0,2700,2200,1,0,0,0,515,0,0,0,0,0.0000000,0.0000000,0.0000000,0.0000000,9.00,38.3977585,-110.7923965,1362.1999512,0.0,77.1,0.9,0.0,0.0,872,134,0,0,863.49,21.48,29.30,# data time:3750,pm2.5:6.445,pm10:5.704,O2:0.000,NO2:0.028,SO2:0.000,NH3:7.799
13:21:54,0,0,0,0,0,2700,2200,1,0,0,0,515,0,0,0,0,0.0000000,0.0000000,0.0000000,0.0000000,9.00,38.3977585,-110.7923965,1362.1999512,0.0,81.3,0.9,0.0,0.0,872,135,0,0,863.51,21.29,29.34,# data time:3750,pm2.5:6.445,pm10:5.704,O2:0.000,NO2:0.028,SO2:0.000,NH3:7.799
13:21:55,0,0,0,0,0,2700,2200,1,0,0,0,514,0,0,0,0,0.0000000,0.0000000,0.0000000,0.0000000,9.00,38.3977585,-110.7923965,1362.1999512,0.0,101.5,0.9,0.0,0.0,872,135,0,0,863.46,21.13,29.37,# data time:3750,pm2.5:6.445,pm10:5.704,O2:0.000,NO2:0.028,SO2:0.000,NH3:7.799
13:21:56,0,0,0,0,0,2700,2200,1,0,0,0,516,0,0,0,0,0.0000000,0.0000000,0.0000000,0.0000000,9.00,38.3977585,-110.7923965,1362.1999512,0.0,77.4,0.9,0.0,0.0,872,134,0,0,863.41,21.27,29.37,# data time:3750,pm2.5:6.445,pm10:5.704,O2:0.000,NO2:0.028,SO2:0.000,NH3:7.799
13:21:57,0,0,0,0,0,2700,2200,1,0,0,0,515,0,0,0,0,0.0000000,0.0000000,0.0000000,0.0000000,9.00,38.3977585,-110.7923965,1362.1999512,0.0,354.6,0.9,0.0,0.0,872,140,0,0,863.48,21.32,29.32,# data time:3750,pm2.5:6.445,pm10:5.704,O2:0.000,NO2:0.028,SO2:0.000,NH3:7.799
13:21:58,0,0,0,0,0,2700,2200,1,0,0,0,515,0,0,0,0,0.0000000,0.0000000,0.0000000,0.0000000,9.00,38.3977585,-110.7923965,1362.1999512,0.0,332.0,0.9,0.0,0.0,872,138,0,0,863.38,20.75,29.40,# data time:3750,pm2.5:6.445,pm10:5.704,O2:0.000,NO2:0.028,SO2:0.000,NH3:7.799
13:22:00,0,0,0,0,0,2700,2200,1,0,0,0,515,0,0,0,0,0.0000000,0.0000000,0.0000000,0.0000000,9.00,38.3977585,-110.7923965,1362.1999512,0.0,336.3,0.9,0.0,0.0,872,136,0,0,863.40,20.25,29.44,# data time:3760,pm2.5:6.445,pm10:5.704,O2:0.000,NO2:0.010,SO2:0.000,NH3:8.025
13:22:01,0,0,0,0,0,2700,2200,1,0,0,0,514,0,0,0,0,0.0000000,0.0000000,0.0000000,0.0000000,9.00,38.3977585,-110.7923965,1362.1999512,0.0,337.3,0.9,0.0,0.0,872,136,0,0,863.24,19.96,29.45,# data time:3760,pm2.5:6.445,pm10:5.704,O2:0.000,NO2:0.010,SO2:0.000,NH3:8.025
13:22:02,0,0,0,0,0,2700,2200,1,0,0,0,515,0,0,0,0,0.0000000,0.0000000,0.0000000,0.0000000,9.00,38.3977585,-110.7923965,1362.1999512,0.0,338.9,0.9,0.0,0.0,872,131,0,0,863.25,19.64,29.45,# data time:3760,pm2.5:6.445,pm10:5.704,O2:0.000,NO2:0.010,SO2:0.000,NH3:8.025
13:22:03,0,0,0,0,0,2700,2200,1,0,0,0,515,0,0,0,0,0.0000000,0.0000000,0.0000000,0.0000000,9.00,38.3977585,-110.7923965,1362.1999512,0.0,330.5,0.9,0.0,0.0,872,136,0,0,863.26,19.67,29.44,# data time:3760,pm2.5:6.445,pm10:5.704,O2:0.000,NO2:0.010,SO2:0.000,NH3:8.025
13:22:04,0,0,0,0,0,2700,2200,1,0,0,0,515,0,0,0,0,0.0000000,0.0000000,0.0000000,0.0000000,9.00,38.3977585,-110.7923965,1362.1999512,0.0,162.8,0.9,0.0,0.0,872,151,0,0,863.27,20.10,29.40,# data time:3760,pm2.5:6.445,pm10:5.704,O2:0.000,NO2:0.010,SO2:0.000,NH3:8.025
13:22:05,0,0,0,0,0,2700,2200,1,0,0,0,515,0,0,0,0,0.0000000,0.0000000,0.0000000,0.0000000,9.00,38.3977547,-110.7923965,1362.1999512,0.0,124.6,0.9,0.0,0.0,872,171,0,0,863.24,20.10,29.31,# data time:3760,pm2.5:6.445,pm10:5.704,O2:0.000,NO2:0.010,SO2:0.000,NH3:8.025
13:22:06,0,0,0,0,0,2700,2200,1,0,0,0,515,0,0,0,0,0.0000000,0.0000000,0.0000000,0.0000000,9.00,38.3977547,-110.7923965,1362.1999512,0.0,124.6,0.9,0.0,0.0,872,158,0,0,863.34,20.39,29.34,# data time:3760,pm2.5:6.445,pm10:5.704,O2:0.000,NO2:0.010,SO2:0.000,NH3:8.025
13:22:07,0,0,0,0,0,2700,2200,1,0,0,0,515,0,0,0,0,0.0000000,0.0000000,0.0000000,0.0000000,9.00,38.3977547,-110.7923965,1362.1999512,0.0,124.6,0.9,0.0,0.0,872,156,0,0,863.36,20.75,29.32,# data time:3760,pm2.5:6.445,pm10:5.704,O2:0.000,NO2:0.010,SO2:0.000,NH3:8.025
13:22:08,0,0,0,0,0,2700,2200,1,0,0,0,515,0,0,0,0,0.0000000,0.0000000,0.0000000,0.0000000,9.00,38.3977547,-110.7923965,1362.1999512,0.0,108.6,0.9,0.0,0.0,871,151,0,0,863.38,20.92,29.36,# data time:3760,pm2.5:6.445,pm10:5.704,O2:0.000,NO2:0.010,SO2:0.000,NH3:8.025
13:22:09,0,0,0,0,0,2700,2200,1,0,0,0,516,0,0,0,0,0.0000000,0.0000000,0.0000000,0.0000000,9.00,38.3977547,-110.7923965,1362.1999512,0.0,33.4,0.9,0.0,0.0,872,145,0,0,863.37,20.66,29.46,# data time:3770,pm2.5:6.445,pm10:5.704,O2:0.000,NO2:0.000,SO2:00,NH3:7.799
13:22:10,0,0,0,0,0,2700,2200,1,0,0,0,515,0,0,0,0,0.0000000,0.0000000,0.0000000,0.0000000,9.00,38.3977547,-110.7923965,1362.1999512,0.0,193.9,0.9,0.0,0.0,872,145,0,0,863.36,20.43,29.52,# data time:3770,pm2.5:6.445,pm10:5.704,O2:0.000,NO2:0.000,SO2:00,NH3:7.799
13:22:11,0,0,0,0,0,2700,2200,1,0,0,0,515,0,0,0,0,0.0000000,0.0000000,0.0000000,0.0000000,9.00,38.3977547,-110.7923965,1362.1999512,0.0,181.3,0.9,0.0,0.0,872,141,0,0,863.36,20.36,29.57,# data time:3770,pm2.5:6.445,pm10:5.704,O2:0.000,NO2:0.000,SO2:00,NH3:7.799
13:22:12,0,0,0,0,0,2700,2200,1,0,0,0,515,0,0,0,0,0.0000000,0.0000000,0.0000000,0.0000000,9.00,38.3977547,-110.7923965,1362.1999512,0.0,204.6,0.9,0.0,0.0,871,139,0,0,863.40,20.43,29.58,# data time:3770,pm2.5:6.445,pm10:5.704,O2:0.000,NO2:0.000,SO2:00,NH3:7.799
13:22:13,0,0,0,0,0,2700,2200,1,0,0,0,515,0,0,0,0,0.0000000,0.0000000,0.0000000,0.0000000,9.00,38.3977547,-110.7923965,1362.1999512,0.0,334.5,0.9,0.0,0.0,872,136,0,0,863.37,20.43,29.59,# data time:3770,pm2.5:6.445,pm10:5.704,O2:0.000,NO2:0.000,SO2:00,NH3:7.799
13:22:14,0,0,0,0,0,2700,2200,1,0,0,0,515,0,0,0,0,0.0000000,0.0000000,0.0000000,0.0000000,9.00,38.3977547,-110.7923965,1362.1999512,0.0,194.3,0.9,0.0,0.0,872,133,0,0,863.32,20.23,29.65,# data time:3770,pm2.5:6.445,pm10:5.704,O2:0.000,NO2:0.000,SO2:00,NH3:7.799
13:22:15,0,0,0,0,0,2700,2200,1,0,0,0,515,0,0,0,0,0.0000000,0.0000000,0.0000000,0.0000000,9.00,38.3977547,-110.7923965,1362.1999512,0.0,237.3,0.9,0.0,0.0,872,132,0,0,863.33,20.22,29.72,# data time:3770,pm2.5:6.445,pm10:5.704,O2:0.000,NO2:0.000,SO2:00,NH3:7.799
13:22:16,0,0,0,0,0,2700,2200,1,0,0,0,516,0,0,0,0,0.0000000,0.0000000,0.0000000,0.0000000,9.00,38.3977547,-110.7923965,1362.1999512,0.0,111.6,0.9,0.0,0.0,872,133,0,0,863.32,20.13,29.80,# data time:3770,pm2.5:6.445,pm10:5.704,O2:0.000,NO2:0.000,SO2:00,NH3:7.799
13:22:17,0,0,0,0,0,2700,2200,1,0,0,0,515,0,0,0,0,0.0000000,0.0000000,0.0000000,0.0000000,9.00,38.3977547,-110.7923965,1362.1999512,0.0,70.3,0.9,0.0,0.0,872,133,0,0,863.34,20.10,29.85,# data time:3770,pm2.5:6.445,pm10:5.704,O2:0.000,NO2:0.000,SO2:00,NH3:7.799
13:22:18,0,0,0,0,0,2700,2200,1,0,0,0,515,0,0,0,0,0.0000000,0.0000000,0.0000000,0.0000000,9.00,38.3977547,-110.7923965,1362.1999512,0.0,63.1,0.9,0.0,0.0,872,134,0,0,863.36,20.40,29.91,# data time:3770,pm2.5:6.445,pm10:5.704,O2:0.000,NO2:0.000,SO2:00,NH3:7.799
13:22:19,0,0,0,0,0,2700,2200,1,0,0,0,515,0,0,0,0,0.0000000,0.0000000,0.0000000,0.0000000,9.00,38.3977547,-110.7923965,1362.1999512,0.0,88.6,0.9,0.0,0.0,872,133,0,0,863.36,20.51,29.96,# data time:3780,pm2.5:6.445,pm10:5.704,O2:0.000,NO2:0.010,SO2:00,NH3:8.025
13:22:20,0,0,0,0,0,2700,2200,1,0,0,0,515,0,0,0,0,0.0000000,0.0000000,0.0000000,0.0000000,9.00,38.3977547,-110.7923965,1362.1999512,0.0,85.4,0.9,0.0,0.0,872,131,0,0,863.42,20.57,30.03,# data time:3780,pm2.5:6.445,pm10:5.704,O2:0.000,NO2:0.010,SO2:00,NH3:8.025
13:22:21,0,0,0,0,0,2700,2200,1,0,0,0,515,0,0,0,0,0.0000000,0.0000000,0.0000000,0.0000000,9.00,38.3977547,-110.7923965,1362.1999512,0.0,115.6,0.9,0.0,0.0,872,138,0,0,863.38,20.42,30.03,# data time:3780,pm2.5:6.445,pm10:5.704,O2:0.000,NO2:0.010,SO2:00,NH3:8.025
13:22:22,0,0,0,0,0,2700,2200,1,0,0,0,515,0,0,0,0,0.0000000,0.0000000,0.0000000,0.0000000,9.00,38.3977547,-110.7923965,1362.1999512,0.0,251.1,0.9,0.0,0.0,872,131,0,0,863.31,20.02,30.10,# data time:3780,pm2.5:6.445,pm10:5.704,O2:0.000,NO2:0.010,SO2:00,NH3:8.025
13:22:23,0,0,0,0,0,2700,2200,1,0,0,0,515,0,0,0,0,0.0000000,0.0000000,0.0000000,0.0000000,9.00,38.3977547,-110.7923965,1362.1999512,0.0,216.7,0.9,0.0,0.0,872,131,0,0,863.30,19.82,30.17,# data time:3780,pm2.5:6.445,pm10:5.704,O2:0.000,NO2:0.010,SO2:00,NH3:8.025
13:22:25,0,0,0,0,0,2700,2200,1,0,0,0,515,0,0,0,0,0.0000000,0.0000000,0.0000000,0.0000000,10.00,38.3977547,-110.7923965,1362.1999512,0.0,221.3,0.8,0.0,0.0,872,134,0,0,863.38,19.68,30.29,# data time:3780,pm2.5:6.445,pm10:5.704,O2:0.000,NO2:0.010,SO2:00,NH3:8.025
13:22:26,0,0,0,0,0,2700,2200,1,0,0,0,515,0,0,0,0,0.0000000,0.0000000,0.0000000,0.0000000,10.00,38.3977547,-110.7923965,1362.1999512,0.0,209.4,0.8,0.0,0.0,871,134,0,0,863.30,19.49,30.35,# data time:3780,pm2.5:6.445,pm10:5.704,O2:0.000,NO2:0.010,SO2:00,NH3:8.025
13:22:27,0,0,0,0,0,2700,2200,1,0,0,0,516,0,0,0,0,0.0000000,0.0000000,0.0000000,0.0000000,10.00,38.3977547,-110.7923965,1362.1999512,0.0,69.9,0.8,0.0,0.0,872,130,0,0,863.29,19.24,30.43,# data time:3780,pm2.5:6.445,pm10:5.704,O2:0.000,NO2:0.010,SO2:00,NH3:8.025
13:22:28,0,0,0,0,0,2700,2200,1,0,0,0,515,0,0,0,0,0.0000000,0.0000000,0.0000000,0.0000000,10.00,38.3977547,-110.7923965,1362.1999512,0.0,22.8,0.8,0.0,0.0,872,135,0,0,863.14,18.83,30.52,# data time:3780,pm2.5:6.445,pm10:5.704,O2:0.000,NO2:0.010,SO2:00,NH3:8.025
13:22:29,0,0,0,0,0,2700,2200,1,0,0,0,515,0,0,0,0,0.0000000,0.0000000,0.0000000,0.0000000,10.00,38.3977547,-110.7923965,1362.1999512,0.0,24.7,0.8,0.0,0.0,871,134,0,0,863.20,18.42,30.58,# data time:3780,pm2.5:6.445,pm10:5.704,O2:0.000,NO2:0.010,SO2:00,NH3:8.025
13:22:30,0,0,0,0,0,2700,2200,1,0,0,0,515,0,0,0,0,0.0000000,0.0000000,0.0000000,0.0000000,10.00,38.3977547,-110.7923965,1362.1999512,0.0,21.8,0.8,0.0,0.0,872,132,0,0,863.10,18.13,30.58,# data time:3790,pm2.5:5.640,pm10:4.991,O2:0.000,NO2:0.028,SO2:0.000,NH3:8.251
13:22:31,0,0,0,0,0,2700,2200,1,0,0,0,515,0,0,0,0,0.0000000,0.0000000,0.0000000,0.0000000,10.00,38.3977547,-110.7923965,1362.1999512,0.0,58.1,0.8,0.0,0.0,872,129,0,0,863.09,17.98,30.61,# data time:3790,pm2.5:5.640,pm10:4.991,O2:0.000,NO2:0.028,SO2:0.000,NH3:8.251
13:22:32,0,0,0,0,0,2700,2200,1,0,0,0,515,0,0,0,0,0.0000000,0.0000000,0.0000000,0.0000000,10.00,38.3977547,-110.7923965,1362.1999512,0.0,8.6,0.8,0.0,0.0,872,127,0,0,863.19,18.28,30.62,# data time:3790,pm2.5:5.640,pm10:4.991,O2:0.000,NO2:0.028,SO2:0.000,NH3:8.251
13:22:33,0,0,0,0,0,2700,2200,1,0,0,0,516,0,0,0,0,0.0000000,0.0000000,0.0000000,0.0000000,10.00,38.3977547,-110.7923965,1362.1999512,0.0,314.3,0.8,0.0,0.0,872,131,0,0,863.19,18.68,30.66,# data time:3790,pm2.5:5.640,pm10:4.991,O2:0.000,NO2:0.028,SO2:0.000,NH3:8.251
13:22:34,0,0,0,0,0,2700,2200,1,0,0,0,516,0,0,0,0,0.0000000,0.0000000,0.0000000,0.0000000,10.00,38.3977547,-110.7923965,1362.1999512,0.0,198.3,0.8,0.0,0.0,872,127,0,0,863.26,18.81,30.67,# data time:3790,pm2.5:5.640,pm10:4.991,O2:0.000,NO2:0.028,SO2:0.000,NH3:8.251
13:22:35,0,0,0,0,0,2700,2200,1,0,0,0,515,0,0,0,0,0.0000000,0.0000000,0.0000000,0.0000000,10.00,38.3977547,-110.7923965,1362.1999512,0.0,230.3,0.8,0.0,0.0,872,129,0,0,863.25,19.01,30.69,# data time:3790,pm2.5:5.640,pm10:4.991,O2:0.000,NO2:0.028,SO2:0.000,NH3:8.251
13:22:36,0,0,0,0,0,2700,2200,1,0,0,0,515,0,0,0,0,0.0000000,0.0000000,0.0000000,0.0000000,10.00,38.3977547,-110.7923965,1362.1999512,0.0,217.7,0.8,0.0,0.0,872,130,0,0,863.27,19.23,30.65,# data time:3790,pm2.5:5.640,pm10:4.991,O2:0.000,NO2:0.028,SO2:0.000,NH3:8.251
13:22:37,0,0,0,0,0,2700,2200,1,0,0,0,515,0,0,0,0,0.0000000,0.0000000,0.0000000,0.0000000,10.00,38.3977547,-110.7923965,1362.1999512,0.0,246.2,0.8,0.0,0.0,871,127,0,0,863.29,19.44,30.67,# data time:3790,pm2.5:5.640,pm10:4.991,O2:0.000,NO2:0.028,SO2:0.000,NH3:8.251
13:22:38,0,0,0,0,0,2700,2200,1,0,0,0,516,0,0,0,0,0.0000000,0.0000000,0.0000000,0.0000000,10.00,38.3977547,-110.7923965,1362.1999512,0.0,227.0,0.8,0.0,0.0,872,130,0,0,863.37,19.71,30.64,# data time:3790,pm2.5:5.640,pm10:4.991,O2:0.000,NO2:0.028,SO2:0.000,NH3:8.251
13:22:39,0,0,0,0,0,2700,2200,1,0,0,0,516,0,0,0,0,0.0000000,0.0000000,0.0000000,0.0000000,10.00,38.3977547,-110.7923965,1362.1999512,0.0,198.5,0.8,0.0,0.0,872,129,0,0,863.37,20.13,30.62,# data time:3800,pm2.5:6.445,pm10:5.704,O2:0.000,NO2:0.028,SO2:0.000,NH3:8.251
13:22:40,0,0,0,0,0,2700,2200,1,0,0,0,514,0,0,0,0,0.0000000,0.0000000,0.0000000,0.0000000,10.00,38.3977547,-110.7923965,1362.1999512,0.0,207.3,0.8,0.0,0.0,873,130,0,0,863.45,20.46,30.66,# data time:3800,pm2.5:6.445,pm10:5.704,O2:0.000,NO2:0.028,SO2:0.000,NH3:8.251
13:22:41,0,0,0,0,0,2700,2200,1,0,0,0,516,0,0,0,0,0.0000000,0.0000000,0.0000000,0.0000000,10.00,38.3977547,-110.7923965,1362.1999512,0.0,150.4,0.8,0.0,0.0,872,130,0,0,863.48,20.66,30.69,# data time:3800,pm2.5:6.445,pm10:5.704,O2:0.000,NO2:0.028,SO2:0.000,NH3:8.251
13:22:42,0,0,0,0,0,2700,2200,1,0,0,0,515,0,0,0,0,0.0000000,0.0000000,0.0000000,0.0000000,10.00,38.3977547,-110.7923965,1362.1999512,0.0,261.2,0.8,0.0,0.0,872,128,0,0,863.50,21.07,30.76,# data time:3800,pm2.5:6.445,pm10:5.704,O2:0.000,NO2:0.028,SO2:0.000,NH3:8.251
13:22:43,0,0,0,0,0,2700,2200,1,0,0,0,515,0,0,0,0,0.0000000,0.0000000,0.0000000,0.0000000,10.00,38.3977547,-110.7923965,1362.1999512,0.0,190.3,0.8,0.0,0.0,872,129,0,0,863.61,21.47,30.80,# data time:3800,pm2.5:6.445,pm10:5.704,O2:0.000,NO2:0.028,SO2:0.000,NH3:8.251
13:22:44,0,0,0,0,0,2700,2200,1,0,0,0,516,0,0,0,0,0.0000000,0.0000000,0.0000000,0.0000000,10.00,38.3977547,-110.7923965,1362.1999512,0.0,15.1,0.8,0.0,0.0,872,127,0,0,863.63,21.44,30.85,# data time:3800,pm2.5:6.445,pm10:5.704,O2:0.000,NO2:0.028,SO2:0.000,NH3:8.251
13:22:45,0,0,0,0,0,2700,2200,1,0,0,0,515,0,0,0,0,0.0000000,0.0000000,0.0000000,0.0000000,10.00,38.3977547,-110.7923965,1362.1999512,0.0,184.9,0.8,0.0,0.0,872,130,0,0,863.57,21.39,30.96,# data time:3800,pm2.5:6.445,pm10:5.704,O2:0.000,NO2:0.028,SO2:0.000,NH3:8.251
13:22:46,0,0,0,0,0,2700,2200,1,0,0,0,515,0,0,0,0,0.0000000,0.0000000,0.0000000,0.0000000,10.00,38.3977547,-110.7923965,1362.1999512,0.0,183.0,0.8,0.0,0.0,872,130,0,0,863.61,21.27,31.06,# data time:3800,pm2.5:6.445,pm10:5.704,O2:0.000,NO2:0.028,SO2:0.000,NH3:8.251
13:22:47,0,0,0,0,0,2700,2200,1,0,0,0,516,0,0,0,0,0.0000000,0.0000000,0.0000000,0.0000000,10.00,38.3977547,-110.7923965,1362.1999512,0.0,13.4,0.8,0.0,0.0,872,129,0,0,863.54,21.23,31.11,# data time:3800,pm2.5:6.445,pm10:5.704,O2:0.000,NO2:0.028,SO2:0.000,NH3:8.251
13:22:48,0,0,0,0,0,2700,2200,1,0,0,0,515,0,0,0,0,0.0000000,0.0000000,0.0000000,0.0000000,10.00,38.3977547,-110.7923965,1362.1999512,0.0,281.4,0.8,0.0,0.0,872,129,0,0,863.60,21.29,31.14,# data time:3800,pm2.5:6.445,pm10:5.704,O2:0.000,NO2:0.028,SO2:0.000,NH3:8.251
13:22:49,0,0,0,0,0,2700,2200,1,0,0,0,515,0,0,0,0,0.0000000,0.0000000,0.0000000,0.0000000,10.00,38.3977547,-110.7923965,1362.1999512,0.0,0.9,0.8,0.0,0.0,872,129,0,0,863.58,21.45,31.07,# data time:3810,pm2.5:6.445,pm10:5.704,O2:0.000,NO2:0.028,SO
13:22:50,0,0,0,0,0,2700,2200,1,0,0,0,515,0,0,0,0,0.0000000,0.0000000,0.0000000,0.0000000,10.00,38.3977547,-110.7923965,1362.1999512,0.0,346.3,0.8,0.0,0.0,872,130,0,0,863.64,21.48,31.10,# data time:3810,pm2.5:6.445,pm10:5.704,O2:0.000,NO2:0.028,SO
13:22:51,0,0,0,0,0,2700,2200,1,0,0,0,515,0,0,0,0,0.0000000,0.0000000,0.0000000,0.0000000,10.00,38.3977547,-110.7923965,1362.1999512,0.0,111.6,0.8,0.0,0.0,871,128,0,0,863.59,21.36,31.15,# data time:3810,pm2.5:6.445,pm10:5.704,O2:0.000,NO2:0.028,SO
13:22:52,0,0,0,0,0,2700,2200,1,0,0,0,515,0,0,0,0,0.0000000,0.0000000,0.0000000,0.0000000,10.00,38.3977547,-110.7923965,1362.1999512,0.0,37.4,0.8,0.0,0.0,871,129,0,0,863.58,21.16,31.14,# data time:3810,pm2.5:6.445,pm10:5.704,O2:0.000,NO2:0.028,SO
13:22:54,0,0,0,0,0,2700,2200,1,0,0,0,515,0,0,0,0,0.0000000,0.0000000,0.0000000,0.0000000,10.00,38.3977547,-110.7923965,1362.1999512,0.0,321.9,0.8,0.0,0.0,872,137,0,0,863.54,21.06,31.15,# data time:3810,pm2.5:6.445,pm10:5.704,O2:0.000,NO2:0.028,SO
13:22:55,0,0,0,0,0,2700,2200,1,0,0,0,515,0,0,0,0,0.0000000,0.0000000,0.0000000,0.0000000,10.00,38.3977547,-110.7923965,1362.1999512,0.0,67.7,0.8,0.0,0.0,872,134,0,0,863.58,21.09,31.14,# data time:3810,pm2.5:6.445,pm10:5.704,O2:0.000,NO2:0.028,SO
13:22:56,0,0,0,0,0,2700,2200,1,0,0,0,515,0,0,0,0,0.0000000,0.0000000,0.0000000,0.0000000,10.00,38.3977547,-110.7923965,1362.1999512,0.0,332.9,0.8,0.0,0.0,871,135,0,0,863.57,21.10,31.12,# data time:3810,pm2.5:6.445,pm10:5.704,O2:0.000,NO2:0.028,SO
13:22:57,0,0,0,0,0,2700,2200,1,0,0,0,515,0,0,0,0,0.0000000,0.0000000,0.0000000,0.0000000,10.00,38.3977547,-110.7923965,1362.1999512,0.0,90.8,0.8,0.0,0.0,871,133,0,0,863.51,20.77,31.11,# data time:3810,pm2.5:6.445,pm10:5.704,O2:0.000,NO2:0.028,SO
13:22:58,0,0,0,0,0,2700,2200,1,0,0,0,515,0,0,0,0,0.0000000,0.0000000,0.0000000,0.0000000,10.00,38.3977547,-110.7923965,1362.1999512,0.0,39.0,0.8,0.0,0.0,872,134,0,0,863.53,20.80,31.20,# data time:3810,pm2.5:6.445,pm10:5.704,O2:0.000,NO2:0.028,SO
13:22:59,0,0,0,0,0,2700,2200,1,0,0,0,516,0,0,0,0,0.0000000,0.0000000,0.0000000,0.0000000,10.00,38.3977547,-110.7923965,1362.1999512,0.0,39.0,0.8,0.0,0.0,872,133,0,0,863.54,20.83,31.28,# data time:3810,pm2.5:6.445,pm10:5.704,O2:0.000,NO2:0.028,SO
13:23:00,0,0,0,0,0,2700,2200,1,0,0,0,514,0,0,0,0,0.0000000,0.0000000,0.0000000,0.0000000,10.00,38.3977547,-110.7923965,1362.1999512,0.0,224.6,0.8,0.0,0.0,871,132,0,0,863.56,20.71,31.26,# data time:3820,pm2.5:5.640,pm10:4.991,O2:0.000,NO2:0.046,SO2:0.000,NH3:8.251
13:23:01,0,0,0,0,0,2700,2200,1,0,0,0,515,0,0,0,0,0.0000000,0.0000000,0.0000000,0.0000000,10.00,38.3977547,-110.7923965,1362.1999512,0.0,231.2,0.8,0.0,0.0,871,128,0,0,863.53,20.77,31.28,# data time:3820,pm2.5:5.640,pm10:4.991,O2:0.000,NO2:0.046,SO2:0.000,NH3:8.251
13:23:02,0,0,0,0,0,2700,2200,1,0,0,0,515,0,0,0,0,0.0000000,0.0000000,0.0000000,0.0000000,10.00,38.3977547,-110.7923965,1362.1999512,0.0,238.1,0.8,0.0,0.0,871,130,0,0,863.52,21.13,31.25,# data time:3820,pm2.5:5.640,pm10:4.991,O2:0.000,NO2:0.046,SO2:0.000,NH3:8.251
13:23:03,0,0,0,0,0,2700,2200,1,0,0,0,514,0,0,0,0,0.0000000,0.0000000,0.0000000,0.0000000,10.00,38.3977547,-110.7923965,1362.1999512,0.0,43.1,0.8,0.0,0.0,872,127,0,0,863.66,21.58,31.31,# data time:3820,pm2.5:5.640,pm10:4.991,O2:0.000,NO2:0.046,SO2:0.000,NH3:8.251
13:23:04,0,0,0,0,0,2700,2200,1,0,0,0,515,0,0,0,0,0.0000000,0.0000000,0.0000000,0.0000000,10.00,38.3977547,-110.7923965,1362.1999512,0.0,57.8,0.8,0.0,0.0,871,127,0,0,863.63,21.74,31.38,# data time:3820,pm2.5:5.640,pm10:4.991,O2:0.000,NO2:0.046,SO2:0.000,NH3:8.251
13:23:05,0,0,0,0,0,2700,2200,1,0,0,0,515,0,0,0,0,0.0000000,0.0000000,0.0000000,0.0000000,10.00,38.3977547,-110.7923965,1362.1999512,0.0,41.2,0.8,0.0,0.0,871,129,0,0,863.64,21.67,31.43,# data time:3820,pm2.5:5.640,pm10:4.991,O2:0.000,NO2:0.046,SO2:0.000,NH3:8.251
13:23:06,0,0,0,0,0,2700,2200,1,0,0,0,515,0,0,0,0,0.0000000,0.0000000,0.0000000,0.0000000,10.00,38.3977547,-110.7923965,1362.1999512,0.0,68.1,0.8,0.0,0.0,872,128,0,0,863.65,21.50,31.48,# data time:3820,pm2.5:5.640,pm10:4.991,O2:0.000,NO2:0.046,SO2:0.000,NH3:8.251
13:23:07,0,0,0,0,0,2700,2200,1,0,0,0,515,0,0,0,0,0.0000000,0.0000000,0.0000000,0.0000000,10.00,38.3977547,-110.7923965,1362.1999512,0.0,56.1,0.8,0.0,0.0,871,129,0,0,863.63,21.42,31.45,# data time:3820,pm2.5:5.640,pm10:4.991,O2:0.000,NO2:0.046,SO2:0.000,NH3:8.251
13:23:08,0,0,0,0,0,2700,2200,1,0,0,0,516,0,0,0,0,0.0000000,0.0000000,0.0000000,0.0000000,10.00,38.3977547,-110.7923965,1362.1999512,0.0,58.3,0.8,0.0,0.0,871,129,0,0,863.61,21.52,31.44,# data time:3820,pm2.5:5.640,pm10:4.991,O2:0.000,NO2:0.046,SO2:0.000,NH3:8.251
13:23:09,0,0,0,0,0,2700,2200,1,0,0,0,516,0,0,0,0,0.0000000,0.0000000,0.0000000,0.0000000,10.00,38.3977547,-110.7923965,1362.1999512,0.0,112.6,0.8,0.0,0.0,871,129,0,0,863.69,21.79,31.47,# data time:3830,pm2.5:6.445,pm10:5.704,O2:0.000,NO2:0.010,SO
13:23:10,0,0,0,0,0,2700,2200,1,0,0,0,515,0,0,0,0,0.0000000,0.0000000,0.0000000,0.0000000,10.00,38.3977547,-110.7923965,1362.1999512,0.0,264.0,0.8,0.0,0.0,872,128,0,0,863.67,21.70,31.52,# data time:3830,pm2.5:6.445,pm10:5.704,O2:0.000,NO2:0.010,SO
13:23:11,0,0,0,0,0,2700,2200,1,0,0,0,514,0,0,0,0,0.0000000,0.0000000,0.0000000,0.0000000,10.00,38.3977547,-110.7923965,1362.1999512,0.0,238.5,0.8,0.0,0.0,871,131,0,0,863.61,21.52,31.57,# data time:3830,pm2.5:6.445,pm10:5.704,O2:0.000,NO2:0.010,SO
13:23:12,0,0,0,0,0,2700,2200,1,0,0,0,514,0,0,0,0,0.0000000,0.0000000,0.0000000,0.0000000,10.00,38.3977547,-110.7923965,1362.1999512,0.0,204.1,0.8,0.0,0.0,872,128,0,0,863.67,21.67,31.60,# data time:3830,pm2.5:6.445,pm10:5.704,O2:0.000,NO2:0.010,SO
13:23:13,0,0,0,0,0,2700,2200,1,0,0,0,515,0,0,0,0,0.0000000,0.0000000,0.0000000,0.0000000,10.00,38.3977547,-110.7923965,1362.1999512,0.0,227.2,0.8,0.0,0.0,872,128,0,0,863.70,21.76,31.63,# data time:3830,pm2.5:6.445,pm10:5.704,O2:0.000,NO2:0.010,SO
13:23:14,0,0,0,0,0,2700,2200,1,0,0,0,515,0,0,0,0,0.0000000,0.0000000,0.0000000,0.0000000,10.00,38.3977547,-110.7923965,1362.0999756,0.0,199.2,0.8,0.0,0.0,872,127,0,0,863.69,21.58,31.70,# data time:3830,pm2.5:6.445,pm10:5.704,O2:0.000,NO2:0.010,SO
13:23:15,0,0,0,0,0,2700,2200,1,0,0,0,515,0,0,0,0,0.0000000,0.0000000,0.0000000,0.0000000,10.00,38.3977547,-110.7923965,1362.0999756,0.0,252.8,0.8,0.0,0.0,871,130,0,0,863.64,21.48,31.78,# data time:3830,pm2.5:6.445,pm10:5.704,O2:0.000,NO2:0.010,SO
13:23:16,0,0,0,0,0,2700,2200,1,0,0,0,515,0,0,0,0,0.0000000,0.0000000,0.0000000,0.0000000,10.00,38.3977547,-110.7923965,1362.0999756,0.0,98.6,0.8,0.0,0.0,871,126,0,0,863.64,21.41,31.81,# data time:3830,pm2.5:6.445,pm10:5.704,O2:0.000,NO2:0.010,SO
13:23:17,0,0,0,0,0,2700,2200,1,0,0,0,515,0,0,0,0,0.0000000,0.0000000,0.0000000,0.0000000,10.00,38.3977547,-110.7923965,1362.0999756,0.0,95.8,0.8,0.0,0.0,872,129,0,0,863.67,21.38,31.83,# data time:3830,pm2.5:6.445,pm10:5.704,O2:0.000,NO2:0.010,SO
