Time, Motor A Speed, Motor A Dir, Motor B Speed, Motor B Dir, Servo Rail Current Sensor, Servo Pos - Arm L, Servo Pos - Arm R, Servo Pos - End, Servo Pos - Hopper, Servo Pos - Lid, Servo Pos - Extra, Servo Current, LED - Front L, LED - Front R, LED - Back L, LED - Back R, IMU Pitch, IMU Roll, IMU Yaw, Compass Heading, GPS Sats, GPS Latitude, GPS Longitude, GPS Altitude, GPS Speed, GPS Angle, GPS HDOP, GPS VDOP, GPS PDOP, Battery, Wind, Comm Xbee Latency, Comm Arduino Latency, Pressure, Humidity, Temperature, uRADMonitor
13:49:24,0,0,0,0,0,2700,2200,1,0,0,0,514,0,0,0,0,0.0000000,0.0000000,0.0000000,0.0000000,9.00,38.4062119,-110.7921295,1365.8000488,0.1,256.7,0.9,0.0,0.0,866,130,0,0,860.86,11.17,26.49,# data time:5400,pm2.5:6.445,pm10:5.704,O2:0.000,NO2:0.028,SO2:0.000,NH3:8.251
13:49:25,0,0,0,0,0,2700,2200,1,0,0,0,514,0,0,0,0,0.0000000,0.0000000,0.0000000,0.0000000,9.00,38.4062119,-110.7921295,1365.8000488,0.1,280.0,0.9,0.0,0.0,866,132,0,0,860.89,11.17,26.48,# data time:5400,pm2.5:6.445,pm10:5.704,O2:0.000,NO2:0.028,SO2:0.000,NH3:8.251
13:49:26,0,0,0,0,0,2700,2200,1,0,0,0,514,0,0,0,0,0.0000000,0.0000000,0.0000000,0.0000000,9.00,38.4062119,-110.7921295,1365.8000488,0.1,281.7,0.9,0.0,0.0,866,128,0,0,860.82,11.17,26.57,# data time:5400,pm2.5:6.445,pm10:5.704,O2:0.000,NO2:0.028,SO2:0.000,NH3:8.251
13:49:27,0,0,0,0,0,2700,2200,1,0,0,0,514,0,0,0,0,0.0000000,0.0000000,0.0000000,0.0000000,9.00,38.4062119,-110.7921295,1365.8000488,0.1,274.0,0.9,0.0,0.0,866,127,0,0,860.93,11.19,26.58,# data time:5400,pm2.5:6.445,pm10:5.704,O2:0.000,NO2:0.028,SO2:0.000,NH3:8.251
13:49:28,0,0,0,0,0,2700,2200,1,0,0,0,514,0,0,0,0,0.0000000,0.0000000,0.0000000,0.0000000,9.00,38.4062119,-110.7921295,1365.8000488,0.1,286.6,0.9,0.0,0.0,866,127,0,0,860.81,11.19,26.58,# data time:5400,pm2.5:6.445,pm10:5.704,O2:0.000,NO2:0.028,SO2:0.000,NH3:8.251
13:49:29,0,0,0,0,0,2700,2200,1,0,0,0,514,0,0,0,0,0.0000000,0.0000000,0.0000000,0.0000000,9.00,38.4062119,-110.7921295,1365.8000488,0.1,264.0,0.9,0.0,0.0,866,127,0,0,860.83,11.20,26.57,# data time:5410,pm2.5:6.445,pm10:5.704,O2:0.000,NO2:0.028,SO2:0.000,NH3:8.251
13:49:30,0,0,0,0,0,2700,2200,1,0,0,0,514,0,0,0,0,0.0000000,0.0000000,0.0000000,0.0000000,9.00,38.4062119,-110.7921295,1365.8000488,0.0,290.3,0.9,0.0,0.0,865,129,0,0,860.85,11.14,26.58,# data time:5410,pm2.5:6.445,pm10:5.704,O2:0.000,NO2:0.028,SO2:0.000,NH3:8.251
13:49:31,0,0,0,0,0,2700,2200,1,0,0,0,514,0,0,0,0,0.0000000,0.0000000,0.0000000,0.0000000,9.00,38.4062119,-110.7921295,1365.8000488,0.0,275.0,0.9,0.0,0.0,866,130,0,0,860.82,11.15,26.58,# data time:5410,pm2.5:6.445,pm10:5.704,O2:0.000,NO2:0.028,SO2:0.000,NH3:8.251
13:49:32,0,0,0,0,0,2700,2200,1,0,0,0,513,0,0,0,0,0.0000000,0.0000000,0.0000000,0.0000000,9.00,38.4062119,-110.7921295,1365.8000488,0.0,277.5,0.9,0.0,0.0,866,127,0,0,860.87,11.20,26.58,# data time:5410,pm2.5:6.445,pm10:5.704,O2:0.000,NO2:0.028,SO2:0.000,NH3:8.251
13:49:33,0,0,0,0,0,2700,2200,1,0,0,0,515,0,0,0,0,0.0000000,0.0000000,0.0000000,0.0000000,9.00,38.4062119,-110.7921295,1365.8000488,0.1,266.4,0.9,0.0,0.0,866,129,0,0,860.83,11.19,26.58,# data time:5410,pm2.5:6.445,pm10:5.704,O2:0.000,NO2:0.028,SO2:0.000,NH3:8.251
13:49:34,0,0,0,0,0,2700,2200,1,0,0,0,514,0,0,0,0,0.0000000,0.0000000,0.0000000,0.0000000,9.00,38.4062119,-110.7921295,1365.8000488,0.0,282.9,0.9,0.0,0.0,866,128,0,0,860.92,11.17,26.58,# data time:5410,pm2.5:6.445,pm10:5.704,O2:0.000,NO2:0.028,SO2:0.000,NH3:8.251
13:49:35,0,0,0,0,0,2700,2200,1,0,0,0,514,0,0,0,0,0.0000000,0.0000000,0.0000000,0.0000000,9.00,38.4062119,-110.7921295,1365.6999512,0.0,294.8,0.9,0.0,0.0,865,131,0,0,860.94,11.15,26.58,# data time:5410,pm2.5:6.445,pm10:5.704,O2:0.000,NO2:0.028,SO2:0.000,NH3:8.251
13:49:36,0,0,0,0,0,2700,2200,1,0,0,0,515,0,0,0,0,0.0000000,0.0000000,0.0000000,0.0000000,9.00,38.4062119,-110.7921295,1365.6999512,0.0,297.2,0.9,0.0,0.0,866,127,0,0,860.96,11.14,26.58,# data time:5410,pm2.5:6.445,pm10:5.704,O2:0.000,NO2:0.028,SO2:0.000,NH3:8.251
13:49:37,0,0,0,0,0,2700,2200,1,0,0,0,514,0,0,0,0,0.0000000,0.0000000,0.0000000,0.0000000,9.00,38.4062119,-110.7921295,1365.6999512,0.0,294.5,0.9,0.0,0.0,866,128,0,0,861.01,11.17,26.58,# data time:5410,pm2.5:6.445,pm10:5.704,O2:0.000,NO2:0.028,SO2:0.000,NH3:8.251
13:49:38,0,0,0,0,0,2700,2200,1,0,0,0,514,0,0,0,0,0.0000000,0.0000000,0.0000000,0.0000000,9.00,38.4062119,-110.7921295,1365.6999512,0.0,269.6,0.9,0.0,0.0,866,127,0,0,860.90,11.20,26.57,# data time:5420,pm2.5:6.445,pm10:5.704,O2:0.000,NO2:0.000,SO2:0.000,NH3:8.251
13:49:39,0,0,0,0,0,2700,2200,1,0,0,0,514,0,0,0,0,0.0000000,0.0000000,0.0000000,0.0000000,9.00,38.4062119,-110.7921295,1365.6999512,0.1,239.0,0.9,0.0,0.0,866,128,0,0,860.86,11.19,26.57,# data time:5420,pm2.5:6.445,pm10:5.704,O2:0.000,NO2:0.000,SO2:0.000,NH3:8.251
13:49:40,0,0,0,0,0,2700,2200,1,0,0,0,514,0,0,0,0,0.0000000,0.0000000,0.0000000,0.0000000,9.00,38.4062119,-110.7921295,1365.6999512,0.0,243.4,0.9,0.0,0.0,866,129,0,0,860.95,11.22,26.57,# data time:5420,pm2.5:6.445,pm10:5.704,O2:0.000,NO2:0.000,SO2:0.000,NH3:8.251
13:49:41,0,0,0,0,0,2700,2200,1,0,0,0,514,0,0,0,0,0.0000000,0.0000000,0.0000000,0.0000000,9.00,38.4062119,-110.7921295,1365.6999512,0.1,265.0,0.9,0.0,0.0,866,130,0,0,860.81,11.19,26.57,# data time:5420,pm2.5:6.445,pm10:5.704,O2:0.000,NO2:0.000,SO2:0.000,NH3:8.251
13:49:42,0,0,0,0,0,2700,2200,1,0,0,0,515,0,0,0,0,0.0000000,0.0000000,0.0000000,0.0000000,9.00,38.4062119,-110.7921295,1365.6999512,0.1,232.9,0.9,0.0,0.0,865,132,0,0,860.87,11.19,26.57,# data time:5420,pm2.5:6.445,pm10:5.704,O2:0.000,NO2:0.000,SO2:0.000,NH3:8.251
13:49:43,0,0,0,0,0,2700,2200,1,0,0,0,515,0,0,0,0,0.0000000,0.0000000,0.0000000,0.0000000,9.00,38.4062119,-110.7921295,1365.6999512,0.0,272.1,0.9,0.0,0.0,866,129,0,0,860.91,11.19,26.57,# data time:5420,pm2.5:6.445,pm10:5.704,O2:0.000,NO2:0.000,SO2:0.000,NH3:8.251
13:49:44,0,0,0,0,0,2700,2200,1,0,0,0,514,0,0,0,0,0.0000000,0.0000000,0.0000000,0.0000000,9.00,38.4062119,-110.7921295,1365.6999512,0.0,284.1,0.9,0.0,0.0,866,131,0,0,860.88,11.20,26.56,# data time:5420,pm2.5:6.445,pm10:5.704,O2:0.000,NO2:0.000,SO2:0.000,NH3:8.251
13:49:45,0,0,0,0,0,2700,2200,1,0,0,0,514,0,0,0,0,0.0000000,0.0000000,0.0000000,0.0000000,9.00,38.4062119,-110.7921295,1365.6999512,0.1,227.0,0.9,0.0,0.0,866,127,0,0,860.87,11.20,26.56,# data time:5420,pm2.5:6.445,pm10:5.704,O2:0.000,NO2:0.000,SO2:0.000,NH3:8.251
13:49:47,0,0,0,0,0,2700,2200,1,0,0,0,514,0,0,0,0,0.0000000,0.0000000,0.0000000,0.0000000,9.00,38.4062119,-110.7921295,1365.6999512,0.0,234.8,0.9,0.0,0.0,866,128,0,0,860.86,11.25,26.57,# data time:5420,pm2.5:6.445,pm10:5.704,O2:0.000,NO2:0.000,SO2:0.000,NH3:8.251
13:49:48,0,0,0,0,0,2700,2200,1,0,0,0,514,0,0,0,0,0.0000000,0.0000000,0.0000000,0.0000000,9.00,38.4062119,-110.7921295,1365.6999512,0.0,264.1,0.9,0.0,0.0,866,131,0,0,860.79,11.20,26.57,# data time:5420,pm2.5:6.445,pm10:5.704,O2:0.000,NO2:0.000,SO2:0.000,NH3:8.251
13:49:49,0,0,0,0,0,2700,2200,1,0,0,0,514,0,0,0,0,0.0000000,0.0000000,0.0000000,0.0000000,9.00,38.4062119,-110.7921295,1365.6999512,0.1,240.6,0.9,0.0,0.0,866,132,0,0,860.76,11.23,26.56,# data time:5430,pm2.5:6.445,pm10:5.704,O2:0.000,NO2:0.010,SO2:0.000,NH3:8.251
13:49:50,0,0,0,0,0,2700,2200,1,0,0,0,514,0,0,0,0,0.0000000,0.0000000,0.0000000,0.0000000,9.00,38.4062119,-110.7921295,1365.6999512,0.0,217.6,0.9,0.0,0.0,866,132,0,0,860.89,11.22,26.57,# data time:5430,pm2.5:6.445,pm10:5.704,O2:0.000,NO2:0.010,SO2:0.000,NH3:8.251
13:49:51,0,0,0,0,0,2700,2200,1,0,0,0,514,0,0,0,0,0.0000000,0.0000000,0.0000000,0.0000000,9.00,38.4062119,-110.7921295,1365.6999512,0.0,275.3,0.9,0.0,0.0,866,127,0,0,860.99,11.23,26.57,# data time:5430,pm2.5:6.445,pm10:5.704,O2:0.000,NO2:0.010,SO2:0.000,NH3:8.251
13:49:52,0,0,0,0,0,2700,2200,1,0,0,0,514,0,0,0,0,0.0000000,0.0000000,0.0000000,0.0000000,9.00,38.4062119,-110.7921295,1365.6999512,0.0,275.3,0.9,0.0,0.0,866,130,0,0,860.74,11.17,26.47,# data time:5430,pm2.5:6.445,pm10:5.704,O2:0.000,NO2:0.010,SO2:0.000,NH3:8.251
13:49:53,0,0,0,0,0,2700,2200,1,0,0,0,514,0,0,0,0,0.0000000,0.0000000,0.0000000,0.0000000,9.00,38.4062119,-110.7921295,1365.5999756,0.0,275.3,0.9,0.0,0.0,866,129,0,0,860.88,11.19,26.52,# data time:5430,pm2.5:6.445,pm10:5.704,O2:0.000,NO2:0.010,SO2:0.000,NH3:8.251
13:49:54,0,0,0,0,0,2700,2200,1,0,0,0,514,0,0,0,0,0.0000000,0.0000000,0.0000000,0.0000000,9.00,38.4062119,-110.7921295,1365.5999756,0.0,296.1,0.9,0.0,0.0,866,128,0,0,860.92,11.20,26.52,# data time:5430,pm2.5:6.445,pm10:5.704,O2:0.000,NO2:0.010,SO2:0.000,NH3:8.251
13:49:55,0,0,0,0,0,2700,2200,1,0,0,0,514,0,0,0,0,0.0000000,0.0000000,0.0000000,0.0000000,9.00,38.4062119,-110.7921295,1365.5999756,0.1,290.7,0.9,0.0,0.0,865,130,0,0,861.07,11.19,26.56,# data time:5430,pm2.5:6.445,pm10:5.704,O2:0.000,NO2:0.010,SO2:0.000,NH3:8.251
13:49:56,0,0,0,0,0,2700,2200,1,0,0,0,514,0,0,0,0,0.0000000,0.0000000,0.0000000,0.0000000,9.00,38.4062119,-110.7921295,1365.5999756,0.0,251.5,0.9,0.0,0.0,866,129,0,0,860.99,11.19,26.57,# data time:5430,pm2.5:6.445,pm10:5.704,O2:0.000,NO2:0.010,SO2:0.000,NH3:8.251
13:49:57,0,0,0,0,0,2700,2200,1,0,0,0,514,0,0,0,0,0.0000000,0.0000000,0.0000000,0.0000000,9.00,38.4062119,-110.7921295,1365.5999756,0.0,359.8,0.9,0.0,0.0,865,130,0,0,860.91,11.20,26.57,# data time:5430,pm2.5:6.445,pm10:5.704,O2:0.000,NO2:0.010,SO2:0.000,NH3:8.251
13:49:58,0,0,0,0,0,2700,2200,1,0,0,0,514,0,0,0,0,0.0000000,0.0000000,0.0000000,0.0000000,9.00,38.4062119,-110.7921295,1365.5999756,0.0,201.1,0.9,0.0,0.0,866,127,0,0,860.92,11.19,26.57,# data time:5440,pm2.5:6.445,pm10:5.704,O2:0.000,NO2:0.063,SO2:0.000,NH3:8.251
13:49:59,0,0,0,0,0,2700,2200,1,0,0,0,514,0,0,0,0,0.0000000,0.0000000,0.0000000,0.0000000,9.00,38.4062119,-110.7921295,1365.5999756,0.0,238.4,0.9,0.0,0.0,866,126,0,0,860.89,11.23,26.57,# data time:5440,pm2.5:6.445,pm10:5.704,O2:0.000,NO2:0.063,SO2:0.000,NH3:8.251
13:50:00,0,0,0,0,0,2700,2200,1,0,0,0,513,0,0,0,0,0.0000000,0.0000000,0.0000000,0.0000000,9.00,38.4062119,-110.7921295,1365.5999756,0.1,225.3,0.9,0.0,0.0,866,130,0,0,860.78,11.19,26.57,# data time:5440,pm2.5:6.445,pm10:5.704,O2:0.000,NO2:0.063,SO2:0.000,NH3:8.251
13:50:01,0,0,0,0,0,2700,2200,1,0,0,0,514,0,0,0,0,0.0000000,0.0000000,0.0000000,0.0000000,9.00,38.4062119,-110.7921295,1365.5999756,0.1,243.9,0.9,0.0,0.0,866,128,0,0,860.75,11.20,26.57,# data time:5440,pm2.5:6.445,pm10:5.704,O2:0.000,NO2:0.063,SO2:0.000,NH3:8.251
13:50:02,0,0,0,0,0,2700,2200,1,0,0,0,515,0,0,0,0,0.0000000,0.0000000,0.0000000,0.0000000,9.00,38.4062119,-110.7921295,1365.5999756,0.1,224.6,0.9,0.0,0.0,866,134,0,0,860.75,11.20,26.57,# data time:5440,pm2.5:6.445,pm10:5.704,O2:0.000,NO2:0.063,SO2:0.000,NH3:8.251
13:50:03,0,0,0,0,0,2700,2200,1,0,0,0,513,0,0,0,0,0.0000000,0.0000000,0.0000000,0.0000000,9.00,38.4062119,-110.7921371,1365.5999756,0.1,244.4,0.9,0.0,0.0,865,129,0,0,860.98,11.22,26.57,# data time:5440,pm2.5:6.445,pm10:5.704,O2:0.000,NO2:0.063,SO2:0.000,NH3:8.251
13:50:04,0,0,0,0,0,2700,2200,1,0,0,0,513,0,0,0,0,0.0000000,0.0000000,0.0000000,0.0000000,9.00,38.4062119,-110.7921371,1365.5999756,0.1,222.5,0.9,0.0,0.0,865,128,0,0,860.92,11.15,26.58,# data time:5440,pm2.5:6.445,pm10:5.704,O2:0.000,NO2:0.063,SO2:0.000,NH3:8.251
13:50:05,0,0,0,0,0,2700,2200,1,0,0,0,514,0,0,0,0,0.0000000,0.0000000,0.0000000,0.0000000,9.00,38.4062119,-110.7921371,1365.5999756,0.0,209.0,0.9,0.0,0.0,865,128,0,0,860.86,11.15,26.58,# data time:5440,pm2.5:6.445,pm10:5.704,O2:0.000,NO2:0.063,SO2:0.000,NH3:8.251
13:50:06,0,0,0,0,0,2700,2200,1,0,0,0,514,0,0,0,0,0.0000000,0.0000000,0.0000000,0.0000000,9.00,38.4062119,-110.7921371,1365.5999756,0.0,200.1,0.9,0.0,0.0,866,131,0,0,860.83,11.19,26.57,# data time:5440,pm2.5:6.445,pm10:5.704,O2:0.000,NO2:0.063,SO2:0.000,NH3:8.251
13:50:07,0,0,0,0,0,2700,2200,1,0,0,0,514,0,0,0,0,0.0000000,0.0000000,0.0000000,0.0000000,9.00,38.4062119,-110.7921371,1365.5999756,0.0,38.0,0.9,0.0,0.0,866,128,0,0,860.81,11.20,26.58,# data time:5440,pm2.5:6.445,pm10:5.704,O2:0.000,NO2:0.063,SO2:0.000,NH3:8.251
13:50:08,0,0,0,0,0,2700,2200,1,0,0,0,514,0,0,0,0,0.0000000,0.0000000,0.0000000,0.0000000,9.00,38.4062119,-110.7921371,1365.5000000,0.0,267.2,0.9,0.0,0.0,866,127,0,0,860.84,11.17,26.58,# data time:5450,pm2.5:6.445,pm10:5.704,O2:0.000,NO2:0.046,SO2:0.000,NH3:8.251
13:50:09,0,0,0,0,0,2700,2200,1,0,0,0,514,0,0,0,0,0.0000000,0.0000000,0.0000000,0.0000000,9.00,38.4062119,-110.7921371,1365.5000000,0.1,235.4,0.9,0.0,0.0,865,131,0,0,860.84,11.19,26.58,# data time:5450,pm2.5:6.445,pm10:5.704,O2:0.000,NO2:0.046,SO2:0.000,NH3:8.251
13:50:10,0,0,0,0,0,2700,2200,1,0,0,0,513,0,0,0,0,0.0000000,0.0000000,0.0000000,0.0000000,9.00,38.4062119,-110.7921371,1365.5000000,0.1,231.5,0.9,0.0,0.0,866,130,0,0,860.88,11.15,26.58,# data time:5450,pm2.5:6.445,pm10:5.704,O2:0.000,NO2:0.046,SO2:0.000,NH3:8.251
13:50:11,0,0,0,0,0,2700,2200,1,0,0,0,515,0,0,0,0,0.0000000,0.0000000,0.0000000,0.0000000,9.00,38.4062119,-110.7921371,1365.5000000,0.0,208.7,0.9,0.0,0.0,866,129,0,0,860.80,11.15,26.58,# data time:5450,pm2.5:6.445,pm10:5.704,O2:0.000,NO2:0.046,SO2:0.000,NH3:8.251
13:50:13,0,0,0,0,0,2700,2200,1,0,0,0,514,0,0,0,0,0.0000000,0.0000000,0.0000000,0.0000000,9.00,38.4062119,-110.7921371,1365.5000000,0.0,250.9,0.9,0.0,0.0,866,127,0,0,860.74,11.14,26.58,# data time:5450,pm2.5:6.445,pm10:5.704,O2:0.000,NO2:0.046,SO2:0.000,NH3:8.251
13:50:14,0,0,0,0,0,2700,2200,1,0,0,0,514,0,0,0,0,0.0000000,0.0000000,0.0000000,0.0000000,9.00,38.4062119,-110.7921371,1365.5000000,0.0,272.6,0.9,0.0,0.0,866,131,0,0,860.82,11.20,26.58,# data time:5450,pm2.5:6.445,pm10:5.704,O2:0.000,NO2:0.046,SO2:0.000,NH3:8.251
13:50:15,0,0,0,0,0,2700,2200,1,0,0,0,514,0,0,0,0,0.0000000,0.0000000,0.0000000,0.0000000,9.00,38.4062080,-110.7921371,1365.5000000,0.1,188.0,0.9,0.0,0.0,866,131,0,0,860.89,11.19,26.58,# data time:5450,pm2.5:6.445,pm10:5.704,O2:0.000,NO2:0.046,SO2:0.000,NH3:8.251
13:50:16,0,0,0,0,0,2700,2200,1,0,0,0,513,0,0,0,0,0.0000000,0.0000000,0.0000000,0.0000000,9.00,38.4062080,-110.7921371,1365.4000244,0.0,201.4,0.9,0.0,0.0,866,129,0,0,860.85,11.19,26.57,# data time:5450,pm2.5:6.445,pm10:5.704,O2:0.000,NO2:0.046,SO2:0.000,NH3:8.251
13:50:17,0,0,0,0,0,2700,2200,1,0,0,0,514,0,0,0,0,0.0000000,0.0000000,0.0000000,0.0000000,9.00,38.4062080,-110.7921371,1365.4000244,0.0,218.9,0.9,0.0,0.0,866,131,0,0,860.77,11.22,26.48,# data time:5450,pm2.5:6.445,pm10:5.704,O2:0.000,NO2:0.046,SO2:0.000,NH3:8.251
13:50:18,0,0,0,0,0,2700,2200,1,0,0,0,514,0,0,0,0,0.0000000,0.0000000,0.0000000,0.0000000,9.00,38.4062080,-110.7921371,1365.4000244,0.0,218.6,0.9,0.0,0.0,866,129,0,0,860.84,11.23,26.47,# data time:5450,pm2.5:6.445,pm10:5.704,O2:0.000,NO2:0.046,SO2:0.000,NH3:8.251
13:50:19,0,0,0,0,0,2700,2200,1,0,0,0,514,0,0,0,0,0.0000000,0.0000000,0.0000000,0.0000000,9.00,38.4062080,-110.7921371,1365.4000244,0.0,218.6,0.9,0.0,0.0,866,134,0,0,860.78,11.20,26.51,# data time:5460,pm2.5:6.445,pm10:5.704,O2:0.000,NO2:0.046,SO2:0.000,NH3:8.251
13:50:20,0,0,0,0,0,2700,2200,1,0,0,0,514,0,0,0,0,0.0000000,0.0000000,0.0000000,0.0000000,9.00,38.4062080,-110.7921371,1365.4000244,0.1,228.9,0.9,0.0,0.0,866,130,0,0,860.79,11.22,26.52,# data time:5460,pm2.5:6.445,pm10:5.704,O2:0.000,NO2:0.046,SO2:0.000,NH3:8.251
13:50:21,0,0,0,0,0,2700,2200,1,0,0,0,513,0,0,0,0,0.0000000,0.0000000,0.0000000,0.0000000,9.00,38.4062080,-110.7921371,1365.4000244,0.0,260.0,0.9,0.0,0.0,865,130,0,0,860.90,11.23,26.56,# data time:5460,pm2.5:6.445,pm10:5.704,O2:0.000,NO2:0.046,SO2:0.000,NH3:8.251
13:50:22,0,0,0,0,0,2700,2200,1,0,0,0,514,0,0,0,0,0.0000000,0.0000000,0.0000000,0.0000000,9.00,38.4062080,-110.7921371,1365.3000488,0.0,245.7,0.9,0.0,0.0,866,130,0,0,860.90,11.22,26.56,# data time:5460,pm2.5:6.445,pm10:5.704,O2:0.000,NO2:0.046,SO2:0.000,NH3:8.251
13:50:23,0,0,0,0,0,2700,2200,1,0,0,0,514,0,0,0,0,0.0000000,0.0000000,0.0000000,0.0000000,9.00,38.4062080,-110.7921371,1365.3000488,0.0,227.5,0.9,0.0,0.0,866,128,0,0,860.85,11.25,26.56,# data time:5460,pm2.5:6.445,pm10:5.704,O2:0.000,NO2:0.046,SO2:0.000,NH3:8.251
13:50:24,0,0,0,0,0,2700,2200,1,0,0,0,514,0,0,0,0,0.0000000,0.0000000,0.0000000,0.0000000,9.00,38.4062080,-110.7921371,1365.3000488,0.1,234.2,0.9,0.0,0.0,866,129,0,0,860.76,11.23,26.56,# data time:5460,pm2.5:6.445,pm10:5.704,O2:0.000,NO2:0.046,SO2:0.000,NH3:8.251
13:50:25,0,0,0,0,0,2700,2200,1,0,0,0,515,0,0,0,0,0.0000000,0.0000000,0.0000000,0.0000000,9.00,38.4062080,-110.7921371,1365.3000488,0.0,208.7,0.9,0.0,0.0,865,131,0,0,860.75,11.23,26.56,# data time:5460,pm2.5:6.445,pm10:5.704,O2:0.000,NO2:0.046,SO2:0.000,NH3:8.251
13:50:26,0,0,0,0,0,2700,2200,1,0,0,0,514,0,0,0,0,0.0000000,0.0000000,0.0000000,0.0000000,9.00,38.4062080,-110.7921371,1365.3000488,0.0,240.5,0.9,0.0,0.0,866,127,0,0,860.87,11.20,26.56,# data time:5460,pm2.5:6.445,pm10:5.704,O2:0.000,NO2:0.046,SO2:0.000,NH3:8.251
13:50:27,0,0,0,0,0,2700,2200,1,0,0,0,514,0,0,0,0,0.0000000,0.0000000,0.0000000,0.0000000,9.00,38.4062080,-110.7921371,1365.3000488,0.1,225.3,0.9,0.0,0.0,866,128,0,0,860.84,11.23,26.56,# data time:5460,pm2.5:6.445,pm10:5.704,O2:0.000,NO2:0.046,SO2:0.000,NH3:8.251
13:50:28,0,0,0,0,0,2700,2200,1,0,0,0,514,0,0,0,0,0.0000000,0.0000000,0.0000000,0.0000000,9.00,38.4062080,-110.7921371,1365.1999512,0.1,250.6,0.9,0.0,0.0,865,128,0,0,860.96,11.23,26.56,# data time:5470,pm2.5:6.445,pm10:5.704,O2:0.000,NO2:0.028,SO2:0.000,NH3:8.251
13:50:29,0,0,0,0,0,2700,2200,1,0,0,0,514,0,0,0,0,0.0000000,0.0000000,0.0000000,0.0000000,9.00,38.4062080,-110.7921371,1365.1999512,0.0,219.2,0.9,0.0,0.0,866,129,0,0,860.95,11.23,26.56,# data time:5470,pm2.5:6.445,pm10:5.704,O2:0.000,NO2:0.028,SO2:0.000,NH3:8.251
13:50:30,0,0,0,0,0,2700,2200,1,0,0,0,514,0,0,0,0,0.0000000,0.0000000,0.0000000,0.0000000,9.00,38.4062080,-110.7921371,1365.1999512,0.1,249.9,0.9,0.0,0.0,866,127,0,0,860.90,11.23,26.57,# data time:5470,pm2.5:6.445,pm10:5.704,O2:0.000,NO2:0.028,SO2:0.000,NH3:8.251
13:50:31,0,0,0,0,0,2700,2200,1,0,0,0,515,0,0,0,0,0.0000000,0.0000000,0.0000000,0.0000000,9.00,38.4062080,-110.7921371,1365.1999512,0.1,245.9,0.9,0.0,0.0,866,130,0,0,860.98,11.22,26.56,# data time:5470,pm2.5:6.445,pm10:5.704,O2:0.000,NO2:0.028,SO2:0.000,NH3:8.251
13:50:32,0,0,0,0,0,2700,2200,1,0,0,0,515,0,0,0,0,0.0000000,0.0000000,0.0000000,0.0000000,9.00,38.4062080,-110.7921371,1365.1999512,0.0,249.8,0.9,0.0,0.0,865,128,0,0,860.99,11.23,26.56,# data time:5470,pm2.5:6.445,pm10:5.704,O2:0.000,NO2:0.028,SO2:0.000,NH3:8.251
13:50:33,0,0,0,0,0,2700,2200,1,0,0,0,514,0,0,0,0,0.0000000,0.0000000,0.0000000,0.0000000,9.00,38.4062080,-110.7921371,1365.1999512,0.0,231.8,0.9,0.0,0.0,866,130,0,0,860.95,11.23,26.55,# data time:5470,pm2.5:6.445,pm10:5.704,O2:0.000,NO2:0.028,SO2:0.000,NH3:8.251
13:50:34,0,0,0,0,0,2700,2200,1,0,0,0,514,0,0,0,0,0.0000000,0.0000000,0.0000000,0.0000000,9.00,38.4062080,-110.7921371,1365.1999512,0.0,266.8,0.9,0.0,0.0,866,125,0,0,860.92,11.26,26.55,# data time:5470,pm2.5:6.445,pm10:5.704,O2:0.000,NO2:0.028,SO2:0.000,NH3:8.251
13:50:35,0,0,0,0,0,2700,2200,1,0,0,0,515,0,0,0,0,0.0000000,0.0000000,0.0000000,0.0000000,9.00,38.4062080,-110.7921371,1365.0999756,0.0,250.7,0.9,0.0,0.0,866,127,0,0,860.84,11.25,26.55,# data time:5470,pm2.5:6.445,pm10:5.704,O2:0.000,NO2:0.028,SO2:0.000,NH3:8.251
13:50:36,0,0,0,0,0,2700,2200,1,0,0,0,515,0,0,0,0,0.0000000,0.0000000,0.0000000,0.0000000,9.00,38.4062080,-110.7921371,1365.0999756,0.0,263.9,0.9,0.0,0.0,866,131,0,0,860.83,11.26,26.56,# data time:5470,pm2.5:6.445,pm10:5.704,O2:0.000,NO2:0.028,SO2:0.000,NH3:8.251
13:50:37,0,0,0,0,0,2700,2200,1,0,0,0,514,0,0,0,0,0.0000000,0.0000000,0.0000000,0.0000000,9.00,38.4062080,-110.7921371,1365.0999756,0.1,259.4,0.9,0.0,0.0,866,131,0,0,860.86,11.26,26.56,# data time:5470,pm2.5:6.445,pm10:5.704,O2:0.000,NO2:0.028,SO2:0.000,NH3:8.251
13:50:38,0,0,0,0,0,2700,2200,1,0,0,0,513,0,0,0,0,0.0000000,0.0000000,0.0000000,0.0000000,9.00,38.4062080,-110.7921371,1365.0999756,0.0,255.1,0.9,0.0,0.0,866,127,0,0,860.91,11.23,26.55,# data time:5480,pm2.5:6.445,pm10:5.704,O2:0.000,NO2:0.000,SO2:0.000,NH3:8.251
13:50:39,0,0,0,0,0,2700,2200,1,0,0,0,514,0,0,0,0,0.0000000,0.0000000,0.0000000,0.0000000,9.00,38.4062080,-110.7921371,1365.0999756,0.1,234.9,0.9,0.0,0.0,866,127,0,0,861.04,11.28,26.55,# data time:5480,pm2.5:6.445,pm10:5.704,O2:0.000,NO2:0.000,SO2:0.000,NH3:8.251
13:50:41,0,0,0,0,0,2700,2200,1,0,0,0,515,0,0,0,0,0.0000000,0.0000000,0.0000000,0.0000000,9.00,38.4062080,-110.7921371,1365.0000000,0.0,260.9,0.9,0.0,0.0,865,131,0,0,860.97,11.28,26.55,# data time:5480,pm2.5:6.445,pm10:5.704,O2:0.000,NO2:0.000,SO2:0.000,NH3:8.251
13:50:42,0,0,0,0,0,2700,2200,1,0,0,0,515,0,0,0,0,0.0000000,0.0000000,0.0000000,0.0000000,9.00,38.4062080,-110.7921371,1365.0000000,0.1,240.4,0.9,0.0,0.0,865,129,0,0,861.02,11.26,26.55,# data time:5480,pm2.5:6.445,pm10:5.704,O2:0.000,NO2:0.000,SO2:0.000,NH3:8.251
13:50:43,0,0,0,0,0,2700,2200,1,0,0,0,514,0,0,0,0,0.0000000,0.0000000,0.0000000,0.0000000,9.00,38.4062080,-110.7921371,1365.0000000,0.0,273.3,0.9,0.0,0.0,865,130,0,0,860.92,11.26,26.54,# data time:5480,pm2.5:6.445,pm10:5.704,O2:0.000,NO2:0.000,SO2:0.000,NH3:8.251
13:50:44,0,0,0,0,0,2700,2200,1,0,0,0,516,0,0,0,0,0.0000000,0.0000000,0.0000000,0.0000000,9.00,38.4062080,-110.7921371,1365.0000000,0.0,294.4,0.9,0.0,0.0,865,129,0,0,860.90,11.26,26.54,# data time:5480,pm2.5:6.445,pm10:5.704,O2:0.000,NO2:0.000,SO2:0.000,NH3:8.251
13:50:45,0,0,0,0,0,2700,2200,1,0,0,0,514,0,0,0,0,0.0000000,0.0000000,0.0000000,0.0000000,9.00,38.4062080,-110.7921371,1365.0000000,0.1,243.3,0.9,0.0,0.0,866,128,0,0,860.90,11.28,26.49,# data time:5480,pm2.5:6.445,pm10:5.704,O2:0.000,NO2:0.000,SO2:0.000,NH3:8.251
13:50:46,0,0,0,0,0,2700,2200,1,0,0,0,514,0,0,0,0,0.0000000,0.0000000,0.0000000,0.0000000,9.00,38.4062080,-110.7921371,1365.0000000,0.1,272.5,0.9,0.0,0.0,866,133,0,0,860.89,11.28,26.45,# data time:5480,pm2.5:6.445,pm10:5.704,O2:0.000,NO2:0.000,SO2:0.000,NH3:8.251
13:50:47,0,0,0,0,0,2700,2200,1,0,0,0,514,0,0,0,0,0.0000000,0.0000000,0.0000000,0.0000000,9.00,38.4062080,-110.7921371,1364.9000244,0.1,272.5,0.9,0.0,0.0,866,127,0,0,860.88,11.29,26.50,# data time:5480,pm2.5:6.445,pm10:5.704,O2:0.000,NO2:0.000,SO2:0.000,NH3:8.251
13:50:48,0,0,0,0,0,2700,2200,1,0,0,0,514,0,0,0,0,0.0000000,0.0000000,0.0000000,0.0000000,9.00,38.4062080,-110.7921371,1364.9000244,0.1,272.5,0.9,0.0,0.0,866,128,0,0,860.88,11.29,26.45,# data time:5480,pm2.5:6.445,pm10:5.704,O2:0.000,NO2:0.000,SO2:0.000,NH3:8.251
13:50:49,0,0,0,0,0,2700,2200,1,0,0,0,514,0,0,0,0,0.0000000,0.0000000,0.0000000,0.0000000,9.00,38.4062080,-110.7921371,1364.9000244,0.1,272.5,0.9,0.0,0.0,866,127,0,0,860.95,11.28,26.45,# data time:5490,pm2.5:6.445,pm10:5.704,O2:0.000,NO2:0.046,SO2:0.000,NH3:8.251
13:50:50,0,0,0,0,0,2700,2200,1,0,0,0,514,0,0,0,0,0.0000000,0.0000000,0.0000000,0.0000000,9.00,38.4062080,-110.7921371,1364.9000244,0.0,292.0,0.9,0.0,0.0,865,128,0,0,860.90,11.28,26.49,# data time:5490,pm2.5:6.445,pm10:5.704,O2:0.000,NO2:0.046,SO2:0.000,NH3:8.251
13:50:51,0,0,0,0,0,2700,2200,1,0,0,0,514,0,0,0,0,0.0000000,0.0000000,0.0000000,0.0000000,9.00,38.4062080,-110.7921371,1364.9000244,0.1,233.3,0.9,0.0,0.0,865,129,0,0,860.94,11.28,26.53,# data time:5490,pm2.5:6.445,pm10:5.704,O2:0.000,NO2:0.046,SO2:0.000,NH3:8.251
13:50:52,0,0,0,0,0,2700,2200,1,0,0,0,515,0,0,0,0,0.0000000,0.0000000,0.0000000,0.0000000,9.00,38.4062080,-110.7921371,1364.8000488,0.0,211.6,0.9,0.0,0.0,866,129,0,0,860.89,11.28,26.53,# data time:5490,pm2.5:6.445,pm10:5.704,O2:0.000,NO2:0.046,SO2:0.000,NH3:8.251
13:50:53,0,0,0,0,0,2700,2200,1,0,0,0,514,0,0,0,0,0.0000000,0.0000000,0.0000000,0.0000000,9.00,38.4062080,-110.7921371,1364.8000488,0.0,227.6,0.9,0.0,0.0,866,129,0,0,860.95,11.29,26.54,# data time:5490,pm2.5:6.445,pm10:5.704,O2:0.000,NO2:0.046,SO2:0.000,NH3:8.251
13:50:54,0,0,0,0,0,2700,2200,1,0,0,0,514,0,0,0,0,0.0000000,0.0000000,0.0000000,0.0000000,9.00,38.4062080,-110.7921371,1364.8000488,0.0,212.3,0.9,0.0,0.0,866,129,0,0,861.04,11.29,26.53,# data time:5490,pm2.5:6.445,pm10:5.704,O2:0.000,NO2:0.046,SO2:0.000,NH3:8.251
13:50:55,0,0,0,0,0,2700,2200,1,0,0,0,514,0,0,0,0,0.0000000,0.0000000,0.0000000,0.0000000,9.00,38.4062080,-110.7921371,1364.8000488,0.0,263.4,0.9,0.0,0.0,865,130,0,0,860.97,11.31,26.53,# data time:5490,pm2.5:6.445,pm10:5.704,O2:0.000,NO2:0.046,SO2:0.000,NH3:8.251
13:50:56,0,0,0,0,0,2700,2200,1,0,0,0,514,0,0,0,0,0.0000000,0.0000000,0.0000000,0.0000000,9.00,38.4062080,-110.7921371,1364.8000488,0.0,254.7,0.9,0.0,0.0,866,129,0,0,860.84,11.26,26.53,# data time:5490,pm2.5:6.445,pm10:5.704,O2:0.000,NO2:0.046,SO2:0.000,NH3:8.251
13:50:57,0,0,0,0,0,2700,2200,1,0,0,0,514,0,0,0,0,0.0000000,0.0000000,0.0000000,0.0000000,9.00,38.4062080,-110.7921371,1364.8000488,0.0,245.6,0.9,0.0,0.0,866,129,0,0,861.02,11.25,26.53,# data time:5490,pm2.5:6.445,pm10:5.704,O2:0.000,NO2:0.046,SO2:0.000,NH3:8.251
13:50:58,0,0,0,0,0,2700,2200,1,0,0,0,514,0,0,0,0,0.0000000,0.0000000,0.0000000,0.0000000,9.00,38.4062080,-110.7921371,1364.8000488,0.1,231.4,0.9,0.0,0.0,866,130,0,0,860.96,11.28,26.53,# data time:5500,pm2.5:5.640,pm10:4.991,O2:0.000,NO2:0.046,SO2:0.000,NH3:8.251
13:50:59,0,0,0,0,0,2700,2200,1,0,0,0,514,0,0,0,0,0.0000000,0.0000000,0.0000000,0.0000000,9.00,38.4062080,-110.7921371,1364.8000488,0.0,269.9,0.9,0.0,0.0,865,128,0,0,860.94,11.28,26.53,# data time:5500,pm2.5:5.640,pm10:4.991,O2:0.000,NO2:0.046,SO2:0.000,NH3:8.251
13:51:00,0,0,0,0,0,2700,2200,1,0,0,0,515,0,0,0,0,0.0000000,0.0000000,0.0000000,0.0000000,9.00,38.4062080,-110.7921371,1364.6999512,0.1,250.0,0.9,0.0,0.0,866,129,0,0,860.88,11.28,26.53,# data time:5500,pm2.5:5.640,pm10:4.991,O2:0.000,NO2:0.046,SO2:0.000,NH3:8.251
13:51:01,0,0,0,0,0,2700,2200,1,0,0,0,514,0,0,0,0,0.0000000,0.0000000,0.0000000,0.0000000,9.00,38.4062080,-110.7921371,1364.6999512,0.1,226.0,0.9,0.0,0.0,865,128,0,0,860.92,11.28,26.54,# data time:5500,pm2.5:5.640,pm10:4.991,O2:0.000,NO2:0.046,SO2:0.000,NH3:8.251
13:51:02,0,0,0,0,0,2700,2200,1,0,0,0,514,0,0,0,0,0.0000000,0.0000000,0.0000000,0.0000000,9.00,38.4062080,-110.7921371,1364.6999512,0.0,238.4,0.9,0.0,0.0,866,130,0,0,860.94,11.29,26.54,# data time:5500,pm2.5:5.640,pm10:4.991,O2:0.000,NO2:0.046,SO2:0.000,NH3:8.251
13:51:03,0,0,0,0,0,2700,2200,1,0,0,0,514,0,0,0,0,0.0000000,0.0000000,0.0000000,0.0000000,9.00,38.4062080,-110.7921371,1364.6999512,0.1,237.5,0.9,0.0,0.0,865,129,0,0,860.99,11.28,26.54,# data time:5500,pm2.5:5.640,pm10:4.991,O2:0.000,NO2:0.046,SO2:0.000,NH3:8.251
13:51:04,0,0,0,0,0,2700,2200,1,0,0,0,514,0,0,0,0,0.0000000,0.0000000,0.0000000,0.0000000,9.00,38.4062080,-110.7921371,1364.6999512,0.1,227.8,0.9,0.0,0.0,865,132,0,0,860.90,11.28,26.54,# data time:5500,pm2.5:5.640,pm10:4.991,O2:0.000,NO2:0.046,SO2:0.000,NH3:8.251
13:51:05,0,0,0,0,0,2700,2200,1,0,0,0,514,0,0,0,0,0.0000000,0.0000000,0.0000000,0.0000000,9.00,38.4062080,-110.7921371,1364.6999512,0.1,248.2,0.9,0.0,0.0,866,131,0,0,860.93,11.29,26.54,# data time:5500,pm2.5:5.640,pm10:4.991,O2:0.000,NO2:0.046,SO2:0.000,NH3:8.251
13:51:06,0,0,0,0,0,2700,2200,1,0,0,0,515,0,0,0,0,0.0000000,0.0000000,0.0000000,0.0000000,9.00,38.4062080,-110.7921371,1364.5999756,0.0,271.2,0.9,0.0,0.0,866,132,0,0,860.96,11.29,26.53,# data time:5500,pm2.5:5.640,pm10:4.991,O2:0.000,NO2:0.046,SO2:0.000,NH3:8.251
13:51:07,0,0,0,0,0,2700,2200,1,0,0,0,515,0,0,0,0,0.0000000,0.0000000,0.0000000,0.0000000,9.00,38.4062080,-110.7921371,1364.5999756,0.0,262.4,0.9,0.0,0.0,866,127,0,0,860.95,11.31,26.53,# data time:5500,pm2.5:5.640,pm10:4.991,O2:0.000,NO2:0.046,SO2:0.000,NH3:8.251
13:51:08,0,0,0,0,0,2700,2200,1,0,0,0,514,0,0,0,0,0.0000000,0.0000000,0.0000000,0.0000000,9.00,38.4062080,-110.7921371,1364.5999756,0.0,204.6,0.9,0.0,0.0,865,128,0,0,860.88,11.31,26.53,# data time:5510,pm2.5:6.445,pm10:5.704,O2:0.000,NO2:0.028,SO2:0.000,NH3:8.025
13:51:10,0,0,0,0,0,2700,2200,1,0,0,0,514,0,0,0,0,0.0000000,0.0000000,0.0000000,0.0000000,9.00,38.4062080,-110.7921371,1364.5999756,0.1,233.9,0.9,0.0,0.0,865,130,0,0,860.87,11.31,26.53,# data time:5510,pm2.5:6.445,pm10:5.704,O2:0.000,NO2:0.028,SO2:0.000,NH3:8.025
13:51:11,0,0,0,0,0,2700,2200,1,0,0,0,514,0,0,0,0,0.0000000,0.0000000,0.0000000,0.0000000,9.00,38.4062080,-110.7921371,1364.5999756,0.0,264.2,0.9,0.0,0.0,866,126,0,0,860.88,11.29,26.53,# data time:5510,pm2.5:6.445,pm10:5.704,O2:0.000,NO2:0.028,SO2:0.000,NH3:8.025
13:51:12,0,0,0,0,0,2700,2200,1,0,0,0,514,0,0,0,0,0.0000000,0.0000000,0.0000000,0.0000000,9.00,38.4062080,-110.7921371,1364.5000000,0.0,240.3,0.9,0.0,0.0,865,127,0,0,860.81,11.29,26.53,# data time:5510,pm2.5:6.445,pm10:5.704,O2:0.000,NO2:0.028,SO2:0.000,NH3:8.025
13:51:13,0,0,0,0,0,2700,2200,1,0,0,0,514,0,0,0,0,0.0000000,0.0000000,0.0000000,0.0000000,9.00,38.4062080,-110.7921371,1364.5000000,0.0,244.0,0.9,0.0,0.0,866,128,0,0,860.82,11.26,26.53,# data time:5510,pm2.5:6.445,pm10:5.704,O2:0.000,NO2:0.028,SO2:0.000,NH3:8.025
13:51:14,0,0,0,0,0,2700,2200,1,0,0,0,515,0,0,0,0,0.0000000,0.0000000,0.0000000,0.0000000,9.00,38.4062080,-110.7921371,1364.5000000,0.0,258.3,0.9,0.0,0.0,865,128,0,0,860.82,11.31,26.45,# data time:5510,pm2.5:6.445,pm10:5.704,O2:0.000,NO2:0.028,SO2:0.000,NH3:8.025
13:51:15,0,0,0,0,0,2700,2200,1,0,0,0,514,0,0,0,0,0.0000000,0.0000000,0.0000000,0.0000000,9.00,38.4062080,-110.7921371,1364.5000000,0.0,258.3,0.9,0.0,0.0,866,129,0,0,860.79,11.31,26.43,# data time:5510,pm2.5:6.445,pm10:5.704,O2:0.000,NO2:0.028,SO2:0.000,NH3:8.025
13:51:16,0,0,0,0,0,2700,2200,1,0,0,0,514,0,0,0,0,0.0000000,0.0000000,0.0000000,0.0000000,9.00,38.4062080,-110.7921371,1364.5000000,0.0,250.6,0.9,0.0,0.0,866,131,0,0,860.78,11.31,26.44,# data time:5510,pm2.5:6.445,pm10:5.704,O2:0.000,NO2:0.028,SO2:0.000,NH3:8.025
13:51:17,0,0,0,0,0,2700,2200,1,0,0,0,514,0,0,0,0,0.0000000,0.0000000,0.0000000,0.0000000,9.00,38.4062080,-110.7921371,1364.4000244,0.0,250.6,0.9,0.0,0.0,866,130,0,0,860.78,11.29,26.43,# data time:5510,pm2.5:6.445,pm10:5.704,O2:0.000,NO2:0.028,SO2:0.000,NH3:8.025
13:51:18,0,0,0,0,0,2700,2200,1,0,0,0,514,0,0,0,0,0.0000000,0.0000000,0.0000000,0.0000000,9.00,38.4062080,-110.7921371,1364.4000244,0.1,240.8,0.9,0.0,0.0,865,133,0,0,860.82,11.31,26.48,# data time:5520,pm2.5:6.445,pm10:5.704,O2:0.000,NO2:0.063,SO2:00,NH3:8.251
13:51:19,0,0,0,0,0,2700,2200,1,0,0,0,514,0,0,0,0,0.0000000,0.0000000,0.0000000,0.0000000,9.00,38.4062080,-110.7921371,1364.4000244,0.1,253.2,0.9,0.0,0.0,866,130,0,0,860.78,11.28,26.53,# data time:5520,pm2.5:6.445,pm10:5.704,O2:0.000,NO2:0.063,SO2:00,NH3:8.251
13:51:20,0,0,0,0,0,2700,2200,1,0,0,0,514,0,0,0,0,0.0000000,0.0000000,0.0000000,0.0000000,9.00,38.4062080,-110.7921371,1364.4000244,0.1,249.0,0.9,0.0,0.0,865,128,0,0,860.81,11.29,26.53,# data time:5520,pm2.5:6.445,pm10:5.704,O2:0.000,NO2:0.063,SO2:00,NH3:8.251
13:51:21,0,0,0,0,0,2700,2200,1,0,0,0,515,0,0,0,0,0.0000000,0.0000000,0.0000000,0.0000000,9.00,38.4062080,-110.7921371,1364.4000244,0.0,219.6,0.9,0.0,0.0,865,128,0,0,860.81,11.28,26.54,# data time:5520,pm2.5:6.445,pm10:5.704,O2:0.000,NO2:0.063,SO2:00,NH3:8.251
13:51:22,0,0,0,0,0,2700,2200,1,0,0,0,514,0,0,0,0,0.0000000,0.0000000,0.0000000,0.0000000,9.00,38.4062080,-110.7921371,1364.3000488,0.1,238.3,0.9,0.0,0.0,866,125,0,0,860.84,11.26,26.54,# data time:5520,pm2.5:6.445,pm10:5.704,O2:0.000,NO2:0.063,SO2:00,NH3:8.251
13:51:23,0,0,0,0,0,2700,2200,1,0,0,0,514,0,0,0,0,0.0000000,0.0000000,0.0000000,0.0000000,9.00,38.4062080,-110.7921371,1364.3000488,0.0,216.1,0.9,0.0,0.0,866,129,0,0,860.83,11.29,26.54,# data time:5520,pm2.5:6.445,pm10:5.704,O2:0.000,NO2:0.063,SO2:00,NH3:8.251
13:51:24,0,0,0,0,0,2700,2200,1,0,0,0,513,0,0,0,0,0.0000000,0.0000000,0.0000000,0.0000000,9.00,38.4062080,-110.7921371,1364.3000488,0.0,225.0,0.9,0.0,0.0,866,128,0,0,860.82,11.26,26.54,# data time:5520,pm2.5:6.445,pm10:5.704,O2:0.000,NO2:0.063,SO2:00,NH3:8.251
13:51:25,0,0,0,0,0,2700,2200,1,0,0,0,515,0,0,0,0,0.0000000,0.0000000,0.0000000,0.0000000,9.00,38.4062080,-110.7921371,1364.3000488,0.0,232.0,0.9,0.0,0.0,865,128,0,0,860.86,11.32,26.53,# data time:5520,pm2.5:6.445,pm10:5.704,O2:0.000,NO2:0.063,SO2:00,NH3:8.251
13:51:26,0,0,0,0,0,2700,2200,1,0,0,0,514,0,0,0,0,0.0000000,0.0000000,0.0000000,0.0000000,9.00,38.4062080,-110.7921371,1364.3000488,0.0,243.8,0.9,0.0,0.0,865,130,0,0,860.92,11.31,26.52,# data time:5520,pm2.5:6.445,pm10:5.704,O2:0.000,NO2:0.063,SO2:00,NH3:8.251
13:51:27,0,0,0,0,0,2700,2200,1,0,0,0,515,0,0,0,0,0.0000000,0.0000000,0.0000000,0.0000000,9.00,38.4062080,-110.7921371,1364.3000488,0.1,239.4,0.9,0.0,0.0,865,129,0,0,860.80,11.29,26.52,# data time:5520,pm2.5:6.445,pm10:5.704,O2:0.000,NO2:0.063,SO2:00,NH3:8.251
13:51:28,0,0,0,0,0,2700,2200,1,0,0,0,514,0,0,0,0,0.0000000,0.0000000,0.0000000,0.0000000,9.00,38.4062080,-110.7921371,1364.3000488,0.1,239.6,0.9,0.0,0.0,865,130,0,0,860.78,11.29,26.52,# data time:5530,pm2.5:6.445,pm10:5.704,O2:0.000,NO2:0.028,SO2:0.000,NH3:8.025
13:51:29,0,0,0,0,0,2700,2200,1,0,0,0,514,0,0,0,0,0.0000000,0.0000000,0.0000000,0.0000000,9.00,38.4062080,-110.7921371,1364.1999512,0.0,267.3,0.9,0.0,0.0,865,131,0,0,860.81,11.31,26.53,# data time:5530,pm2.5:6.445,pm10:5.704,O2:0.000,NO2:0.028,SO2:0.000,NH3:8.025
13:51:30,0,0,0,0,0,2700,2200,1,0,0,0,514,0,0,0,0,0.0000000,0.0000000,0.0000000,0.0000000,9.00,38.4062080,-110.7921371,1364.1999512,0.0,254.2,0.9,0.0,0.0,865,129,0,0,860.80,11.28,26.53,# data time:5530,pm2.5:6.445,pm10:5.704,O2:0.000,NO2:0.028,SO2:0.000,NH3:8.025
13:51:31,0,0,0,0,0,2700,2200,1,0,0,0,515,0,0,0,0,0.0000000,0.0000000,0.0000000,0.0000000,9.00,38.4062080,-110.7921371,1364.1999512,0.1,250.4,0.9,0.0,0.0,865,129,0,0,860.83,11.31,26.52,# data time:5530,pm2.5:6.445,pm10:5.704,O2:0.000,NO2:0.028,SO2:0.000,NH3:8.025
13:51:32,0,0,0,0,0,2700,2200,1,0,0,0,514,0,0,0,0,0.0000000,0.0000000,0.0000000,0.0000000,9.00,38.4062080,-110.7921371,1364.1999512,0.0,247.0,0.9,0.0,0.0,865,131,0,0,860.86,11.31,26.53,# data time:5530,pm2.5:6.445,pm10:5.704,O2:0.000,NO2:0.028,SO2:0.000,NH3:8.025
13:51:34,0,0,0,0,0,2700,2200,1,0,0,0,515,0,0,0,0,0.0000000,0.0000000,0.0000000,0.0000000,9.00,38.4062080,-110.7921371,1364.1999512,0.0,236.1,0.9,0.0,0.0,865,129,0,0,860.84,11.28,26.53,# data time:5530,pm2.5:6.445,pm10:5.704,O2:0.000,NO2:0.028,SO2:0.000,NH3:8.025
13:51:35,0,0,0,0,0,2700,2200,1,0,0,0,514,0,0,0,0,0.0000000,0.0000000,0.0000000,0.0000000,9.00,38.4062080,-110.7921371,1364.1999512,0.1,212.3,0.9,0.0,0.0,865,129,0,0,860.83,11.28,26.53,# data time:5530,pm2.5:6.445,pm10:5.704,O2:0.000,NO2:0.028,SO2:0.000,NH3:8.025
13:51:36,0,0,0,0,0,2700,2200,1,0,0,0,514,0,0,0,0,0.0000000,0.0000000,0.0000000,0.0000000,9.00,38.4062080,-110.7921371,1364.0999756,0.0,246.8,0.9,0.0,0.0,866,129,0,0,860.77,11.26,26.53,# data time:5530,pm2.5:6.445,pm10:5.704,O2:0.000,NO2:0.028,SO2:0.000,NH3:8.025
13:51:37,0,0,0,0,0,2700,2200,1,0,0,0,514,0,0,0,0,0.0000000,0.0000000,0.0000000,0.0000000,9.00,38.4062080,-110.7921371,1364.0999756,0.0,208.1,0.9,0.0,0.0,865,128,0,0,860.81,11.28,26.54,# data time:5530,pm2.5:6.445,pm10:5.704,O2:0.000,NO2:0.028,SO2:0.000,NH3:8.025
13:51:38,0,0,0,0,0,2700,2200,1,0,0,0,514,0,0,0,0,0.0000000,0.0000000,0.0000000,0.0000000,9.00,38.4062080,-110.7921371,1364.0999756,0.0,223.1,0.9,0.0,0.0,866,131,0,0,860.79,11.28,26.45,# data time:5530,pm2.5:6.445,pm10:5.704,O2:0.000,NO2:0.028,SO2:0.000,NH3:8.025
13:51:39,0,0,0,0,0,2700,2200,1,0,0,0,514,0,0,0,0,0.0000000,0.0000000,0.0000000,0.0000000,9.00,38.4062042,-110.7921371,1364.0999756,0.0,230.3,0.9,0.0,0.0,866,131,0,0,860.83,11.26,26.44,# data time:5540,pm2.5:5.640,pm10:4.991,O2:0.000,NO2:0.000,SO2:0.000,NH3:8.025
13:51:40,0,0,0,0,0,2700,2200,1,0,0,0,514,0,0,0,0,0.0000000,0.0000000,0.0000000,0.0000000,9.00,38.4062042,-110.7921371,1364.0999756,0.0,321.3,0.9,0.0,0.0,865,131,0,0,860.85,11.28,26.49,# data time:5540,pm2.5:5.640,pm10:4.991,O2:0.000,NO2:0.000,SO2:0.000,NH3:8.025
13:51:41,0,0,0,0,0,2700,2200,1,0,0,0,514,0,0,0,0,0.0000000,0.0000000,0.0000000,0.0000000,9.00,38.4062042,-110.7921371,1364.0999756,0.0,243.7,0.9,0.0,0.0,866,131,0,0,860.83,11.31,26.49,# data time:5540,pm2.5:5.640,pm10:4.991,O2:0.000,NO2:0.000,SO2:0.000,NH3:8.025
13:51:42,0,0,0,0,0,2700,2200,1,0,0,0,514,0,0,0,0,0.0000000,0.0000000,0.0000000,0.0000000,9.00,38.4062042,-110.7921371,1364.0999756,0.0,302.1,0.9,0.0,0.0,865,128,0,0,860.81,11.26,26.54,# data time:5540,pm2.5:5.640,pm10:4.991,O2:0.000,NO2:0.000,SO2:0.000,NH3:8.025
13:51:43,0,0,0,0,0,2700,2200,1,0,0,0,514,0,0,0,0,0.0000000,0.0000000,0.0000000,0.0000000,9.00,38.4062042,-110.7921371,1364.0999756,0.1,239.6,0.9,0.0,0.0,865,134,0,0,860.85,11.29,26.54,# data time:5540,pm2.5:5.640,pm10:4.991,O2:0.000,NO2:0.000,SO2:0.000,NH3:8.025
13:51:44,0,0,0,0,0,2700,2200,1,0,0,0,514,0,0,0,0,0.0000000,0.0000000,0.0000000,0.0000000,9.00,38.4062042,-110.7921371,1364.0999756,0.0,244.0,0.9,0.0,0.0,865,128,0,0,860.85,11.29,26.54,# data time:5540,pm2.5:5.640,pm10:4.991,O2:0.000,NO2:0.000,SO2:0.000,NH3:8.025
13:51:45,0,0,0,0,0,2700,2200,1,0,0,0,515,0,0,0,0,0.0000000,0.0000000,0.0000000,0.0000000,9.00,38.4062042,-110.7921371,1364.0999756,0.0,254.6,0.9,0.0,0.0,865,130,0,0,860.81,11.28,26.54,# data time:5540,pm2.5:5.640,pm10:4.991,O2:0.000,NO2:0.000,SO2:0.000,NH3:8.025
13:51:46,0,0,0,0,0,2700,2200,1,0,0,0,514,0,0,0,0,0.0000000,0.0000000,0.0000000,0.0000000,9.00,38.4062042,-110.7921371,1364.0999756,0.0,248.9,0.9,0.0,0.0,866,131,0,0,860.85,11.26,26.55,# data time:5540,pm2.5:5.640,pm10:4.991,O2:0.000,NO2:0.000,SO2:0.000,NH3:8.025
13:51:47,0,0,0,0,0,2700,2200,1,0,0,0,514,0,0,0,0,0.0000000,0.0000000,0.0000000,0.0000000,9.00,38.4062042,-110.7921371,1364.0999756,0.0,279.3,0.9,0.0,0.0,865,128,0,0,860.85,11.28,26.54,# data time:5540,pm2.5:5.640,pm10:4.991,O2:0.000,NO2:0.000,SO2:0.000,NH3:8.025
13:51:48,0,0,0,0,0,2700,2200,1,0,0,0,514,0,0,0,0,0.0000000,0.0000000,0.0000000,0.0000000,9.00,38.4062042,-110.7921371,1364.0999756,0.0,242.3,0.9,0.0,0.0,865,127,0,0,860.85,11.26,26.54,# data time:5550,pm2.5:6.445,pm10:5.704,O2:0.000,NO2:0.028,SO2:0.000,NH3:8.251
13:51:49,0,0,0,0,0,2700,2200,1,0,0,0,515,0,0,0,0,0.0000000,0.0000000,0.0000000,0.0000000,9.00,38.4062042,-110.7921371,1364.0999756,0.0,281.6,0.9,0.0,0.0,865,124,0,0,860.79,11.25,26.54,# data time:5550,pm2.5:6.445,pm10:5.704,O2:0.000,NO2:0.028,SO2:0.000,NH3:8.251
13:51:50,0,0,0,0,0,2700,2200,1,0,0,0,514,0,0,0,0,0.0000000,0.0000000,0.0000000,0.0000000,9.00,38.4062042,-110.7921371,1364.0999756,0.0,273.6,0.9,0.0,0.0,866,127,0,0,860.80,11.26,26.54,# data time:5550,pm2.5:6.445,pm10:5.704,O2:0.000,NO2:0.028,SO2:0.000,NH3:8.251
13:51:51,0,0,0,0,0,2700,2200,1,0,0,0,514,0,0,0,0,0.0000000,0.0000000,0.0000000,0.0000000,9.00,38.4062042,-110.7921371,1364.0999756,0.0,290.4,0.9,0.0,0.0,865,128,0,0,860.83,11.25,26.54,# data time:5550,pm2.5:6.445,pm10:5.704,O2:0.000,NO2:0.028,SO2:0.000,NH3:8.251
13:51:52,0,0,0,0,0,2700,2200,1,0,0,0,514,0,0,0,0,0.0000000,0.0000000,0.0000000,0.0000000,9.00,38.4062042,-110.7921371,1364.0999756,0.0,222.0,0.9,0.0,0.0,865,129,0,0,860.79,11.29,26.54,# data time:5550,pm2.5:6.445,pm10:5.704,O2:0.000,NO2:0.028,SO2:0.000,NH3:8.251
13:51:53,0,0,0,0,0,2700,2200,1,0,0,0,514,0,0,0,0,0.0000000,0.0000000,0.0000000,0.0000000,9.00,38.4062042,-110.7921371,1364.0000000,0.0,4.8,0.9,0.0,0.0,865,128,0,0,860.79,11.26,26.55,# data time:5550,pm2.5:6.445,pm10:5.704,O2:0.000,NO2:0.028,SO2:0.000,NH3:8.251
13:51:54,0,0,0,0,0,2700,2200,1,0,0,0,514,0,0,0,0,0.0000000,0.0000000,0.0000000,0.0000000,9.00,38.4062042,-110.7921371,1364.0000000,0.0,94.2,0.9,0.0,0.0,865,130,0,0,860.80,11.26,26.55,# data time:5550,pm2.5:6.445,pm10:5.704,O2:0.000,NO2:0.028,SO2:0.000,NH3:8.251
13:51:55,0,0,0,0,0,2700,2200,1,0,0,0,515,0,0,0,0,0.0000000,0.0000000,0.0000000,0.0000000,9.00,38.4062042,-110.7921371,1364.0000000,0.0,248.8,0.9,0.0,0.0,865,128,0,0,860.80,11.26,26.54,# data time:5550,pm2.5:6.445,pm10:5.704,O2:0.000,NO2:0.028,SO2:0.000,NH3:8.251
13:51:56,0,0,0,0,0,2700,2200,1,0,0,0,515,0,0,0,0,0.0000000,0.0000000,0.0000000,0.0000000,9.00,38.4062042,-110.7921524,1364.0000000,0.0,254.6,0.9,0.0,0.0,865,127,0,0,860.85,11.29,26.54,# data time:5550,pm2.5:6.445,pm10:5.704,O2:0.000,NO2:0.028,SO2:0.000,NH3:8.251
13:51:57,0,0,0,0,0,2700,2200,1,0,0,0,514,0,0,0,0,0.0000000,0.0000000,0.0000000,0.0000000,9.00,38.4062042,-110.7921524,1363.9000244,0.0,220.2,0.9,0.0,0.0,866,128,0,0,860.74,11.26,26.54,# data time:5550,pm2.5:6.445,pm10:5.704,O2:0.000,NO2:0.028,SO2:0.000,NH3:8.251
13:51:58,0,0,0,0,0,2700,2200,1,0,0,0,514,0,0,0,0,0.0000000,0.0000000,0.0000000,0.0000000,9.00,38.4062042,-110.7921524,1363.9000244,0.0,204.6,0.9,0.0,0.0,865,129,0,0,860.78,11.26,26.54,# data time:5560,pm2.5:6.445,pm10:5.704,O2:0.000,NO2:0.028,SO2::7.799
13:51:59,0,0,0,0,0,2700,2200,1,0,0,0,514,0,0,0,0,0.0000000,0.0000000,0.0000000,0.0000000,9.00,38.4062042,-110.7921524,1363.9000244,0.0,230.5,0.9,0.0,0.0,866,130,0,0,860.86,11.29,26.54,# data time:5560,pm2.5:6.445,pm10:5.704,O2:0.000,NO2:0.028,SO2::7.799
13:52:00,0,0,0,0,0,2700,2200,1,0,0,0,514,0,0,0,0,0.0000000,0.0000000,0.0000000,0.0000000,9.00,38.4062042,-110.7921524,1363.9000244,0.0,292.1,0.9,0.0,0.0,865,124,0,0,860.83,11.28,26.54,# data time:5560,pm2.5:6.445,pm10:5.704,O2:0.000,NO2:0.028,SO2::7.799
13:52:02,0,0,0,0,0,2700,2200,1,0,0,0,514,0,0,0,0,0.0000000,0.0000000,0.0000000,0.0000000,9.00,38.4062042,-110.7921524,1363.9000244,0.0,345.0,0.9,0.0,0.0,865,131,0,0,860.82,11.28,26.55,# data time:5560,pm2.5:6.445,pm10:5.704,O2:0.000,NO2:0.028,SO2::7.799
13:52:03,0,0,0,0,0,2700,2200,1,0,0,0,515,0,0,0,0,0.0000000,0.0000000,0.0000000,0.0000000,9.00,38.4062042,-110.7921524,1363.8000488,0.0,265.4,0.9,0.0,0.0,864,131,0,0,860.83,11.28,26.54,# data time:5560,pm2.5:6.445,pm10:5.704,O2:0.000,NO2:0.028,SO2::7.799
13:52:04,0,0,0,0,0,2700,2200,1,0,0,0,514,0,0,0,0,0.0000000,0.0000000,0.0000000,0.0000000,9.00,38.4062042,-110.7921524,1363.8000488,0.1,258.9,0.9,0.0,0.0,865,126,0,0,860.85,11.26,26.55,# data time:5560,pm2.5:6.445,pm10:5.704,O2:0.000,NO2:0.028,SO2::7.799
13:52:05,0,0,0,0,0,2700,2200,1,0,0,0,514,0,0,0,0,0.0000000,0.0000000,0.0000000,0.0000000,9.00,38.4062042,-110.7921524,1363.8000488,0.0,175.7,0.9,0.0,0.0,865,127,0,0,860.77,11.28,26.45,# data time:5560,pm2.5:6.445,pm10:5.704,O2:0.000,NO2:0.028,SO2::7.799
13:52:06,0,0,0,0,0,2700,2200,1,0,0,0,514,0,0,0,0,0.0000000,0.0000000,0.0000000,0.0000000,9.00,38.4062042,-110.7921524,1363.8000488,0.0,175.7,0.9,0.0,0.0,866,131,0,0,860.85,11.26,26.45,# data time:5560,pm2.5:6.445,pm10:5.704,O2:0.000,NO2:0.028,SO2::7.799
13:52:07,0,0,0,0,0,2700,2200,1,0,0,0,515,0,0,0,0,0.0000000,0.0000000,0.0000000,0.0000000,9.00,38.4062042,-110.7921524,1363.6999512,0.0,277.2,0.9,0.0,0.0,866,131,0,0,860.80,11.25,26.51,# data time:5560,pm2.5:6.445,pm10:5.704,O2:0.000,NO2:0.028,SO2::7.799
13:52:08,0,0,0,0,0,2700,2200,1,0,0,0,514,0,0,0,0,0.0000000,0.0000000,0.0000000,0.0000000,9.00,38.4062042,-110.7921524,1363.6999512,0.0,225.9,0.9,0.0,0.0,865,132,0,0,860.72,11.26,26.50,# data time:5560,pm2.5:6.445,pm10:5.704,O2:0.000,NO2:0.028,SO2::7.799
13:52:09,0,0,0,0,0,2700,2200,1,0,0,0,515,0,0,0,0,0.0000000,0.0000000,0.0000000,0.0000000,9.00,38.4062042,-110.7921524,1363.6999512,0.0,229.2,0.9,0.0,0.0,866,129,0,0,860.81,11.26,26.54,# data time:5570,pm2.5:6.445,pm10:5.704,O2:0.000,NO2:0.010,SO2::7.799
13:52:10,0,0,0,0,0,2700,2200,1,0,0,0,514,0,0,0,0,0.0000000,0.0000000,0.0000000,0.0000000,9.00,38.4062042,-110.7921524,1363.6999512,0.0,193.9,0.9,0.0,0.0,866,130,0,0,860.83,11.28,26.55,# data time:5570,pm2.5:6.445,pm10:5.704,O2:0.000,NO2:0.010,SO2::7.799
13:52:11,0,0,0,0,0,2700,2200,1,0,0,0,513,0,0,0,0,0.0000000,0.0000000,0.0000000,0.0000000,9.00,38.4062042,-110.7921524,1363.6999512,0.0,330.4,0.9,0.0,0.0,866,131,0,0,860.82,11.28,26.55,# data time:5570,pm2.5:6.445,pm10:5.704,O2:0.000,NO2:0.010,SO2::7.799
13:52:12,0,0,0,0,0,2700,2200,1,0,0,0,515,0,0,0,0,0.0000000,0.0000000,0.0000000,0.0000000,9.00,38.4062042,-110.7921524,1363.6999512,0.0,231.2,0.9,0.0,0.0,865,131,0,0,860.81,11.28,26.55,# data time:5570,pm2.5:6.445,pm10:5.704,O2:0.000,NO2:0.010,SO2::7.799
13:52:13,0,0,0,0,0,2700,2200,1,0,0,0,514,0,0,0,0,0.0000000,0.0000000,0.0000000,0.0000000,9.00,38.4062042,-110.7921524,1363.6999512,0.0,265.2,0.9,0.0,0.0,865,131,0,0,860.73,11.28,26.55,# data time:5570,pm2.5:6.445,pm10:5.704,O2:0.000,NO2:0.010,SO2::7.799
13:52:14,0,0,0,0,0,2700,2200,1,0,0,0,514,0,0,0,0,0.0000000,0.0000000,0.0000000,0.0000000,9.00,38.4062042,-110.7921524,1363.6999512,0.0,298.4,0.9,0.0,0.0,865,131,0,0,860.77,11.26,26.56,# data time:5570,pm2.5:6.445,pm10:5.704,O2:0.000,NO2:0.010,SO2::7.799
13:52:15,0,0,0,0,0,2700,2200,1,0,0,0,514,0,0,0,0,0.0000000,0.0000000,0.0000000,0.0000000,9.00,38.4062042,-110.7921524,1363.6999512,0.0,195.2,0.9,0.0,0.0,865,130,0,0,860.76,11.25,26.56,# data time:5570,pm2.5:6.445,pm10:5.704,O2:0.000,NO2:0.010,SO2::7.799
13:52:16,0,0,0,0,0,2700,2200,1,0,0,0,515,0,0,0,0,0.0000000,0.0000000,0.0000000,0.0000000,9.00,38.4062042,-110.7921524,1363.6999512,0.0,12.8,0.9,0.0,0.0,865,129,0,0,860.77,11.22,26.56,# data time:5570,pm2.5:6.445,pm10:5.704,O2:0.000,NO2:0.010,SO2::7.799
13:52:17,0,0,0,0,0,2700,2200,1,0,0,0,514,0,0,0,0,0.0000000,0.0000000,0.0000000,0.0000000,9.00,38.4062042,-110.7921524,1363.6999512,0.0,305.3,0.9,0.0,0.0,865,130,0,0,860.81,11.25,26.56,# data time:5570,pm2.5:6.445,pm10:5.704,O2:0.000,NO2:0.010,SO2::7.799
13:52:18,0,0,0,0,0,2700,2200,1,0,0,0,514,0,0,0,0,0.0000000,0.0000000,0.0000000,0.0000000,9.00,38.4062042,-110.7921524,1363.6999512,0.0,245.7,0.9,0.0,0.0,864,130,0,0,860.78,11.26,26.56,# data time:5580,pm2.5:6.445,pm10:5.704,O2:0.000,NO2:0.010,SO2:0.000,NH3:7.799
13:52:19,0,0,0,0,0,2700,2200,1,0,0,0,515,0,0,0,0,0.0000000,0.0000000,0.0000000,0.0000000,9.00,38.4062042,-110.7921524,1363.6999512,0.0,246.2,0.9,0.0,0.0,866,128,0,0,860.77,11.25,26.56,# data time:5580,pm2.5:6.445,pm10:5.704,O2:0.000,NO2:0.010,SO2:0.000,NH3:7.799
13:52:20,0,0,0,0,0,2700,2200,1,0,0,0,514,0,0,0,0,0.0000000,0.0000000,0.0000000,0.0000000,9.00,38.4062042,-110.7921524,1363.6999512,0.0,239.5,0.9,0.0,0.0,865,130,0,0,860.79,11.25,26.56,# data time:5580,pm2.5:6.445,pm10:5.704,O2:0.000,NO2:0.010,SO2:0.000,NH3:7.799
13:52:21,0,0,0,0,0,2700,2200,1,0,0,0,514,0,0,0,0,0.0000000,0.0000000,0.0000000,0.0000000,9.00,38.4062042,-110.7921524,1363.6999512,0.1,223.0,0.9,0.0,0.0,865,128,0,0,860.89,11.25,26.56,# data time:5580,pm2.5:6.445,pm10:5.704,O2:0.000,NO2:0.010,SO2:0.000,NH3:7.799
13:52:22,0,0,0,0,0,2700,2200,1,0,0,0,514,0,0,0,0,0.0000000,0.0000000,0.0000000,0.0000000,9.00,38.4062042,-110.7921524,1363.6999512,0.1,212.9,0.9,0.0,0.0,865,130,0,0,860.82,11.25,26.56,# data time:5580,pm2.5:6.445,pm10:5.704,O2:0.000,NO2:0.010,SO2:0.000,NH3:7.799
13:52:23,0,0,0,0,0,2700,2200,1,0,0,0,514,0,0,0,0,0.0000000,0.0000000,0.0000000,0.0000000,9.00,38.4062042,-110.7921524,1363.6999512,0.0,250.1,0.9,0.0,0.0,865,130,0,0,860.88,11.23,26.56,# data time:5580,pm2.5:6.445,pm10:5.704,O2:0.000,NO2:0.010,SO2:0.000,NH3:7.799
13:52:24,0,0,0,0,0,2700,2200,1,0,0,0,514,0,0,0,0,0.0000000,0.0000000,0.0000000,0.0000000,9.00,38.4062042,-110.7921524,1363.6999512,0.0,80.7,0.9,0.0,0.0,865,129,0,0,860.92,11.23,26.57,# data time:5580,pm2.5:6.445,pm10:5.704,O2:0.000,NO2:0.010,SO2:0.000,NH3:7.799
13:52:25,0,0,0,0,0,2700,2200,1,0,0,0,514,0,0,0,0,0.0000000,0.0000000,0.0000000,0.0000000,9.00,38.4062042,-110.7921524,1363.6999512,0.0,107.3,0.9,0.0,0.0,865,127,0,0,860.83,11.25,26.57,# data time:5580,pm2.5:6.445,pm10:5.704,O2:0.000,NO2:0.010,SO2:0.000,NH3:7.799
13:52:26,0,0,0,0,0,2700,2200,1,0,0,0,514,0,0,0,0,0.0000000,0.0000000,0.0000000,0.0000000,9.00,38.4062042,-110.7921524,1363.6999512,0.0,151.1,0.9,0.0,0.0,866,130,0,0,860.87,11.26,26.57,# data time:5580,pm2.5:6.445,pm10:5.704,O2:0.000,NO2:0.010,SO2:0.000,NH3:7.799
13:52:27,0,0,0,0,0,2700,2200,1,0,0,0,513,0,0,0,0,0.0000000,0.0000000,0.0000000,0.0000000,9.00,38.4062042,-110.7921524,1363.6999512,0.0,157.5,0.9,0.0,0.0,865,128,0,0,860.85,11.26,26.56,# data time:5580,pm2.5:6.445,pm10:5.704,O2:0.000,NO2:0.010,SO2:0.000,NH3:7.799
13:52:29,0,0,0,0,0,2700,2200,1,0,0,0,515,0,0,0,0,0.0000000,0.0000000,0.0000000,0.0000000,9.00,38.4062042,-110.7921524,1363.6999512,0.0,201.2,0.9,0.0,0.0,865,130,0,0,860.84,11.25,26.56,# data time:5590,pm2.5:6.445,pm10:5.704,O2:0.000,NO2:0.063,SO2:0.000,NH3:7.799
13:52:30,0,0,0,0,0,2700,2200,1,0,0,0,514,0,0,0,0,0.0000000,0.0000000,0.0000000,0.0000000,9.00,38.4062042,-110.7921524,1363.5999756,0.0,170.3,0.9,0.0,0.0,865,132,0,0,860.87,11.25,26.56,# data time:5590,pm2.5:6.445,pm10:5.704,O2:0.000,NO2:0.063,SO2:0.000,NH3:7.799
13:52:31,0,0,0,0,0,2700,2200,1,0,0,0,514,0,0,0,0,0.0000000,0.0000000,0.0000000,0.0000000,9.00,38.4062042,-110.7921524,1363.5999756,0.0,213.7,0.9,0.0,0.0,865,127,0,0,860.88,11.26,26.55,# data time:5590,pm2.5:6.445,pm10:5.704,O2:0.000,NO2:0.063,SO2:0.000,NH3:7.799
13:52:32,0,0,0,0,0,2700,2200,1,0,0,0,514,0,0,0,0,0.0000000,0.0000000,0.0000000,0.0000000,9.00,38.4062042,-110.7921524,1363.5999756,0.0,237.0,0.9,0.0,0.0,865,130,0,0,860.84,11.28,26.47,# data time:5590,pm2.5:6.445,pm10:5.704,O2:0.000,NO2:0.063,SO2:0.000,NH3:7.799
13:52:33,0,0,0,0,0,2700,2200,1,0,0,0,514,0,0,0,0,0.0000000,0.0000000,0.0000000,0.0000000,9.00,38.4062042,-110.7921524,1363.5999756,0.0,237.0,0.9,0.0,0.0,865,129,0,0,860.82,11.23,26.51,# data time:5590,pm2.5:6.445,pm10:5.704,O2:0.000,NO2:0.063,SO2:0.000,NH3:7.799
13:52:34,0,0,0,0,0,2700,2200,1,0,0,0,514,0,0,0,0,0.0000000,0.0000000,0.0000000,0.0000000,9.00,38.4062042,-110.7921524,1363.5999756,0.0,237.0,0.9,0.0,0.0,865,129,0,0,860.83,11.26,26.45,# data time:5590,pm2.5:6.445,pm10:5.704,O2:0.000,NO2:0.063,SO2:0.000,NH3:7.799
13:52:35,0,0,0,0,0,2700,2200,1,0,0,0,513,0,0,0,0,0.0000000,0.0000000,0.0000000,0.0000000,9.00,38.4062042,-110.7921524,1363.5000000,0.0,212.0,0.9,0.0,0.0,865,128,0,0,860.76,11.28,26.50,# data time:5590,pm2.5:6.445,pm10:5.704,O2:0.000,NO2:0.063,SO2:0.000,NH3:7.799
13:52:36,0,0,0,0,0,2700,2200,1,0,0,0,514,0,0,0,0,0.0000000,0.0000000,0.0000000,0.0000000,9.00,38.4062042,-110.7921524,1363.5000000,0.0,181.1,0.9,0.0,0.0,865,131,0,0,860.80,11.28,26.54,# data time:5590,pm2.5:6.445,pm10:5.704,O2:0.000,NO2:0.063,SO2:0.000,NH3:7.799
13:52:37,0,0,0,0,0,2700,2200,1,0,0,0,514,0,0,0,0,0.0000000,0.0000000,0.0000000,0.0000000,9.00,38.4062042,-110.7921524,1363.5000000,0.0,244.4,0.9,0.0,0.0,865,132,0,0,860.80,11.28,26.54,# data time:5590,pm2.5:6.445,pm10:5.704,O2:0.000,NO2:0.063,SO2:0.000,NH3:7.799
13:52:38,0,0,0,0,0,2700,2200,1,0,0,0,514,0,0,0,0,0.0000000,0.0000000,0.0000000,0.0000000,9.00,38.4062042,-110.7921524,1363.5000000,0.0,289.7,0.9,0.0,0.0,865,129,0,0,860.79,11.28,26.55,# data time:5600,pm2.5:6.445,pm10:5.704,O2:0.000,NO2:0.028,SO2:0.000,NH3:7.799
13:52:39,0,0,0,0,0,2700,2200,1,0,0,0,514,0,0,0,0,0.0000000,0.0000000,0.0000000,0.0000000,9.00,38.4062042,-110.7921524,1363.5000000,0.0,278.9,0.9,0.0,0.0,866,128,0,0,860.83,11.25,26.55,# data time:5600,pm2.5:6.445,pm10:5.704,O2:0.000,NO2:0.028,SO2:0.000,NH3:7.799
13:52:40,0,0,0,0,0,2700,2200,1,0,0,0,514,0,0,0,0,0.0000000,0.0000000,0.0000000,0.0000000,9.00,38.4062042,-110.7921524,1363.5000000,0.0,295.5,0.9,0.0,0.0,865,129,0,0,860.80,11.26,26.55,# data time:5600,pm2.5:6.445,pm10:5.704,O2:0.000,NO2:0.028,SO2:0.000,NH3:7.799
13:52:41,0,0,0,0,0,2700,2200,1,0,0,0,514,0,0,0,0,0.0000000,0.0000000,0.0000000,0.0000000,9.00,38.4062042,-110.7921524,1363.5000000,0.1,235.6,0.9,0.0,0.0,865,127,0,0,860.86,11.25,26.54,# data time:5600,pm2.5:6.445,pm10:5.704,O2:0.000,NO2:0.028,SO2:0.000,NH3:7.799
13:52:42,0,0,0,0,0,2700,2200,1,0,0,0,514,0,0,0,0,0.0000000,0.0000000,0.0000000,0.0000000,9.00,38.4062042,-110.7921524,1363.5000000,0.0,136.1,0.9,0.0,0.0,865,128,0,0,860.81,11.28,26.54,# data time:5600,pm2.5:6.445,pm10:5.704,O2:0.000,NO2:0.028,SO2:0.000,NH3:7.799
13:52:43,0,0,0,0,0,2700,2200,1,0,0,0,514,0,0,0,0,0.0000000,0.0000000,0.0000000,0.0000000,9.00,38.4062042,-110.7921524,1363.5000000,0.0,338.3,0.9,0.0,0.0,865,130,0,0,860.78,11.25,26.55,# data time:5600,pm2.5:6.445,pm10:5.704,O2:0.000,NO2:0.028,SO2:0.000,NH3:7.799
13:52:44,0,0,0,0,0,2700,2200,1,0,0,0,514,0,0,0,0,0.0000000,0.0000000,0.0000000,0.0000000,9.00,38.4062042,-110.7921524,1363.5000000,0.0,286.8,0.9,0.0,0.0,865,128,0,0,860.78,11.26,26.54,# data time:5600,pm2.5:6.445,pm10:5.704,O2:0.000,NO2:0.028,SO2:0.000,NH3:7.799
13:52:45,0,0,0,0,0,2700,2200,1,0,0,0,514,0,0,0,0,0.0000000,0.0000000,0.0000000,0.0000000,9.00,38.4062042,-110.7921524,1363.4000244,0.0,241.5,0.9,0.0,0.0,865,128,0,0,860.76,11.26,26.54,# data time:5600,pm2.5:6.445,pm10:5.704,O2:0.000,NO2:0.028,SO2:0.000,NH3:7.799
13:52:46,0,0,0,0,0,2700,2200,1,0,0,0,514,0,0,0,0,0.0000000,0.0000000,0.0000000,0.0000000,9.00,38.4062042,-110.7921524,1363.4000244,0.0,342.1,0.9,0.0,0.0,865,128,0,0,860.78,11.26,26.54,# data time:5600,pm2.5:6.445,pm10:5.704,O2:0.000,NO2:0.028,SO2:0.000,NH3:7.799
13:52:47,0,0,0,0,0,2700,2200,1,0,0,0,514,0,0,0,0,0.0000000,0.0000000,0.0000000,0.0000000,9.00,38.4062042,-110.7921524,1363.4000244,0.0,190.0,0.9,0.0,0.0,865,128,0,0,860.72,11.25,26.54,# data time:5600,pm2.5:6.445,pm10:5.704,O2:0.000,NO2:0.028,SO2:0.000,NH3:7.799
13:52:48,0,0,0,0,0,2700,2200,1,0,0,0,514,0,0,0,0,0.0000000,0.0000000,0.0000000,0.0000000,9.00,38.4062042,-110.7921524,1363.4000244,0.0,213.2,0.9,0.0,0.0,865,131,0,0,860.71,11.26,26.54,# data time:5610,pm2.5:6.445,pm10:5.704,O2:0.000,NO2:0.000,SO2:0.000,NH3:7.799
13:52:49,0,0,0,0,0,2700,2200,1,0,0,0,514,0,0,0,0,0.0000000,0.0000000,0.0000000,0.0000000,9.00,38.4062042,-110.7921524,1363.4000244,0.0,256.0,0.9,0.0,0.0,865,129,0,0,860.78,11.25,26.55,# data time:5610,pm2.5:6.445,pm10:5.704,O2:0.000,NO2:0.000,SO2:0.000,NH3:7.799
13:52:50,0,0,0,0,0,2700,2200,1,0,0,0,514,0,0,0,0,0.0000000,0.0000000,0.0000000,0.0000000,9.00,38.4062042,-110.7921524,1363.4000244,0.0,263.5,0.9,0.0,0.0,864,129,0,0,860.75,11.26,26.55,# data time:5610,pm2.5:6.445,pm10:5.704,O2:0.000,NO2:0.000,SO2:0.000,NH3:7.799
13:52:51,0,0,0,0,0,2700,2200,1,0,0,0,514,0,0,0,0,0.0000000,0.0000000,0.0000000,0.0000000,9.00,38.4062042,-110.7921524,1363.4000244,0.0,259.0,0.9,0.0,0.0,864,128,0,0,860.75,11.25,26.56,# data time:5610,pm2.5:6.445,pm10:5.704,O2:0.000,NO2:0.000,SO2:0.000,NH3:7.799
13:52:53,0,0,0,0,0,2700,2200,1,0,0,0,514,0,0,0,0,0.0000000,0.0000000,0.0000000,0.0000000,9.00,38.4062042,-110.7921524,1363.4000244,0.1,244.2,0.9,0.0,0.0,865,129,0,0,860.73,11.26,26.56,# data time:5610,pm2.5:6.445,pm10:5.704,O2:0.000,NO2:0.000,SO2:0.000,NH3:7.799
13:52:54,0,0,0,0,0,2700,2200,1,0,0,0,514,0,0,0,0,0.0000000,0.0000000,0.0000000,0.0000000,9.00,38.4062042,-110.7921524,1363.4000244,0.0,229.2,0.9,0.0,0.0,865,128,0,0,860.75,11.26,26.56,# data time:5610,pm2.5:6.445,pm10:5.704,O2:0.000,NO2:0.000,SO2:0.000,NH3:7.799
13:52:55,0,0,0,0,0,2700,2200,1,0,0,0,514,0,0,0,0,0.0000000,0.0000000,0.0000000,0.0000000,9.00,38.4062042,-110.7921524,1363.4000244,0.0,247.3,0.9,0.0,0.0,865,129,0,0,860.75,11.25,26.55,# data time:5610,pm2.5:6.445,pm10:5.704,O2:0.000,NO2:0.000,SO2:0.000,NH3:7.799
13:52:56,0,0,0,0,0,2700,2200,1,0,0,0,514,0,0,0,0,0.0000000,0.0000000,0.0000000,0.0000000,9.00,38.4062042,-110.7921524,1363.3000488,0.0,223.4,0.9,0.0,0.0,866,130,0,0,860.70,11.28,26.47,# data time:5610,pm2.5:6.445,pm10:5.704,O2:0.000,NO2:0.000,SO2:0.000,NH3:7.799
13:52:57,0,0,0,0,0,2700,2200,1,0,0,0,515,0,0,0,0,0.0000000,0.0000000,0.0000000,0.0000000,9.00,38.4062042,-110.7921524,1363.3000488,0.0,223.4,0.9,0.0,0.0,865,129,0,0,860.70,11.25,26.45,# data time:5610,pm2.5:6.445,pm10:5.704,O2:0.000,NO2:0.000,SO2:0.000,NH3:7.799
13:52:58,0,0,0,0,0,2700,2200,1,0,0,0,515,0,0,0,0,0.0000000,0.0000000,0.0000000,0.0000000,9.00,38.4062042,-110.7921524,1363.3000488,0.0,223.4,0.9,0.0,0.0,865,128,0,0,860.74,11.28,26.51,# data time:5610,pm2.5:6.445,pm10:5.704,O2:0.000,NO2:0.000,SO2:0.000,NH3:7.799
13:52:59,0,0,0,0,0,2700,2200,1,0,0,0,514,0,0,0,0,0.0000000,0.0000000,0.0000000,0.0000000,9.00,38.4062042,-110.7921524,1363.3000488,0.0,298.4,0.9,0.0,0.0,865,130,0,0,860.72,11.26,26.51,# data time:5620,pm2.5:6.445,pm10:5.704,O2:0.000,NO2:0.028,SO2:NH3:8.025
13:53:00,0,0,0,0,0,2700,2200,1,0,0,0,514,0,0,0,0,0.0000000,0.0000000,0.0000000,0.0000000,9.00,38.4062042,-110.7921524,1363.3000488,0.0,226.9,0.9,0.0,0.0,865,128,0,0,860.73,11.26,26.55,# data time:5620,pm2.5:6.445,pm10:5.704,O2:0.000,NO2:0.028,SO2:NH3:8.025
13:53:01,0,0,0,0,0,2700,2200,1,0,0,0,514,0,0,0,0,0.0000000,0.0000000,0.0000000,0.0000000,9.00,38.4062042,-110.7921524,1363.3000488,0.1,226.6,0.9,0.0,0.0,865,128,0,0,860.76,11.23,26.55,# data time:5620,pm2.5:6.445,pm10:5.704,O2:0.000,NO2:0.028,SO2:NH3:8.025
13:53:02,0,0,0,0,0,2700,2200,1,0,0,0,514,0,0,0,0,0.0000000,0.0000000,0.0000000,0.0000000,9.00,38.4062042,-110.7921524,1363.3000488,0.0,233.6,0.9,0.0,0.0,865,128,0,0,860.81,11.31,26.56,# data time:5620,pm2.5:6.445,pm10:5.704,O2:0.000,NO2:0.028,SO2:NH3:8.025
13:53:03,0,0,0,0,0,2700,2200,1,0,0,0,515,0,0,0,0,0.0000000,0.0000000,0.0000000,0.0000000,9.00,38.4062042,-110.7921524,1363.3000488,0.0,251.3,0.9,0.0,0.0,865,134,0,0,860.84,11.28,26.56,# data time:5620,pm2.5:6.445,pm10:5.704,O2:0.000,NO2:0.028,SO2:NH3:8.025
13:53:04,0,0,0,0,0,2700,2200,1,0,0,0,514,0,0,0,0,0.0000000,0.0000000,0.0000000,0.0000000,9.00,38.4062042,-110.7921524,1363.3000488,0.0,282.4,0.9,0.0,0.0,865,129,0,0,860.80,11.28,26.56,# data time:5620,pm2.5:6.445,pm10:5.704,O2:0.000,NO2:0.028,SO2:NH3:8.025
13:53:05,0,0,0,0,0,2700,2200,1,0,0,0,514,0,0,0,0,0.0000000,0.0000000,0.0000000,0.0000000,9.00,38.4062042,-110.7921524,1363.3000488,0.0,246.9,0.9,0.0,0.0,865,127,0,0,860.83,11.26,26.56,# data time:5620,pm2.5:6.445,pm10:5.704,O2:0.000,NO2:0.028,SO2:NH3:8.025
13:53:06,0,0,0,0,0,2700,2200,1,0,0,0,514,0,0,0,0,0.0000000,0.0000000,0.0000000,0.0000000,9.00,38.4062042,-110.7921524,1363.3000488,0.0,349.6,0.9,0.0,0.0,865,130,0,0,860.79,11.23,26.56,# data time:5620,pm2.5:6.445,pm10:5.704,O2:0.000,NO2:0.028,SO2:NH3:8.025
13:53:07,0,0,0,0,0,2700,2200,1,0,0,0,514,0,0,0,0,0.0000000,0.0000000,0.0000000,0.0000000,9.00,38.4062042,-110.7921524,1363.3000488,0.0,304.2,0.9,0.0,0.0,866,127,0,0,860.75,11.28,26.56,# data time:5620,pm2.5:6.445,pm10:5.704,O2:0.000,NO2:0.028,SO2:NH3:8.025
13:53:08,0,0,0,0,0,2700,2200,1,0,0,0,514,0,0,0,0,0.0000000,0.0000000,0.0000000,0.0000000,9.00,38.4062042,-110.7921524,1363.1999512,0.0,69.2,0.9,0.0,0.0,865,131,0,0,860.76,11.26,26.57,# data time:5630,pm2.5:6.445,pm10:5.704,O2:0.000,NO2:0.028,SO2:NH3:7.799
13:53:09,0,0,0,0,0,2700,2200,1,0,0,0,514,0,0,0,0,0.0000000,0.0000000,0.0000000,0.0000000,9.00,38.4062042,-110.7921524,1363.1999512,0.0,288.7,0.9,0.0,0.0,866,129,0,0,860.75,11.28,26.57,# data time:5630,pm2.5:6.445,pm10:5.704,O2:0.000,NO2:0.028,SO2:NH3:7.799
13:53:10,0,0,0,0,0,2700,2200,1,0,0,0,514,0,0,0,0,0.0000000,0.0000000,0.0000000,0.0000000,9.00,38.4062042,-110.7921524,1363.1999512,0.0,311.8,0.9,0.0,0.0,865,133,0,0,860.74,11.26,26.57,# data time:5630,pm2.5:6.445,pm10:5.704,O2:0.000,NO2:0.028,SO2:NH3:7.799
13:53:11,0,0,0,0,0,2700,2200,1,0,0,0,514,0,0,0,0,0.0000000,0.0000000,0.0000000,0.0000000,9.00,38.4062042,-110.7921524,1363.1999512,0.0,288.1,0.9,0.0,0.0,865,130,0,0,860.80,11.26,26.57,# data time:5630,pm2.5:6.445,pm10:5.704,O2:0.000,NO2:0.028,SO2:NH3:7.799
13:53:12,0,0,0,0,0,2700,2200,1,0,0,0,514,0,0,0,0,0.0000000,0.0000000,0.0000000,0.0000000,9.00,38.4062042,-110.7921524,1363.1999512,0.0,219.9,0.9,0.0,0.0,865,130,0,0,860.77,11.26,26.57,# data time:5630,pm2.5:6.445,pm10:5.704,O2:0.000,NO2:0.028,SO2:NH3:7.799
13:53:13,0,0,0,0,0,2700,2200,1,0,0,0,514,0,0,0,0,0.0000000,0.0000000,0.0000000,0.0000000,9.00,38.4062042,-110.7921524,1363.1999512,0.0,60.9,0.9,0.0,0.0,865,127,0,0,860.81,11.25,26.57,# data time:5630,pm2.5:6.445,pm10:5.704,O2:0.000,NO2:0.028,SO2:NH3:7.799
13:53:14,0,0,0,0,0,2700,2200,1,0,0,0,514,0,0,0,0,0.0000000,0.0000000,0.0000000,0.0000000,9.00,38.4062042,-110.7921524,1363.1999512,0.0,216.0,0.9,0.0,0.0,865,131,0,0,860.76,11.23,26.57,# data time:5630,pm2.5:6.445,pm10:5.704,O2:0.000,NO2:0.028,SO2:NH3:7.799
13:53:15,0,0,0,0,0,2700,2200,1,0,0,0,514,0,0,0,0,0.0000000,0.0000000,0.0000000,0.0000000,9.00,38.4062042,-110.7921524,1363.1999512,0.0,204.9,0.9,0.0,0.0,865,131,0,0,860.79,11.26,26.57,# data time:5630,pm2.5:6.445,pm10:5.704,O2:0.000,NO2:0.028,SO2:NH3:7.799
13:53:16,0,0,0,0,0,2700,2200,1,0,0,0,514,0,0,0,0,0.0000000,0.0000000,0.0000000,0.0000000,9.00,38.4062042,-110.7921524,1363.1999512,0.0,337.5,0.9,0.0,0.0,865,128,0,0,860.79,11.23,26.57,# data time:5630,pm2.5:6.445,pm10:5.704,O2:0.000,NO2:0.028,SO2:NH3:7.799
13:53:17,0,0,0,0,0,2700,2200,1,0,0,0,513,0,0,0,0,0.0000000,0.0000000,0.0000000,0.0000000,9.00,38.4062042,-110.7921524,1363.1999512,0.0,282.6,0.9,0.0,0.0,865,129,0,0,860.71,11.26,26.58,# data time:5630,pm2.5:6.445,pm10:5.704,O2:0.000,NO2:0.028,SO2:NH3:7.799
