Time, Motor A Speed, Motor A Dir, Motor B Speed, Motor B Dir, Servo Rail Current Sensor, Servo Pos - Arm L, Servo Pos - Arm R, Servo Pos - End, Servo Pos - Hopper, Servo Pos - Lid, Servo Pos - Extra, Servo Current, LED - Front L, LED - Front R, LED - Back L, LED - Back R, IMU Pitch, IMU Roll, IMU Yaw, Compass Heading, GPS Sats, GPS Latitude, GPS Longitude, GPS Altitude, GPS Speed, GPS Angle, GPS HDOP, GPS VDOP, GPS PDOP, Battery, Wind, Comm Xbee Latency, Comm Arduino Latency, Pressure, Humidity, Temperature, uRADMonitor
12:34:24,0,0,0,0,0,2700,2200,1,0,0,0,513,0,0,0,0,0.0000000,0.0000000,0.0000000,0.0000000,8.00,38.4047890,-110.7904358,1368.0000000,6.2,226.4,1.1,0.0,0.0,886,148,0,0,861.56,15.60,21.78,# data time:900,pm2.5:6.445,pm10:5.704,O2:0.000,NO2:0.000,SO2:0.000,NH3:9.157
12:34:25,0,0,0,0,0,2700,2200,1,0,0,0,514,0,0,0,0,0.0000000,0.0000000,0.0000000,0.0000000,8.00,38.4047737,-110.7904663,1367.6999512,6.0,224.5,1.1,0.0,0.0,885,149,0,0,861.60,15.66,21.77,# data time:900,pm2.5:6.445,pm10:5.704,O2:0.000,NO2:0.000,SO2:0.000,NH3:9.157
12:34:26,0,0,0,0,0,2700,2200,1,0,0,0,515,0,0,0,0,0.0000000,0.0000000,0.0000000,0.0000000,8.00,38.4047508,-110.7904892,1367.5000000,6.2,223.0,1.1,0.0,0.0,886,148,0,0,861.64,15.67,21.72,# data time:900,pm2.5:6.445,pm10:5.704,O2:0.000,NO2:0.000,SO2:0.000,NH3:9.157
12:34:27,0,0,0,0,0,2700,2200,1,0,0,0,514,0,0,0,0,0.0000000,0.0000000,0.0000000,0.0000000,8.00,38.4047318,-110.7905121,1367.3000488,6.7,221.0,1.1,0.0,0.0,886,147,0,0,861.68,15.69,21.69,# data time:900,pm2.5:6.445,pm10:5.704,O2:0.000,NO2:0.000,SO2:0.000,NH3:9.157
12:34:28,0,0,0,0,0,2700,2200,1,0,0,0,514,0,0,0,0,0.0000000,0.0000000,0.0000000,0.0000000,8.00,38.4047089,-110.7905426,1367.0999756,6.4,224.3,1.1,0.0,0.0,886,147,0,0,861.70,15.76,21.65,# data time:900,pm2.5:6.445,pm10:5.704,O2:0.000,NO2:0.000,SO2:0.000,NH3:9.157
12:34:29,0,0,0,0,0,2700,2200,1,0,0,0,514,0,0,0,0,0.0000000,0.0000000,0.0000000,0.0000000,8.00,38.4046898,-110.7905655,1366.9000244,6.1,221.0,1.1,0.0,0.0,886,146,0,0,861.66,15.84,21.61,# data time:900,pm2.5:6.445,pm10:5.704,O2:0.000,NO2:0.000,SO2:0.000,NH3:9.157
12:34:30,0,0,0,0,0,2700,2200,1,0,0,0,514,0,0,0,0,0.0000000,0.0000000,0.0000000,0.0000000,8.00,38.4046669,-110.7905884,1366.9000244,6.4,221.7,1.1,0.0,0.0,886,148,0,0,861.67,15.90,21.63,# data time:900,pm2.5:6.445,pm10:5.704,O2:0.000,NO2:0.000,SO2:0.000,NH3:9.157
12:34:31,0,0,0,0,0,2700,2200,1,0,0,0,515,0,0,0,0,0.0000000,0.0000000,0.0000000,0.0000000,8.00,38.4046440,-110.7906189,1366.9000244,6.9,220.3,1.1,0.0,0.0,886,148,0,0,861.67,15.92,21.66,# data time:910,pm2.5:6.445,pm10:5.704,O2:0.000,NO2:0.000,SO2:0.000,NH3:9.157
12:34:32,0,0,0,0,0,2700,2200,1,0,0,0,514,0,0,0,0,0.0000000,0.0000000,0.0000000,0.0000000,8.00,38.4046173,-110.7906418,1367.0000000,7.2,221.4,1.1,0.0,0.0,886,142,0,0,861.66,15.90,21.67,# data time:910,pm2.5:6.445,pm10:5.704,O2:0.000,NO2:0.000,SO2:0.000,NH3:9.157
12:34:33,0,0,0,0,0,2700,2200,1,0,0,0,515,0,0,0,0,0.0000000,0.0000000,0.0000000,0.0000000,8.00,38.4045944,-110.7906723,1366.5999756,6.9,224.1,1.1,0.0,0.0,886,141,0,0,861.64,15.92,21.69,# data time:910,pm2.5:6.445,pm10:5.704,O2:0.000,NO2:0.000,SO2:0.000,NH3:9.157
12:34:34,0,0,0,0,0,2700,2200,1,0,0,0,513,0,0,0,0,0.0000000,0.0000000,0.0000000,0.0000000,8.00,38.4045715,-110.7907104,1366.5999756,6.6,221.3,1.1,0.0,0.0,885,145,0,0,861.67,15.90,21.70,# data time:910,pm2.5:6.445,pm10:5.704,O2:0.000,NO2:0.000,SO2:0.000,NH3:9.157
12:34:35,0,0,0,0,0,2700,2200,1,0,0,0,514,0,0,0,0,0.0000000,0.0000000,0.0000000,0.0000000,8.00,38.4045486,-110.7907333,1366.4000244,6.4,222.9,1.1,0.0,0.0,885,147,0,0,861.63,15.95,21.68,# data time:910,pm2.5:6.445,pm10:5.704,O2:0.000,NO2:0.000,SO2:0.000,NH3:9.157
12:34:36,0,0,0,0,0,2700,2200,1,0,0,0,515,0,0,0,0,0.0000000,0.0000000,0.0000000,0.0000000,8.00,38.4045296,-110.7907562,1366.1999512,6.6,227.4,1.1,0.0,0.0,885,146,0,0,861.68,15.93,21.66,# data time:910,pm2.5:6.445,pm10:5.704,O2:0.000,NO2:0.000,SO2:0.000,NH3:9.157
12:34:37,0,0,0,0,0,2700,2200,1,0,0,0,515,0,0,0,0,0.0000000,0.0000000,0.0000000,0.0000000,8.00,38.4045105,-110.7907867,1366.1999512,7.0,224.9,1.1,0.0,0.0,886,145,0,0,861.66,15.96,21.66,# data time:910,pm2.5:6.445,pm10:5.704,O2:0.000,NO2:0.000,SO2:0.000,NH3:9.157
12:34:38,0,0,0,0,0,2700,2200,1,0,0,0,515,0,0,0,0,0.0000000,0.0000000,0.0000000,0.0000000,8.00,38.4044876,-110.7908096,1366.1999512,6.5,223.2,1.1,0.0,0.0,886,150,0,0,861.58,16.04,21.66,# data time:910,pm2.5:6.445,pm10:5.704,O2:0.000,NO2:0.000,SO2:0.000,NH3:9.157
12:34:39,0,0,0,0,0,2700,2200,1,0,0,0,514,0,0,0,0,0.0000000,0.0000000,0.0000000,0.0000000,8.00,38.4044685,-110.7908325,1366.0999756,5.7,225.1,1.1,0.0,0.0,885,150,0,0,861.66,16.01,21.63,# data time:910,pm2.5:6.445,pm10:5.704,O2:0.000,NO2:0.000,SO2:0.000,NH3:9.157
12:34:41,0,0,0,0,0,2700,2200,1,0,0,0,514,0,0,0,0,0.0000000,0.0000000,0.0000000,0.0000000,8.00,38.4044495,-110.7908630,1365.9000244,6.2,221.9,1.1,0.0,0.0,886,143,0,0,861.67,15.95,21.59,# data time:910,pm2.5:6.445,pm10:5.704,O2:0.000,NO2:0.000,SO2:0.000,NH3:9.157
12:34:42,0,0,0,0,0,2700,2200,1,0,0,0,514,0,0,0,0,0.0000000,0.0000000,0.0000000,0.0000000,8.00,38.4044266,-110.7908859,1365.9000244,6.6,225.8,1.1,0.0,0.0,886,153,0,0,861.69,16.04,21.50,# data time:920,pm2.5:6.445,pm10:5.704,O2:0.000,NO2:0.010,SO2:0.000,NH3:9.157
12:34:43,0,0,0,0,0,2700,2200,1,0,0,0,515,0,0,0,0,0.0000000,0.0000000,0.0000000,0.0000000,8.00,38.4044075,-110.7909088,1365.6999512,6.7,220.3,1.1,0.0,0.0,885,154,0,0,861.66,15.99,21.54,# data time:920,pm2.5:6.445,pm10:5.704,O2:0.000,NO2:0.010,SO2:0.000,NH3:9.157
12:34:44,0,0,0,0,0,2700,2200,1,0,0,0,515,0,0,0,0,0.0000000,0.0000000,0.0000000,0.0000000,8.00,38.4043846,-110.7909393,1365.5999756,6.3,218.6,1.1,0.0,0.0,886,153,0,0,861.66,16.08,21.53,# data time:920,pm2.5:6.445,pm10:5.704,O2:0.000,NO2:0.010,SO2:0.000,NH3:9.157
12:34:45,0,0,0,0,0,2700,2200,1,0,0,0,515,0,0,0,0,0.0000000,0.0000000,0.0000000,0.0000000,8.00,38.4043617,-110.7909622,1365.4000244,6.1,222.7,1.1,0.0,0.0,886,152,0,0,861.73,16.17,21.52,# data time:920,pm2.5:6.445,pm10:5.704,O2:0.000,NO2:0.010,SO2:0.000,NH3:9.157
12:34:46,0,0,0,0,0,2700,2200,1,0,0,0,514,0,0,0,0,0.0000000,0.0000000,0.0000000,0.0000000,8.00,38.4043427,-110.7909851,1365.1999512,6.1,222.3,1.1,0.0,0.0,885,157,0,0,861.73,16.10,21.52,# data time:920,pm2.5:6.445,pm10:5.704,O2:0.000,NO2:0.010,SO2:0.000,NH3:9.157
12:34:47,0,0,0,0,0,2700,2200,1,0,0,0,514,0,0,0,0,0.0000000,0.0000000,0.0000000,0.0000000,8.00,38.4043198,-110.7910156,1365.1999512,5.9,220.6,1.1,0.0,0.0,886,156,0,0,861.72,16.04,21.50,# data time:920,pm2.5:6.445,pm10:5.704,O2:0.000,NO2:0.010,SO2:0.000,NH3:9.157
12:34:48,0,0,0,0,0,2700,2200,1,0,0,0,514,0,0,0,0,0.0000000,0.0000000,0.0000000,0.0000000,8.00,38.4043007,-110.7910385,1364.8000488,6.5,220.8,1.1,0.0,0.0,886,153,0,0,861.73,16.30,21.40,# data time:920,pm2.5:6.445,pm10:5.704,O2:0.000,NO2:0.010,SO2:0.000,NH3:9.157
12:34:49,0,0,0,0,0,2700,2200,1,0,0,0,514,0,0,0,0,0.0000000,0.0000000,0.0000000,0.0000000,8.00,38.4042625,-110.7910919,1364.0000000,5.9,222.8,1.1,0.0,0.0,886,154,0,0,861.71,16.22,21.45,# data time:920,pm2.5:6.445,pm10:5.704,O2:0.000,NO2:0.010,SO2:0.000,NH3:9.157
12:34:50,0,0,0,0,0,2700,2200,1,0,0,0,514,0,0,0,0,0.0000000,0.0000000,0.0000000,0.0000000,8.00,38.4042435,-110.7911148,1364.1999512,5.9,222.8,1.1,0.0,0.0,886,154,0,0,861.73,16.21,21.45,# data time:920,pm2.5:6.445,pm10:5.704,O2:0.000,NO2:0.010,SO2:0.000,NH3:9.157
12:34:51,0,0,0,0,0,2700,2200,1,0,0,0,514,0,0,0,0,0.0000000,0.0000000,0.0000000,0.0000000,8.00,38.4042206,-110.7911453,1363.9000244,5.9,222.8,1.1,0.0,0.0,886,159,0,0,861.74,16.40,21.39,# data time:930,pm2.5:6.445,pm10:5.704,O2:0.000,NO2:0.000,SO2:0.000,NH3:8.704
12:34:52,0,0,0,0,0,2700,2200,1,0,0,0,514,0,0,0,0,0.0000000,0.0000000,0.0000000,0.0000000,8.00,38.4041977,-110.7911682,1363.9000244,6.7,225.6,1.1,0.0,0.0,886,152,0,0,861.74,16.30,21.45,# data time:930,pm2.5:6.445,pm10:5.704,O2:0.000,NO2:0.000,SO2:0.000,NH3:8.704
12:34:53,0,0,0,0,0,2700,2200,1,0,0,0,514,0,0,0,0,0.0000000,0.0000000,0.0000000,0.0000000,8.00,38.4041748,-110.7911911,1363.5999756,6.8,222.4,1.1,0.0,0.0,886,153,0,0,861.72,16.22,21.49,# data time:930,pm2.5:6.445,pm10:5.704,O2:0.000,NO2:0.000,SO2:0.000,NH3:8.704
12:34:54,0,0,0,0,0,2700,2200,1,0,0,0,514,0,0,0,0,0.0000000,0.0000000,0.0000000,0.0000000,8.00,38.4041519,-110.7912216,1363.8000488,7.1,227.2,1.1,0.0,0.0,885,151,0,0,861.74,16.22,21.49,# data time:930,pm2.5:6.445,pm10:5.704,O2:0.000,NO2:0.000,SO2:0.000,NH3:8.704
12:34:55,0,0,0,0,0,2700,2200,1,0,0,0,514,0,0,0,0,0.0000000,0.0000000,0.0000000,0.0000000,8.00,38.4041328,-110.7912445,1363.8000488,6.9,228.6,1.1,0.0,0.0,886,154,0,0,861.73,16.28,21.47,# data time:930,pm2.5:6.445,pm10:5.704,O2:0.000,NO2:0.000,SO2:0.000,NH3:8.704
12:34:56,0,0,0,0,0,2700,2200,1,0,0,0,514,0,0,0,0,0.0000000,0.0000000,0.0000000,0.0000000,8.00,38.4041138,-110.7912674,1364.0999756,6.4,228.7,1.1,0.0,0.0,885,153,0,0,861.75,16.24,21.45,# data time:930,pm2.5:6.445,pm10:5.704,O2:0.000,NO2:0.000,SO2:0.000,NH3:8.704
12:34:57,0,0,0,0,0,2700,2200,1,0,0,0,514,0,0,0,0,0.0000000,0.0000000,0.0000000,0.0000000,8.00,38.4040947,-110.7913055,1363.9000244,6.5,236.2,1.1,0.0,0.0,886,148,0,0,861.71,16.22,21.44,# data time:930,pm2.5:6.445,pm10:5.704,O2:0.000,NO2:0.000,SO2:0.000,NH3:8.704
12:34:58,0,0,0,0,0,2700,2200,1,0,0,0,515,0,0,0,0,0.0000000,0.0000000,0.0000000,0.0000000,8.00,38.4040756,-110.7913361,1364.0999756,6.8,233.5,1.1,0.0,0.0,886,151,0,0,861.77,16.24,21.42,# data time:930,pm2.5:6.445,pm10:5.704,O2:0.000,NO2:0.000,SO2:0.000,NH3:8.704
12:34:59,0,0,0,0,0,2700,2200,1,0,0,0,515,0,0,0,0,0.0000000,0.0000000,0.0000000,0.0000000,8.00,38.4040565,-110.7913589,1363.8000488,6.2,232.0,1.1,0.0,0.0,886,150,0,0,861.77,16.28,21.40,# data time:930,pm2.5:6.445,pm10:5.704,O2:0.000,NO2:0.000,SO2:0.000,NH3:8.704
12:35:00,0,0,0,0,0,2700,2200,1,0,0,0,515,0,0,0,0,0.0000000,0.0000000,0.0000000,0.0000000,8.00,38.4040375,-110.7913971,1363.5000000,6.2,227.8,1.1,0.0,0.0,886,149,0,0,861.80,16.33,21.39,# data time:930,pm2.5:6.445,pm10:5.704,O2:0.000,NO2:0.000,SO2:0.000,NH3:8.704
12:35:01,0,0,0,0,0,2700,2200,1,0,0,0,514,0,0,0,0,0.0000000,0.0000000,0.0000000,0.0000000,8.00,38.4040184,-110.7914276,1363.5000000,6.2,227.1,1.1,0.0,0.0,885,147,0,0,861.80,16.27,21.35,# data time:940,pm2.5:6.445,pm10:5.704,O2:0.000,NO2:0.000,SO2:0.000,NH3:8.704
12:35:02,0,0,0,0,0,2700,2200,1,0,0,0,514,0,0,0,0,0.0000000,0.0000000,0.0000000,0.0000000,8.00,38.4039917,-110.7914505,1363.1999512,6.6,218.6,1.1,0.0,0.0,885,145,0,0,861.82,16.24,21.40,# data time:940,pm2.5:6.445,pm10:5.704,O2:0.000,NO2:0.000,SO2:0.000,NH3:8.704
12:35:03,0,0,0,0,0,2700,2200,1,0,0,0,514,0,0,0,0,0.0000000,0.0000000,0.0000000,0.0000000,8.00,38.4039726,-110.7914658,1363.1999512,6.2,217.8,1.1,0.0,0.0,886,143,0,0,861.79,16.17,21.32,# data time:940,pm2.5:6.445,pm10:5.704,O2:0.000,NO2:0.000,SO2:0.000,NH3:8.704
12:35:04,0,0,0,0,0,2700,2200,1,0,0,0,514,0,0,0,0,0.0000000,0.0000000,0.0000000,0.0000000,8.00,38.4039459,-110.7914886,1363.0000000,6.1,211.5,1.1,0.0,0.0,886,145,0,0,861.75,16.54,21.32,# data time:940,pm2.5:6.445,pm10:5.704,O2:0.000,NO2:0.000,SO2:0.000,NH3:8.704
12:35:05,0,0,0,0,0,2700,2200,1,0,0,0,515,0,0,0,0,0.0000000,0.0000000,0.0000000,0.0000000,8.00,38.4039192,-110.7915039,1363.0000000,5.8,206.0,1.1,0.0,0.0,885,144,0,0,861.72,16.45,21.35,# data time:940,pm2.5:6.445,pm10:5.704,O2:0.000,NO2:0.000,SO2:0.000,NH3:8.704
12:35:06,0,0,0,0,0,2700,2200,1,0,0,0,515,0,0,0,0,0.0000000,0.0000000,0.0000000,0.0000000,8.00,38.4038925,-110.7915115,1363.0000000,5.8,191.6,1.1,0.0,0.0,885,146,0,0,861.78,16.30,21.38,# data time:940,pm2.5:6.445,pm10:5.704,O2:0.000,NO2:0.000,SO2:0.000,NH3:8.704
12:35:07,0,0,0,0,0,2700,2200,1,0,0,0,514,0,0,0,0,0.0000000,0.0000000,0.0000000,0.0000000,8.00,38.4038658,-110.7915115,1363.0000000,5.7,184.1,1.1,0.0,0.0,886,140,0,0,861.70,16.25,21.42,# data time:940,pm2.5:6.445,pm10:5.704,O2:0.000,NO2:0.000,SO2:0.000,NH3:8.704
12:35:08,0,0,0,0,0,2700,2200,1,0,0,0,515,0,0,0,0,0.0000000,0.0000000,0.0000000,0.0000000,8.00,38.4038353,-110.7915115,1363.1999512,5.6,181.1,1.1,0.0,0.0,885,148,0,0,861.74,16.25,21.45,# data time:940,pm2.5:6.445,pm10:5.704,O2:0.000,NO2:0.000,SO2:0.000,NH3:8.704
12:35:09,0,0,0,0,0,2700,2200,1,0,0,0,514,0,0,0,0,0.0000000,0.0000000,0.0000000,0.0000000,8.00,38.4038124,-110.7915115,1363.1999512,5.6,183.3,1.1,0.0,0.0,886,143,0,0,861.73,16.25,21.47,# data time:940,pm2.5:6.445,pm10:5.704,O2:0.000,NO2:0.000,SO2:0.000,NH3:8.704
12:35:10,0,0,0,0,0,2700,2200,1,0,0,0,515,0,0,0,0,0.0000000,0.0000000,0.0000000,0.0000000,8.00,38.4037857,-110.7915268,1363.1999512,5.9,184.0,1.1,0.0,0.0,886,142,0,0,861.67,16.24,21.49,# data time:940,pm2.5:6.445,pm10:5.704,O2:0.000,NO2:0.000,SO2:0.000,NH3:8.704
12:35:11,0,0,0,0,0,2700,2200,1,0,0,0,515,0,0,0,0,0.0000000,0.0000000,0.0000000,0.0000000,8.00,38.4037552,-110.7915268,1363.1999512,5.9,186.8,1.1,0.0,0.0,886,141,0,0,861.54,16.27,21.44,# data time:950,pm2.5:6.445,pm10:5.704,O2:0.000,NO2:0.010,SO2:0.000,NH3:8.704
12:35:12,0,0,0,0,0,2700,2200,1,0,0,0,515,0,0,0,0,0.0000000,0.0000000,0.0000000,0.0000000,8.00,38.4037285,-110.7915268,1363.1999512,6.2,183.1,1.1,0.0,0.0,886,141,0,0,861.66,16.11,21.48,# data time:950,pm2.5:6.445,pm10:5.704,O2:0.000,NO2:0.010,SO2:0.000,NH3:8.704
12:35:13,0,0,0,0,0,2700,2200,1,0,0,0,514,0,0,0,0,0.0000000,0.0000000,0.0000000,0.0000000,8.00,38.4036980,-110.7915268,1362.6999512,6.3,181.6,1.1,0.0,0.0,886,141,0,0,861.67,16.07,21.48,# data time:950,pm2.5:6.445,pm10:5.704,O2:0.000,NO2:0.010,SO2:0.000,NH3:8.704
12:35:14,0,0,0,0,0,2700,2200,1,0,0,0,515,0,0,0,0,0.0000000,0.0000000,0.0000000,0.0000000,8.00,38.4036713,-110.7915268,1362.5000000,5.9,182.7,1.1,0.0,0.0,885,139,0,0,861.66,16.21,21.45,# data time:950,pm2.5:6.445,pm10:5.704,O2:0.000,NO2:0.010,SO2:0.000,NH3:8.704
12:35:15,0,0,0,0,0,2700,2200,1,0,0,0,514,0,0,0,0,0.0000000,0.0000000,0.0000000,0.0000000,8.00,38.4036446,-110.7915268,1362.9000244,5.0,180.6,1.1,0.0,0.0,885,138,0,0,861.88,49.62,21.27,# data time:950,pm2.5:6.445,pm10:5.704,O2:0.000,NO2:0.010,SO2:0.000,NH3:8.704
12:35:16,0,0,0,0,0,2700,2200,1,0,0,0,513,0,0,0,0,0.0000000,0.0000000,0.0000000,0.0000000,8.00,38.4036255,-110.7915268,1362.5000000,4.7,178.9,1.1,0.0,0.0,885,146,0,0,861.64,16.24,21.47,# data time:950,pm2.5:6.445,pm10:5.704,O2:0.000,NO2:0.010,SO2:0.000,NH3:8.704
12:35:17,0,0,0,0,0,2700,2200,1,0,0,0,516,0,0,0,0,0.0000000,0.0000000,0.0000000,0.0000000,8.00,38.4036026,-110.7915268,1362.6999512,4.8,180.7,1.1,0.0,0.0,886,144,0,0,861.75,16.14,21.43,# data time:950,pm2.5:6.445,pm10:5.704,O2:0.000,NO2:0.010,SO2:0.000,NH3:8.704
12:35:18,0,0,0,0,0,2700,2200,1,0,0,0,514,0,0,0,0,0.0000000,0.0000000,0.0000000,0.0000000,8.00,38.4035797,-110.7915268,1362.8000488,4.9,180.4,1.1,0.0,0.0,886,143,0,0,861.78,16.21,21.36,# data time:950,pm2.5:6.445,pm10:5.704,O2:0.000,NO2:0.010,SO2:0.000,NH3:8.704
12:35:19,0,0,0,0,0,2700,2200,1,0,0,0,514,0,0,0,0,0.0000000,0.0000000,0.0000000,0.0000000,8.00,38.4035568,-110.7915268,1362.8000488,5.6,179.8,1.1,0.0,0.0,886,148,0,0,861.70,16.37,21.34,# data time:950,pm2.5:6.445,pm10:5.704,O2:0.000,NO2:0.010,SO2:0.000,NH3:8.704
12:35:20,0,0,0,0,0,2700,2200,1,0,0,0,515,0,0,0,0,0.0000000,0.0000000,0.0000000,0.0000000,8.00,38.4035339,-110.7915268,1363.0000000,5.3,176.8,1.1,0.0,0.0,890,149,0,0,861.81,16.37,21.28,# data time:950,pm2.5:6.445,pm10:5.704,O2:0.000,NO2:0.010,SO2:0.000,NH3:8.704
12:35:21,0,0,0,0,0,2700,2200,1,0,0,0,517,0,0,0,0,0.0000000,0.0000000,0.0000000,0.0000000,8.00,38.4035034,-110.7915268,1362.6999512,5.9,177.3,1.1,0.0,0.0,886,156,0,0,861.85,16.19,21.26,# data time:960,pm2.5:6.445,pm10:5.704,O2:0.000,NO2:0.000,SO2:0.000,NH3:8.704
12:35:22,0,0,0,0,0,2700,2200,1,0,0,0,515,0,0,0,0,0.0000000,0.0000000,0.0000000,0.0000000,8.00,38.4034767,-110.7915115,1362.8000488,6.2,178.1,1.1,0.0,0.0,886,144,0,0,861.76,16.21,21.28,# data time:960,pm2.5:6.445,pm10:5.704,O2:0.000,NO2:0.000,SO2:0.000,NH3:8.704
12:35:23,0,0,0,0,0,2700,2200,1,0,0,0,511,0,0,0,0,0.0000000,0.0000000,0.0000000,0.0000000,8.00,38.4034462,-110.7915115,1362.9000244,6.4,179.0,1.1,0.0,0.0,885,151,0,0,861.86,16.16,21.30,# data time:960,pm2.5:6.445,pm10:5.704,O2:0.000,NO2:0.000,SO2:0.000,NH3:8.704
12:35:24,0,0,0,0,0,2700,2200,1,0,0,0,519,0,0,0,0,0.0000000,0.0000000,0.0000000,0.0000000,8.00,38.4034195,-110.7915115,1362.9000244,6.1,180.8,1.1,0.0,0.0,883,148,0,0,861.90,16.10,21.31,# data time:960,pm2.5:6.445,pm10:5.704,O2:0.000,NO2:0.000,SO2:0.000,NH3:8.704
12:35:26,0,0,0,0,0,2700,2200,1,0,0,0,507,0,0,0,0,0.0000000,0.0000000,0.0000000,0.0000000,8.00,38.4033890,-110.7915115,1363.0000000,6.1,176.2,1.1,0.0,0.0,885,131,0,0,861.96,16.13,21.34,# data time:960,pm2.5:6.445,pm10:5.704,O2:0.000,NO2:0.000,SO2:0.000,NH3:8.704
12:35:27,0,0,0,0,0,2700,2200,1,0,0,0,514,0,0,0,0,0.0000000,0.0000000,0.0000000,0.0000000,8.00,38.4033585,-110.7915115,1363.3000488,5.9,175.5,1.1,0.0,0.0,881,145,0,0,861.94,16.10,21.37,# data time:960,pm2.5:6.445,pm10:5.704,O2:0.000,NO2:0.000,SO2:0.000,NH3:8.704
12:35:28,0,0,0,0,0,2700,2200,1,0,0,0,518,0,0,0,0,0.0000000,0.0000000,0.0000000,0.0000000,8.00,38.4033356,-110.7915039,1363.5999756,5.7,173.7,1.1,0.0,0.0,885,141,0,0,861.91,16.13,21.40,# data time:960,pm2.5:6.445,pm10:5.704,O2:0.000,NO2:0.000,SO2:0.000,NH3:8.704
12:35:29,0,0,0,0,0,2700,2200,1,0,0,0,519,0,0,0,0,0.0000000,0.0000000,0.0000000,0.0000000,8.00,38.4033089,-110.7915039,1363.8000488,5.1,174.7,1.1,0.0,0.0,884,152,0,0,861.99,16.11,21.44,# data time:960,pm2.5:6.445,pm10:5.704,O2:0.000,NO2:0.000,SO2:0.000,NH3:8.704
12:35:30,0,0,0,0,0,2700,2200,1,0,0,0,512,0,0,0,0,0.0000000,0.0000000,0.0000000,0.0000000,8.00,38.4032860,-110.7915039,1364.0000000,4.8,174.9,1.1,0.0,0.0,885,139,0,0,861.97,16.10,21.48,# data time:960,pm2.5:6.445,pm10:5.704,O2:0.000,NO2:0.000,SO2:0.000,NH3:8.704
12:35:31,0,0,0,0,0,2700,2200,1,0,0,0,515,0,0,0,0,0.0000000,0.0000000,0.0000000,0.0000000,9.00,38.4032478,-110.7915039,1363.9000244,4.5,169.3,0.9,0.0,0.0,886,148,0,0,861.90,16.08,21.51,# data time:970,pm2.5:6.445,pm10:5.704,O2:0.000,NO2:0.000,SO2
12:35:32,0,0,0,0,0,2700,2200,1,0,0,0,515,0,0,0,0,0.0000000,0.0000000,0.0000000,0.0000000,9.00,38.4032249,-110.7915039,1364.3000488,4.8,177.8,0.9,0.0,0.0,886,146,0,0,862.02,16.16,21.43,# data time:970,pm2.5:6.445,pm10:5.704,O2:0.000,NO2:0.000,SO2
12:35:33,0,0,0,0,0,2700,2200,1,0,0,0,515,0,0,0,0,0.0000000,0.0000000,0.0000000,0.0000000,9.00,38.4032021,-110.7914886,1364.4000244,5.2,174.3,0.9,0.0,0.0,886,148,0,0,861.95,16.17,21.35,# data time:970,pm2.5:6.445,pm10:5.704,O2:0.000,NO2:0.000,SO2
12:35:34,0,0,0,0,0,2700,2200,1,0,0,0,515,0,0,0,0,0.0000000,0.0000000,0.0000000,0.0000000,9.00,38.4031792,-110.7914886,1364.6999512,5.2,177.6,0.9,0.0,0.0,885,147,0,0,861.98,16.24,21.33,# data time:970,pm2.5:6.445,pm10:5.704,O2:0.000,NO2:0.000,SO2
12:35:35,0,0,0,0,0,2700,2200,1,0,0,0,514,0,0,0,0,0.0000000,0.0000000,0.0000000,0.0000000,9.00,38.4031563,-110.7914886,1364.9000244,5.2,175.0,0.9,0.0,0.0,886,145,0,0,862.02,16.25,21.31,# data time:970,pm2.5:6.445,pm10:5.704,O2:0.000,NO2:0.000,SO2
12:35:36,0,0,0,0,0,2700,2200,1,0,0,0,514,0,0,0,0,0.0000000,0.0000000,0.0000000,0.0000000,9.00,38.4031296,-110.7914886,1365.0999756,5.7,173.6,0.9,0.0,0.0,886,145,0,0,861.94,16.24,21.27,# data time:970,pm2.5:6.445,pm10:5.704,O2:0.000,NO2:0.000,SO2
12:35:37,0,0,0,0,0,2700,2200,1,0,0,0,515,0,0,0,0,0.0000000,0.0000000,0.0000000,0.0000000,9.00,38.4031029,-110.7914886,1364.9000244,5.7,174.8,0.9,0.0,0.0,886,146,0,0,861.93,16.30,21.25,# data time:970,pm2.5:6.445,pm10:5.704,O2:0.000,NO2:0.000,SO2
12:35:38,0,0,0,0,0,2700,2200,1,0,0,0,514,0,0,0,0,0.0000000,0.0000000,0.0000000,0.0000000,9.00,38.4030800,-110.7914734,1365.0999756,5.6,169.1,0.9,0.0,0.0,886,152,0,0,861.92,16.36,21.26,# data time:970,pm2.5:6.445,pm10:5.704,O2:0.000,NO2:0.000,SO2
12:35:39,0,0,0,0,0,2700,2200,1,0,0,0,514,0,0,0,0,0.0000000,0.0000000,0.0000000,0.0000000,9.00,38.4030533,-110.7914734,1365.1999512,5.7,173.2,0.9,0.0,0.0,885,142,0,0,861.96,16.36,21.26,# data time:970,pm2.5:6.445,pm10:5.704,O2:0.000,NO2:0.000,SO2
12:35:40,0,0,0,0,0,2700,2200,1,0,0,0,515,0,0,0,0,0.0000000,0.0000000,0.0000000,0.0000000,9.00,38.4030266,-110.7914734,1364.8000488,5.6,175.0,0.9,0.0,0.0,885,148,0,0,861.95,16.42,21.26,# data time:970,pm2.5:6.445,pm10:5.704,O2:0.000,NO2:0.000,SO2
12:35:41,0,0,0,0,0,2700,2200,1,0,0,0,514,0,0,0,0,0.0000000,0.0000000,0.0000000,0.0000000,9.00,38.4029999,-110.7914658,1364.6999512,5.6,175.0,0.9,0.0,0.0,885,142,0,0,861.95,16.45,21.24,# data time:980,pm2.5:6.445,pm10:5.704,O2:0.000,NO2:0.000,SO2:0.000,NH3:8.251
12:35:42,0,0,0,0,0,2700,2200,1,0,0,0,514,0,0,0,0,0.0000000,0.0000000,0.0000000,0.0000000,9.00,38.4029808,-110.7914658,1365.1999512,5.6,176.6,0.9,0.0,0.0,885,140,0,0,861.99,16.51,21.21,# data time:980,pm2.5:6.445,pm10:5.704,O2:0.000,NO2:0.000,SO2:0.000,NH3:8.251
12:35:43,0,0,0,0,0,2700,2200,1,0,0,0,518,0,0,0,0,0.0000000,0.0000000,0.0000000,0.0000000,9.00,38.4029541,-110.7914658,1365.0000000,5.7,182.1,0.9,0.0,0.0,885,129,0,0,862.04,16.53,21.26,# data time:980,pm2.5:6.445,pm10:5.704,O2:0.000,NO2:0.000,SO2:0.000,NH3:8.251
12:35:44,0,0,0,0,0,2700,2200,1,0,0,0,512,0,0,0,0,0.0000000,0.0000000,0.0000000,0.0000000,9.00,38.4029274,-110.7914658,1365.0999756,6.0,182.6,0.9,0.0,0.0,888,140,0,0,862.07,16.51,21.28,# data time:980,pm2.5:6.445,pm10:5.704,O2:0.000,NO2:0.000,SO2:0.000,NH3:8.251
12:35:45,0,0,0,0,0,2700,2200,1,0,0,0,515,0,0,0,0,0.0000000,0.0000000,0.0000000,0.0000000,9.00,38.4029007,-110.7914658,1364.6999512,5.4,186.7,0.9,0.0,0.0,885,138,0,0,862.05,16.51,21.26,# data time:980,pm2.5:6.445,pm10:5.704,O2:0.000,NO2:0.000,SO2:0.000,NH3:8.251
12:35:46,0,0,0,0,0,2700,2200,1,0,0,0,513,0,0,0,0,0.0000000,0.0000000,0.0000000,0.0000000,9.00,38.4028740,-110.7914658,1364.8000488,5.6,186.6,0.9,0.0,0.0,884,139,0,0,862.09,16.72,21.25,# data time:980,pm2.5:6.445,pm10:5.704,O2:0.000,NO2:0.000,SO2:0.000,NH3:8.251
12:35:47,0,0,0,0,0,2700,2200,1,0,0,0,512,0,0,0,0,0.0000000,0.0000000,0.0000000,0.0000000,9.00,38.4028511,-110.7914734,1365.1999512,5.2,187.8,0.9,0.0,0.0,885,143,0,0,862.09,16.66,21.24,# data time:980,pm2.5:6.445,pm10:5.704,O2:0.000,NO2:0.000,SO2:0.000,NH3:8.251
12:35:48,0,0,0,0,0,2700,2200,1,0,0,0,517,0,0,0,0,0.0000000,0.0000000,0.0000000,0.0000000,9.00,38.4028282,-110.7914734,1364.8000488,4.8,191.5,0.9,0.0,0.0,887,142,0,0,861.98,16.71,21.26,# data time:980,pm2.5:6.445,pm10:5.704,O2:0.000,NO2:0.000,SO2:0.000,NH3:8.251
12:35:49,0,0,0,0,0,2700,2200,1,0,0,0,515,0,0,0,0,0.0000000,0.0000000,0.0000000,0.0000000,9.00,38.4028091,-110.7914886,1364.5000000,4.1,199.2,0.9,0.0,0.0,886,138,0,0,862.02,16.45,21.29,# data time:980,pm2.5:6.445,pm10:5.704,O2:0.000,NO2:0.000,SO2:0.000,NH3:8.251
12:35:50,0,0,0,0,0,2700,2200,1,0,0,0,518,0,0,0,0,0.0000000,0.0000000,0.0000000,0.0000000,9.00,38.4027901,-110.7914886,1364.6999512,4.1,192.4,0.9,0.0,0.0,884,135,0,0,862.02,16.40,21.31,# data time:980,pm2.5:6.445,pm10:5.704,O2:0.000,NO2:0.000,SO2:0.000,NH3:8.251
12:35:51,0,0,0,0,0,2700,2200,1,0,0,0,518,0,0,0,0,0.0000000,0.0000000,0.0000000,0.0000000,9.00,38.4027710,-110.7915039,1364.4000244,4.1,192.4,0.9,0.0,0.0,886,141,0,0,862.01,16.36,21.28,# data time:990,pm2.5:5.640,pm10:4.991,O2:0.000,NO2:0.000,SO2:0.000,NH3:8.478
12:35:52,0,0,0,0,0,2700,2200,1,0,0,0,515,0,0,0,0,0.0000000,0.0000000,0.0000000,0.0000000,8.00,38.4027519,-110.7915039,1364.0999756,5.0,200.2,1.1,0.0,0.0,885,140,0,0,862.01,16.34,21.28,# data time:990,pm2.5:5.640,pm10:4.991,O2:0.000,NO2:0.000,SO2:0.000,NH3:8.478
12:35:53,0,0,0,0,0,2700,2200,1,0,0,0,512,0,0,0,0,0.0000000,0.0000000,0.0000000,0.0000000,8.00,38.4027328,-110.7915115,1363.6999512,4.8,210.2,1.1,0.0,0.0,884,150,0,0,861.99,16.36,21.34,# data time:990,pm2.5:5.640,pm10:4.991,O2:0.000,NO2:0.000,SO2:0.000,NH3:8.478
12:35:54,0,0,0,0,0,2700,2200,1,0,0,0,515,0,0,0,0,0.0000000,0.0000000,0.0000000,0.0000000,8.00,38.4027138,-110.7915268,1362.9000244,5.4,201.7,1.1,0.0,0.0,884,123,0,0,862.03,16.45,21.37,# data time:990,pm2.5:5.640,pm10:4.991,O2:0.000,NO2:0.000,SO2:0.000,NH3:8.478
12:35:55,0,0,0,0,0,2700,2200,1,0,0,0,516,0,0,0,0,0.0000000,0.0000000,0.0000000,0.0000000,8.00,38.4026909,-110.7915497,1362.5000000,5.1,207.8,1.1,0.0,0.0,890,126,0,0,862.02,16.39,21.40,# data time:990,pm2.5:5.640,pm10:4.991,O2:0.000,NO2:0.000,SO2:0.000,NH3:8.478
12:35:56,0,0,0,0,0,2700,2200,1,0,0,0,513,0,0,0,0,0.0000000,0.0000000,0.0000000,0.0000000,9.00,38.4026718,-110.7915649,1362.0999756,4.3,206.7,0.9,0.0,0.0,887,142,0,0,862.02,16.79,21.42,# data time:990,pm2.5:5.640,pm10:4.991,O2:0.000,NO2:0.000,SO2:0.000,NH3:8.478
12:35:57,0,0,0,0,0,2700,2200,1,0,0,0,515,0,0,0,0,0.0000000,0.0000000,0.0000000,0.0000000,9.00,38.4026604,-110.7915649,1361.6999512,3.4,214.5,0.9,0.0,0.0,886,137,0,0,862.05,16.56,21.44,# data time:990,pm2.5:5.640,pm10:4.991,O2:0.000,NO2:0.000,SO2:0.000,NH3:8.478
12:35:58,0,0,0,0,0,2700,2200,1,0,0,0,514,0,0,0,0,0.0000000,0.0000000,0.0000000,0.0000000,9.00,38.4026489,-110.7915802,1361.5999756,2.6,207.6,0.9,0.0,0.0,886,139,0,0,861.98,16.53,21.45,# data time:990,pm2.5:5.640,pm10:4.991,O2:0.000,NO2:0.000,SO2:0.000,NH3:8.478
12:35:59,0,0,0,0,0,2700,2200,1,0,0,0,514,0,0,0,0,0.0000000,0.0000000,0.0000000,0.0000000,9.00,38.4026413,-110.7915878,1361.3000488,1.9,210.8,0.9,0.0,0.0,886,135,0,0,862.01,16.34,21.47,# data time:990,pm2.5:5.640,pm10:4.991,O2:0.000,NO2:0.000,SO2:0.000,NH3:8.478
12:36:00,0,0,0,0,0,2700,2200,1,0,0,0,515,0,0,0,0,0.0000000,0.0000000,0.0000000,0.0000000,10.00,38.4026413,-110.7915878,1360.9000244,0.5,193.6,0.8,0.0,0.0,885,138,0,0,862.03,16.39,21.49,# data time:990,pm2.5:5.640,pm10:4.991,O2:0.000,NO2:0.000,SO2:0.000,NH3:8.478
12:36:01,0,0,0,0,0,2700,2200,1,0,0,0,514,0,0,0,0,0.0000000,0.0000000,0.0000000,0.0000000,10.00,38.4026375,-110.7915878,1360.9000244,0.5,193.6,0.8,0.0,0.0,886,138,0,0,862.05,16.33,21.48,# data time:1000,pm2.5:6.445,pm10:5.704,O2:0.000,NO2:0.000,SO2:0.000,NH3:8.251
12:36:02,0,0,0,0,0,2700,2200,1,0,0,0,515,0,0,0,0,0.0000000,0.0000000,0.0000000,0.0000000,10.00,38.4026375,-110.7915878,1360.6999512,0.3,185.8,0.8,0.0,0.0,885,140,0,0,862.01,16.37,21.48,# data time:1000,pm2.5:6.445,pm10:5.704,O2:0.000,NO2:0.000,SO2:0.000,NH3:8.251
12:36:03,0,0,0,0,0,2700,2200,1,0,0,0,514,0,0,0,0,0.0000000,0.0000000,0.0000000,0.0000000,10.00,38.4026375,-110.7915878,1360.6999512,0.2,266.3,0.8,0.0,0.0,885,138,0,0,862.01,16.34,21.53,# data time:1000,pm2.5:6.445,pm10:5.704,O2:0.000,NO2:0.000,SO2:0.000,NH3:8.251
12:36:04,0,0,0,0,0,2700,2200,1,0,0,0,514,0,0,0,0,0.0000000,0.0000000,0.0000000,0.0000000,9.00,38.4026375,-110.7915878,1360.5999756,0.1,285.7,0.9,0.0,0.0,885,137,0,0,862.02,16.25,21.51,# data time:1000,pm2.5:6.445,pm10:5.704,O2:0.000,NO2:0.000,SO2:0.000,NH3:8.251
12:36:05,0,0,0,0,0,2700,2200,1,0,0,0,514,0,0,0,0,0.0000000,0.0000000,0.0000000,0.0000000,9.00,38.4026375,-110.7915878,1360.5999756,0.3,241.4,0.9,0.0,0.0,885,139,0,0,861.99,16.16,21.49,# data time:1000,pm2.5:6.445,pm10:5.704,O2:0.000,NO2:0.000,SO2:0.000,NH3:8.251
12:36:06,0,0,0,0,0,2700,2200,1,0,0,0,514,0,0,0,0,0.0000000,0.0000000,0.0000000,0.0000000,10.00,38.4026337,-110.7915878,1360.5999756,0.1,200.1,0.8,0.0,0.0,886,135,0,0,862.04,16.19,21.44,# data time:1000,pm2.5:6.445,pm10:5.704,O2:0.000,NO2:0.000,SO2:0.000,NH3:8.251
12:36:07,0,0,0,0,0,2700,2200,1,0,0,0,514,0,0,0,0,0.0000000,0.0000000,0.0000000,0.0000000,10.00,38.4026337,-110.7915878,1360.5999756,0.1,246.9,0.8,0.0,0.0,886,131,0,0,862.01,16.25,21.46,# data time:1000,pm2.5:6.445,pm10:5.704,O2:0.000,NO2:0.000,SO2:0.000,NH3:8.251
12:36:08,0,0,0,0,0,2700,2200,1,0,0,0,514,0,0,0,0,0.0000000,0.0000000,0.0000000,0.0000000,10.00,38.4026337,-110.7915878,1360.5000000,0.0,204.3,0.8,0.0,0.0,885,134,0,0,862.03,16.17,21.53,# data time:1000,pm2.5:6.445,pm10:5.704,O2:0.000,NO2:0.000,SO2:0.000,NH3:8.251
12:36:09,0,0,0,0,0,2700,2200,1,0,0,0,514,0,0,0,0,0.0000000,0.0000000,0.0000000,0.0000000,10.00,38.4026337,-110.7915878,1360.5000000,0.0,204.3,0.8,0.0,0.0,886,134,0,0,862.02,16.27,21.55,# data time:1000,pm2.5:6.445,pm10:5.704,O2:0.000,NO2:0.000,SO2:0.000,NH3:8.251
12:36:10,0,0,0,0,0,2700,2200,1,0,0,0,514,0,0,0,0,0.0000000,0.0000000,0.0000000,0.0000000,10.00,38.4026337,-110.7915878,1360.5000000,0.0,24.3,0.8,0.0,0.0,885,134,0,0,862.03,16.25,21.56,# data time:1010,pm2.5:6.445,pm10:5.704,O2:0.000,NO2:0.000,SO2:0.000,NH3:8.251
12:36:12,0,0,0,0,0,2700,2200,1,0,0,0,515,0,0,0,0,0.0000000,0.0000000,0.0000000,0.0000000,10.00,38.4026337,-110.7915878,1360.5000000,0.1,155.6,0.8,0.0,0.0,885,131,0,0,862.00,16.21,21.58,# data time:1010,pm2.5:6.445,pm10:5.704,O2:0.000,NO2:0.000,SO2:0.000,NH3:8.251
12:36:13,0,0,0,0,0,2700,2200,1,0,0,0,514,0,0,0,0,0.0000000,0.0000000,0.0000000,0.0000000,10.00,38.4026337,-110.7915878,1360.5000000,0.1,273.7,0.8,0.0,0.0,885,138,0,0,862.04,16.21,21.64,# data time:1010,pm2.5:6.445,pm10:5.704,O2:0.000,NO2:0.000,SO2:0.000,NH3:8.251
12:36:14,0,0,0,0,0,2700,2200,1,0,0,0,514,0,0,0,0,0.0000000,0.0000000,0.0000000,0.0000000,10.00,38.4026337,-110.7915878,1360.5000000,0.1,353.8,0.8,0.0,0.0,885,133,0,0,862.00,16.24,21.65,# data time:1010,pm2.5:6.445,pm10:5.704,O2:0.000,NO2:0.000,SO2:0.000,NH3:8.251
12:36:15,0,0,0,0,0,2700,2200,1,0,0,0,513,0,0,0,0,0.0000000,0.0000000,0.0000000,0.0000000,10.00,38.4026375,-110.7915878,1360.5000000,0.2,329.7,0.8,0.0,0.0,886,127,0,0,862.01,16.24,21.65,# data time:1010,pm2.5:6.445,pm10:5.704,O2:0.000,NO2:0.000,SO2:0.000,NH3:8.251
12:36:16,0,0,0,0,0,2700,2200,1,0,0,0,516,0,0,0,0,0.0000000,0.0000000,0.0000000,0.0000000,10.00,38.4026375,-110.7915878,1360.5000000,0.3,331.1,0.8,0.0,0.0,885,131,0,0,862.04,16.22,21.66,# data time:1010,pm2.5:6.445,pm10:5.704,O2:0.000,NO2:0.000,SO2:0.000,NH3:8.251
12:36:17,0,0,0,0,0,2700,2200,1,0,0,0,522,0,0,0,0,0.0000000,0.0000000,0.0000000,0.0000000,10.00,38.4026375,-110.7915878,1360.5000000,0.1,342.5,0.8,0.0,0.0,882,129,0,0,861.97,16.28,21.66,# data time:1010,pm2.5:6.445,pm10:5.704,O2:0.000,NO2:0.000,SO2:0.000,NH3:8.251
12:36:18,0,0,0,0,0,2700,2200,1,0,0,0,514,0,0,0,0,0.0000000,0.0000000,0.0000000,0.0000000,10.00,38.4026375,-110.7915878,1360.4000244,0.1,333.0,0.8,0.0,0.0,885,131,0,0,862.05,16.31,21.65,# data time:1010,pm2.5:6.445,pm10:5.704,O2:0.000,NO2:0.000,SO2:0.000,NH3:8.251
12:36:19,0,0,0,0,0,2700,2200,1,0,0,0,511,0,0,0,0,0.0000000,0.0000000,0.0000000,0.0000000,10.00,38.4026413,-110.7915878,1360.4000244,0.1,357.7,0.8,0.0,0.0,883,134,0,0,862.02,16.34,21.63,# data time:1010,pm2.5:6.445,pm10:5.704,O2:0.000,NO2:0.000,SO2:0.000,NH3:8.251
12:36:20,0,0,0,0,0,2700,2200,1,0,0,0,511,0,0,0,0,0.0000000,0.0000000,0.0000000,0.0000000,10.00,38.4026413,-110.7915878,1360.4000244,0.2,359.3,0.8,0.0,0.0,885,128,0,0,862.00,16.34,21.63,# data time:1010,pm2.5:6.445,pm10:5.704,O2:0.000,NO2:0.000,SO2:0.000,NH3:8.251
12:36:21,0,0,0,0,0,2700,2200,1,0,0,0,512,0,0,0,0,0.0000000,0.0000000,0.0000000,0.0000000,10.00,38.4026413,-110.7915878,1360.4000244,0.2,359.3,0.8,0.0,0.0,884,135,0,0,861.99,16.36,21.58,# data time:1020,pm2.5:6.445,pm10:5.704,O2:0.000,NO2:0.000,SO2:0.000,NH3:8.251
12:36:22,0,0,0,0,0,2700,2200,1,0,0,0,515,0,0,0,0,0.0000000,0.0000000,0.0000000,0.0000000,10.00,38.4026413,-110.7915878,1360.4000244,0.2,359.3,0.8,0.0,0.0,884,132,0,0,862.03,16.37,21.58,# data time:1020,pm2.5:6.445,pm10:5.704,O2:0.000,NO2:0.000,SO2:0.000,NH3:8.251
12:36:23,0,0,0,0,0,2700,2200,1,0,0,0,514,0,0,0,0,0.0000000,0.0000000,0.0000000,0.0000000,10.00,38.4026413,-110.7915878,1360.4000244,0.1,308.4,0.8,0.0,0.0,885,128,0,0,862.02,16.36,21.64,# data time:1020,pm2.5:6.445,pm10:5.704,O2:0.000,NO2:0.000,SO2:0.000,NH3:8.251
12:36:24,0,0,0,0,0,2700,2200,1,0,0,0,515,0,0,0,0,0.0000000,0.0000000,0.0000000,0.0000000,10.00,38.4026413,-110.7915878,1360.4000244,0.1,195.6,0.8,0.0,0.0,886,128,0,0,861.99,16.37,21.67,# data time:1020,pm2.5:6.445,pm10:5.704,O2:0.000,NO2:0.000,SO2:0.000,NH3:8.251
12:36:25,0,0,0,0,0,2700,2200,1,0,0,0,513,0,0,0,0,0.0000000,0.0000000,0.0000000,0.0000000,10.00,38.4026413,-110.7915878,1360.4000244,0.1,322.0,0.8,0.0,0.0,885,129,0,0,862.00,16.34,21.69,# data time:1020,pm2.5:6.445,pm10:5.704,O2:0.000,NO2:0.000,SO2:0.000,NH3:8.251
12:36:26,0,0,0,0,0,2700,2200,1,0,0,0,515,0,0,0,0,0.0000000,0.0000000,0.0000000,0.0000000,10.00,38.4026413,-110.7915878,1360.3000488,0.0,242.1,0.8,0.0,0.0,885,128,0,0,862.01,16.31,21.71,# data time:1020,pm2.5:6.445,pm10:5.704,O2:0.000,NO2:0.000,SO2:0.000,NH3:8.251
12:36:27,0,0,0,0,0,2700,2200,1,0,0,0,515,0,0,0,0,0.0000000,0.0000000,0.0000000,0.0000000,10.00,38.4026413,-110.7915878,1360.3000488,0.1,221.5,0.8,0.0,0.0,886,129,0,0,862.00,16.30,21.74,# data time:1020,pm2.5:6.445,pm10:5.704,O2:0.000,NO2:0.000,SO2:0.000,NH3:8.251
12:36:28,0,0,0,0,0,2700,2200,1,0,0,0,514,0,0,0,0,0.0000000,0.0000000,0.0000000,0.0000000,10.00,38.4026413,-110.7916031,1360.3000488,0.1,187.3,0.8,0.0,0.0,885,131,0,0,862.04,16.27,21.77,# data time:1020,pm2.5:6.445,pm10:5.704,O2:0.000,NO2:0.000,SO2:0.000,NH3:8.251
12:36:29,0,0,0,0,0,2700,2200,1,0,0,0,515,0,0,0,0,0.0000000,0.0000000,0.0000000,0.0000000,10.00,38.4026413,-110.7916031,1360.3000488,0.2,11.9,0.8,0.0,0.0,885,134,0,0,862.03,16.24,21.80,# data time:1020,pm2.5:6.445,pm10:5.704,O2:0.000,NO2:0.000,SO2:0.000,NH3:8.251
12:36:30,0,0,0,0,0,2700,2200,1,0,0,0,514,0,0,0,0,0.0000000,0.0000000,0.0000000,0.0000000,10.00,38.4026413,-110.7916031,1360.3000488,0.0,57.3,0.8,0.0,0.0,887,132,0,0,861.99,16.21,21.82,# data time:1020,pm2.5:6.445,pm10:5.704,O2:0.000,NO2:0.000,SO2:0.000,NH3:8.251
12:36:31,0,0,0,0,0,2700,2200,1,0,0,0,514,0,0,0,0,0.0000000,0.0000000,0.0000000,0.0000000,10.00,38.4026413,-110.7916031,1360.3000488,0.1,108.1,0.8,0.0,0.0,885,126,0,0,862.06,16.19,21.84,# data time:1030,pm2.5:6.445,pm10:5.704,O2:0.000,NO2:0.000,SO2:0.000,NH3:8.251
12:36:32,0,0,0,0,0,2700,2200,1,0,0,0,514,0,0,0,0,0.0000000,0.0000000,0.0000000,0.0000000,10.00,38.4026413,-110.7915878,1360.3000488,0.1,170.3,0.8,0.0,0.0,885,129,0,0,861.97,16.19,21.87,# data time:1030,pm2.5:6.445,pm10:5.704,O2:0.000,NO2:0.000,SO2:0.000,NH3:8.251
12:36:33,0,0,0,0,0,2700,2200,1,0,0,0,514,0,0,0,0,0.0000000,0.0000000,0.0000000,0.0000000,10.00,38.4026413,-110.7915878,1360.3000488,0.1,72.4,0.8,0.0,0.0,885,127,0,0,862.04,16.24,21.89,# data time:1030,pm2.5:6.445,pm10:5.704,O2:0.000,NO2:0.000,SO2:0.000,NH3:8.251
12:36:34,0,0,0,0,0,2700,2200,1,0,0,0,515,0,0,0,0,0.0000000,0.0000000,0.0000000,0.0000000,10.00,38.4026413,-110.7915878,1360.1999512,0.0,140.1,0.8,0.0,0.0,885,131,0,0,862.06,16.19,21.92,# data time:1030,pm2.5:6.445,pm10:5.704,O2:0.000,NO2:0.000,SO2:0.000,NH3:8.251
12:36:35,0,0,0,0,0,2700,2200,1,0,0,0,515,0,0,0,0,0.0000000,0.0000000,0.0000000,0.0000000,10.00,38.4026413,-110.7915878,1360.1999512,0.1,128.9,0.8,0.0,0.0,885,129,0,0,862.01,16.19,21.94,# data time:1030,pm2.5:6.445,pm10:5.704,O2:0.000,NO2:0.000,SO2:0.000,NH3:8.251
12:36:36,0,0,0,0,0,2700,2200,1,0,0,0,515,0,0,0,0,0.0000000,0.0000000,0.0000000,0.0000000,10.00,38.4026413,-110.7915878,1360.1999512,0.1,164.0,0.8,0.0,0.0,885,131,0,0,862.03,16.16,21.97,# data time:1030,pm2.5:6.445,pm10:5.704,O2:0.000,NO2:0.000,SO2:0.000,NH3:8.251
12:36:37,0,0,0,0,0,2700,2200,1,0,0,0,513,0,0,0,0,0.0000000,0.0000000,0.0000000,0.0000000,10.00,38.4026413,-110.7915878,1360.1999512,0.2,141.1,0.8,0.0,0.0,885,131,0,0,862.00,16.19,21.99,# data time:1030,pm2.5:6.445,pm10:5.704,O2:0.000,NO2:0.000,SO2:0.000,NH3:8.251
12:36:38,0,0,0,0,0,2700,2200,1,0,0,0,516,0,0,0,0,0.0000000,0.0000000,0.0000000,0.0000000,10.00,38.4026413,-110.7915878,1360.1999512,0.2,136.3,0.8,0.0,0.0,883,133,0,0,862.05,16.21,22.00,# data time:1030,pm2.5:6.445,pm10:5.704,O2:0.000,NO2:0.000,SO2:0.000,NH3:8.251
12:36:39,0,0,0,0,0,2700,2200,1,0,0,0,518,0,0,0,0,0.0000000,0.0000000,0.0000000,0.0000000,10.00,38.4026413,-110.7915878,1360.1999512,0.1,128.2,0.8,0.0,0.0,885,133,0,0,862.06,16.24,22.02,# data time:1030,pm2.5:6.445,pm10:5.704,O2:0.000,NO2:0.000,SO2:0.000,NH3:8.251
12:36:40,0,0,0,0,0,2700,2200,1,0,0,0,519,0,0,0,0,0.0000000,0.0000000,0.0000000,0.0000000,10.00,38.4026413,-110.7915878,1360.1999512,0.1,185.1,0.8,0.0,0.0,885,117,0,0,862.04,16.27,22.02,# data time:1030,pm2.5:6.445,pm10:5.704,O2:0.000,NO2:0.000,SO2:0.000,NH3:8.251
12:36:41,0,0,0,0,0,2700,2200,1,0,0,0,513,0,0,0,0,0.0000000,0.0000000,0.0000000,0.0000000,10.00,38.4026375,-110.7915878,1360.1999512,0.2,141.5,0.8,0.0,0.0,886,131,0,0,862.00,16.22,22.04,# data time:1040,pm2.5:6.445,pm10:5.704,O2:0.000,NO2:0.000,SO2:0.000,NH3:8.251
12:36:42,0,0,0,0,0,2700,2200,1,0,0,0,515,0,0,0,0,0.0000000,0.0000000,0.0000000,0.0000000,10.00,38.4026375,-110.7915878,1360.1999512,0.2,149.4,0.8,0.0,0.0,885,130,0,0,862.03,16.27,22.06,# data time:1040,pm2.5:6.445,pm10:5.704,O2:0.000,NO2:0.000,SO2:0.000,NH3:8.251
12:36:43,0,0,0,0,0,2700,2200,1,0,0,0,513,0,0,0,0,0.0000000,0.0000000,0.0000000,0.0000000,10.00,38.4026375,-110.7915878,1360.1999512,0.2,151.3,0.8,0.0,0.0,886,127,0,0,862.03,16.24,22.06,# data time:1040,pm2.5:6.445,pm10:5.704,O2:0.000,NO2:0.000,SO2:0.000,NH3:8.251
12:36:44,0,0,0,0,0,2700,2200,1,0,0,0,514,0,0,0,0,0.0000000,0.0000000,0.0000000,0.0000000,10.00,38.4026375,-110.7915878,1360.1999512,0.1,178.3,0.8,0.0,0.0,885,129,0,0,862.05,16.21,22.09,# data time:1040,pm2.5:6.445,pm10:5.704,O2:0.000,NO2:0.000,SO2:0.000,NH3:8.251
12:36:45,0,0,0,0,0,2700,2200,1,0,0,0,514,0,0,0,0,0.0000000,0.0000000,0.0000000,0.0000000,10.00,38.4026375,-110.7915878,1360.1999512,0.1,284.9,0.8,0.0,0.0,885,130,0,0,861.99,16.24,22.11,# data time:1040,pm2.5:6.445,pm10:5.704,O2:0.000,NO2:0.000,SO2:0.000,NH3:8.251
12:36:46,0,0,0,0,0,2700,2200,1,0,0,0,514,0,0,0,0,0.0000000,0.0000000,0.0000000,0.0000000,10.00,38.4026375,-110.7915878,1360.1999512,0.2,254.6,0.8,0.0,0.0,885,127,0,0,861.96,16.19,22.13,# data time:1040,pm2.5:6.445,pm10:5.704,O2:0.000,NO2:0.000,SO2:0.000,NH3:8.251
12:36:47,0,0,0,0,0,2700,2200,1,0,0,0,514,0,0,0,0,0.0000000,0.0000000,0.0000000,0.0000000,10.00,38.4026375,-110.7915878,1360.1999512,0.1,251.3,0.8,0.0,0.0,885,131,0,0,861.96,16.16,22.16,# data time:1040,pm2.5:6.445,pm10:5.704,O2:0.000,NO2:0.000,SO2:0.000,NH3:8.251
12:36:48,0,0,0,0,0,2700,2200,1,0,0,0,514,0,0,0,0,0.0000000,0.0000000,0.0000000,0.0000000,10.00,38.4026375,-110.7915878,1360.1999512,0.2,246.4,0.8,0.0,0.0,885,128,0,0,861.97,16.19,22.17,# data time:1040,pm2.5:6.445,pm10:5.704,O2:0.000,NO2:0.000,SO2:0.000,NH3:8.251
12:36:49,0,0,0,0,0,2700,2200,1,0,0,0,514,0,0,0,0,0.0000000,0.0000000,0.0000000,0.0000000,10.00,38.4026375,-110.7915878,1360.1999512,0.1,287.6,0.8,0.0,0.0,885,129,0,0,861.98,16.21,22.19,# data time:1040,pm2.5:6.445,pm10:5.704,O2:0.000,NO2:0.000,SO2:0.000,NH3:8.251
12:36:50,0,0,0,0,0,2700,2200,1,0,0,0,514,0,0,0,0,0.0000000,0.0000000,0.0000000,0.0000000,10.00,38.4026375,-110.7915878,1360.1999512,0.1,300.4,0.8,0.0,0.0,885,130,0,0,862.01,16.17,22.21,# data time:1040,pm2.5:6.445,pm10:5.704,O2:0.000,NO2:0.000,SO2:0.000,NH3:8.251
12:36:51,0,0,0,0,0,2700,2200,1,0,0,0,515,0,0,0,0,0.0000000,0.0000000,0.0000000,0.0000000,10.00,38.4026375,-110.7916031,1360.0999756,0.1,338.1,0.8,0.0,0.0,885,138,0,0,862.02,16.19,22.24,# data time:1050,pm2.5:6.445,pm10:5.704,O2:0.000,NO2:0.010,SO2:0.000,NH3:8.251
12:36:52,0,0,0,0,0,2700,2200,1,0,0,0,517,0,0,0,0,0.0000000,0.0000000,0.0000000,0.0000000,10.00,38.4026375,-110.7916031,1360.0999756,0.0,325.3,0.8,0.0,0.0,884,130,0,0,861.97,16.21,22.26,# data time:1050,pm2.5:6.445,pm10:5.704,O2:0.000,NO2:0.010,SO2:0.000,NH3:8.251
12:36:53,0,0,0,0,0,2700,2200,1,0,0,0,514,0,0,0,0,0.0000000,0.0000000,0.0000000,0.0000000,10.00,38.4026375,-110.7916031,1360.0999756,0.2,326.8,0.8,0.0,0.0,885,131,0,0,861.93,16.17,22.28,# data time:1050,pm2.5:6.445,pm10:5.704,O2:0.000,NO2:0.010,SO2:0.000,NH3:8.251
12:36:55,0,0,0,0,0,2700,2200,1,0,0,0,517,0,0,0,0,0.0000000,0.0000000,0.0000000,0.0000000,10.00,38.4026375,-110.7916031,1360.0999756,0.1,252.6,0.8,0.0,0.0,884,134,0,0,861.99,16.17,22.29,# data time:1050,pm2.5:6.445,pm10:5.704,O2:0.000,NO2:0.010,SO2:0.000,NH3:8.251
12:36:56,0,0,0,0,0,2700,2200,1,0,0,0,514,0,0,0,0,0.0000000,0.0000000,0.0000000,0.0000000,10.00,38.4026375,-110.7916031,1360.0999756,0.1,272.4,0.8,0.0,0.0,885,128,0,0,861.97,16.17,22.30,# data time:1050,pm2.5:6.445,pm10:5.704,O2:0.000,NO2:0.010,SO2:0.000,NH3:8.251
12:36:57,0,0,0,0,0,2700,2200,1,0,0,0,515,0,0,0,0,0.0000000,0.0000000,0.0000000,0.0000000,10.00,38.4026375,-110.7916031,1360.0999756,0.1,303.1,0.8,0.0,0.0,886,135,0,0,862.01,16.19,22.33,# data time:1050,pm2.5:6.445,pm10:5.704,O2:0.000,NO2:0.010,SO2:0.000,NH3:8.251
12:36:58,0,0,0,0,0,2700,2200,1,0,0,0,513,0,0,0,0,0.0000000,0.0000000,0.0000000,0.0000000,10.00,38.4026375,-110.7916031,1360.0999756,0.1,286.7,0.8,0.0,0.0,885,131,0,0,861.98,16.19,22.36,# data time:1050,pm2.5:6.445,pm10:5.704,O2:0.000,NO2:0.010,SO2:0.000,NH3:8.251
12:36:59,0,0,0,0,0,2700,2200,1,0,0,0,515,0,0,0,0,0.0000000,0.0000000,0.0000000,0.0000000,10.00,38.4026375,-110.7916031,1360.0999756,0.1,231.6,0.8,0.0,0.0,886,134,0,0,861.98,16.17,22.39,# data time:1050,pm2.5:6.445,pm10:5.704,O2:0.000,NO2:0.010,SO2:0.000,NH3:8.251
12:37:00,0,0,0,0,0,2700,2200,1,0,0,0,515,0,0,0,0,0.0000000,0.0000000,0.0000000,0.0000000,10.00,38.4026375,-110.7916031,1360.0999756,0.1,28.3,0.8,0.0,0.0,885,126,0,0,861.99,16.16,22.42,# data time:1050,pm2.5:6.445,pm10:5.704,O2:0.000,NO2:0.010,SO2:0.000,NH3:8.251
12:37:01,0,0,0,0,0,2700,2200,1,0,0,0,510,0,0,0,0,0.0000000,0.0000000,0.0000000,0.0000000,10.00,38.4026375,-110.7916031,1360.0999756,0.2,10.9,0.8,0.0,0.0,882,133,0,0,862.01,16.16,22.44,# data time:1060,pm2.5:6.445,pm10:5.704,O2:0.000,NO2:0.000,SO2:0.000,NH3:8.478
12:37:02,0,0,0,0,0,2700,2200,1,0,0,0,514,0,0,0,0,0.0000000,0.0000000,0.0000000,0.0000000,10.00,38.4026413,-110.7916031,1360.0999756,0.0,354.1,0.8,0.0,0.0,885,130,0,0,862.03,16.13,22.45,# data time:1060,pm2.5:6.445,pm10:5.704,O2:0.000,NO2:0.000,SO2:0.000,NH3:8.478
12:37:03,0,0,0,0,0,2700,2200,1,0,0,0,505,0,0,0,0,0.0000000,0.0000000,0.0000000,0.0000000,10.00,38.4026413,-110.7916031,1360.0999756,0.0,295.7,0.8,0.0,0.0,880,135,0,0,861.97,16.10,22.41,# data time:1060,pm2.5:6.445,pm10:5.704,O2:0.000,NO2:0.000,SO2:0.000,NH3:8.478
12:37:04,0,0,0,0,0,2700,2200,1,0,0,0,523,0,0,0,0,0.0000000,0.0000000,0.0000000,0.0000000,10.00,38.4026413,-110.7916031,1360.0999756,0.0,331.9,0.8,0.0,0.0,890,131,0,0,861.99,16.05,22.42,# data time:1060,pm2.5:6.445,pm10:5.704,O2:0.000,NO2:0.000,SO2:0.000,NH3:8.478
12:37:05,0,0,0,0,0,2700,2200,1,0,0,0,510,0,0,0,0,0.0000000,0.0000000,0.0000000,0.0000000,10.00,38.4026413,-110.7916031,1360.0999756,0.1,289.3,0.8,0.0,0.0,882,128,0,0,862.01,16.04,22.51,# data time:1060,pm2.5:6.445,pm10:5.704,O2:0.000,NO2:0.000,SO2:0.000,NH3:8.478
12:37:06,0,0,0,0,0,2700,2200,1,0,0,0,511,0,0,0,0,0.0000000,0.0000000,0.0000000,0.0000000,10.00,38.4026413,-110.7916031,1360.0999756,0.1,289.3,0.8,0.0,0.0,887,127,0,0,861.96,16.02,22.47,# data time:1060,pm2.5:6.445,pm10:5.704,O2:0.000,NO2:0.000,SO2:0.000,NH3:8.478
12:37:07,0,0,0,0,0,2700,2200,1,0,0,0,516,0,0,0,0,0.0000000,0.0000000,0.0000000,0.0000000,10.00,38.4026413,-110.7916031,1360.0999756,0.2,226.3,0.8,0.0,0.0,883,129,0,0,862.06,16.01,22.59,# data time:1060,pm2.5:6.445,pm10:5.704,O2:0.000,NO2:0.000,SO2:0.000,NH3:8.478
12:37:08,0,0,0,0,0,2700,2200,1,0,0,0,511,0,0,0,0,0.0000000,0.0000000,0.0000000,0.0000000,10.00,38.4026375,-110.7916031,1360.0999756,0.2,207.5,0.8,0.0,0.0,881,132,0,0,862.02,15.98,22.62,# data time:1060,pm2.5:6.445,pm10:5.704,O2:0.000,NO2:0.000,SO2:0.000,NH3:8.478
12:37:09,0,0,0,0,0,2700,2200,1,0,0,0,510,0,0,0,0,0.0000000,0.0000000,0.0000000,0.0000000,10.00,38.4026375,-110.7916031,1360.1999512,0.1,198.1,0.8,0.0,0.0,888,136,0,0,862.01,15.98,22.65,# data time:1060,pm2.5:6.445,pm10:5.704,O2:0.000,NO2:0.000,SO2:0.000,NH3:8.478
12:37:10,0,0,0,0,0,2700,2200,1,0,0,0,513,0,0,0,0,0.0000000,0.0000000,0.0000000,0.0000000,10.00,38.4026375,-110.7916031,1360.1999512,0.1,189.6,0.8,0.0,0.0,886,126,0,0,862.05,15.93,22.67,# data time:1060,pm2.5:6.445,pm10:5.704,O2:0.000,NO2:0.000,SO2:0.000,NH3:8.478
12:37:11,0,0,0,0,0,2700,2200,1,0,0,0,511,0,0,0,0,0.0000000,0.0000000,0.0000000,0.0000000,10.00,38.4026375,-110.7916031,1360.1999512,0.1,253.6,0.8,0.0,0.0,884,128,0,0,862.01,15.92,22.68,# data time:1070,pm2.5:6.445,pm10:5.704,O2:0.000,NO2:0.000,SO2:0.000,NH3:8.251
12:37:12,0,0,0,0,0,2700,2200,1,0,0,0,514,0,0,0,0,0.0000000,0.0000000,0.0000000,0.0000000,10.00,38.4026375,-110.7916031,1360.1999512,0.1,315.9,0.8,0.0,0.0,885,134,0,0,862.02,15.92,22.69,# data time:1070,pm2.5:6.445,pm10:5.704,O2:0.000,NO2:0.000,SO2:0.000,NH3:8.251
12:37:13,0,0,0,0,0,2700,2200,1,0,0,0,515,0,0,0,0,0.0000000,0.0000000,0.0000000,0.0000000,10.00,38.4026375,-110.7916031,1360.1999512,0.1,231.9,0.8,0.0,0.0,884,132,0,0,862.02,15.84,22.70,# data time:1070,pm2.5:6.445,pm10:5.704,O2:0.000,NO2:0.000,SO2:0.000,NH3:8.251
12:37:14,0,0,0,0,0,2700,2200,1,0,0,0,517,0,0,0,0,0.0000000,0.0000000,0.0000000,0.0000000,10.00,38.4026375,-110.7916031,1360.1999512,0.0,185.0,0.8,0.0,0.0,884,126,0,0,862.11,15.85,22.73,# data time:1070,pm2.5:6.445,pm10:5.704,O2:0.000,NO2:0.000,SO2:0.000,NH3:8.251
12:37:15,0,0,0,0,0,2700,2200,1,0,0,0,516,0,0,0,0,0.0000000,0.0000000,0.0000000,0.0000000,10.00,38.4026375,-110.7916031,1360.1999512,0.2,276.8,0.8,0.0,0.0,886,138,0,0,862.03,15.87,22.75,# data time:1070,pm2.5:6.445,pm10:5.704,O2:0.000,NO2:0.000,SO2:0.000,NH3:8.251
12:37:16,0,0,0,0,0,2700,2200,1,0,0,0,512,0,0,0,0,0.0000000,0.0000000,0.0000000,0.0000000,10.00,38.4026375,-110.7916031,1360.1999512,0.1,283.5,0.8,0.0,0.0,886,133,0,0,862.00,15.87,22.77,# data time:1070,pm2.5:6.445,pm10:5.704,O2:0.000,NO2:0.000,SO2:0.000,NH3:8.251
12:37:17,0,0,0,0,0,2700,2200,1,0,0,0,504,0,0,0,0,0.0000000,0.0000000,0.0000000,0.0000000,10.00,38.4026375,-110.7916031,1360.1999512,0.1,8.1,0.8,0.0,0.0,888,130,0,0,862.03,15.85,22.78,# data time:1070,pm2.5:6.445,pm10:5.704,O2:0.000,NO2:0.000,SO2:0.000,NH3:8.251
12:37:18,0,0,0,0,0,2700,2200,1,0,0,0,518,0,0,0,0,0.0000000,0.0000000,0.0000000,0.0000000,10.00,38.4026375,-110.7916031,1360.1999512,0.0,164.9,0.8,0.0,0.0,888,141,0,0,862.01,15.85,22.79,# data time:1070,pm2.5:6.445,pm10:5.704,O2:0.000,NO2:0.000,SO2:0.000,NH3:8.251
12:37:19,0,0,0,0,0,2700,2200,1,0,0,0,510,0,0,0,0,0.0000000,0.0000000,0.0000000,0.0000000,10.00,38.4026375,-110.7916031,1360.1999512,0.1,108.4,0.8,0.0,0.0,883,132,0,0,862.01,15.85,22.81,# data time:1070,pm2.5:6.445,pm10:5.704,O2:0.000,NO2:0.000,SO2:0.000,NH3:8.251
12:37:20,0,0,0,0,0,2700,2200,1,0,0,0,515,0,0,0,0,0.0000000,0.0000000,0.0000000,0.0000000,10.00,38.4026375,-110.7916031,1360.1999512,0.1,233.8,0.8,0.0,0.0,886,123,0,0,861.97,15.81,22.82,# data time:1070,pm2.5:6.445,pm10:5.704,O2:0.000,NO2:0.000,SO2:0.000,NH3:8.251
12:37:21,0,0,0,0,0,2700,2200,1,0,0,0,514,0,0,0,0,0.0000000,0.0000000,0.0000000,0.0000000,10.00,38.4026375,-110.7916031,1360.1999512,0.1,106.4,0.8,0.0,0.0,887,130,0,0,861.97,15.76,22.84,# data time:1080,pm2.5:6.445,pm10:5.704,O2:0.000,NO2:0.010,SO2:0.000,NH3:8.251
12:37:22,0,0,0,0,0,2700,2200,1,0,0,0,515,0,0,0,0,0.0000000,0.0000000,0.0000000,0.0000000,10.00,38.4026375,-110.7916031,1360.1999512,0.2,110.9,0.8,0.0,0.0,884,138,0,0,862.01,15.75,22.86,# data time:1080,pm2.5:6.445,pm10:5.704,O2:0.000,NO2:0.010,SO2:0.000,NH3:8.251
12:37:23,0,0,0,0,0,2700,2200,1,0,0,0,514,0,0,0,0,0.0000000,0.0000000,0.0000000,0.0000000,10.00,38.4026375,-110.7916031,1360.1999512,0.2,121.0,0.8,0.0,0.0,885,133,0,0,862.01,15.73,22.87,# data time:1080,pm2.5:6.445,pm10:5.704,O2:0.000,NO2:0.010,SO2:0.000,NH3:8.251
12:37:24,0,0,0,0,0,2700,2200,1,0,0,0,514,0,0,0,0,0.0000000,0.0000000,0.0000000,0.0000000,10.00,38.4026375,-110.7916031,1360.1999512,0.2,114.3,0.8,0.0,0.0,884,129,0,0,862.03,15.75,22.86,# data time:1080,pm2.5:6.445,pm10:5.704,O2:0.000,NO2:0.010,SO2:0.000,NH3:8.251
12:37:25,0,0,0,0,0,2700,2200,1,0,0,0,515,0,0,0,0,0.0000000,0.0000000,0.0000000,0.0000000,10.00,38.4026375,-110.7916031,1360.1999512,0.2,125.6,0.8,0.0,0.0,884,128,0,0,862.00,15.75,22.88,# data time:1080,pm2.5:6.445,pm10:5.704,O2:0.000,NO2:0.010,SO2:0.000,NH3:8.251
12:37:26,0,0,0,0,0,2700,2200,1,0,0,0,514,0,0,0,0,0.0000000,0.0000000,0.0000000,0.0000000,10.00,38.4026337,-110.7916031,1360.1999512,0.2,124.0,0.8,0.0,0.0,885,133,0,0,861.95,15.78,22.89,# data time:1080,pm2.5:6.445,pm10:5.704,O2:0.000,NO2:0.010,SO2:0.000,NH3:8.251
12:37:27,0,0,0,0,0,2700,2200,1,0,0,0,515,0,0,0,0,0.0000000,0.0000000,0.0000000,0.0000000,10.00,38.4026337,-110.7916031,1360.1999512,0.2,96.5,0.8,0.0,0.0,884,136,0,0,862.00,15.76,22.88,# data time:1080,pm2.5:6.445,pm10:5.704,O2:0.000,NO2:0.010,SO2:0.000,NH3:8.251
12:37:28,0,0,0,0,0,2700,2200,1,0,0,0,515,0,0,0,0,0.0000000,0.0000000,0.0000000,0.0000000,10.00,38.4026337,-110.7916031,1360.1999512,0.2,117.4,0.8,0.0,0.0,885,134,0,0,861.99,15.73,22.91,# data time:1080,pm2.5:6.445,pm10:5.704,O2:0.000,NO2:0.010,SO2:0.000,NH3:8.251
12:37:29,0,0,0,0,0,2700,2200,1,0,0,0,514,0,0,0,0,0.0000000,0.0000000,0.0000000,0.0000000,10.00,38.4026337,-110.7916031,1360.1999512,0.1,142.3,0.8,0.0,0.0,885,133,0,0,861.97,15.72,22.93,# data time:1080,pm2.5:6.445,pm10:5.704,O2:0.000,NO2:0.010,SO2:0.000,NH3:8.251
12:37:30,0,0,0,0,0,2700,2200,1,0,0,0,517,0,0,0,0,0.0000000,0.0000000,0.0000000,0.0000000,10.00,38.4026337,-110.7916031,1360.1999512,0.2,170.8,0.8,0.0,0.0,886,141,0,0,861.99,15.69,22.95,# data time:1080,pm2.5:6.445,pm10:5.704,O2:0.000,NO2:0.010,SO2:0.000,NH3:8.251
12:37:31,0,0,0,0,0,2700,2200,1,0,0,0,515,0,0,0,0,0.0000000,0.0000000,0.0000000,0.0000000,10.00,38.4026337,-110.7916031,1360.1999512,0.1,190.8,0.8,0.0,0.0,887,134,0,0,862.00,15.64,22.93,# data time:1090,pm2.5:6.445,pm10:5.704,O2:0.000,NO2:0.000,SO2:0.000,NH3:8.251
12:37:32,0,0,0,0,0,2700,2200,1,0,0,0,514,0,0,0,0,0.0000000,0.0000000,0.0000000,0.0000000,10.00,38.4026337,-110.7916031,1360.1999512,0.1,102.7,0.8,0.0,0.0,884,133,0,0,861.94,15.61,22.92,# data time:1090,pm2.5:6.445,pm10:5.704,O2:0.000,NO2:0.000,SO2:0.000,NH3:8.251
12:37:33,0,0,0,0,0,2700,2200,1,0,0,0,507,0,0,0,0,0.0000000,0.0000000,0.0000000,0.0000000,10.00,38.4026337,-110.7915878,1360.1999512,0.1,94.7,0.8,0.0,0.0,884,135,0,0,861.98,15.56,22.95,# data time:1090,pm2.5:6.445,pm10:5.704,O2:0.000,NO2:0.000,SO2:0.000,NH3:8.251
12:37:34,0,0,0,0,0,2700,2200,1,0,0,0,518,0,0,0,0,0.0000000,0.0000000,0.0000000,0.0000000,10.00,38.4026337,-110.7915878,1360.1999512,0.1,77.3,0.8,0.0,0.0,885,135,0,0,861.93,15.52,22.94,# data time:1090,pm2.5:6.445,pm10:5.704,O2:0.000,NO2:0.000,SO2:0.000,NH3:8.251
12:37:35,0,0,0,0,0,2700,2200,1,0,0,0,514,0,0,0,0,0.0000000,0.0000000,0.0000000,0.0000000,10.00,38.4026337,-110.7915878,1360.1999512,0.1,53.8,0.8,0.0,0.0,884,135,0,0,862.00,15.56,22.95,# data time:1090,pm2.5:6.445,pm10:5.704,O2:0.000,NO2:0.000,SO2:0.000,NH3:8.251
12:37:36,0,0,0,0,0,2700,2200,1,0,0,0,515,0,0,0,0,0.0000000,0.0000000,0.0000000,0.0000000,10.00,38.4026337,-110.7915878,1360.1999512,0.1,90.3,0.8,0.0,0.0,885,134,0,0,861.97,15.52,22.95,# data time:1090,pm2.5:6.445,pm10:5.704,O2:0.000,NO2:0.000,SO2:0.000,NH3:8.251
12:37:37,0,0,0,0,0,2700,2200,1,0,0,0,516,0,0,0,0,0.0000000,0.0000000,0.0000000,0.0000000,10.00,38.4026337,-110.7915878,1360.1999512,0.1,28.2,0.8,0.0,0.0,885,119,0,0,861.98,15.49,22.94,# data time:1090,pm2.5:6.445,pm10:5.704,O2:0.000,NO2:0.000,SO2:0.000,NH3:8.251
12:37:38,0,0,0,0,0,2700,2200,1,0,0,0,515,0,0,0,0,0.0000000,0.0000000,0.0000000,0.0000000,10.00,38.4026337,-110.7915878,1360.1999512,0.1,13.8,0.8,0.0,0.0,886,133,0,0,861.99,15.47,22.96,# data time:1090,pm2.5:6.445,pm10:5.704,O2:0.000,NO2:0.000,SO2:0.000,NH3:8.251
12:37:40,0,0,0,0,0,2700,2200,1,0,0,0,515,0,0,0,0,0.0000000,0.0000000,0.0000000,0.0000000,10.00,38.4026337,-110.7915878,1360.1999512,0.1,344.9,0.8,0.0,0.0,885,130,0,0,862.02,15.46,22.98,# data time:1090,pm2.5:6.445,pm10:5.704,O2:0.000,NO2:0.000,SO2:0.000,NH3:8.251
12:37:40,0,0,0,0,0,2700,2200,1,0,0,0,515,0,0,0,0,0.0000000,0.0000000,0.0000000,0.0000000,10.00,38.4026337,-110.7915878,1360.1999512,0.0,59.0,0.8,0.0,0.0,882,129,0,0,862.10,15.40,23.00,# data time:1100,pm2.5:6.445,pm10:5.704,O2:0.000,NO2:0.000,SO2:0.000,NH3:8.251
12:37:42,0,0,0,0,0,2700,2200,1,0,0,0,510,0,0,0,0,0.0000000,0.0000000,0.0000000,0.0000000,10.00,38.4026337,-110.7915878,1360.1999512,0.2,105.3,0.8,0.0,0.0,883,122,0,0,861.98,15.40,23.02,# data time:1100,pm2.5:6.445,pm10:5.704,O2:0.000,NO2:0.000,SO2:0.000,NH3:8.251
12:37:43,0,0,0,0,0,2700,2200,1,0,0,0,517,0,0,0,0,0.0000000,0.0000000,0.0000000,0.0000000,10.00,38.4026337,-110.7915878,1360.1999512,0.2,140.9,0.8,0.0,0.0,887,133,0,0,861.98,15.37,23.04,# data time:1100,pm2.5:6.445,pm10:5.704,O2:0.000,NO2:0.000,SO2:0.000,NH3:8.251
12:37:44,0,0,0,0,0,2700,2200,1,0,0,0,515,0,0,0,0,0.0000000,0.0000000,0.0000000,0.0000000,10.00,38.4026337,-110.7915878,1360.1999512,0.1,332.4,0.8,0.0,0.0,885,130,0,0,861.98,15.35,23.05,# data time:1100,pm2.5:6.445,pm10:5.704,O2:0.000,NO2:0.000,SO2:0.000,NH3:8.251
12:37:45,0,0,0,0,0,2700,2200,1,0,0,0,513,0,0,0,0,0.0000000,0.0000000,0.0000000,0.0000000,10.00,38.4026337,-110.7915878,1360.1999512,0.1,302.4,0.8,0.0,0.0,884,131,0,0,861.96,15.34,23.07,# data time:1100,pm2.5:6.445,pm10:5.704,O2:0.000,NO2:0.000,SO2:0.000,NH3:8.251
12:37:46,0,0,0,0,0,2700,2200,1,0,0,0,513,0,0,0,0,0.0000000,0.0000000,0.0000000,0.0000000,10.00,38.4026337,-110.7915878,1360.1999512,0.2,346.7,0.8,0.0,0.0,885,134,0,0,862.01,15.35,23.08,# data time:1100,pm2.5:6.445,pm10:5.704,O2:0.000,NO2:0.000,SO2:0.000,NH3:8.251
12:37:47,0,0,0,0,0,2700,2200,1,0,0,0,512,0,0,0,0,0.0000000,0.0000000,0.0000000,0.0000000,10.00,38.4026375,-110.7915878,1360.1999512,0.2,345.4,0.8,0.0,0.0,884,133,0,0,861.95,15.37,23.00,# data time:1100,pm2.5:6.445,pm10:5.704,O2:0.000,NO2:0.000,SO2:0.000,NH3:8.251
12:37:48,0,0,0,0,0,2700,2200,1,0,0,0,512,0,0,0,0,0.0000000,0.0000000,0.0000000,0.0000000,10.00,38.4026375,-110.7915878,1360.1999512,0.2,333.3,0.8,0.0,0.0,883,127,0,0,861.94,15.38,23.01,# data time:1100,pm2.5:6.445,pm10:5.704,O2:0.000,NO2:0.000,SO2:0.000,NH3:8.251
12:37:49,0,0,0,0,0,2700,2200,1,0,0,0,512,0,0,0,0,0.0000000,0.0000000,0.0000000,0.0000000,10.00,38.4026375,-110.7915878,1360.3000488,0.1,336.6,0.8,0.0,0.0,886,133,0,0,861.99,15.35,23.09,# data time:1100,pm2.5:6.445,pm10:5.704,O2:0.000,NO2:0.000,SO2:0.000,NH3:8.251
12:37:50,0,0,0,0,0,2700,2200,1,0,0,0,515,0,0,0,0,0.0000000,0.0000000,0.0000000,0.0000000,10.00,38.4026413,-110.7915878,1360.3000488,0.1,336.6,0.8,0.0,0.0,887,137,0,0,861.95,15.34,23.04,# data time:1100,pm2.5:6.445,pm10:5.704,O2:0.000,NO2:0.000,SO2:0.000,NH3:8.251
12:37:51,0,0,0,0,0,2700,2200,1,0,0,0,515,0,0,0,0,0.0000000,0.0000000,0.0000000,0.0000000,10.00,38.4026413,-110.7915878,1360.3000488,0.1,328.5,0.8,0.0,0.0,885,129,0,0,862.07,15.38,23.16,# data time:1110,pm2.5:6.445,pm10:5.704,O2:0.000,NO2:0.000,SO2:0.000,NH3:8.251
12:37:52,0,0,0,0,0,2700,2200,1,0,0,0,510,0,0,0,0,0.0000000,0.0000000,0.0000000,0.0000000,10.00,38.4026413,-110.7915878,1360.3000488,0.0,177.3,0.8,0.0,0.0,884,127,0,0,862.00,15.35,23.18,# data time:1110,pm2.5:6.445,pm10:5.704,O2:0.000,NO2:0.000,SO2:0.000,NH3:8.251
12:37:53,0,0,0,0,0,2700,2200,1,0,0,0,514,0,0,0,0,0.0000000,0.0000000,0.0000000,0.0000000,10.00,38.4026413,-110.7915878,1360.3000488,0.0,345.1,0.8,0.0,0.0,884,136,0,0,861.98,15.37,23.19,# data time:1110,pm2.5:6.445,pm10:5.704,O2:0.000,NO2:0.000,SO2:0.000,NH3:8.251
12:37:54,0,0,0,0,0,2700,2200,1,0,0,0,518,0,0,0,0,0.0000000,0.0000000,0.0000000,0.0000000,10.00,38.4026413,-110.7915878,1360.3000488,0.0,122.4,0.8,0.0,0.0,885,127,0,0,862.00,15.32,23.21,# data time:1110,pm2.5:6.445,pm10:5.704,O2:0.000,NO2:0.000,SO2:0.000,NH3:8.251
12:37:55,0,0,0,0,0,2700,2200,1,0,0,0,517,0,0,0,0,0.0000000,0.0000000,0.0000000,0.0000000,10.00,38.4026413,-110.7915878,1360.3000488,0.0,247.7,0.8,0.0,0.0,886,134,0,0,861.98,15.31,23.23,# data time:1110,pm2.5:6.445,pm10:5.704,O2:0.000,NO2:0.000,SO2:0.000,NH3:8.251
12:37:56,0,0,0,0,0,2700,2200,1,0,0,0,512,0,0,0,0,0.0000000,0.0000000,0.0000000,0.0000000,10.00,38.4026413,-110.7915878,1360.3000488,0.0,357.4,0.8,0.0,0.0,882,126,0,0,862.00,15.29,23.24,# data time:1110,pm2.5:6.445,pm10:5.704,O2:0.000,NO2:0.000,SO2:0.000,NH3:8.251
12:37:57,0,0,0,0,0,2700,2200,1,0,0,0,517,0,0,0,0,0.0000000,0.0000000,0.0000000,0.0000000,10.00,38.4026413,-110.7915878,1360.3000488,0.0,306.3,0.8,0.0,0.0,887,125,0,0,862.01,15.29,23.24,# data time:1110,pm2.5:6.445,pm10:5.704,O2:0.000,NO2:0.000,SO2:0.000,NH3:8.251
12:37:58,0,0,0,0,0,2700,2200,1,0,0,0,514,0,0,0,0,0.0000000,0.0000000,0.0000000,0.0000000,10.00,38.4026413,-110.7915878,1360.3000488,0.1,177.4,0.8,0.0,0.0,886,131,0,0,861.99,15.26,23.26,# data time:1110,pm2.5:6.445,pm10:5.704,O2:0.000,NO2:0.000,SO2:0.000,NH3:8.251
12:37:59,0,0,0,0,0,2700,2200,1,0,0,0,510,0,0,0,0,0.0000000,0.0000000,0.0000000,0.0000000,10.00,38.4026413,-110.7915878,1360.3000488,0.1,263.1,0.8,0.0,0.0,886,130,0,0,861.98,15.26,23.29,# data time:1110,pm2.5:6.445,pm10:5.704,O2:0.000,NO2:0.000,SO2:0.000,NH3:8.251
12:38:00,0,0,0,0,0,2700,2200,1,0,0,0,516,0,0,0,0,0.0000000,0.0000000,0.0000000,0.0000000,10.00,38.4026413,-110.7915878,1360.3000488,0.1,335.0,0.8,0.0,0.0,884,119,0,0,861.97,15.26,23.29,# data time:1110,pm2.5:6.445,pm10:5.704,O2:0.000,NO2:0.000,SO2:0.000,NH3:8.251
12:38:01,0,0,0,0,0,2700,2200,1,0,0,0,516,0,0,0,0,0.0000000,0.0000000,0.0000000,0.0000000,10.00,38.4026413,-110.7915878,1360.3000488,0.1,6.4,0.8,0.0,0.0,883,129,0,0,862.03,15.24,23.30,# data time:1120,pm2.5:6.445,pm10:5.704,O2:0.000,NO2:0.000,SO2:0.000,NH3:8.251
12:38:02,0,0,0,0,0,2700,2200,1,0,0,0,515,0,0,0,0,0.0000000,0.0000000,0.0000000,0.0000000,10.00,38.4026413,-110.7915878,1360.3000488,0.2,359.3,0.8,0.0,0.0,884,134,0,0,862.00,15.21,23.32,# data time:1120,pm2.5:6.445,pm10:5.704,O2:0.000,NO2:0.000,SO2:0.000,NH3:8.251
12:38:03,0,0,0,0,0,2700,2200,1,0,0,0,514,0,0,0,0,0.0000000,0.0000000,0.0000000,0.0000000,10.00,38.4026413,-110.7915878,1360.3000488,0.2,47.0,0.8,0.0,0.0,885,129,0,0,862.01,15.20,23.34,# data time:1120,pm2.5:6.445,pm10:5.704,O2:0.000,NO2:0.000,SO2:0.000,NH3:8.251
12:38:04,0,0,0,0,0,2700,2200,1,0,0,0,514,0,0,0,0,0.0000000,0.0000000,0.0000000,0.0000000,10.00,38.4026413,-110.7915878,1360.3000488,0.1,17.6,0.8,0.0,0.0,884,134,0,0,861.98,15.20,23.34,# data time:1120,pm2.5:6.445,pm10:5.704,O2:0.000,NO2:0.000,SO2:0.000,NH3:8.251
12:38:05,0,0,0,0,0,2700,2200,1,0,0,0,514,0,0,0,0,0.0000000,0.0000000,0.0000000,0.0000000,10.00,38.4026413,-110.7915878,1360.3000488,0.2,21.1,0.8,0.0,0.0,885,132,0,0,861.97,15.23,23.34,# data time:1120,pm2.5:6.445,pm10:5.704,O2:0.000,NO2:0.000,SO2:0.000,NH3:8.251
12:38:06,0,0,0,0,0,2700,2200,1,0,0,0,514,0,0,0,0,0.0000000,0.0000000,0.0000000,0.0000000,10.00,38.4026413,-110.7915878,1360.3000488,0.1,327.5,0.8,0.0,0.0,885,127,0,0,861.98,15.26,23.32,# data time:1120,pm2.5:6.445,pm10:5.704,O2:0.000,NO2:0.000,SO2:0.000,NH3:8.251
12:38:07,0,0,0,0,0,2700,2200,1,0,0,0,515,0,0,0,0,0.0000000,0.0000000,0.0000000,0.0000000,10.00,38.4026413,-110.7915878,1360.3000488,0.1,298.3,0.8,0.0,0.0,885,129,0,0,861.99,15.27,23.32,# data time:1120,pm2.5:6.445,pm10:5.704,O2:0.000,NO2:0.000,SO2:0.000,NH3:8.251
12:38:08,0,0,0,0,0,2700,2200,1,0,0,0,515,0,0,0,0,0.0000000,0.0000000,0.0000000,0.0000000,10.00,38.4026451,-110.7915878,1360.3000488,0.1,113.6,0.8,0.0,0.0,885,128,0,0,861.96,15.24,23.31,# data time:1120,pm2.5:6.445,pm10:5.704,O2:0.000,NO2:0.000,SO2:0.000,NH3:8.251
12:38:09,0,0,0,0,0,2700,2200,1,0,0,0,514,0,0,0,0,0.0000000,0.0000000,0.0000000,0.0000000,10.00,38.4026413,-110.7915878,1360.3000488,0.1,218.9,0.8,0.0,0.0,885,126,0,0,861.96,15.24,23.21,# data time:1120,pm2.5:6.445,pm10:5.704,O2:0.000,NO2:0.000,SO2:0.000,NH3:8.251
12:38:10,0,0,0,0,0,2700,2200,1,0,0,0,514,0,0,0,0,0.0000000,0.0000000,0.0000000,0.0000000,10.00,38.4026413,-110.7915878,1360.3000488,0.1,258.6,0.8,0.0,0.0,885,129,0,0,861.90,15.31,23.20,# data time:1120,pm2.5:6.445,pm10:5.704,O2:0.000,NO2:0.000,SO2:0.000,NH3:8.251
12:38:11,0,0,0,0,0,2700,2200,1,0,0,0,515,0,0,0,0,0.0000000,0.0000000,0.0000000,0.0000000,10.00,38.4026413,-110.7915878,1360.3000488,0.1,302.6,0.8,0.0,0.0,885,128,0,0,861.99,15.15,23.18,# data time:1130,pm2.5:6.445,pm10:5.704,O2:0.000,NO2:0.010,SO2:0.000,NH3:8.251
12:38:12,0,0,0,0,0,2700,2200,1,0,0,0,515,0,0,0,0,0.0000000,0.0000000,0.0000000,0.0000000,10.00,38.4026413,-110.7915878,1360.3000488,0.2,290.4,0.8,0.0,0.0,885,129,0,0,861.95,15.17,23.17,# data time:1130,pm2.5:6.445,pm10:5.704,O2:0.000,NO2:0.010,SO2:0.000,NH3:8.251
12:38:13,0,0,0,0,0,2700,2200,1,0,0,0,515,0,0,0,0,0.0000000,0.0000000,0.0000000,0.0000000,10.00,38.4026451,-110.7915878,1360.3000488,0.3,236.5,0.8,0.0,0.0,885,130,0,0,861.96,15.17,23.18,# data time:1130,pm2.5:6.445,pm10:5.704,O2:0.000,NO2:0.010,SO2:0.000,NH3:8.251
