Time, Motor A Speed, Motor A Dir, Motor B Speed, Motor B Dir, Servo Rail Current Sensor, Servo Pos - Arm L, Servo Pos - Arm R, Servo Pos - End, Servo Pos - Hopper, Servo Pos - Lid, Servo Pos - Extra, Servo Current, LED - Front L, LED - Front R, LED - Back L, LED - Back R, IMU Pitch, IMU Roll, IMU Yaw, Compass Heading, GPS Sats, GPS Latitude, GPS Longitude, GPS Altitude, GPS Speed, GPS Angle, GPS HDOP, GPS VDOP, GPS PDOP, Battery, Wind, Comm Xbee Latency, Comm Arduino Latency, Pressure, Humidity, Temperature, uRADMonitor
12:19:23,0,0,0,0,0,2100,2200,0,0,0,0,0,0,0,0,0,0.0000000,0.0000000,0.0000000,0.0000000,0.00,0.0000000,0.0000000,0.0000000,0.0,0.0,0.0,0.0,0.0,0,0,0,0,0.00,0.00,0.00,0
12:19:24,0,0,0,0,0,2100,2200,0,0,0,0,514,0,0,0,0,0.0000000,0.0000000,0.0000000,0.0000000,0.00,0.0000000,0.0000000,0.0000000,0.0,0.0,0.0,0.0,0.0,890,128,0,0,859.91,25.62,29.57,0
12:19:25,0,0,0,0,0,2100,2200,0,0,0,0,514,0,0,0,0,0.0000000,0.0000000,0.0000000,0.0000000,0.00,0.0000000,0.0000000,0.0000000,0.0,0.0,0.0,0.0,0.0,890,133,0,0,859.93,25.96,29.79,0
12:19:26,0,0,0,0,0,2100,2200,0,0,0,0,515,0,0,0,0,0.0000000,0.0000000,0.0000000,0.0000000,0.00,0.0000000,0.0000000,0.0000000,0.0,0.0,0.0,0.0,0.0,889,133,0,0,859.98,25.64,29.73,0
12:19:27,0,0,0,0,0,2100,2200,0,0,0,0,515,0,0,0,0,0.0000000,0.0000000,0.0000000,0.0000000,0.00,0.0000000,0.0000000,0.0000000,0.0,0.0,0.0,0.0,0.0,890,133,0,0,859.96,25.24,29.72,0
12:19:28,0,0,0,0,0,2100,2200,0,0,0,0,514,0,0,0,0,0.0000000,0.0000000,0.0000000,0.0000000,0.00,0.0000000,0.0000000,0.0000000,0.0,0.0,0.0,0.0,0.0,890,135,0,0,860.00,26.28,29.89,0
12:19:29,0,0,0,0,0,2100,2200,0,0,0,0,515,0,0,0,0,0.0000000,0.0000000,0.0000000,0.0000000,0.00,0.0000000,0.0000000,0.0000000,0.0,0.0,0.0,0.0,0.0,890,134,0,0,859.98,25.62,30.08,0
12:19:30,0,0,0,0,0,2100,2200,0,0,0,0,515,0,0,0,0,0.0000000,0.0000000,0.0000000,0.0000000,0.00,0.0000000,0.0000000,0.0000000,0.0,0.0,0.0,0.0,0.0,890,136,0,0,859.95,24.83,30.23,0
12:19:31,0,0,0,0,0,2100,2200,0,0,0,0,515,0,0,0,0,0.0000000,0.0000000,0.0000000,0.0000000,0.00,0.0000000,0.0000000,0.0000000,0.0,0.0,0.0,0.0,0.0,890,133,0,0,859.99,24.81,30.34,# start id:14000016 hw:101 sw:103
# data time:10,pm2.5:591.357,pm10:523.325,O2:0.000,NO2:0.528,SO2:0.000,NH3:1.160
12:19:32,0,0,0,0,0,2100,2200,0,0,0,0,514,0,0,0,0,0.0000000,0.0000000,0.0000000,0.0000000,0.00,0.0000000,0.0000000,0.0000000,0.0,0.0,0.0,0.0,0.0,890,131,0,0,860.08,25.19,30.26,# start id:14000016 hw:101 sw:103
# data time:10,pm2.5:591.357,pm10:523.325,O2:0.000,NO2:0.528,SO2:0.000,NH3:1.160
12:19:33,0,0,0,0,0,2100,2200,0,0,0,0,514,0,0,0,0,0.0000000,0.0000000,0.0000000,0.0000000,0.00,0.0000000,0.0000000,0.0000000,0.0,0.0,0.0,0.0,0.0,890,133,0,0,860.25,22.89,30.15,# start id:14000016 hw:101 sw:103
# data time:10,pm2.5:591.357,pm10:523.325,O2:0.000,NO2:0.528,SO2:0.000,NH3:1.160
12:19:34,0,0,0,0,0,2100,2200,0,0,0,0,514,0,0,0,0,0.0000000,0.0000000,0.0000000,0.0000000,0.00,0.0000000,0.0000000,0.0000000,0.0,0.0,0.0,0.0,0.0,891,132,0,0,860.10,22.49,29.91,# start id:14000016 hw:101 sw:103
# data time:10,pm2.5:591.357,pm10:523.325,O2:0.000,NO2:0.528,SO2:0.000,NH3:1.160
12:19:35,0,0,0,0,0,2100,2200,0,0,0,0,514,0,0,0,0,0.0000000,0.0000000,0.0000000,0.0000000,0.00,0.0000000,0.0000000,0.0000000,0.0,0.0,0.0,0.0,0.0,890,134,0,0,859.96,22.48,29.97,# start id:14000016 hw:101 sw:103
# data time:10,pm2.5:591.357,pm10:523.325,O2:0.000,NO2:0.528,SO2:0.000,NH3:1.160
12:19:36,0,0,0,0,0,2100,2200,0,0,0,0,515,0,0,0,0,0.0000000,0.0000000,0.0000000,0.0000000,0.00,0.0000000,0.0000000,0.0000000,0.0,0.0,0.0,0.0,0.0,891,129,0,0,860.00,22.46,30.05,# start id:14000016 hw:101 sw:103
# data time:10,pm2.5:591.357,pm10:523.325,O2:0.000,NO2:0.528,SO2:0.000,NH3:1.160
12:19:37,0,0,0,0,0,2100,2200,0,0,0,0,515,0,0,0,0,0.0000000,0.0000000,0.0000000,0.0000000,0.00,0.0000000,0.0000000,0.0000000,0.0,0.0,0.0,0.0,0.0,890,130,0,0,859.97,22.48,30.14,# start id:14000016 hw:101 sw:103
# data time:10,pm2.5:591.357,pm10:523.325,O2:0.000,NO2:0.528,SO2:0.000,NH3:1.160
12:19:38,0,0,0,0,0,2100,2200,0,0,0,0,515,0,0,0,0,0.0000000,0.0000000,0.0000000,0.0000000,0.00,0.0000000,0.0000000,0.0000000,0.0,0.0,0.0,0.0,0.0,891,127,0,0,860.00,17.33,30.28,# start id:14000016 hw:101 sw:103
# data time:10,pm2.5:591.357,pm10:523.325,O2:0.000,NO2:0.528,SO2:0.000,NH3:1.160
12:19:39,0,0,0,0,0,2100,2200,0,0,0,0,515,0,0,0,0,0.0000000,0.0000000,0.0000000,0.0000000,0.00,0.0000000,0.0000000,0.0000000,0.0,0.0,0.0,0.0,0.0,890,129,0,0,859.98,18.49,30.40,# start id:14000016 hw:101 sw:103
# data time:10,pm2.5:591.357,pm10:523.325,O2:0.000,NO2:0.528,SO2:0.000,NH3:1.160
12:19:41,0,0,0,0,0,2100,2200,0,0,0,0,514,0,0,0,0,0.0000000,0.0000000,0.0000000,0.0000000,0.00,0.0000000,0.0000000,0.0000000,0.0,0.0,0.0,0.0,0.0,890,127,0,0,860.02,20.86,30.46,# start id:14000016 hw:101 sw:103
# data time:10,pm2.5:591.357,pm10:523.325,O2:0.000,NO2:0.528,SO2:0.000,NH3:1.160
12:19:42,0,0,0,0,0,2100,2200,0,0,0,0,514,0,0,0,0,0.0000000,0.0000000,0.0000000,0.0000000,0.00,0.0000000,0.0000000,0.0000000,0.0,0.0,0.0,0.0,0.0,890,128,0,0,859.97,22.16,30.49,# data time:20,pm2.5:5.640,pm10:4.991,O2:0.000,NO2:0.028,SO2:0.000,NH3:2.141
12:19:43,0,0,0,0,0,2100,2200,0,0,0,0,514,0,0,0,0,0.0000000,0.0000000,0.0000000,0.0000000,0.00,0.0000000,0.0000000,0.0000000,0.0,0.0,0.0,0.0,0.0,891,128,0,0,860.05,22.39,30.58,# data time:20,pm2.5:5.640,pm10:4.991,O2:0.000,NO2:0.028,SO2:0.000,NH3:2.141
12:19:44,0,0,0,0,0,2100,2200,0,0,0,0,514,0,0,0,0,0.0000000,0.0000000,0.0000000,0.0000000,0.00,0.0000000,0.0000000,0.0000000,0.0,0.0,0.0,0.0,0.0,890,135,0,0,860.01,22.23,30.56,# data time:20,pm2.5:5.640,pm10:4.991,O2:0.000,NO2:0.028,SO2:0.000,NH3:2.141
12:19:45,0,0,0,0,0,2100,2200,0,0,0,0,514,0,0,0,0,0.0000000,0.0000000,0.0000000,0.0000000,0.00,0.0000000,0.0000000,0.0000000,0.0,0.0,0.0,0.0,0.0,890,136,0,0,860.04,22.64,30.50,# data time:20,pm2.5:5.640,pm10:4.991,O2:0.000,NO2:0.028,SO2:0.000,NH3:2.141
12:19:46,0,0,0,0,0,2100,2200,0,0,0,0,514,0,0,0,0,0.0000000,0.0000000,0.0000000,0.0000000,0.00,0.0000000,0.0000000,0.0000000,0.0,0.0,0.0,0.0,0.0,890,138,0,0,860.92,11.34,30.51,# data time:20,pm2.5:5.640,pm10:4.991,O2:0.000,NO2:0.028,SO2:0.000,NH3:2.141
12:19:47,0,0,0,0,0,2100,2200,0,0,0,0,515,0,0,0,0,0.0000000,0.0000000,0.0000000,0.0000000,0.00,0.0000000,0.0000000,0.0000000,0.0,0.0,0.0,0.0,0.0,890,137,0,0,860.90,11.51,30.43,# data time:20,pm2.5:5.640,pm10:4.991,O2:0.000,NO2:0.028,SO2:0.000,NH3:2.141
12:19:48,0,0,0,0,0,2100,2200,0,0,0,0,515,0,0,0,0,0.0000000,0.0000000,0.0000000,0.0000000,0.00,0.0000000,0.0000000,0.0000000,0.0,0.0,0.0,0.0,0.0,891,137,0,0,860.91,11.64,30.36,# data time:20,pm2.5:5.640,pm10:4.991,O2:0.000,NO2:0.028,SO2:0.000,NH3:2.141
12:19:49,0,0,0,0,0,2100,2200,0,0,0,0,514,0,0,0,0,0.0000000,0.0000000,0.0000000,0.0000000,0.00,0.0000000,0.0000000,0.0000000,0.0,0.0,0.0,0.0,0.0,890,135,0,0,860.89,11.66,30.29,# data time:20,pm2.5:5.640,pm10:4.991,O2:0.000,NO2:0.028,SO2:0.000,NH3:2.141
12:19:50,0,0,0,0,0,2100,2200,0,0,0,0,514,0,0,0,0,0.0000000,0.0000000,0.0000000,0.0000000,0.00,0.0000000,0.0000000,0.0000000,0.0,0.0,0.0,0.0,0.0,890,134,0,0,860.91,11.64,30.18,# data time:20,pm2.5:5.640,pm10:4.991,O2:0.000,NO2:0.028,SO2:0.000,NH3:2.141
12:19:51,0,0,0,0,0,2100,2200,0,0,0,0,514,0,0,0,0,0.0000000,0.0000000,0.0000000,0.0000000,0.00,0.0000000,0.0000000,0.0000000,0.0,0.0,0.0,0.0,0.0,890,135,0,0,860.90,11.66,30.11,# data time:20,pm2.5:5.640,pm10:4.991,O2:0.000,NO2:0.028,SO2:0.000,NH3:2.141
12:19:52,0,0,0,0,0,2100,2200,0,0,0,0,515,0,0,0,0,0.0000000,0.0000000,0.0000000,0.0000000,0.00,0.0000000,0.0000000,0.0000000,0.0,0.0,0.0,0.0,0.0,890,133,0,0,860.93,11.66,30.05,# data time:30,pm2.5:6.445,pm10:5.704,O2:0.000,NO2:0.028,SO2:0.000,NH3:2.594
12:19:53,0,0,0,0,0,2100,2200,0,0,0,0,514,0,0,0,0,0.0000000,0.0000000,0.0000000,0.0000000,0.00,0.0000000,0.0000000,0.0000000,0.0,0.0,0.0,0.0,0.0,890,131,0,0,860.95,11.73,30.07,# data time:30,pm2.5:6.445,pm10:5.704,O2:0.000,NO2:0.028,SO2:0.000,NH3:2.594
12:19:54,0,0,0,0,0,2100,2200,0,0,0,0,514,0,0,0,0,0.0000000,0.0000000,0.0000000,0.0000000,0.00,0.0000000,0.0000000,0.0000000,0.0,0.0,0.0,0.0,0.0,890,131,0,0,860.91,11.84,29.94,# data time:30,pm2.5:6.445,pm10:5.704,O2:0.000,NO2:0.028,SO2:0.000,NH3:2.594
12:19:55,0,0,0,0,0,2100,2200,0,0,0,0,515,0,0,0,0,0.0000000,0.0000000,0.0000000,0.0000000,0.00,0.0000000,0.0000000,0.0000000,0.0,0.0,0.0,0.0,0.0,890,130,0,0,860.85,11.83,29.86,# data time:30,pm2.5:6.445,pm10:5.704,O2:0.000,NO2:0.028,SO2:0.000,NH3:2.594
12:19:56,0,0,0,0,0,2100,2200,0,0,0,0,515,0,0,0,0,0.0000000,0.0000000,0.0000000,0.0000000,0.00,0.0000000,0.0000000,0.0000000,0.0,0.0,0.0,0.0,0.0,890,134,0,0,860.93,11.87,29.80,# data time:30,pm2.5:6.445,pm10:5.704,O2:0.000,NO2:0.028,SO2:0.000,NH3:2.594
12:19:57,0,0,0,0,0,2100,2200,0,0,0,0,515,0,0,0,0,0.0000000,0.0000000,0.0000000,0.0000000,0.00,0.0000000,0.0000000,0.0000000,0.0,0.0,0.0,0.0,0.0,890,132,0,0,860.91,11.89,29.75,# data time:30,pm2.5:6.445,pm10:5.704,O2:0.000,NO2:0.028,SO2:0.000,NH3:2.594
12:19:58,0,0,0,0,0,2100,2200,0,0,0,0,515,0,0,0,0,0.0000000,0.0000000,0.0000000,0.0000000,0.00,0.0000000,0.0000000,0.0000000,0.0,0.0,0.0,0.0,0.0,891,132,0,0,860.88,11.90,29.68,# data time:30,pm2.5:6.445,pm10:5.704,O2:0.000,NO2:0.028,SO2:0.000,NH3:2.594
12:19:59,0,0,0,0,0,2100,2200,0,0,0,0,511,0,0,0,0,0.0000000,0.0000000,0.0000000,0.0000000,0.00,0.0000000,0.0000000,0.0000000,0.0,0.0,0.0,0.0,0.0,887,132,0,0,860.91,11.93,29.66,# data time:30,pm2.5:6.445,pm10:5.704,O2:0.000,NO2:0.028,SO2:0.000,NH3:2.594
12:20:00,0,0,0,0,0,2100,2200,0,0,0,0,512,0,0,0,0,0.0000000,0.0000000,0.0000000,0.0000000,0.00,0.0000000,0.0000000,0.0000000,0.0,0.0,0.0,0.0,0.0,889,135,0,0,860.83,12.07,29.66,# data time:30,pm2.5:6.445,pm10:5.704,O2:0.000,NO2:0.028,SO2:0.000,NH3:2.594
12:20:01,0,0,0,0,0,2100,2200,0,0,0,0,515,0,0,0,0,0.0000000,0.0000000,0.0000000,0.0000000,0.00,0.0000000,0.0000000,0.0000000,0.0,0.0,0.0,0.0,0.0,891,135,0,0,860.88,12.02,29.66,# data time:30,pm2.5:6.445,pm10:5.704,O2:0.000,NO2:0.028,SO2:0.000,NH3:2.594
12:20:02,0,0,0,0,0,2100,2200,0,0,0,0,515,0,0,0,0,0.0000000,0.0000000,0.0000000,0.0000000,0.00,0.0000000,0.0000000,0.0000000,0.0,0.0,0.0,0.0,0.0,890,133,0,0,860.77,12.39,29.68,# data time:40,pm2.5:6.445,pm10:5.704,O2:0.000,NO2:0.000,SO2:0.000,NH3:2.820
12:20:03,0,0,0,0,0,2100,2200,0,0,0,0,514,0,0,0,0,0.0000000,0.0000000,0.0000000,0.0000000,0.00,0.0000000,0.0000000,0.0000000,0.0,0.0,0.0,0.0,0.0,890,134,0,0,860.90,12.01,29.75,# data time:40,pm2.5:6.445,pm10:5.704,O2:0.000,NO2:0.000,SO2:0.000,NH3:2.820
12:20:04,0,0,0,0,0,2100,2200,0,0,0,0,513,0,0,0,0,0.0000000,0.0000000,0.0000000,0.0000000,0.00,0.0000000,0.0000000,0.0000000,0.0,0.0,0.0,0.0,0.0,891,143,0,0,860.90,11.98,29.74,# data time:40,pm2.5:6.445,pm10:5.704,O2:0.000,NO2:0.000,SO2:0.000,NH3:2.820
12:20:05,0,0,0,0,0,2100,2200,0,0,0,0,512,0,0,0,0,0.0000000,0.0000000,0.0000000,0.0000000,0.00,0.0000000,0.0000000,0.0000000,0.0,0.0,0.0,0.0,0.0,890,131,0,0,860.92,12.12,29.83,# data time:40,pm2.5:6.445,pm10:5.704,O2:0.000,NO2:0.000,SO2:0.000,NH3:2.820
12:20:06,0,0,0,0,0,2100,2200,0,0,0,0,514,0,0,0,0,0.0000000,0.0000000,0.0000000,0.0000000,0.00,0.0000000,0.0000000,0.0000000,0.0,0.0,0.0,0.0,0.0,890,127,0,0,860.89,12.21,29.72,# data time:40,pm2.5:6.445,pm10:5.704,O2:0.000,NO2:0.000,SO2:0.000,NH3:2.820
12:20:07,0,0,0,0,0,2100,2200,0,0,0,0,514,0,0,0,0,0.0000000,0.0000000,0.0000000,0.0000000,0.00,0.0000000,0.0000000,0.0000000,0.0,0.0,0.0,0.0,0.0,890,126,0,0,860.90,12.21,29.78,# data time:40,pm2.5:6.445,pm10:5.704,O2:0.000,NO2:0.000,SO2:0.000,NH3:2.820
12:20:08,0,0,0,0,0,2100,2200,0,0,0,0,514,0,0,0,0,0.0000000,0.0000000,0.0000000,0.0000000,0.00,0.0000000,0.0000000,0.0000000,0.0,0.0,0.0,0.0,0.0,890,128,0,0,860.92,12.16,29.82,# data time:40,pm2.5:6.445,pm10:5.704,O2:0.000,NO2:0.000,SO2:0.000,NH3:2.820
12:20:09,0,0,0,0,0,2100,2200,0,0,0,0,514,0,0,0,0,0.0000000,0.0000000,0.0000000,0.0000000,0.00,0.0000000,0.0000000,0.0000000,0.0,0.0,0.0,0.0,0.0,891,124,0,0,860.90,12.02,29.80,# data time:40,pm2.5:6.445,pm10:5.704,O2:0.000,NO2:0.000,SO2:0.000,NH3:2.820
12:20:10,0,0,0,0,0,2100,2200,0,0,0,0,515,0,0,0,0,0.0000000,0.0000000,0.0000000,0.0000000,0.00,0.0000000,0.0000000,0.0000000,0.0,0.0,0.0,0.0,0.0,890,133,0,0,860.88,11.95,29.79,# data time:40,pm2.5:6.445,pm10:5.704,O2:0.000,NO2:0.000,SO2:0.000,NH3:2.820
12:20:11,0,0,0,0,0,2100,2200,0,0,0,0,514,0,0,0,0,0.0000000,0.0000000,0.0000000,0.0000000,0.00,0.0000000,0.0000000,0.0000000,0.0,0.0,0.0,0.0,0.0,890,135,0,0,860.92,11.96,29.81,# data time:50,pm2.5:6.445,pm10:5.704,O2:0.000,NO2:0.028,SO2:0.000,NH3:3.273
12:20:12,0,0,0,0,0,2100,2200,0,0,0,0,514,0,0,0,0,0.0000000,0.0000000,0.0000000,0.0000000,0.00,0.0000000,0.0000000,0.0000000,0.0,0.0,0.0,0.0,0.0,890,137,0,0,860.93,11.89,29.83,# data time:50,pm2.5:6.445,pm10:5.704,O2:0.000,NO2:0.028,SO2:0.000,NH3:3.273
12:20:13,0,0,0,0,0,2100,2200,0,0,0,0,514,0,0,0,0,0.0000000,0.0000000,0.0000000,0.0000000,0.00,0.0000000,0.0000000,0.0000000,0.0,0.0,0.0,0.0,0.0,890,137,0,0,860.96,12.62,29.85,# data time:50,pm2.5:6.445,pm10:5.704,O2:0.000,NO2:0.028,SO2:0.000,NH3:3.273
12:20:14,0,0,0,0,0,2100,2200,0,0,0,0,515,0,0,0,0,0.0000000,0.0000000,0.0000000,0.0000000,0.00,0.0000000,0.0000000,0.0000000,0.0,0.0,0.0,0.0,0.0,890,134,0,0,860.50,12.38,29.86,# data time:50,pm2.5:6.445,pm10:5.704,O2:0.000,NO2:0.028,SO2:0.000,NH3:3.273
12:20:15,0,0,0,0,0,2100,2200,0,0,0,0,515,0,0,0,0,0.0000000,0.0000000,0.0000000,0.0000000,0.00,0.0000000,0.0000000,0.0000000,0.0,0.0,0.0,0.0,0.0,890,135,0,0,860.42,12.31,29.88,# data time:50,pm2.5:6.445,pm10:5.704,O2:0.000,NO2:0.028,SO2:0.000,NH3:3.273
12:20:16,0,0,0,0,0,2100,2200,0,0,0,0,514,0,0,0,0,0.0000000,0.0000000,0.0000000,0.0000000,0.00,0.0000000,0.0000000,0.0000000,0.0,0.0,0.0,0.0,0.0,890,133,0,0,860.42,12.48,29.93,# data time:50,pm2.5:6.445,pm10:5.704,O2:0.000,NO2:0.028,SO2:0.000,NH3:3.273
12:20:17,0,0,0,0,0,2100,2200,0,0,0,0,514,0,0,0,0,0.0000000,0.0000000,0.0000000,0.0000000,0.00,0.0000000,0.0000000,0.0000000,0.0,0.0,0.0,0.0,0.0,890,140,0,0,860.33,12.63,29.97,# data time:50,pm2.5:6.445,pm10:5.704,O2:0.000,NO2:0.028,SO2:0.000,NH3:3.273
12:20:18,0,0,0,0,0,2100,2200,0,0,0,0,514,0,0,0,0,0.0000000,0.0000000,0.0000000,0.0000000,0.00,0.0000000,0.0000000,0.0000000,0.0,0.0,0.0,0.0,0.0,890,135,0,0,860.33,12.53,30.02,# data time:50,pm2.5:6.445,pm10:5.704,O2:0.000,NO2:0.028,SO2:0.000,NH3:3.273
12:20:19,0,0,0,0,0,2100,2200,0,0,0,0,515,0,0,0,0,0.0000000,0.0000000,0.0000000,0.0000000,0.00,0.0000000,0.0000000,0.0000000,0.0,0.0,0.0,0.0,0.0,890,138,0,0,860.30,12.45,30.07,# data time:50,pm2.5:6.445,pm10:5.704,O2:0.000,NO2:0.028,SO2:0.000,NH3:3.273
12:20:20,0,0,0,0,0,2100,2200,0,0,0,0,515,0,0,0,0,0.0000000,0.0000000,0.0000000,0.0000000,0.00,0.0000000,0.0000000,0.0000000,0.0,0.0,0.0,0.0,0.0,890,136,0,0,860.31,12.25,30.14,# data time:50,pm2.5:6.445,pm10:5.704,O2:0.000,NO2:0.028,SO2:0.000,NH3:3.273
12:20:21,0,0,0,0,0,2100,2200,0,0,0,0,514,0,0,0,0,0.0000000,0.0000000,0.0000000,0.0000000,0.00,0.0000000,0.0000000,0.0000000,0.0,0.0,0.0,0.0,0.0,890,134,0,0,860.36,12.09,30.17,# data time:60,pm2.5:6.445,pm10:5.704,O2:0.000,NO2:0.010,SO2:0.000,NH3:3.499
12:20:22,0,0,0,0,0,2100,2200,0,0,0,0,516,0,0,0,0,0.0000000,0.0000000,0.0000000,0.0000000,0.00,0.0000000,0.0000000,0.0000000,0.0,0.0,0.0,0.0,0.0,887,136,0,0,860.36,12.02,30.17,# data time:60,pm2.5:6.445,pm10:5.704,O2:0.000,NO2:0.010,SO2:0.000,NH3:3.499
12:20:23,0,0,0,0,0,2100,2200,0,0,0,0,516,0,0,0,0,0.0000000,0.0000000,0.0000000,0.0000000,3.00,0.0000000,0.0000000,0.0000000,0.6,139.6,0.0,0.0,0.0,888,141,0,0,860.37,11.92,30.18,# data time:60,pm2.5:6.445,pm10:5.704,O2:0.000,NO2:0.010,SO2:0.000,NH3:3.499
12:20:24,0,0,0,0,0,2100,2200,0,0,0,0,517,0,0,0,0,0.0000000,0.0000000,0.0000000,0.0000000,3.00,0.0000000,0.0000000,0.0000000,0.6,139.6,0.0,0.0,0.0,890,134,0,0,860.32,11.92,30.23,# data time:60,pm2.5:6.445,pm10:5.704,O2:0.000,NO2:0.010,SO2:0.000,NH3:3.499
12:20:26,0,0,0,0,0,2100,2200,0,0,0,0,515,0,0,0,0,0.0000000,0.0000000,0.0000000,0.0000000,3.00,0.0000000,0.0000000,0.0000000,0.7,154.2,0.0,0.0,0.0,890,131,0,0,860.28,12.05,30.36,# data time:60,pm2.5:6.445,pm10:5.704,O2:0.000,NO2:0.010,SO2:0.000,NH3:3.499
12:20:27,0,0,0,0,0,2100,2200,0,0,0,0,514,0,0,0,0,0.0000000,0.0000000,0.0000000,0.0000000,3.00,38.4020195,-110.7879410,167.1000061,0.9,160.2,3.8,0.0,0.0,890,133,0,0,860.28,11.98,30.41,# data time:60,pm2.5:6.445,pm10:5.704,O2:0.000,NO2:0.010,SO2:0.000,NH3:3.499
12:20:28,0,0,0,0,0,2100,2200,0,0,0,0,514,0,0,0,0,0.0000000,0.0000000,0.0000000,0.0000000,3.00,38.4020042,-110.7879333,167.1000061,1.1,154.4,3.8,0.0,0.0,890,134,0,0,860.26,11.87,30.39,# data time:60,pm2.5:6.445,pm10:5.704,O2:0.000,NO2:0.010,SO2:0.000,NH3:3.499
12:20:29,0,0,0,0,0,2100,2200,0,0,0,0,514,0,0,0,0,0.0000000,0.0000000,0.0000000,0.0000000,3.00,38.4019890,-110.7879181,167.0000000,1.1,154.2,3.8,0.0,0.0,890,130,0,0,860.25,11.89,30.40,# data time:60,pm2.5:6.445,pm10:5.704,O2:0.000,NO2:0.010,SO2:0.000,NH3:3.499
12:20:30,0,0,0,0,0,2100,2200,0,0,0,0,514,0,0,0,0,0.0000000,0.0000000,0.0000000,0.0000000,0.00,38.4019890,-110.7879181,167.0000000,1.1,154.2,3.8,0.0,0.0,890,130,0,0,860.30,11.96,30.47,# data time:60,pm2.5:6.445,pm10:5.704,O2:0.000,NO2:0.010,SO2:0.000,NH3:3.499
12:20:31,0,0,0,0,0,2100,2200,0,0,0,0,515,0,0,0,0,0.0000000,0.0000000,0.0000000,0.0000000,0.00,38.4019890,-110.7879181,167.0000000,1.1,154.2,3.8,0.0,0.0,890,136,0,0,860.18,11.96,30.35,# data time:60,pm2.5:6.445,pm10:5.704,O2:0.000,NO2:0.010,SO2:0.000,NH3:3.499
12:20:32,0,0,0,0,0,2100,2200,0,0,0,0,515,0,0,0,0,0.0000000,0.0000000,0.0000000,0.0000000,4.00,38.4019890,-110.7879181,167.0000000,1.8,164.6,3.8,0.0,0.0,890,133,0,0,860.18,11.93,30.41,# data time:70,pm2.5:6.445,pm10:5.704,O2:0.000,NO2:0.000,SO2:0.000,NH3:3.952
12:20:33,0,0,0,0,0,2100,2200,0,0,0,0,515,0,0,0,0,0.0000000,0.0000000,0.0000000,0.0000000,4.00,38.4066162,-110.7921829,1369.0000000,1.8,170.7,3.7,0.0,0.0,890,135,0,0,860.21,11.98,30.45,# data time:70,pm2.5:6.445,pm10:5.704,O2:0.000,NO2:0.000,SO2:0.000,NH3:3.952
12:20:34,0,0,0,0,0,2100,2200,0,0,0,0,515,0,0,0,0,0.0000000,0.0000000,0.0000000,0.0000000,4.00,38.4065933,-110.7921677,1371.3000488,0.7,165.2,3.7,0.0,0.0,890,132,0,0,860.20,11.92,30.43,# data time:70,pm2.5:6.445,pm10:5.704,O2:0.000,NO2:0.000,SO2:0.000,NH3:3.952
12:20:35,0,0,0,0,0,2100,2200,0,0,0,0,514,0,0,0,0,0.0000000,0.0000000,0.0000000,0.0000000,4.00,38.4065704,-110.7921524,1371.6999512,0.7,128.4,3.7,0.0,0.0,890,135,0,0,860.15,12.01,30.47,# data time:70,pm2.5:6.445,pm10:5.704,O2:0.000,NO2:0.000,SO2:0.000,NH3:3.952
12:20:36,0,0,0,0,0,2100,2200,0,0,0,0,514,0,0,0,0,0.0000000,0.0000000,0.0000000,0.0000000,4.00,38.4065475,-110.7921371,1372.3000488,0.4,330.9,3.7,0.0,0.0,887,145,0,0,860.09,12.27,30.52,# data time:70,pm2.5:6.445,pm10:5.704,O2:0.000,NO2:0.000,SO2:0.000,NH3:3.952
12:20:37,0,0,0,0,0,2100,2200,0,0,0,0,512,0,0,0,0,0.0000000,0.0000000,0.0000000,0.0000000,4.00,38.4065170,-110.7921143,1372.4000244,0.5,135.5,3.7,0.0,0.0,888,132,0,0,860.07,12.38,30.52,# data time:70,pm2.5:6.445,pm10:5.704,O2:0.000,NO2:0.000,SO2:0.000,NH3:3.952
12:20:38,0,0,0,0,0,2100,2200,0,0,0,0,516,0,0,0,0,0.0000000,0.0000000,0.0000000,0.0000000,4.00,38.4064941,-110.7920990,1371.9000244,1.5,145.8,3.7,0.0,0.0,891,132,0,0,860.11,12.28,30.55,# data time:70,pm2.5:6.445,pm10:5.704,O2:0.000,NO2:0.000,SO2:0.000,NH3:3.952
12:20:39,0,0,0,0,0,2100,2200,0,0,0,0,514,0,0,0,0,0.0000000,0.0000000,0.0000000,0.0000000,4.00,38.4064827,-110.7920914,1372.0999756,0.8,194.9,3.8,0.0,0.0,890,137,0,0,860.07,12.36,30.57,# data time:70,pm2.5:6.445,pm10:5.704,O2:0.000,NO2:0.000,SO2:0.000,NH3:3.952
12:20:40,0,0,0,0,0,2100,2200,0,0,0,0,515,0,0,0,0,0.0000000,0.0000000,0.0000000,0.0000000,4.00,38.4064713,-110.7920914,1371.5999756,0.1,277.0,3.8,0.0,0.0,890,133,0,0,860.12,12.16,30.54,# data time:70,pm2.5:6.445,pm10:5.704,O2:0.000,NO2:0.000,SO2:0.000,NH3:3.952
12:20:41,0,0,0,0,0,2100,2200,0,0,0,0,515,0,0,0,0,0.0000000,0.0000000,0.0000000,0.0000000,4.00,38.4064560,-110.7920761,1370.5999756,0.8,121.0,3.8,0.0,0.0,890,135,0,0,860.10,11.98,30.41,# data time:70,pm2.5:6.445,pm10:5.704,O2:0.000,NO2:0.000,SO2:0.000,NH3:3.952
12:20:42,0,0,0,0,0,2100,2200,0,0,0,0,514,0,0,0,0,0.0000000,0.0000000,0.0000000,0.0000000,4.00,38.4064445,-110.7920609,1369.9000244,0.6,130.4,3.8,0.0,0.0,890,132,0,0,860.04,12.60,30.38,# data time:80,pm2.5:6.445,pm10:5.704,O2:0.000,NO2:0.028,SO2:0.000,NH3:4.178
12:20:43,0,0,0,0,0,2100,2200,0,0,0,0,515,0,0,0,0,0.0000000,0.0000000,0.0000000,0.0000000,4.00,38.4064293,-110.7920532,1369.1999512,0.7,129.0,3.8,0.0,0.0,890,140,0,0,860.02,12.97,30.28,# data time:80,pm2.5:6.445,pm10:5.704,O2:0.000,NO2:0.028,SO2:0.000,NH3:4.178
12:20:44,0,0,0,0,0,2100,2200,0,0,0,0,515,0,0,0,0,0.0000000,0.0000000,0.0000000,0.0000000,4.00,38.4064178,-110.7920532,1368.9000244,0.4,213.9,3.8,0.0,0.0,890,155,0,0,860.08,12.85,30.20,# data time:80,pm2.5:6.445,pm10:5.704,O2:0.000,NO2:0.028,SO2:0.000,NH3:4.178
12:20:45,0,0,0,0,0,2100,2200,0,0,0,0,514,0,0,0,0,0.0000000,0.0000000,0.0000000,0.0000000,4.00,38.4064102,-110.7920380,1368.4000244,0.3,350.5,3.8,0.0,0.0,890,149,0,0,859.98,13.35,30.15,# data time:80,pm2.5:6.445,pm10:5.704,O2:0.000,NO2:0.028,SO2:0.000,NH3:4.178
12:20:46,0,0,0,0,0,2100,2200,0,0,0,0,514,0,0,0,0,0.0000000,0.0000000,0.0000000,0.0000000,4.00,38.4064026,-110.7920380,1368.1999512,0.4,332.9,4.4,0.0,0.0,890,150,0,0,860.04,12.86,30.02,# data time:80,pm2.5:6.445,pm10:5.704,O2:0.000,NO2:0.028,SO2:0.000,NH3:4.178
12:20:47,0,0,0,0,0,2100,2200,0,0,0,0,515,0,0,0,0,0.0000000,0.0000000,0.0000000,0.0000000,4.00,38.4063950,-110.7920380,1368.0000000,0.2,308.9,3.8,0.0,0.0,890,148,0,0,860.06,12.71,30.02,# data time:80,pm2.5:6.445,pm10:5.704,O2:0.000,NO2:0.028,SO2:0.000,NH3:4.178
12:20:48,0,0,0,0,0,2100,2200,0,0,0,0,515,0,0,0,0,0.0000000,0.0000000,0.0000000,0.0000000,4.00,38.4063873,-110.7920227,1368.0999756,0.2,94.2,3.8,0.0,0.0,890,138,0,0,860.03,12.92,30.01,# data time:80,pm2.5:6.445,pm10:5.704,O2:0.000,NO2:0.028,SO2:0.000,NH3:4.178
12:20:49,0,0,0,0,0,2100,2200,0,0,0,0,514,0,0,0,0,0.0000000,0.0000000,0.0000000,0.0000000,4.00,38.4063797,-110.7920227,1368.0000000,0.6,145.6,3.8,0.0,0.0,890,142,0,0,859.66,16.21,29.97,# data time:80,pm2.5:6.445,pm10:5.704,O2:0.000,NO2:0.028,SO2:0.000,NH3:4.178
12:20:50,0,0,0,0,0,2100,2200,0,0,0,0,514,0,0,0,0,0.0000000,0.0000000,0.0000000,0.0000000,4.00,38.4063721,-110.7920227,1368.0000000,0.8,195.5,3.8,0.0,0.0,890,140,0,0,859.64,17.67,30.00,# data time:80,pm2.5:6.445,pm10:5.704,O2:0.000,NO2:0.028,SO2:0.000,NH3:4.178
12:20:51,0,0,0,0,0,2100,2200,0,0,0,0,515,0,0,0,0,0.0000000,0.0000000,0.0000000,0.0000000,4.00,38.4063644,-110.7920227,1368.3000488,0.6,184.7,3.8,0.0,0.0,890,138,0,0,859.53,19.52,29.97,# data time:80,pm2.5:6.445,pm10:5.704,O2:0.000,NO2:0.028,SO2:0.000,NH3:4.178
12:20:52,0,0,0,0,0,2100,2200,0,0,0,0,515,0,0,0,0,0.0000000,0.0000000,0.0000000,0.0000000,4.00,38.4063568,-110.7920151,1368.4000244,0.4,157.8,3.8,0.0,0.0,890,140,0,0,859.61,18.23,29.98,# data time:90,pm2.5:6.445,pm10:5.704,O2:0.000,NO2:0.000,SO2:0.000,NH3:4.178
12:20:53,0,0,0,0,0,2100,2200,0,0,0,0,515,0,0,0,0,0.0000000,0.0000000,0.0000000,0.0000000,4.00,38.4063530,-110.7920151,1368.4000244,0.4,223.6,3.8,0.0,0.0,890,140,0,0,859.70,16.91,29.99,# data time:90,pm2.5:6.445,pm10:5.704,O2:0.000,NO2:0.000,SO2:0.000,NH3:4.178
12:20:54,0,0,0,0,0,2100,2200,0,0,0,0,515,0,0,0,0,0.0000000,0.0000000,0.0000000,0.0000000,4.00,38.4063492,-110.7920151,1368.5000000,0.1,227.3,3.8,0.0,0.0,890,140,0,0,859.88,14.05,29.97,# data time:90,pm2.5:6.445,pm10:5.704,O2:0.000,NO2:0.000,SO2:0.000,NH3:4.178
12:20:55,0,0,0,0,0,2100,2200,0,0,0,0,515,0,0,0,0,0.0000000,0.0000000,0.0000000,0.0000000,4.00,38.4063454,-110.7920151,1368.5999756,0.3,193.0,3.8,0.0,0.0,889,131,0,0,859.75,15.84,29.91,# data time:90,pm2.5:6.445,pm10:5.704,O2:0.000,NO2:0.000,SO2:0.000,NH3:4.178
12:20:56,0,0,0,0,0,2100,2200,0,0,0,0,515,0,0,0,0,0.0000000,0.0000000,0.0000000,0.0000000,4.00,38.4063416,-110.7920151,1368.6999512,0.1,189.8,3.8,0.0,0.0,890,145,0,0,859.80,15.63,29.90,# data time:90,pm2.5:6.445,pm10:5.704,O2:0.000,NO2:0.000,SO2:0.000,NH3:4.178
12:20:57,0,0,0,0,0,2100,2200,0,0,0,0,515,0,0,0,0,0.0000000,0.0000000,0.0000000,0.0000000,4.00,38.4063454,-110.7920151,1368.8000488,0.4,345.0,3.8,0.0,0.0,890,149,0,0,859.69,16.39,29.88,# data time:90,pm2.5:6.445,pm10:5.704,O2:0.000,NO2:0.000,SO2:0.000,NH3:4.178
12:20:58,0,0,0,0,0,2100,2200,0,0,0,0,514,0,0,0,0,0.0000000,0.0000000,0.0000000,0.0000000,4.00,38.4063492,-110.7920151,1368.8000488,0.3,348.1,3.8,0.0,0.0,890,142,0,0,859.54,18.60,29.79,# data time:90,pm2.5:6.445,pm10:5.704,O2:0.000,NO2:0.000,SO2:0.000,NH3:4.178
12:20:59,0,0,0,0,0,2100,2200,0,0,0,0,515,0,0,0,0,0.0000000,0.0000000,0.0000000,0.0000000,4.00,38.4063568,-110.7920227,1368.8000488,1.3,314.4,4.4,0.0,0.0,889,143,0,0,859.71,16.74,29.77,# data time:90,pm2.5:6.445,pm10:5.704,O2:0.000,NO2:0.000,SO2:0.000,NH3:4.178
12:21:00,0,0,0,0,0,2100,2200,0,0,0,0,515,0,0,0,0,0.0000000,0.0000000,0.0000000,0.0000000,5.00,38.4063454,-110.7920227,1368.3000488,0.2,321.7,1.9,0.0,0.0,890,145,0,0,859.81,15.52,29.78,# data time:90,pm2.5:6.445,pm10:5.704,O2:0.000,NO2:0.000,SO2:0.000,NH3:4.178
12:21:01,0,0,0,0,0,2100,2200,0,0,0,0,514,0,0,0,0,0.0000000,0.0000000,0.0000000,0.0000000,5.00,38.4063377,-110.7920151,1367.9000244,0.4,151.5,1.9,0.0,0.0,891,145,0,0,859.89,15.02,29.80,# data time:100,pm2.5:6.445,pm10:5.704,O2:0.000,NO2:0.010,SO2:0.000,NH3:4.630
12:21:02,0,0,0,0,0,2100,2200,0,0,0,0,514,0,0,0,0,0.0000000,0.0000000,0.0000000,0.0000000,5.00,38.4063377,-110.7920151,1367.8000488,0.2,99.4,1.9,0.0,0.0,889,151,0,0,859.84,14.91,29.82,# data time:100,pm2.5:6.445,pm10:5.704,O2:0.000,NO2:0.010,SO2:0.000,NH3:4.630
12:21:03,0,0,0,0,0,2100,2200,0,0,0,0,515,0,0,0,0,0.0000000,0.0000000,0.0000000,0.0000000,5.00,38.4063339,-110.7920227,1367.5999756,0.2,325.1,1.9,0.0,0.0,889,149,0,0,859.91,14.62,29.82,# data time:100,pm2.5:6.445,pm10:5.704,O2:0.000,NO2:0.010,SO2:0.000,NH3:4.630
12:21:04,0,0,0,0,0,2100,2200,0,0,0,0,515,0,0,0,0,0.0000000,0.0000000,0.0000000,0.0000000,5.00,38.4063301,-110.7920227,1367.5000000,0.1,280.0,1.9,0.0,0.0,890,148,0,0,860.03,13.57,29.80,# data time:100,pm2.5:6.445,pm10:5.704,O2:0.000,NO2:0.010,SO2:0.000,NH3:4.630
12:21:05,0,0,0,0,0,2100,2200,0,0,0,0,515,0,0,0,0,0.0000000,0.0000000,0.0000000,0.0000000,5.00,38.4063263,-110.7920227,1367.0999756,0.8,123.2,1.9,0.0,0.0,890,140,0,0,859.98,14.56,29.81,# data time:100,pm2.5:6.445,pm10:5.704,O2:0.000,NO2:0.010,SO2:0.000,NH3:4.630
12:21:06,0,0,0,0,0,2100,2200,0,0,0,0,515,0,0,0,0,0.0000000,0.0000000,0.0000000,0.0000000,5.00,38.4063225,-110.7920227,1366.8000488,0.1,275.4,1.9,0.0,0.0,889,141,0,0,859.79,15.46,29.85,# data time:100,pm2.5:6.445,pm10:5.704,O2:0.000,NO2:0.010,SO2:0.000,NH3:4.630
12:21:07,0,0,0,0,0,2100,2200,0,0,0,0,514,0,0,0,0,0.0000000,0.0000000,0.0000000,0.0000000,5.00,38.4063187,-110.7920227,1366.4000244,0.4,1.7,1.9,0.0,0.0,889,140,0,0,859.89,15.41,29.88,# data time:100,pm2.5:6.445,pm10:5.704,O2:0.000,NO2:0.010,SO2:0.000,NH3:4.630
12:21:08,0,0,0,0,0,2100,2200,0,0,0,0,515,0,0,0,0,0.0000000,0.0000000,0.0000000,0.0000000,5.00,38.4063187,-110.7920227,1366.4000244,0.4,326.9,1.9,0.0,0.0,890,139,0,0,859.70,17.35,29.69,# data time:100,pm2.5:6.445,pm10:5.704,O2:0.000,NO2:0.010,SO2:0.000,NH3:4.630
12:21:09,0,0,0,0,0,2100,2200,0,0,0,0,515,0,0,0,0,0.0000000,0.0000000,0.0000000,0.0000000,5.00,38.4063148,-110.7920227,1366.4000244,0.3,136.1,1.9,0.0,0.0,890,142,0,0,859.59,18.07,29.66,# data time:100,pm2.5:6.445,pm10:5.704,O2:0.000,NO2:0.010,SO2:0.000,NH3:4.630
12:21:10,0,0,0,0,0,2100,2200,0,0,0,0,515,0,0,0,0,0.0000000,0.0000000,0.0000000,0.0000000,5.00,38.4063110,-110.7920227,1365.6999512,0.3,136.1,1.9,0.0,0.0,890,141,0,0,859.37,20.13,29.65,# data time:100,pm2.5:6.445,pm10:5.704,O2:0.000,NO2:0.010,SO2:0.000,NH3:4.630
12:21:12,0,0,0,0,0,2100,2200,0,0,0,0,514,0,0,0,0,0.0000000,0.0000000,0.0000000,0.0000000,5.00,38.4063072,-110.7920227,1365.8000488,0.6,224.7,1.9,0.0,0.0,890,131,0,0,859.49,20.40,29.73,# data time:110,pm2.5:6.445,pm10:5.704,O2:0.000,NO2:0.000,SO2:0.000,NH3:4.857
12:21:13,0,0,0,0,0,2100,2200,0,0,0,0,515,0,0,0,0,0.0000000,0.0000000,0.0000000,0.0000000,5.00,38.4063034,-110.7920151,1365.8000488,0.2,213.9,1.9,0.0,0.0,890,133,0,0,859.48,21.74,29.61,# data time:110,pm2.5:6.445,pm10:5.704,O2:0.000,NO2:0.000,SO2:0.000,NH3:4.857
12:21:14,0,0,0,0,0,2100,2200,0,0,0,0,514,0,0,0,0,0.0000000,0.0000000,0.0000000,0.0000000,5.00,38.4062958,-110.7920151,1365.5999756,0.2,128.1,1.9,0.0,0.0,890,140,0,0,859.62,17.88,29.65,# data time:110,pm2.5:6.445,pm10:5.704,O2:0.000,NO2:0.000,SO2:0.000,NH3:4.857
12:21:15,0,0,0,0,0,2100,2200,0,0,0,0,515,0,0,0,0,0.0000000,0.0000000,0.0000000,0.0000000,5.00,38.4062958,-110.7920151,1365.4000244,0.5,147.3,1.9,0.0,0.0,889,145,0,0,859.58,18.37,29.69,# data time:110,pm2.5:6.445,pm10:5.704,O2:0.000,NO2:0.000,SO2:0.000,NH3:4.857
12:21:16,0,0,0,0,0,2100,2200,0,0,0,0,514,0,0,0,0,0.0000000,0.0000000,0.0000000,0.0000000,5.00,38.4062881,-110.7920151,1365.1999512,0.4,173.3,1.9,0.0,0.0,889,139,0,0,859.66,17.53,29.69,# data time:110,pm2.5:6.445,pm10:5.704,O2:0.000,NO2:0.000,SO2:0.000,NH3:4.857
12:21:17,0,0,0,0,0,2100,2200,0,0,0,0,514,0,0,0,0,0.0000000,0.0000000,0.0000000,0.0000000,5.00,38.4062881,-110.7920151,1365.1999512,0.2,173.4,1.9,0.0,0.0,889,146,0,0,859.46,20.33,29.63,# data time:110,pm2.5:6.445,pm10:5.704,O2:0.000,NO2:0.000,SO2:0.000,NH3:4.857
12:21:18,0,0,0,0,0,2100,2200,0,0,0,0,515,0,0,0,0,0.0000000,0.0000000,0.0000000,0.0000000,6.00,38.4062881,-110.7920151,1365.1999512,0.1,218.2,1.3,0.0,0.0,889,140,0,0,859.56,20.75,29.56,# data time:110,pm2.5:6.445,pm10:5.704,O2:0.000,NO2:0.000,SO2:0.000,NH3:4.857
12:21:19,0,0,0,0,0,2100,2200,0,0,0,0,515,0,0,0,0,0.0000000,0.0000000,0.0000000,0.0000000,6.00,38.4062843,-110.7920151,1365.1999512,0.1,194.8,1.3,0.0,0.0,889,139,0,0,859.56,20.10,29.55,# data time:110,pm2.5:6.445,pm10:5.704,O2:0.000,NO2:0.000,SO2:0.000,NH3:4.857
12:21:20,0,0,0,0,0,2100,2200,0,0,0,0,515,0,0,0,0,0.0000000,0.0000000,0.0000000,0.0000000,6.00,38.4062843,-110.7920151,1365.1999512,0.3,177.3,1.3,0.0,0.0,890,136,0,0,859.46,20.43,29.63,# data time:110,pm2.5:6.445,pm10:5.704,O2:0.000,NO2:0.000,SO2:0.000,NH3:4.857
12:21:21,0,0,0,0,0,2100,2200,0,0,0,0,514,0,0,0,0,0.0000000,0.0000000,0.0000000,0.0000000,6.00,38.4062843,-110.7920151,1365.1999512,0.3,160.7,1.3,0.0,0.0,890,137,0,0,859.41,20.84,29.59,# data time:110,pm2.5:6.445,pm10:5.704,O2:0.000,NO2:0.000,SO2:0.000,NH3:4.857
12:21:22,0,0,0,0,0,2100,2200,0,0,0,0,514,0,0,0,0,0.0000000,0.0000000,0.0000000,0.0000000,6.00,38.4062805,-110.7920151,1365.1999512,0.3,170.8,1.3,0.0,0.0,890,135,0,0,859.43,21.53,29.59,# data time:120,pm2.5:6.445,pm10:5.704,O2:0.000,NO2:0.046,SO2:0.000,NH3:5.083
12:21:23,0,0,0,0,0,2100,2200,0,0,0,0,514,0,0,0,0,0.0000000,0.0000000,0.0000000,0.0000000,6.00,38.4062805,-110.7920151,1365.1999512,0.2,157.3,1.3,0.0,0.0,889,137,0,0,859.62,18.63,29.64,# data time:120,pm2.5:6.445,pm10:5.704,O2:0.000,NO2:0.046,SO2:0.000,NH3:5.083
12:21:24,0,0,0,0,0,2100,2200,0,0,0,0,515,0,0,0,0,0.0000000,0.0000000,0.0000000,0.0000000,6.00,38.4062767,-110.7920151,1365.1999512,0.1,6.5,1.3,0.0,0.0,890,140,0,0,859.74,16.92,29.67,# data time:120,pm2.5:6.445,pm10:5.704,O2:0.000,NO2:0.046,SO2:0.000,NH3:5.083
12:21:25,0,0,0,0,0,2100,2200,0,0,0,0,514,0,0,0,0,0.0000000,0.0000000,0.0000000,0.0000000,6.00,38.4062767,-110.7920151,1365.1999512,0.0,185.8,1.4,0.0,0.0,889,137,0,0,859.65,17.33,29.64,# data time:120,pm2.5:6.445,pm10:5.704,O2:0.000,NO2:0.046,SO2:0.000,NH3:5.083
12:21:26,0,0,0,0,0,2100,2200,0,0,0,0,515,0,0,0,0,0.0000000,0.0000000,0.0000000,0.0000000,6.00,38.4062767,-110.7920151,1365.1999512,0.0,13.4,1.3,0.0,0.0,889,133,0,0,859.59,17.46,29.64,# data time:120,pm2.5:6.445,pm10:5.704,O2:0.000,NO2:0.046,SO2:0.000,NH3:5.083
12:21:27,0,0,0,0,0,2100,2200,0,0,0,0,513,0,0,0,0,0.0000000,0.0000000,0.0000000,0.0000000,6.00,38.4062767,-110.7920151,1365.1999512,0.0,198.1,1.4,0.0,0.0,889,134,0,0,859.60,17.69,29.70,# data time:120,pm2.5:6.445,pm10:5.704,O2:0.000,NO2:0.046,SO2:0.000,NH3:5.083
12:21:28,0,0,0,0,0,2100,2200,0,0,0,0,514,0,0,0,0,0.0000000,0.0000000,0.0000000,0.0000000,6.00,38.4062767,-110.7920151,1365.1999512,0.0,132.3,1.3,0.0,0.0,890,132,0,0,859.45,22.80,29.74,# data time:120,pm2.5:6.445,pm10:5.704,O2:0.000,NO2:0.046,SO2:0.000,NH3:5.083
12:21:29,0,0,0,0,0,2100,2200,0,0,0,0,514,0,0,0,0,0.0000000,0.0000000,0.0000000,0.0000000,6.00,38.4062767,-110.7920151,1365.1999512,0.0,16.5,1.3,0.0,0.0,889,134,0,0,859.53,22.52,29.76,# data time:120,pm2.5:6.445,pm10:5.704,O2:0.000,NO2:0.046,SO2:0.000,NH3:5.083
12:21:30,0,0,0,0,0,2100,2200,0,0,0,0,514,0,0,0,0,0.0000000,0.0000000,0.0000000,0.0000000,6.00,38.4062767,-110.7920151,1365.1999512,0.1,338.5,1.3,0.0,0.0,890,132,0,0,859.57,20.20,29.74,# data time:120,pm2.5:6.445,pm10:5.704,O2:0.000,NO2:0.046,SO2:0.000,NH3:5.083
12:21:31,0,0,0,0,0,2100,2200,0,0,0,0,515,0,0,0,0,0.0000000,0.0000000,0.0000000,0.0000000,6.00,38.4062767,-110.7920151,1365.1999512,0.0,160.1,1.3,0.0,0.0,889,133,0,0,859.50,22.28,29.71,# data time:120,pm2.5:6.445,pm10:5.704,O2:0.000,NO2:0.046,SO2:0.000,NH3:5.083
12:21:32,0,0,0,0,0,2100,2200,0,0,0,0,515,0,0,0,0,0.0000000,0.0000000,0.0000000,0.0000000,6.00,38.4062767,-110.7920151,1365.1999512,0.0,155.2,1.3,0.0,0.0,889,156,0,0,859.46,22.40,29.67,# data time:130,pm2.5:6.445,pm10:5.704,O2:0.000,NO2:0.010,SO2:0.000,NH3:5.083
12:21:33,0,0,0,0,0,2100,2200,0,0,0,0,515,0,0,0,0,0.0000000,0.0000000,0.0000000,0.0000000,6.00,38.4062767,-110.7920151,1365.1999512,0.0,4.1,1.3,0.0,0.0,890,167,0,0,859.43,22.48,29.60,# data time:130,pm2.5:6.445,pm10:5.704,O2:0.000,NO2:0.010,SO2:0.000,NH3:5.083
12:21:34,0,0,0,0,0,2100,2200,0,0,0,0,514,0,0,0,0,0.0000000,0.0000000,0.0000000,0.0000000,6.00,38.4062767,-110.7920151,1365.1999512,0.0,339.2,1.4,0.0,0.0,890,161,0,0,859.49,22.16,29.50,# data time:130,pm2.5:6.445,pm10:5.704,O2:0.000,NO2:0.010,SO2:0.000,NH3:5.083
12:21:35,0,0,0,0,0,2100,2200,0,0,0,0,513,0,0,0,0,0.0000000,0.0000000,0.0000000,0.0000000,6.00,38.4062767,-110.7920151,1365.1999512,0.1,171.6,1.3,0.0,0.0,889,160,0,0,859.52,22.26,29.39,# data time:130,pm2.5:6.445,pm10:5.704,O2:0.000,NO2:0.010,SO2:0.000,NH3:5.083
12:21:36,0,0,0,0,0,2100,2200,0,0,0,0,516,0,0,0,0,0.0000000,0.0000000,0.0000000,0.0000000,6.00,38.4062767,-110.7920151,1365.1999512,0.0,293.6,1.3,0.0,0.0,889,159,0,0,859.56,22.13,29.28,# data time:130,pm2.5:6.445,pm10:5.704,O2:0.000,NO2:0.010,SO2:0.000,NH3:5.083
12:21:37,0,0,0,0,0,2100,2200,0,0,0,0,515,0,0,0,0,0.0000000,0.0000000,0.0000000,0.0000000,6.00,38.4062767,-110.7920151,1365.1999512,0.0,351.5,1.3,0.0,0.0,890,148,0,0,859.55,21.03,29.30,# data time:130,pm2.5:6.445,pm10:5.704,O2:0.000,NO2:0.010,SO2:0.000,NH3:5.083
12:21:38,0,0,0,0,0,2100,2200,0,0,0,0,515,0,0,0,0,0.0000000,0.0000000,0.0000000,0.0000000,6.00,38.4062767,-110.7920151,1365.1999512,0.0,151.1,1.4,0.0,0.0,890,157,0,0,859.52,21.70,29.36,# data time:130,pm2.5:6.445,pm10:5.704,O2:0.000,NO2:0.010,SO2:0.000,NH3:5.083
12:21:39,0,0,0,0,0,2100,2200,0,0,0,0,515,0,0,0,0,0.0000000,0.0000000,0.0000000,0.0000000,6.00,38.4062767,-110.7920151,1365.1999512,0.0,262.1,1.4,0.0,0.0,890,162,0,0,859.51,22.10,29.39,# data time:130,pm2.5:6.445,pm10:5.704,O2:0.000,NO2:0.010,SO2:0.000,NH3:5.083
12:21:40,0,0,0,0,0,2100,2200,0,0,0,0,515,0,0,0,0,0.0000000,0.0000000,0.0000000,0.0000000,6.00,38.4062767,-110.7920151,1365.1999512,0.0,34.9,1.4,0.0,0.0,890,164,0,0,859.56,22.23,29.34,# data time:130,pm2.5:6.445,pm10:5.704,O2:0.000,NO2:0.010,SO2:0.000,NH3:5.083
12:21:41,0,0,0,0,0,2100,2200,0,0,0,0,515,0,0,0,0,0.0000000,0.0000000,0.0000000,0.0000000,6.00,38.4062767,-110.7920151,1365.1999512,0.0,204.1,1.4,0.0,0.0,889,153,0,0,859.48,22.66,29.29,# data time:140,pm2.5:6.445,pm10:5.704,O2:0.000,NO2:0.028,SO2:0.000,NH3:5.083
12:21:42,0,0,0,0,0,2100,2200,0,0,0,0,515,0,0,0,0,0.0000000,0.0000000,0.0000000,0.0000000,6.00,38.4062767,-110.7920151,1365.1999512,0.0,165.5,1.4,0.0,0.0,889,163,0,0,859.50,22.52,29.27,# data time:140,pm2.5:6.445,pm10:5.704,O2:0.000,NO2:0.028,SO2:0.000,NH3:5.083
12:21:43,0,0,0,0,0,2100,2200,0,0,0,0,515,0,0,0,0,0.0000000,0.0000000,0.0000000,0.0000000,6.00,38.4062767,-110.7920151,1365.1999512,0.0,356.6,1.4,0.0,0.0,889,166,0,0,859.54,22.52,29.24,# data time:140,pm2.5:6.445,pm10:5.704,O2:0.000,NO2:0.028,SO2:0.000,NH3:5.083
12:21:44,0,0,0,0,0,2100,2200,0,0,0,0,515,0,0,0,0,0.0000000,0.0000000,0.0000000,0.0000000,6.00,38.4062767,-110.7920151,1365.1999512,0.0,133.1,1.4,0.0,0.0,889,160,0,0,859.54,22.63,29.24,# data time:140,pm2.5:6.445,pm10:5.704,O2:0.000,NO2:0.028,SO2:0.000,NH3:5.083
12:21:45,0,0,0,0,0,2100,2200,0,0,0,0,514,0,0,0,0,0.0000000,0.0000000,0.0000000,0.0000000,6.00,38.4062767,-110.7920151,1365.1999512,0.0,17.4,1.4,0.0,0.0,890,162,0,0,859.49,22.19,29.16,# data time:140,pm2.5:6.445,pm10:5.704,O2:0.000,NO2:0.028,SO2:0.000,NH3:5.083
12:21:46,0,0,0,0,0,2100,2200,0,0,0,0,514,0,0,0,0,0.0000000,0.0000000,0.0000000,0.0000000,6.00,38.4062767,-110.7920151,1365.1999512,0.0,269.6,1.4,0.0,0.0,889,162,0,0,859.59,21.45,29.15,# data time:140,pm2.5:6.445,pm10:5.704,O2:0.000,NO2:0.028,SO2:0.000,NH3:5.083
12:21:47,0,0,0,0,0,2100,2200,0,0,0,0,514,0,0,0,0,0.0000000,0.0000000,0.0000000,0.0000000,6.00,38.4062767,-110.7920151,1365.1999512,0.0,260.3,1.4,0.0,0.0,889,160,0,0,859.56,20.58,29.21,# data time:140,pm2.5:6.445,pm10:5.704,O2:0.000,NO2:0.028,SO2:0.000,NH3:5.083
12:21:48,0,0,0,0,0,2100,2200,0,0,0,0,514,0,0,0,0,0.0000000,0.0000000,0.0000000,0.0000000,6.00,38.4062767,-110.7920151,1365.1999512,0.0,86.9,1.4,0.0,0.0,889,153,0,0,859.54,20.75,29.26,# data time:140,pm2.5:6.445,pm10:5.704,O2:0.000,NO2:0.028,SO2:0.000,NH3:5.083
12:21:49,0,0,0,0,0,2100,2200,0,0,0,0,515,0,0,0,0,0.0000000,0.0000000,0.0000000,0.0000000,6.00,38.4062767,-110.7920151,1365.1999512,0.0,190.5,1.4,0.0,0.0,889,143,0,0,859.59,19.84,29.30,# data time:140,pm2.5:6.445,pm10:5.704,O2:0.000,NO2:0.028,SO2:0.000,NH3:5.083
12:21:50,0,0,0,0,0,2100,2200,0,0,0,0,515,0,0,0,0,0.0000000,0.0000000,0.0000000,0.0000000,6.00,38.4062767,-110.7920151,1365.1999512,0.0,221.5,1.4,0.0,0.0,889,141,0,0,859.56,19.53,29.31,# data time:140,pm2.5:6.445,pm10:5.704,O2:0.000,NO2:0.028,SO2:0.000,NH3:5.083
12:21:51,0,0,0,0,0,2100,2200,0,0,0,0,514,0,0,0,0,0.0000000,0.0000000,0.0000000,0.0000000,6.00,38.4062767,-110.7920151,1365.1999512,0.0,2.7,1.4,0.0,0.0,889,143,0,0,859.52,21.76,29.26,# data time:150,pm2.5:6.445,pm10:5.704,O2:0.000,NO2:0.028,SO2:0.000,NH3:5.536
12:21:52,0,0,0,0,0,2100,2200,0,0,0,0,515,0,0,0,0,0.0000000,0.0000000,0.0000000,0.0000000,6.00,38.4062767,-110.7920151,1365.1999512,0.0,57.5,1.4,0.0,0.0,889,141,0,0,859.53,22.17,29.31,# data time:150,pm2.5:6.445,pm10:5.704,O2:0.000,NO2:0.028,SO2:0.000,NH3:5.536
12:21:53,0,0,0,0,0,2100,2200,0,0,0,0,515,0,0,0,0,0.0000000,0.0000000,0.0000000,0.0000000,6.00,38.4062767,-110.7920151,1365.1999512,0.0,211.3,1.4,0.0,0.0,889,139,0,0,859.51,22.51,29.36,# data time:150,pm2.5:6.445,pm10:5.704,O2:0.000,NO2:0.028,SO2:0.000,NH3:5.536
12:21:54,0,0,0,0,0,2100,2200,0,0,0,0,514,0,0,0,0,0.0000000,0.0000000,0.0000000,0.0000000,6.00,38.4062767,-110.7920151,1365.1999512,0.0,24.4,1.4,0.0,0.0,889,133,0,0,859.47,22.60,29.36,# data time:150,pm2.5:6.445,pm10:5.704,O2:0.000,NO2:0.028,SO2:0.000,NH3:5.536
12:21:55,0,0,0,0,0,2100,2200,0,0,0,0,515,0,0,0,0,0.0000000,0.0000000,0.0000000,0.0000000,6.00,38.4062767,-110.7920151,1365.1999512,0.0,289.6,1.4,0.0,0.0,889,132,0,0,859.53,22.60,29.31,# data time:150,pm2.5:6.445,pm10:5.704,O2:0.000,NO2:0.028,SO2:0.000,NH3:5.536
12:21:56,0,0,0,0,0,2100,2200,0,0,0,0,514,0,0,0,0,0.0000000,0.0000000,0.0000000,0.0000000,6.00,38.4062767,-110.7920151,1365.1999512,0.0,133.2,1.4,0.0,0.0,889,129,0,0,859.40,22.55,29.26,# data time:150,pm2.5:6.445,pm10:5.704,O2:0.000,NO2:0.028,SO2:0.000,NH3:5.536
12:21:57,0,0,0,0,0,2100,2200,0,0,0,0,515,0,0,0,0,0.0000000,0.0000000,0.0000000,0.0000000,6.00,38.4062767,-110.7920151,1365.1999512,0.0,277.4,1.4,0.0,0.0,889,133,0,0,859.53,22.55,29.20,# data time:150,pm2.5:6.445,pm10:5.704,O2:0.000,NO2:0.028,SO2:0.000,NH3:5.536
12:21:58,0,0,0,0,0,2100,2200,0,0,0,0,515,0,0,0,0,0.0000000,0.0000000,0.0000000,0.0000000,6.00,38.4062767,-110.7920151,1365.1999512,0.0,66.6,1.4,0.0,0.0,889,132,0,0,859.57,22.34,29.17,# data time:150,pm2.5:6.445,pm10:5.704,O2:0.000,NO2:0.028,SO2:0.000,NH3:5.536
12:21:59,0,0,0,0,0,2100,2200,0,0,0,0,515,0,0,0,0,0.0000000,0.0000000,0.0000000,0.0000000,6.00,38.4062767,-110.7920151,1365.1999512,0.0,191.1,1.4,0.0,0.0,889,142,0,0,859.53,22.25,29.15,# data time:150,pm2.5:6.445,pm10:5.704,O2:0.000,NO2:0.028,SO2:0.000,NH3:5.536
12:22:00,0,0,0,0,0,2100,2200,0,0,0,0,515,0,0,0,0,0.0000000,0.0000000,0.0000000,0.0000000,6.00,38.4062767,-110.7920151,1365.1999512,0.0,41.6,1.4,0.0,0.0,889,143,0,0,859.47,22.31,29.18,# data time:150,pm2.5:6.445,pm10:5.704,O2:0.000,NO2:0.028,SO2:0.000,NH3:5.536
12:22:01,0,0,0,0,0,2100,2200,0,0,0,0,516,0,0,0,0,0.0000000,0.0000000,0.0000000,0.0000000,6.00,38.4062767,-110.7920151,1365.1999512,0.0,257.5,1.4,0.0,0.0,889,149,0,0,859.46,21.65,29.23,# data time:160,pm2.5:6.445,pm10:5.704,O2:0.000,NO2:0.010,SO2:0.000,NH3:5.536
12:22:03,0,0,0,0,0,2100,2200,0,0,0,0,514,0,0,0,0,0.0000000,0.0000000,0.0000000,0.0000000,6.00,38.4062767,-110.7920151,1365.1999512,0.0,185.6,1.4,0.0,0.0,889,150,0,0,859.56,21.67,29.27,# data time:160,pm2.5:6.445,pm10:5.704,O2:0.000,NO2:0.010,SO2:0.000,NH3:5.536
12:22:04,0,0,0,0,0,2100,2200,0,0,0,0,515,0,0,0,0,0.0000000,0.0000000,0.0000000,0.0000000,6.00,38.4062767,-110.7920151,1365.1999512,0.0,27.3,1.4,0.0,0.0,889,139,0,0,859.64,20.46,29.31,# data time:160,pm2.5:6.445,pm10:5.704,O2:0.000,NO2:0.010,SO2:0.000,NH3:5.536
12:22:05,0,0,0,0,0,2100,2200,0,0,0,0,514,0,0,0,0,0.0000000,0.0000000,0.0000000,0.0000000,6.00,38.4062767,-110.7920151,1365.1999512,0.0,286.6,1.4,0.0,0.0,889,137,0,0,859.52,21.53,29.37,# data time:160,pm2.5:6.445,pm10:5.704,O2:0.000,NO2:0.010,SO2:0.000,NH3:5.536
12:22:06,0,0,0,0,0,2100,2200,0,0,0,0,515,0,0,0,0,0.0000000,0.0000000,0.0000000,0.0000000,6.00,38.4062767,-110.7920151,1365.1999512,0.0,211.2,1.4,0.0,0.0,889,139,0,0,859.49,22.20,29.44,# data time:160,pm2.5:6.445,pm10:5.704,O2:0.000,NO2:0.010,SO2:0.000,NH3:5.536
12:22:07,0,0,0,0,0,2100,2200,0,0,0,0,515,0,0,0,0,0.0000000,0.0000000,0.0000000,0.0000000,6.00,38.4062767,-110.7920151,1365.1999512,0.0,72.8,1.4,0.0,0.0,889,136,0,0,859.49,21.85,29.49,# data time:160,pm2.5:6.445,pm10:5.704,O2:0.000,NO2:0.010,SO2:0.000,NH3:5.536
12:22:08,0,0,0,0,0,2100,2200,0,0,0,0,515,0,0,0,0,0.0000000,0.0000000,0.0000000,0.0000000,6.00,38.4062767,-110.7920151,1365.1999512,0.0,146.3,1.4,0.0,0.0,889,132,0,0,859.47,21.64,29.49,# data time:160,pm2.5:6.445,pm10:5.704,O2:0.000,NO2:0.010,SO2:0.000,NH3:5.536
12:22:09,0,0,0,0,0,2100,2200,0,0,0,0,514,0,0,0,0,0.0000000,0.0000000,0.0000000,0.0000000,6.00,38.4062767,-110.7920151,1365.1999512,0.0,9.2,1.4,0.0,0.0,889,133,0,0,859.36,23.21,29.45,# data time:160,pm2.5:6.445,pm10:5.704,O2:0.000,NO2:0.010,SO2:0.000,NH3:5.536
12:22:10,0,0,0,0,0,2100,2200,0,0,0,0,514,0,0,0,0,0.0000000,0.0000000,0.0000000,0.0000000,6.00,38.4062767,-110.7920151,1365.1999512,0.0,220.1,1.4,0.0,0.0,889,133,0,0,859.41,16.89,29.51,# data time:160,pm2.5:6.445,pm10:5.704,O2:0.000,NO2:0.010,SO2:0.000,NH3:5.536
12:22:11,0,0,0,0,0,2100,2200,0,0,0,0,514,0,0,0,0,0.0000000,0.0000000,0.0000000,0.0000000,6.00,38.4062767,-110.7920151,1365.1999512,0.3,73.8,1.4,0.0,0.0,889,127,0,0,859.60,17.69,29.53,# data time:160,pm2.5:6.445,pm10:5.704,O2:0.000,NO2:0.010,SO2:0.000,NH3:5.536
12:22:12,0,0,0,0,0,2100,2200,0,0,0,0,514,0,0,0,0,0.0000000,0.0000000,0.0000000,0.0000000,6.00,38.4062767,-110.7919998,1365.1999512,0.3,73.8,1.3,0.0,0.0,889,130,0,0,860.15,12.51,29.54,# data time:170,pm2.5:6.445,pm10:5.704,O2:0.000,NO2:0.000,SO2:0.000,NH3:5.762
12:22:13,0,0,0,0,0,2100,2200,0,0,0,0,514,0,0,0,0,0.0000000,0.0000000,0.0000000,0.0000000,6.00,38.4062805,-110.7919998,1365.3000488,0.1,258.8,1.3,0.0,0.0,889,135,0,0,860.20,12.63,29.43,# data time:170,pm2.5:6.445,pm10:5.704,O2:0.000,NO2:0.000,SO2:0.000,NH3:5.762
12:22:14,0,0,0,0,0,2100,2200,0,0,0,0,514,0,0,0,0,0.0000000,0.0000000,0.0000000,0.0000000,6.00,38.4062805,-110.7919998,1365.3000488,0.0,58.6,1.4,0.0,0.0,889,134,0,0,860.00,14.89,29.33,# data time:170,pm2.5:6.445,pm10:5.704,O2:0.000,NO2:0.000,SO2:0.000,NH3:5.762
12:22:15,0,0,0,0,0,2100,2200,0,0,0,0,514,0,0,0,0,0.0000000,0.0000000,0.0000000,0.0000000,6.00,38.4062805,-110.7919998,1365.3000488,0.0,337.5,1.4,0.0,0.0,889,134,0,0,861.68,9.69,29.37,# data time:170,pm2.5:6.445,pm10:5.704,O2:0.000,NO2:0.000,SO2:0.000,NH3:5.762
12:22:16,0,0,0,0,0,2100,2200,0,0,0,0,515,0,0,0,0,0.0000000,0.0000000,0.0000000,0.0000000,6.00,38.4062805,-110.7919998,1365.3000488,0.0,172.8,1.4,0.0,0.0,889,134,0,0,861.57,9.89,29.17,# data time:170,pm2.5:6.445,pm10:5.704,O2:0.000,NO2:0.000,SO2:0.000,NH3:5.762
12:22:17,0,0,0,0,0,2100,2200,0,0,0,0,515,0,0,0,0,0.0000000,0.0000000,0.0000000,0.0000000,6.00,38.4062805,-110.7919998,1365.3000488,0.0,167.8,1.4,0.0,0.0,889,135,0,0,861.85,9.84,29.05,# data time:170,pm2.5:6.445,pm10:5.704,O2:0.000,NO2:0.000,SO2:0.000,NH3:5.762
12:22:18,0,0,0,0,0,2100,2200,0,0,0,0,514,0,0,0,0,0.0000000,0.0000000,0.0000000,0.0000000,6.00,38.4062805,-110.7919998,1365.3000488,0.0,244.6,1.4,0.0,0.0,889,132,0,0,861.74,10.25,28.73,# data time:170,pm2.5:6.445,pm10:5.704,O2:0.000,NO2:0.000,SO2:0.000,NH3:5.762
12:22:19,0,0,0,0,0,2100,2200,0,0,0,0,514,0,0,0,0,0.0000000,0.0000000,0.0000000,0.0000000,6.00,38.4062805,-110.7919998,1365.3000488,0.0,352.6,1.4,0.0,0.0,889,137,0,0,860.54,18.11,28.67,# data time:170,pm2.5:6.445,pm10:5.704,O2:0.000,NO2:0.000,SO2:0.000,NH3:5.762
12:22:20,0,0,0,0,0,2100,2200,0,0,0,0,514,0,0,0,0,0.0000000,0.0000000,0.0000000,0.0000000,6.00,38.4062805,-110.7919998,1365.3000488,0.0,88.3,1.4,0.0,0.0,889,138,0,0,860.50,18.39,28.65,# data time:170,pm2.5:6.445,pm10:5.704,O2:0.000,NO2:0.000,SO2:0.000,NH3:5.762
12:22:21,0,0,0,0,0,2100,2200,0,0,0,0,514,0,0,0,0,0.0000000,0.0000000,0.0000000,0.0000000,6.00,38.4062805,-110.7919998,1365.3000488,0.0,278.5,1.4,0.0,0.0,889,137,0,0,860.80,15.49,28.67,# data time:180,pm2.5:6.445,pm10:5.704,O2:0.000,NO2:0.046,SO2:0.000,NH3:5.988
12:22:22,0,0,0,0,0,2100,2200,0,0,0,0,515,0,0,0,0,0.0000000,0.0000000,0.0000000,0.0000000,6.00,38.4062805,-110.7919998,1365.3000488,0.0,32.5,1.4,0.0,0.0,889,137,0,0,859.64,23.16,28.63,# data time:180,pm2.5:6.445,pm10:5.704,O2:0.000,NO2:0.046,SO2:0.000,NH3:5.988
12:22:23,0,0,0,0,0,2100,2200,0,0,0,0,514,0,0,0,0,0.0000000,0.0000000,0.0000000,0.0000000,6.00,38.4062805,-110.7919998,1365.3000488,0.0,258.6,1.4,0.0,0.0,889,138,0,0,859.67,24.38,28.66,# data time:180,pm2.5:6.445,pm10:5.704,O2:0.000,NO2:0.046,SO2:0.000,NH3:5.988
12:22:24,0,0,0,0,0,2100,2200,0,0,0,0,514,0,0,0,0,0.0000000,0.0000000,0.0000000,0.0000000,6.00,38.4062805,-110.7919998,1365.3000488,0.2,77.3,1.4,0.0,0.0,889,132,0,0,859.65,23.36,28.78,# data time:180,pm2.5:6.445,pm10:5.704,O2:0.000,NO2:0.046,SO2:0.000,NH3:5.988
12:22:25,0,0,0,0,0,2100,2200,0,0,0,0,514,0,0,0,0,0.0000000,0.0000000,0.0000000,0.0000000,6.00,38.4062805,-110.7919998,1365.3000488,0.4,86.4,1.4,0.0,0.0,889,131,0,0,859.62,21.10,28.84,# data time:180,pm2.5:6.445,pm10:5.704,O2:0.000,NO2:0.046,SO2:0.000,NH3:5.988
12:22:26,0,0,0,0,0,2100,2200,0,0,0,0,515,0,0,0,0,0.0000000,0.0000000,0.0000000,0.0000000,6.00,38.4062805,-110.7919998,1365.3000488,0.8,96.7,1.3,0.0,0.0,889,146,0,0,859.55,23.18,28.79,# data time:180,pm2.5:6.445,pm10:5.704,O2:0.000,NO2:0.046,SO2:0.000,NH3:5.988
12:22:27,0,0,0,0,0,2100,2200,0,0,0,0,514,0,0,0,0,0.0000000,0.0000000,0.0000000,0.0000000,6.00,38.4062805,-110.7919998,1365.3000488,0.9,91.2,1.3,0.0,0.0,889,149,0,0,859.68,25.22,28.75,# data time:180,pm2.5:6.445,pm10:5.704,O2:0.000,NO2:0.046,SO2:0.000,NH3:5.988
12:22:28,0,0,0,0,0,2100,2200,0,0,0,0,514,0,0,0,0,0.0000000,0.0000000,0.0000000,0.0000000,6.00,38.4062843,-110.7919846,1365.4000244,1.0,90.8,1.3,0.0,0.0,889,142,0,0,859.61,25.30,28.58,# data time:180,pm2.5:6.445,pm10:5.704,O2:0.000,NO2:0.046,SO2:0.000,NH3:5.988
12:22:29,0,0,0,0,0,2100,2200,0,0,0,0,515,0,0,0,0,0.0000000,0.0000000,0.0000000,0.0000000,6.00,38.4062843,-110.7919846,1365.5000000,1.0,94.4,1.3,0.0,0.0,889,143,0,0,859.50,15.55,28.52,# data time:180,pm2.5:6.445,pm10:5.704,O2:0.000,NO2:0.046,SO2:0.000,NH3:5.988
12:22:30,0,0,0,0,0,2100,2200,0,0,0,0,515,0,0,0,0,0.0000000,0.0000000,0.0000000,0.0000000,6.00,38.4062843,-110.7919769,1365.5000000,1.0,96.7,1.3,0.0,0.0,888,141,0,0,859.40,14.74,28.42,# data time:180,pm2.5:6.445,pm10:5.704,O2:0.000,NO2:0.046,SO2:0.000,NH3:5.988
12:22:31,0,0,0,0,0,2100,2200,0,0,0,0,515,0,0,0,0,0.0000000,0.0000000,0.0000000,0.0000000,6.00,38.4062843,-110.7919769,1365.5999756,1.0,98.9,1.3,0.0,0.0,889,138,0,0,859.46,14.44,28.37,# data time:190,pm2.5:6.445,pm10:5.704,O2:0.000,NO2:0.010,SO2:0.000,NH3:5.988
12:22:32,0,0,0,0,0,2100,2200,0,0,0,0,514,0,0,0,0,0.0000000,0.0000000,0.0000000,0.0000000,6.00,38.4062843,-110.7919617,1365.5999756,1.0,99.3,1.3,0.0,0.0,889,142,0,0,859.87,14.80,28.36,# data time:190,pm2.5:6.445,pm10:5.704,O2:0.000,NO2:0.010,SO2:0.000,NH3:5.988
12:22:33,0,0,0,0,0,2100,2200,0,0,0,0,515,0,0,0,0,0.0000000,0.0000000,0.0000000,0.0000000,6.00,38.4062843,-110.7919617,1365.5999756,0.9,102.4,1.3,0.0,0.0,889,130,0,0,859.73,23.00,28.33,# data time:190,pm2.5:6.445,pm10:5.704,O2:0.000,NO2:0.010,SO2:0.000,NH3:5.988
12:22:34,0,0,0,0,0,2100,2200,0,0,0,0,514,0,0,0,0,0.0000000,0.0000000,0.0000000,0.0000000,6.00,38.4062805,-110.7919617,1365.5999756,0.6,116.5,1.3,0.0,0.0,889,141,0,0,859.74,22.83,28.50,# data time:190,pm2.5:6.445,pm10:5.704,O2:0.000,NO2:0.010,SO2:0.000,NH3:5.988
12:22:35,0,0,0,0,0,2100,2200,0,0,0,0,514,0,0,0,0,0.0000000,0.0000000,0.0000000,0.0000000,6.00,38.4062843,-110.7919617,1365.5000000,0.4,94.7,1.3,0.0,0.0,889,144,0,0,859.74,22.52,28.58,# data time:190,pm2.5:6.445,pm10:5.704,O2:0.000,NO2:0.010,SO2:0.000,NH3:5.988
12:22:36,0,0,0,0,0,2100,2200,0,0,0,0,514,0,0,0,0,0.0000000,0.0000000,0.0000000,0.0000000,6.00,38.4062843,-110.7919464,1365.5000000,0.3,96.5,1.3,0.0,0.0,889,143,0,0,861.18,10.97,28.81,# data time:190,pm2.5:6.445,pm10:5.704,O2:0.000,NO2:0.010,SO2:0.000,NH3:5.988
12:22:37,0,0,0,0,0,2100,2200,0,0,0,0,514,0,0,0,0,0.0000000,0.0000000,0.0000000,0.0000000,6.00,38.4062881,-110.7919617,1365.5000000,0.1,197.9,1.3,0.0,0.0,889,142,0,0,861.28,10.86,28.73,# data time:190,pm2.5:6.445,pm10:5.704,O2:0.000,NO2:0.010,SO2:0.000,NH3:5.988
12:22:38,0,0,0,0,0,2100,2200,0,0,0,0,514,0,0,0,0,0.0000000,0.0000000,0.0000000,0.0000000,6.00,38.4062881,-110.7919617,1365.5000000,0.2,232.1,1.3,0.0,0.0,889,144,0,0,861.17,10.79,28.60,# data time:190,pm2.5:6.445,pm10:5.704,O2:0.000,NO2:0.010,SO2:0.000,NH3:5.988
12:22:39,0,0,0,0,0,2100,2200,0,0,0,0,515,0,0,0,0,0.0000000,0.0000000,0.0000000,0.0000000,6.00,38.4062843,-110.7919617,1365.5000000,0.2,185.3,1.3,0.0,0.0,889,137,0,0,859.53,19.06,28.45,# data time:190,pm2.5:6.445,pm10:5.704,O2:0.000,NO2:0.010,SO2:0.000,NH3:5.988
12:22:40,0,0,0,0,0,2100,2200,0,0,0,0,515,0,0,0,0,0.0000000,0.0000000,0.0000000,0.0000000,6.00,38.4062843,-110.7919617,1365.5000000,0.1,149.6,1.3,0.0,0.0,890,139,0,0,859.70,19.88,28.31,# data time:190,pm2.5:6.445,pm10:5.704,O2:0.000,NO2:0.010,SO2:0.000,NH3:5.988
12:22:41,0,0,0,0,0,2100,2200,0,0,0,0,514,0,0,0,0,0.0000000,0.0000000,0.0000000,0.0000000,6.00,38.4062843,-110.7919617,1365.5000000,0.2,240.2,1.3,0.0,0.0,889,146,0,0,859.57,21.06,28.36,# data time:200,pm2.5:6.445,pm10:5.704,O2:0.000,NO2:0.000,SO2:0.000,NH3:5.988
12:22:42,0,0,0,0,0,2100,2200,0,0,0,0,514,0,0,0,0,0.0000000,0.0000000,0.0000000,0.0000000,6.00,38.4062843,-110.7919617,1365.5000000,0.1,212.3,1.3,0.0,0.0,889,146,0,0,859.58,22.00,28.49,# data time:200,pm2.5:6.445,pm10:5.704,O2:0.000,NO2:0.000,SO2:0.000,NH3:5.988
12:22:43,0,0,0,0,0,2100,2200,0,0,0,0,514,0,0,0,0,0.0000000,0.0000000,0.0000000,0.0000000,6.00,38.4062843,-110.7919617,1365.5000000,0.1,119.8,1.3,0.0,0.0,889,140,0,0,859.67,22.28,28.64,# data time:200,pm2.5:6.445,pm10:5.704,O2:0.000,NO2:0.000,SO2:0.000,NH3:5.988
12:22:45,0,0,0,0,0,2100,2200,0,0,0,0,515,0,0,0,0,0.0000000,0.0000000,0.0000000,0.0000000,6.00,38.4062843,-110.7919617,1365.5000000,0.2,190.2,1.3,0.0,0.0,889,148,0,0,859.71,23.80,28.73,# data time:200,pm2.5:6.445,pm10:5.704,O2:0.000,NO2:0.000,SO2:0.000,NH3:5.988
12:22:46,0,0,0,0,0,2100,2200,0,0,0,0,515,0,0,0,0,0.0000000,0.0000000,0.0000000,0.0000000,6.00,38.4062843,-110.7919617,1365.5000000,0.1,174.2,1.3,0.0,0.0,889,144,0,0,860.01,24.05,28.75,# data time:200,pm2.5:6.445,pm10:5.704,O2:0.000,NO2:0.000,SO2:0.000,NH3:5.988
12:22:47,0,0,0,0,0,2100,2200,0,0,0,0,514,0,0,0,0,0.0000000,0.0000000,0.0000000,0.0000000,6.00,38.4062805,-110.7919617,1365.5000000,0.2,232.8,1.3,0.0,0.0,889,136,0,0,859.75,23.82,28.68,# data time:200,pm2.5:6.445,pm10:5.704,O2:0.000,NO2:0.000,SO2:0.000,NH3:5.988
12:22:48,0,0,0,0,0,2100,2200,0,0,0,0,515,0,0,0,0,0.0000000,0.0000000,0.0000000,0.0000000,6.00,38.4062805,-110.7919617,1365.5000000,0.2,329.4,1.3,0.0,0.0,889,136,0,0,859.61,22.83,28.64,# data time:200,pm2.5:6.445,pm10:5.704,O2:0.000,NO2:0.000,SO2:0.000,NH3:5.988
12:22:49,0,0,0,0,0,2100,2200,0,0,0,0,514,0,0,0,0,0.0000000,0.0000000,0.0000000,0.0000000,6.00,38.4062843,-110.7919617,1365.5000000,0.3,326.1,1.3,0.0,0.0,889,138,0,0,859.61,23.33,28.63,# data time:200,pm2.5:6.445,pm10:5.704,O2:0.000,NO2:0.000,SO2:0.000,NH3:5.988
12:22:50,0,0,0,0,0,2100,2200,0,0,0,0,515,0,0,0,0,0.0000000,0.0000000,0.0000000,0.0000000,6.00,38.4062843,-110.7919617,1365.5000000,0.4,323.1,1.3,0.0,0.0,889,148,0,0,860.05,22.60,28.64,# data time:200,pm2.5:6.445,pm10:5.704,O2:0.000,NO2:0.000,SO2:0.000,NH3:5.988
12:22:51,0,0,0,0,0,2100,2200,0,0,0,0,515,0,0,0,0,0.0000000,0.0000000,0.0000000,0.0000000,6.00,38.4062843,-110.7919617,1365.5000000,0.4,323.1,1.3,0.0,0.0,889,156,0,0,860.08,23.85,28.66,# data time:200,pm2.5:6.445,pm10:5.704,O2:0.000,NO2:0.000,SO2:0.000,NH3:5.988
12:22:52,0,0,0,0,0,2700,2200,1,0,0,0,506,0,0,0,0,0.0000000,0.0000000,0.0000000,0.0000000,6.00,38.4062881,-110.7919617,1365.5000000,0.2,300.2,1.3,0.0,0.0,883,154,0,0,859.86,23.76,28.65,# data time:210,pm2.5:6.445,pm10:5.704,O2:0.000,NO2:0.010,SO2:0.000,NH3:5.988
12:22:53,0,0,0,0,0,2700,2200,1,0,0,0,511,0,0,0,0,0.0000000,0.0000000,0.0000000,0.0000000,6.00,38.4062881,-110.7919617,1365.5000000,0.4,262.9,1.3,0.0,0.0,887,167,0,0,859.70,24.19,28.77,# data time:210,pm2.5:6.445,pm10:5.704,O2:0.000,NO2:0.010,SO2:0.000,NH3:5.988
12:22:54,0,0,0,0,0,2700,2200,1,0,0,0,514,0,0,0,0,0.0000000,0.0000000,0.0000000,0.0000000,6.00,38.4062881,-110.7919617,1365.5000000,0.2,331.0,1.3,0.0,0.0,890,150,0,0,860.98,10.64,29.02,# data time:210,pm2.5:6.445,pm10:5.704,O2:0.000,NO2:0.010,SO2:0.000,NH3:5.988
12:22:55,0,0,0,0,0,2700,2200,1,0,0,0,519,0,0,0,0,0.0000000,0.0000000,0.0000000,0.0000000,6.00,38.4062881,-110.7919617,1365.5000000,0.1,236.9,1.3,0.0,0.0,885,162,0,0,860.84,11.80,28.85,# data time:210,pm2.5:6.445,pm10:5.704,O2:0.000,NO2:0.010,SO2:0.000,NH3:5.988
12:22:56,0,0,0,0,0,2700,2200,1,0,0,0,515,0,0,0,0,0.0000000,0.0000000,0.0000000,0.0000000,6.00,38.4062881,-110.7919617,1365.5000000,0.2,121.4,1.3,0.0,0.0,891,133,0,0,860.87,11.80,28.70,# data time:210,pm2.5:6.445,pm10:5.704,O2:0.000,NO2:0.010,SO2:0.000,NH3:5.988
12:22:57,0,0,0,0,0,2700,2200,1,0,0,0,515,0,0,0,0,0.0000000,0.0000000,0.0000000,0.0000000,6.00,38.4062881,-110.7919617,1365.5000000,0.2,179.9,1.3,0.0,0.0,889,147,0,0,860.89,11.77,28.62,# data time:210,pm2.5:6.445,pm10:5.704,O2:0.000,NO2:0.010,SO2:0.000,NH3:5.988
12:22:58,0,0,0,0,0,2700,2200,1,0,0,0,515,0,0,0,0,0.0000000,0.0000000,0.0000000,0.0000000,6.00,38.4062881,-110.7919617,1365.5000000,0.2,57.3,1.3,0.0,0.0,890,142,0,0,861.08,11.63,28.52,# data time:210,pm2.5:6.445,pm10:5.704,O2:0.000,NO2:0.010,SO2:0.000,NH3:5.988
12:22:59,0,0,0,0,0,2700,2200,1,0,0,0,515,0,0,0,0,0.0000000,0.0000000,0.0000000,0.0000000,6.00,38.4062881,-110.7919617,1365.5000000,0.1,5.7,1.3,0.0,0.0,889,136,0,0,860.88,11.78,28.37,# data time:210,pm2.5:6.445,pm10:5.704,O2:0.000,NO2:0.010,SO2:0.000,NH3:5.988
12:23:00,0,0,0,0,0,2700,2200,1,0,0,0,515,0,0,0,0,0.0000000,0.0000000,0.0000000,0.0000000,6.00,38.4062881,-110.7919617,1365.5000000,0.1,3.7,1.4,0.0,0.0,889,134,0,0,861.39,11.89,28.21,# data time:210,pm2.5:6.445,pm10:5.704,O2:0.000,NO2:0.010,SO2:0.000,NH3:5.988
12:23:01,0,0,0,0,0,2700,2200,1,0,0,0,514,0,0,0,0,0.0000000,0.0000000,0.0000000,0.0000000,6.00,38.4062881,-110.7919617,1365.5000000,0.1,320.1,1.4,0.0,0.0,888,138,0,0,861.26,11.93,28.14,# data time:220,pm2.5:6.445,pm10:5.704,O2:0.000,NO2:0.000,SO2:0.000,NH3:6.441
12:23:02,0,0,0,0,0,2700,2200,1,0,0,0,514,0,0,0,0,0.0000000,0.0000000,0.0000000,0.0000000,6.00,38.4062881,-110.7919617,1365.5999756,0.2,318.3,1.3,0.0,0.0,889,137,0,0,860.78,11.93,28.05,# data time:220,pm2.5:6.445,pm10:5.704,O2:0.000,NO2:0.000,SO2:0.000,NH3:6.441
12:23:03,0,0,0,0,0,2700,2200,1,0,0,0,515,0,0,0,0,0.0000000,0.0000000,0.0000000,0.0000000,6.00,38.4062881,-110.7919617,1365.5999756,0.1,335.3,1.3,0.0,0.0,889,135,0,0,861.67,12.05,27.86,# data time:220,pm2.5:6.445,pm10:5.704,O2:0.000,NO2:0.000,SO2:0.000,NH3:6.441
12:23:04,0,0,0,0,0,2700,2200,1,0,0,0,515,0,0,0,0,0.0000000,0.0000000,0.0000000,0.0000000,6.00,38.4062920,-110.7919617,1365.5999756,0.2,140.2,1.3,0.0,0.0,889,135,0,0,861.12,11.99,27.90,# data time:220,pm2.5:6.445,pm10:5.704,O2:0.000,NO2:0.000,SO2:0.000,NH3:6.441
12:23:05,0,0,0,0,0,2700,2200,1,0,0,0,514,0,0,0,0,0.0000000,0.0000000,0.0000000,0.0000000,6.00,38.4062881,-110.7919617,1365.5999756,0.1,49.8,1.3,0.0,0.0,889,136,0,0,861.11,12.12,27.84,# data time:220,pm2.5:6.445,pm10:5.704,O2:0.000,NO2:0.000,SO2:0.000,NH3:6.441
12:23:06,0,0,0,0,0,2700,2200,1,0,0,0,514,0,0,0,0,0.0000000,0.0000000,0.0000000,0.0000000,6.00,38.4062881,-110.7919617,1365.5999756,0.2,45.8,1.3,0.0,0.0,889,137,0,0,861.04,12.10,27.74,# data time:220,pm2.5:6.445,pm10:5.704,O2:0.000,NO2:0.000,SO2:0.000,NH3:6.441
12:23:07,0,0,0,0,0,2700,2200,1,0,0,0,515,0,0,0,0,0.0000000,0.0000000,0.0000000,0.0000000,6.00,38.4062920,-110.7919617,1365.5999756,0.2,281.2,1.3,0.0,0.0,889,146,0,0,861.21,12.18,27.64,# data time:220,pm2.5:6.445,pm10:5.704,O2:0.000,NO2:0.000,SO2:0.000,NH3:6.441
12:23:08,0,0,0,0,0,2700,2200,1,0,0,0,514,0,0,0,0,0.0000000,0.0000000,0.0000000,0.0000000,6.00,38.4062920,-110.7919617,1365.5999756,0.1,11.2,1.3,0.0,0.0,889,142,0,0,861.14,12.24,27.56,# data time:220,pm2.5:6.445,pm10:5.704,O2:0.000,NO2:0.000,SO2:0.000,NH3:6.441
12:23:09,0,0,0,0,0,2700,2200,1,0,0,0,514,0,0,0,0,0.0000000,0.0000000,0.0000000,0.0000000,6.00,38.4062920,-110.7919617,1365.5999756,0.2,273.2,1.4,0.0,0.0,889,143,0,0,860.68,12.19,27.52,# data time:220,pm2.5:6.445,pm10:5.704,O2:0.000,NO2:0.000,SO2:0.000,NH3:6.441
12:23:10,0,0,0,0,0,2700,2200,1,0,0,0,514,0,0,0,0,0.0000000,0.0000000,0.0000000,0.0000000,6.00,38.4062920,-110.7919617,1365.5999756,0.2,251.2,1.3,0.0,0.0,889,147,0,0,860.64,12.47,27.45,# data time:220,pm2.5:6.445,pm10:5.704,O2:0.000,NO2:0.000,SO2:0.000,NH3:6.441
12:23:11,0,0,0,0,0,2700,2200,1,0,0,0,514,0,0,0,0,0.0000000,0.0000000,0.0000000,0.0000000,6.00,38.4062920,-110.7919617,1365.5999756,0.1,208.4,1.3,0.0,0.0,888,145,0,0,860.80,12.54,27.39,# data time:230,pm2.5:6.445,pm10:5.704,O2:0.000,NO2:0.010,SO2:0.000,NH3:6.441
12:23:12,0,0,0,0,0,2700,2200,1,0,0,0,514,0,0,0,0,0.0000000,0.0000000,0.0000000,0.0000000,6.00,38.4062920,-110.7919617,1365.5999756,0.0,225.1,1.3,0.0,0.0,889,137,0,0,860.94,12.56,27.37,# data time:230,pm2.5:6.445,pm10:5.704,O2:0.000,NO2:0.010,SO2:0.000,NH3:6.441
12:23:13,0,0,0,0,0,2700,2200,1,0,0,0,514,0,0,0,0,0.0000000,0.0000000,0.0000000,0.0000000,6.00,38.4062920,-110.7919617,1365.5999756,0.1,214.8,1.3,0.0,0.0,889,128,0,0,860.89,12.53,27.41,# data time:230,pm2.5:6.445,pm10:5.704,O2:0.000,NO2:0.010,SO2:0.000,NH3:6.441
12:23:14,0,0,0,0,0,2700,2200,1,0,0,0,514,0,0,0,0,0.0000000,0.0000000,0.0000000,0.0000000,6.00,38.4062920,-110.7919769,1365.5999756,0.1,144.6,1.3,0.0,0.0,889,127,0,0,861.86,11.03,27.41,# data time:230,pm2.5:6.445,pm10:5.704,O2:0.000,NO2:0.010,SO2:0.000,NH3:6.441
12:23:15,0,0,0,0,0,2700,2200,1,0,0,0,514,0,0,0,0,0.0000000,0.0000000,0.0000000,0.0000000,6.00,38.4062920,-110.7919617,1365.5999756,0.1,137.8,1.3,0.0,0.0,889,128,0,0,860.24,12.10,27.01,# data time:230,pm2.5:6.445,pm10:5.704,O2:0.000,NO2:0.010,SO2:0.000,NH3:6.441
12:23:16,0,0,0,0,0,2700,2200,1,0,0,0,515,0,0,0,0,0.0000000,0.0000000,0.0000000,0.0000000,6.00,38.4062881,-110.7919617,1365.5999756,0.1,183.3,1.3,0.0,0.0,889,128,0,0,859.04,17.09,26.96,# data time:230,pm2.5:6.445,pm10:5.704,O2:0.000,NO2:0.010,SO2:0.000,NH3:6.441
