Time, Motor A Speed, Motor A Dir, Motor B Speed, Motor B Dir, Servo Rail Current Sensor, Servo Pos - Arm L, Servo Pos - Arm R, Servo Pos - End, Servo Pos - Hopper, Servo Pos - Lid, Servo Pos - Extra, Servo Current, LED - Front L, LED - Front R, LED - Back L, LED - Back R, IMU Pitch, IMU Roll, IMU Yaw, Compass Heading, GPS Sats, GPS Latitude, GPS Longitude, GPS Altitude, GPS Speed, GPS Angle, GPS HDOP, GPS VDOP, GPS PDOP, Battery, Wind, Comm Xbee Latency, Comm Arduino Latency, Pressure, Humidity, Temperature, uRADMonitor
9:39:15,0,0,0,0,0,0,0,0,0,0,0,0,0,0,0,0,0.0000000,0.0000000,0.0000000,0.0000000,0.00,0.0000000,0.0000000,0.0000000,0.0,0.0,0.0,0.0,0.0,0,0,0,0,0.00,0.00,0.00,0
9:39:16,0,0,0,0,0,0,0,0,0,0,0,548,0,0,0,0,0.0000000,0.0000000,0.0000000,0.0000000,8.00,38.4065094,-110.7921906,1410.6999512,0.0,40.0,1.2,0.0,0.0,889,124,0,0,863.21,24.87,18.61,0
9:39:17,0,0,0,0,0,0,0,0,0,0,0,547,0,0,0,0,0.0000000,0.0000000,0.0000000,0.0000000,8.00,38.4065094,-110.7921906,1410.5000000,0.1,16.2,1.2,0.0,0.0,889,127,0,0,863.27,24.81,18.65,0
9:39:18,0,0,0,0,0,0,0,0,0,0,0,533,0,0,0,0,0.0000000,0.0000000,0.0000000,0.0000000,8.00,38.4065056,-110.7921906,1410.4000244,0.1,60.8,1.2,0.0,0.0,890,131,0,0,863.29,24.83,18.66,0
9:39:19,0,0,0,0,0,0,0,0,0,0,0,533,0,0,0,0,0.0000000,0.0000000,0.0000000,0.0000000,8.00,38.4065056,-110.7921906,1410.1999512,0.0,27.8,1.2,0.0,0.0,889,128,0,0,863.24,24.83,18.67,0
9:39:20,0,0,0,0,0,0,0,0,0,0,0,545,0,0,0,0,0.0000000,0.0000000,0.0000000,0.0000000,8.00,38.4065056,-110.7921906,1409.9000244,0.2,66.8,1.2,0.0,0.0,889,126,0,0,863.24,24.81,18.67,0
9:39:21,0,0,0,0,0,0,0,0,0,0,0,530,0,0,0,0,0.0000000,0.0000000,0.0000000,0.0000000,8.00,38.4065056,-110.7921906,1409.9000244,0.2,67.8,1.2,0.0,0.0,889,126,0,0,863.27,24.78,18.67,0
9:39:22,0,0,0,0,0,0,0,0,0,0,0,546,0,0,0,0,0.0000000,0.0000000,0.0000000,0.0000000,8.00,38.4065018,-110.7921906,1409.8000488,0.3,71.2,1.2,0.0,0.0,890,128,0,0,863.25,24.77,18.68,0
9:39:23,0,0,0,0,0,0,0,0,0,0,0,542,0,0,0,0,0.0000000,0.0000000,0.0000000,0.0000000,8.00,38.4065018,-110.7921906,1409.6999512,0.1,69.9,1.2,0.0,0.0,889,131,0,0,863.22,24.74,18.68,# data time:560,pm2.5:6.445,pm10:5.704,O2:0.000,NO2:0.000,SO2:0.000,NH3:3.273
9:39:24,0,0,0,0,0,0,0,0,0,0,0,543,0,0,0,0,0.0000000,0.0000000,0.0000000,0.0000000,8.00,38.4065018,-110.7921829,1409.5000000,0.2,70.3,1.2,0.0,0.0,889,126,0,0,863.28,24.75,18.69,# data time:560,pm2.5:6.445,pm10:5.704,O2:0.000,NO2:0.000,SO2:0.000,NH3:3.273
9:39:25,0,0,0,0,0,0,0,0,0,0,0,544,0,0,0,0,0.0000000,0.0000000,0.0000000,0.0000000,8.00,38.4065018,-110.7921829,1409.5000000,0.2,84.1,1.2,0.0,0.0,889,127,0,0,863.26,24.83,18.69,# data time:560,pm2.5:6.445,pm10:5.704,O2:0.000,NO2:0.000,SO2:0.000,NH3:3.273
9:39:26,0,0,0,0,0,0,0,0,0,0,0,541,0,0,0,0,0.0000000,0.0000000,0.0000000,0.0000000,8.00,38.4064980,-110.7921829,1409.4000244,0.2,95.1,1.2,0.0,0.0,889,119,0,0,863.30,24.87,18.69,# data time:560,pm2.5:6.445,pm10:5.704,O2:0.000,NO2:0.000,SO2:0.000,NH3:3.273
9:39:27,0,0,0,0,0,0,0,0,0,0,0,543,0,0,0,0,0.0000000,0.0000000,0.0000000,0.0000000,8.00,38.4064980,-110.7921829,1409.4000244,0.2,110.8,1.2,0.0,0.0,889,127,0,0,863.27,24.95,18.69,# data time:560,pm2.5:6.445,pm10:5.704,O2:0.000,NO2:0.000,SO2:0.000,NH3:3.273
9:39:28,0,0,0,0,0,0,0,0,0,0,0,543,0,0,0,0,0.0000000,0.0000000,0.0000000,0.0000000,8.00,38.4064980,-110.7921829,1409.1999512,0.1,102.5,1.2,0.0,0.0,889,128,0,0,863.25,24.99,18.70,# data time:560,pm2.5:6.445,pm10:5.704,O2:0.000,NO2:0.000,SO2:0.000,NH3:3.273
9:39:29,0,0,0,0,0,0,0,0,0,0,0,539,0,0,0,0,0.0000000,0.0000000,0.0000000,0.0000000,8.00,38.4064980,-110.7921829,1409.0999756,0.0,339.0,1.2,0.0,0.0,889,128,0,0,863.28,25.06,18.70,# data time:560,pm2.5:6.445,pm10:5.704,O2:0.000,NO2:0.000,SO2:0.000,NH3:3.273
9:39:30,0,0,0,0,0,0,0,0,0,0,0,531,0,0,0,0,0.0000000,0.0000000,0.0000000,0.0000000,8.00,38.4064941,-110.7921829,1409.0000000,0.1,187.7,1.2,0.0,0.0,889,126,0,0,863.28,25.09,18.70,# data time:560,pm2.5:6.445,pm10:5.704,O2:0.000,NO2:0.000,SO2:0.000,NH3:3.273
9:39:31,0,0,0,0,0,0,0,0,0,0,0,541,0,0,0,0,0.0000000,0.0000000,0.0000000,0.0000000,8.00,38.4064941,-110.7921829,1408.9000244,0.1,245.1,1.2,0.0,0.0,889,127,0,0,863.26,25.10,18.71,# data time:560,pm2.5:6.445,pm10:5.704,O2:0.000,NO2:0.000,SO2:0.000,NH3:3.273
9:39:32,0,0,0,0,0,0,0,0,0,0,0,523,0,0,0,0,0.0000000,0.0000000,0.0000000,0.0000000,8.00,38.4064941,-110.7921829,1408.8000488,0.2,229.2,1.2,0.0,0.0,889,129,0,0,863.25,25.10,18.71,# data time:560,pm2.5:6.445,pm10:5.704,O2:0.000,NO2:0.000,SO2:0.000,NH3:3.273
9:39:33,0,0,0,0,0,0,0,0,0,0,0,541,0,0,0,0,0.0000000,0.0000000,0.0000000,0.0000000,8.00,38.4064941,-110.7921829,1408.8000488,0.1,271.7,1.2,0.0,0.0,889,128,0,0,863.28,25.15,18.66,# data time:570,pm2.5:6.445,pm10:5.704,O2:0.000,NO2:0.000,SO2:0.000,NH3:3.273
9:39:34,0,0,0,0,0,0,0,0,0,0,0,526,0,0,0,0,0.0000000,0.0000000,0.0000000,0.0000000,8.00,38.4064941,-110.7921829,1408.6999512,0.1,240.0,1.2,0.0,0.0,889,126,0,0,863.31,25.18,18.71,# data time:570,pm2.5:6.445,pm10:5.704,O2:0.000,NO2:0.000,SO2:0.000,NH3:3.273
9:39:35,0,0,0,0,0,0,0,0,0,0,0,534,0,0,0,0,0.0000000,0.0000000,0.0000000,0.0000000,8.00,38.4064941,-110.7921829,1408.5999756,0.1,143.4,1.2,0.0,0.0,889,127,0,0,863.30,25.21,18.72,# data time:570,pm2.5:6.445,pm10:5.704,O2:0.000,NO2:0.000,SO2:0.000,NH3:3.273
9:39:36,0,0,0,0,0,0,0,0,0,0,0,530,0,0,0,0,0.0000000,0.0000000,0.0000000,0.0000000,8.00,38.4064941,-110.7921829,1408.5999756,0.1,69.8,1.2,0.0,0.0,887,126,0,0,863.29,25.18,18.72,# data time:570,pm2.5:6.445,pm10:5.704,O2:0.000,NO2:0.000,SO2:0.000,NH3:3.273
9:39:37,0,0,0,0,0,0,0,0,0,0,0,532,0,0,0,0,0.0000000,0.0000000,0.0000000,0.0000000,8.00,38.4064941,-110.7921829,1408.5999756,0.1,40.7,1.2,0.0,0.0,889,123,0,0,863.26,25.15,18.72,# data time:570,pm2.5:6.445,pm10:5.704,O2:0.000,NO2:0.000,SO2:0.000,NH3:3.273
9:39:38,0,0,0,0,0,0,0,0,0,0,0,537,0,0,0,0,0.0000000,0.0000000,0.0000000,0.0000000,8.00,38.4064941,-110.7921829,1408.5999756,0.1,42.4,1.2,0.0,0.0,889,127,0,0,863.25,25.12,18.72,# data time:570,pm2.5:6.445,pm10:5.704,O2:0.000,NO2:0.000,SO2:0.000,NH3:3.273
9:39:39,0,0,0,0,0,0,0,0,0,0,0,527,0,0,0,0,0.0000000,0.0000000,0.0000000,0.0000000,8.00,38.4064941,-110.7921829,1408.5999756,0.1,332.8,1.2,0.0,0.0,893,126,0,0,863.22,25.09,18.72,# data time:570,pm2.5:6.445,pm10:5.704,O2:0.000,NO2:0.000,SO2:0.000,NH3:3.273
9:39:40,0,0,0,0,0,0,0,0,0,0,0,517,0,0,0,0,0.0000000,0.0000000,0.0000000,0.0000000,8.00,38.4064941,-110.7921829,1408.5999756,0.1,309.9,1.2,0.0,0.0,892,128,0,0,863.25,25.06,18.73,# data time:570,pm2.5:6.445,pm10:5.704,O2:0.000,NO2:0.000,SO2:0.000,NH3:3.273
9:39:41,0,0,0,0,0,0,0,0,0,0,0,523,0,0,0,0,0.0000000,0.0000000,0.0000000,0.0000000,8.00,38.4064941,-110.7921829,1408.5999756,0.2,299.0,1.2,0.0,0.0,892,134,0,0,863.28,25.02,18.73,# data time:570,pm2.5:6.445,pm10:5.704,O2:0.000,NO2:0.000,SO2:0.000,NH3:3.273
9:39:42,0,0,0,0,0,0,0,0,0,0,0,518,0,0,0,0,0.0000000,0.0000000,0.0000000,0.0000000,8.00,38.4064941,-110.7921829,1408.5999756,0.2,321.3,1.2,0.0,0.0,893,125,0,0,863.28,25.02,18.73,# data time:570,pm2.5:6.445,pm10:5.704,O2:0.000,NO2:0.000,SO2:0.000,NH3:3.273
9:39:43,0,0,0,0,0,0,0,0,0,0,0,518,0,0,0,0,0.0000000,0.0000000,0.0000000,0.0000000,8.00,38.4064980,-110.7921829,1408.5999756,0.1,4.1,1.2,0.0,0.0,892,128,0,0,863.26,24.95,18.74,# data time:580,pm2.5:6.445,pm10:5.704,O2:0.000,NO2:0.000,SO2:0.000,NH3:3.273
9:39:44,0,0,0,0,0,0,0,0,0,0,0,519,0,0,0,0,0.0000000,0.0000000,0.0000000,0.0000000,8.00,38.4064980,-110.7921829,1408.5999756,0.1,43.6,1.4,0.0,0.0,892,127,0,0,863.24,24.95,18.73,# data time:580,pm2.5:6.445,pm10:5.704,O2:0.000,NO2:0.000,SO2:0.000,NH3:3.273
9:39:45,0,0,0,0,0,0,0,0,0,0,0,520,0,0,0,0,0.0000000,0.0000000,0.0000000,0.0000000,8.00,38.4064980,-110.7921829,1408.5999756,0.2,75.6,1.2,0.0,0.0,893,128,0,0,863.22,24.95,18.74,# data time:580,pm2.5:6.445,pm10:5.704,O2:0.000,NO2:0.000,SO2:0.000,NH3:3.273
9:39:46,0,0,0,0,0,0,0,0,0,0,0,524,0,0,0,0,0.0000000,0.0000000,0.0000000,0.0000000,8.00,38.4064980,-110.7921829,1408.5999756,0.1,122.7,1.2,0.0,0.0,892,127,0,0,863.31,24.90,18.74,# data time:580,pm2.5:6.445,pm10:5.704,O2:0.000,NO2:0.000,SO2:0.000,NH3:3.273
9:39:47,0,0,0,0,0,0,0,0,0,0,0,517,0,0,0,0,0.0000000,0.0000000,0.0000000,0.0000000,8.00,38.4064980,-110.7921829,1408.5999756,0.1,95.3,1.2,0.0,0.0,892,126,0,0,863.29,24.90,18.74,# data time:580,pm2.5:6.445,pm10:5.704,O2:0.000,NO2:0.000,SO2:0.000,NH3:3.273
9:39:48,0,0,0,0,0,0,0,0,0,0,0,518,0,0,0,0,0.0000000,0.0000000,0.0000000,0.0000000,8.00,38.4064980,-110.7921829,1408.5999756,0.1,111.9,1.2,0.0,0.0,892,135,0,0,863.26,24.95,18.74,# data time:580,pm2.5:6.445,pm10:5.704,O2:0.000,NO2:0.000,SO2:0.000,NH3:3.273
9:39:49,0,0,0,0,0,0,0,0,0,0,0,529,0,0,0,0,0.0000000,0.0000000,0.0000000,0.0000000,8.00,38.4064980,-110.7921829,1408.5999756,0.2,121.6,1.2,0.0,0.0,892,129,0,0,863.24,24.96,18.75,# data time:580,pm2.5:6.445,pm10:5.704,O2:0.000,NO2:0.000,SO2:0.000,NH3:3.273
9:39:50,0,0,0,0,0,0,0,0,0,0,0,526,0,0,0,0,0.0000000,0.0000000,0.0000000,0.0000000,8.00,38.4064980,-110.7921677,1408.5999756,0.3,112.5,1.2,0.0,0.0,892,129,0,0,863.30,24.98,18.75,# data time:580,pm2.5:6.445,pm10:5.704,O2:0.000,NO2:0.000,SO2:0.000,NH3:3.273
9:39:51,0,0,0,0,0,0,0,0,0,0,0,527,0,0,0,0,0.0000000,0.0000000,0.0000000,0.0000000,8.00,38.4064980,-110.7921677,1408.5000000,0.2,113.7,1.2,0.0,0.0,893,129,0,0,863.25,24.99,18.76,# data time:580,pm2.5:6.445,pm10:5.704,O2:0.000,NO2:0.000,SO2:0.000,NH3:3.273
9:39:52,0,0,0,0,0,0,0,0,0,0,0,520,0,0,0,0,0.0000000,0.0000000,0.0000000,0.0000000,8.00,38.4064980,-110.7921677,1408.5000000,0.1,183.4,1.2,0.0,0.0,892,125,0,0,863.29,25.02,18.75,# data time:590,pm2.5:6.445,pm10:5.704,O2:0.000,NO2:0.000,SO2:0.000,NH3:3.273
9:39:53,0,0,0,0,0,0,0,0,0,0,0,521,0,0,0,0,0.0000000,0.0000000,0.0000000,0.0000000,8.00,38.4064941,-110.7921677,1408.5000000,0.1,136.8,1.2,0.0,0.0,891,126,0,0,863.26,25.02,18.66,# data time:590,pm2.5:6.445,pm10:5.704,O2:0.000,NO2:0.000,SO2:0.000,NH3:3.273
9:39:54,0,0,0,0,0,0,0,0,0,0,0,533,0,0,0,0,0.0000000,0.0000000,0.0000000,0.0000000,8.00,38.4064941,-110.7921677,1408.5000000,0.1,173.0,1.2,0.0,0.0,891,137,0,0,863.25,25.07,18.66,# data time:590,pm2.5:6.445,pm10:5.704,O2:0.000,NO2:0.000,SO2:0.000,NH3:3.273
9:39:55,0,0,0,0,0,0,0,0,0,0,0,561,0,0,0,0,0.0000000,0.0000000,0.0000000,0.0000000,8.00,38.4064941,-110.7921677,1408.5000000,0.1,126.8,1.2,0.0,0.0,884,127,0,0,863.27,25.12,18.72,# data time:590,pm2.5:6.445,pm10:5.704,O2:0.000,NO2:0.000,SO2:0.000,NH3:3.273
9:39:56,0,0,0,0,0,0,0,0,0,0,0,516,0,0,0,0,0.0000000,0.0000000,0.0000000,0.0000000,8.00,38.4064941,-110.7921677,1408.5000000,0.1,116.0,1.2,0.0,0.0,893,117,0,0,863.25,25.15,18.72,# data time:590,pm2.5:6.445,pm10:5.704,O2:0.000,NO2:0.000,SO2:0.000,NH3:3.273
