Time, Motor A Speed, Motor A Dir, Motor B Speed, Motor B Dir, Servo Rail Current Sensor, Servo Pos - Arm L, Servo Pos - Arm R, Servo Pos - End, Servo Pos - Hopper, Servo Pos - Lid, Servo Pos - Extra, Servo Current, LED - Front L, LED - Front R, LED - Back L, LED - Back R, IMU Pitch, IMU Roll, IMU Yaw, Compass Heading, GPS Sats, GPS Latitude, GPS Longitude, GPS Altitude, GPS Speed, GPS Angle, GPS HDOP, GPS VDOP, GPS PDOP, Battery, Wind, Comm Xbee Latency, Comm Arduino Latency, Pressure, Humidity, Temperature, uRADMonitor
14:34:24,0,0,0,0,0,2700,2200,1,0,0,0,514,0,0,0,0,0.0000000,0.0000000,0.0000000,0.0000000,8.00,38.4062881,-110.7921524,1362.0999756,0.1,31.9,1.2,0.0,0.0,859,127,0,0,860.39,10.71,27.29,# data time:8100,pm2.5:6.445,pm10:5.704,O2:0.000,NO2:0.010,SO2:0.000,NH3:7.346
14:34:25,0,0,0,0,0,2700,2200,1,0,0,0,514,0,0,0,0,0.0000000,0.0000000,0.0000000,0.0000000,8.00,38.4062920,-110.7921524,1362.1999512,0.1,52.7,1.2,0.0,0.0,858,132,0,0,860.49,10.73,27.33,# data time:8100,pm2.5:6.445,pm10:5.704,O2:0.000,NO2:0.010,SO2:0.000,NH3:7.346
14:34:26,0,0,0,0,0,2700,2200,1,0,0,0,514,0,0,0,0,0.0000000,0.0000000,0.0000000,0.0000000,8.00,38.4062920,-110.7921524,1362.1999512,0.1,53.7,1.2,0.0,0.0,859,130,0,0,860.41,10.68,27.34,# data time:8100,pm2.5:6.445,pm10:5.704,O2:0.000,NO2:0.010,SO2:0.000,NH3:7.346
14:34:27,0,0,0,0,0,2700,2200,1,0,0,0,514,0,0,0,0,0.0000000,0.0000000,0.0000000,0.0000000,8.00,38.4062920,-110.7921524,1362.1999512,0.1,49.2,1.2,0.0,0.0,858,129,0,0,860.42,10.68,27.34,# data time:8110,pm2.5:6.445,pm10:5.704,O2:0.000,NO2:0.010,SO2:0.000,NH3:7.346
14:34:28,0,0,0,0,0,2700,2200,1,0,0,0,514,0,0,0,0,0.0000000,0.0000000,0.0000000,0.0000000,8.00,38.4062920,-110.7921524,1362.1999512,0.1,23.9,1.2,0.0,0.0,858,127,0,0,860.43,10.70,27.34,# data time:8110,pm2.5:6.445,pm10:5.704,O2:0.000,NO2:0.010,SO2:0.000,NH3:7.346
14:34:29,0,0,0,0,0,2700,2200,1,0,0,0,514,0,0,0,0,0.0000000,0.0000000,0.0000000,0.0000000,8.00,38.4062920,-110.7921524,1362.1999512,0.1,17.7,1.2,0.0,0.0,859,129,0,0,860.36,10.71,27.34,# data time:8110,pm2.5:6.445,pm10:5.704,O2:0.000,NO2:0.010,SO2:0.000,NH3:7.346
14:34:30,0,0,0,0,0,2700,2200,1,0,0,0,515,0,0,0,0,0.0000000,0.0000000,0.0000000,0.0000000,8.00,38.4062920,-110.7921524,1362.1999512,0.1,44.3,1.2,0.0,0.0,858,133,0,0,860.33,10.71,27.34,# data time:8110,pm2.5:6.445,pm10:5.704,O2:0.000,NO2:0.010,SO2:0.000,NH3:7.346
14:34:31,0,0,0,0,0,2700,2200,1,0,0,0,514,0,0,0,0,0.0000000,0.0000000,0.0000000,0.0000000,8.00,38.4062920,-110.7921524,1362.1999512,0.1,48.4,1.2,0.0,0.0,858,130,0,0,860.33,10.73,27.34,# data time:8110,pm2.5:6.445,pm10:5.704,O2:0.000,NO2:0.010,SO2:0.000,NH3:7.346
14:34:32,0,0,0,0,0,2700,2200,1,0,0,0,514,0,0,0,0,0.0000000,0.0000000,0.0000000,0.0000000,8.00,38.4062920,-110.7921524,1362.3000488,0.1,41.1,1.2,0.0,0.0,859,128,0,0,860.34,10.74,27.34,# data time:8110,pm2.5:6.445,pm10:5.704,O2:0.000,NO2:0.010,SO2:0.000,NH3:7.346
14:34:33,0,0,0,0,0,2700,2200,1,0,0,0,514,0,0,0,0,0.0000000,0.0000000,0.0000000,0.0000000,8.00,38.4062920,-110.7921524,1362.3000488,0.1,44.3,1.2,0.0,0.0,858,128,0,0,860.37,10.68,27.34,# data time:8110,pm2.5:6.445,pm10:5.704,O2:0.000,NO2:0.010,SO2:0.000,NH3:7.346
14:34:34,0,0,0,0,0,2700,2200,1,0,0,0,514,0,0,0,0,0.0000000,0.0000000,0.0000000,0.0000000,8.00,38.4062920,-110.7921524,1362.3000488,0.1,54.3,1.2,0.0,0.0,859,132,0,0,860.39,10.73,27.35,# data time:8110,pm2.5:6.445,pm10:5.704,O2:0.000,NO2:0.010,SO2:0.000,NH3:7.346
14:34:35,0,0,0,0,0,2700,2200,1,0,0,0,515,0,0,0,0,0.0000000,0.0000000,0.0000000,0.0000000,8.00,38.4062920,-110.7921524,1362.3000488,0.1,44.0,1.2,0.0,0.0,858,129,0,0,860.41,10.71,27.35,# data time:8110,pm2.5:6.445,pm10:5.704,O2:0.000,NO2:0.010,SO2:0.000,NH3:7.346
14:34:36,0,0,0,0,0,2700,2200,1,0,0,0,514,0,0,0,0,0.0000000,0.0000000,0.0000000,0.0000000,8.00,38.4062920,-110.7921524,1362.3000488,0.1,47.9,1.2,0.0,0.0,859,130,0,0,860.37,10.71,27.36,# data time:8110,pm2.5:6.445,pm10:5.704,O2:0.000,NO2:0.010,SO2:0.000,NH3:7.346
14:34:37,0,0,0,0,0,2700,2200,1,0,0,0,514,0,0,0,0,0.0000000,0.0000000,0.0000000,0.0000000,8.00,38.4062958,-110.7921524,1362.3000488,0.1,44.7,1.2,0.0,0.0,858,129,0,0,860.34,10.71,27.35,# data time:8120,pm2.5:6.445,pm10:5.704,O2:0.000,NO2:0.010,SO2:0.000,NH3:7.346
14:34:38,0,0,0,0,0,2700,2200,1,0,0,0,514,0,0,0,0,0.0000000,0.0000000,0.0000000,0.0000000,8.00,38.4062958,-110.7921524,1362.3000488,0.1,53.8,1.2,0.0,0.0,858,131,0,0,860.41,10.68,27.36,# data time:8120,pm2.5:6.445,pm10:5.704,O2:0.000,NO2:0.010,SO2:0.000,NH3:7.346
14:34:39,0,0,0,0,0,2700,2200,1,0,0,0,514,0,0,0,0,0.0000000,0.0000000,0.0000000,0.0000000,8.00,38.4062958,-110.7921524,1362.3000488,0.1,60.8,1.2,0.0,0.0,858,131,0,0,860.44,10.70,27.36,# data time:8120,pm2.5:6.445,pm10:5.704,O2:0.000,NO2:0.010,SO2:0.000,NH3:7.346
14:34:40,0,0,0,0,0,2700,2200,1,0,0,0,514,0,0,0,0,0.0000000,0.0000000,0.0000000,0.0000000,8.00,38.4062958,-110.7921524,1362.3000488,0.1,32.6,1.2,0.0,0.0,859,129,0,0,860.54,10.68,27.37,# data time:8120,pm2.5:6.445,pm10:5.704,O2:0.000,NO2:0.010,SO2:0.000,NH3:7.346
14:34:41,0,0,0,0,0,2700,2200,1,0,0,0,514,0,0,0,0,0.0000000,0.0000000,0.0000000,0.0000000,8.00,38.4062958,-110.7921524,1362.3000488,0.1,56.0,1.2,0.0,0.0,859,129,0,0,860.52,10.70,27.36,# data time:8120,pm2.5:6.445,pm10:5.704,O2:0.000,NO2:0.010,SO2:0.000,NH3:7.346
14:34:43,0,0,0,0,0,2700,2200,1,0,0,0,514,0,0,0,0,0.0000000,0.0000000,0.0000000,0.0000000,8.00,38.4062958,-110.7921524,1362.3000488,0.1,37.7,1.2,0.0,0.0,859,130,0,0,860.53,10.71,27.37,# data time:8120,pm2.5:6.445,pm10:5.704,O2:0.000,NO2:0.010,SO2:0.000,NH3:7.346
14:34:44,0,0,0,0,0,2700,2200,1,0,0,0,514,0,0,0,0,0.0000000,0.0000000,0.0000000,0.0000000,8.00,38.4062958,-110.7921524,1362.3000488,0.1,52.4,1.2,0.0,0.0,859,126,0,0,860.62,10.70,27.37,# data time:8120,pm2.5:6.445,pm10:5.704,O2:0.000,NO2:0.010,SO2:0.000,NH3:7.346
14:34:45,0,0,0,0,0,2700,2200,1,0,0,0,514,0,0,0,0,0.0000000,0.0000000,0.0000000,0.0000000,8.00,38.4062958,-110.7921524,1362.3000488,0.1,37.9,1.2,0.0,0.0,858,128,0,0,860.54,10.70,27.37,# data time:8120,pm2.5:6.445,pm10:5.704,O2:0.000,NO2:0.010,SO2:0.000,NH3:7.346
14:34:46,0,0,0,0,0,2700,2200,1,0,0,0,513,0,0,0,0,0.0000000,0.0000000,0.0000000,0.0000000,8.00,38.4062958,-110.7921524,1362.3000488,0.1,45.3,1.2,0.0,0.0,858,129,0,0,860.46,10.71,27.28,# data time:8120,pm2.5:6.445,pm10:5.704,O2:0.000,NO2:0.010,SO2:0.000,NH3:7.346
14:34:47,0,0,0,0,0,2700,2200,1,0,0,0,514,0,0,0,0,0.0000000,0.0000000,0.0000000,0.0000000,8.00,38.4062958,-110.7921524,1362.3000488,0.0,12.0,1.2,0.0,0.0,858,132,0,0,860.61,10.68,27.33,# data time:8130,pm2.5:6.445,pm10:5.704,O2:0.000,NO2:0.010,SO2:0.000,NH3:7.346
14:34:48,0,0,0,0,0,2700,2200,1,0,0,0,514,0,0,0,0,0.0000000,0.0000000,0.0000000,0.0000000,8.00,38.4062958,-110.7921524,1362.3000488,0.0,63.0,1.2,0.0,0.0,858,129,0,0,860.65,10.71,27.33,# data time:8130,pm2.5:6.445,pm10:5.704,O2:0.000,NO2:0.010,SO2:0.000,NH3:7.346
14:34:49,0,0,0,0,0,2700,2200,1,0,0,0,514,0,0,0,0,0.0000000,0.0000000,0.0000000,0.0000000,8.00,38.4062958,-110.7921524,1362.3000488,0.0,65.2,1.2,0.0,0.0,859,129,0,0,860.46,10.70,27.38,# data time:8130,pm2.5:6.445,pm10:5.704,O2:0.000,NO2:0.010,SO2:0.000,NH3:7.346
14:34:50,0,0,0,0,0,2700,2200,1,0,0,0,515,0,0,0,0,0.0000000,0.0000000,0.0000000,0.0000000,8.00,38.4062958,-110.7921524,1362.3000488,0.1,46.8,1.2,0.0,0.0,858,128,0,0,860.38,10.71,27.38,# data time:8130,pm2.5:6.445,pm10:5.704,O2:0.000,NO2:0.010,SO2:0.000,NH3:7.346
14:34:51,0,0,0,0,0,2700,2200,1,0,0,0,514,0,0,0,0,0.0000000,0.0000000,0.0000000,0.0000000,8.00,38.4062958,-110.7921524,1362.3000488,0.0,45.5,1.2,0.0,0.0,859,130,0,0,860.36,10.71,27.38,# data time:8130,pm2.5:6.445,pm10:5.704,O2:0.000,NO2:0.010,SO2:0.000,NH3:7.346
14:34:52,0,0,0,0,0,2700,2200,1,0,0,0,514,0,0,0,0,0.0000000,0.0000000,0.0000000,0.0000000,8.00,38.4062958,-110.7921524,1362.3000488,0.0,28.7,1.2,0.0,0.0,859,127,0,0,860.35,10.73,27.38,# data time:8130,pm2.5:6.445,pm10:5.704,O2:0.000,NO2:0.010,SO2:0.000,NH3:7.346
14:34:53,0,0,0,0,0,2700,2200,1,0,0,0,514,0,0,0,0,0.0000000,0.0000000,0.0000000,0.0000000,8.00,38.4062958,-110.7921524,1362.4000244,0.0,16.4,1.2,0.0,0.0,859,131,0,0,860.41,10.73,27.39,# data time:8130,pm2.5:6.445,pm10:5.704,O2:0.000,NO2:0.010,SO2:0.000,NH3:7.346
14:34:54,0,0,0,0,0,2700,2200,1,0,0,0,514,0,0,0,0,0.0000000,0.0000000,0.0000000,0.0000000,8.00,38.4062958,-110.7921524,1362.4000244,0.0,45.7,1.2,0.0,0.0,858,131,0,0,860.48,10.70,27.39,# data time:8130,pm2.5:6.445,pm10:5.704,O2:0.000,NO2:0.010,SO2:0.000,NH3:7.346
14:34:55,0,0,0,0,0,2700,2200,1,0,0,0,514,0,0,0,0,0.0000000,0.0000000,0.0000000,0.0000000,8.00,38.4062958,-110.7921524,1362.4000244,0.1,87.2,1.2,0.0,0.0,859,131,0,0,860.53,10.71,27.39,# data time:8130,pm2.5:6.445,pm10:5.704,O2:0.000,NO2:0.010,SO2:0.000,NH3:7.346
14:34:56,0,0,0,0,0,2700,2200,1,0,0,0,514,0,0,0,0,0.0000000,0.0000000,0.0000000,0.0000000,8.00,38.4062958,-110.7921524,1362.4000244,0.0,59.9,1.2,0.0,0.0,858,130,0,0,860.57,10.73,27.39,# data time:8130,pm2.5:6.445,pm10:5.704,O2:0.000,NO2:0.010,SO2:0.000,NH3:7.346
14:34:57,0,0,0,0,0,2700,2200,1,0,0,0,514,0,0,0,0,0.0000000,0.0000000,0.0000000,0.0000000,8.00,38.4062958,-110.7921524,1362.4000244,0.0,74.5,1.2,0.0,0.0,859,129,0,0,860.68,10.71,27.40,# data time:8140,pm2.5:6.445,pm10:5.704,O2:0.000,NO2:0.000,SO2:0.000,NH3:7.346
14:34:58,0,0,0,0,0,2700,2200,1,0,0,0,514,0,0,0,0,0.0000000,0.0000000,0.0000000,0.0000000,8.00,38.4062958,-110.7921524,1362.4000244,0.0,69.8,1.2,0.0,0.0,859,126,0,0,860.80,10.71,27.39,# data time:8140,pm2.5:6.445,pm10:5.704,O2:0.000,NO2:0.000,SO2:0.000,NH3:7.346
14:34:59,0,0,0,0,0,2700,2200,1,0,0,0,514,0,0,0,0,0.0000000,0.0000000,0.0000000,0.0000000,8.00,38.4062958,-110.7921524,1362.4000244,0.0,72.2,1.2,0.0,0.0,858,130,0,0,860.63,10.70,27.39,# data time:8140,pm2.5:6.445,pm10:5.704,O2:0.000,NO2:0.000,SO2:0.000,NH3:7.346
14:35:00,0,0,0,0,0,2700,2200,1,0,0,0,514,0,0,0,0,0.0000000,0.0000000,0.0000000,0.0000000,8.00,38.4062958,-110.7921524,1362.4000244,0.1,71.9,1.2,0.0,0.0,859,127,0,0,860.70,10.68,27.40,# data time:8140,pm2.5:6.445,pm10:5.704,O2:0.000,NO2:0.000,SO2:0.000,NH3:7.346
14:35:01,0,0,0,0,0,2700,2200,1,0,0,0,514,0,0,0,0,0.0000000,0.0000000,0.0000000,0.0000000,8.00,38.4062958,-110.7921524,1362.4000244,0.0,65.8,1.2,0.0,0.0,859,128,0,0,860.61,10.70,27.40,# data time:8140,pm2.5:6.445,pm10:5.704,O2:0.000,NO2:0.000,SO2:0.000,NH3:7.346
14:35:02,0,0,0,0,0,2700,2200,1,0,0,0,514,0,0,0,0,0.0000000,0.0000000,0.0000000,0.0000000,8.00,38.4062958,-110.7921524,1362.4000244,0.0,129.6,1.2,0.0,0.0,858,128,0,0,860.65,10.68,27.39,# data time:8140,pm2.5:6.445,pm10:5.704,O2:0.000,NO2:0.000,SO2:0.000,NH3:7.346
14:35:03,0,0,0,0,0,2700,2200,1,0,0,0,514,0,0,0,0,0.0000000,0.0000000,0.0000000,0.0000000,8.00,38.4062958,-110.7921524,1362.4000244,0.0,24.4,1.2,0.0,0.0,859,129,0,0,860.65,10.70,27.40,# data time:8140,pm2.5:6.445,pm10:5.704,O2:0.000,NO2:0.000,SO2:0.000,NH3:7.346
14:35:04,0,0,0,0,0,2700,2200,1,0,0,0,514,0,0,0,0,0.0000000,0.0000000,0.0000000,0.0000000,8.00,38.4062958,-110.7921524,1362.4000244,0.0,112.8,1.2,0.0,0.0,858,131,0,0,860.52,10.70,27.40,# data time:8140,pm2.5:6.445,pm10:5.704,O2:0.000,NO2:0.000,SO2:0.000,NH3:7.346
14:35:05,0,0,0,0,0,2700,2200,1,0,0,0,514,0,0,0,0,0.0000000,0.0000000,0.0000000,0.0000000,8.00,38.4062958,-110.7921524,1362.4000244,0.0,81.6,1.2,0.0,0.0,858,128,0,0,860.51,10.68,27.41,# data time:8140,pm2.5:6.445,pm10:5.704,O2:0.000,NO2:0.000,SO2:0.000,NH3:7.346
14:35:06,0,0,0,0,0,2700,2200,1,0,0,0,514,0,0,0,0,0.0000000,0.0000000,0.0000000,0.0000000,8.00,38.4062958,-110.7921524,1362.4000244,0.1,89.6,1.2,0.0,0.0,858,130,0,0,860.50,10.68,27.41,# data time:8150,pm2.5:6.445,pm10:5.704,O2:0.000,NO2:0.028,SO2:0.000,NH3:7.572
14:35:08,0,0,0,0,0,2700,2200,1,0,0,0,514,0,0,0,0,0.0000000,0.0000000,0.0000000,0.0000000,8.00,38.4062958,-110.7921524,1362.4000244,0.0,205.8,1.2,0.0,0.0,858,129,0,0,860.46,10.67,27.41,# data time:8150,pm2.5:6.445,pm10:5.704,O2:0.000,NO2:0.028,SO2:0.000,NH3:7.572
14:35:09,0,0,0,0,0,2700,2200,1,0,0,0,514,0,0,0,0,0.0000000,0.0000000,0.0000000,0.0000000,8.00,38.4062958,-110.7921524,1362.4000244,0.0,316.3,1.2,0.0,0.0,858,129,0,0,860.38,10.67,27.31,# data time:8150,pm2.5:6.445,pm10:5.704,O2:0.000,NO2:0.028,SO2:0.000,NH3:7.572
14:35:10,0,0,0,0,0,2700,2200,1,0,0,0,513,0,0,0,0,0.0000000,0.0000000,0.0000000,0.0000000,8.00,38.4062958,-110.7921524,1362.4000244,0.0,316.3,1.2,0.0,0.0,859,129,0,0,860.39,10.70,27.30,# data time:8150,pm2.5:6.445,pm10:5.704,O2:0.000,NO2:0.028,SO2:0.000,NH3:7.572
14:35:11,0,0,0,0,0,2700,2200,1,0,0,0,515,0,0,0,0,0.0000000,0.0000000,0.0000000,0.0000000,8.00,38.4062958,-110.7921524,1362.4000244,0.0,316.3,1.2,0.0,0.0,858,126,0,0,860.32,10.68,27.35,# data time:8150,pm2.5:6.445,pm10:5.704,O2:0.000,NO2:0.028,SO2:0.000,NH3:7.572
14:35:12,0,0,0,0,0,2700,2200,1,0,0,0,514,0,0,0,0,0.0000000,0.0000000,0.0000000,0.0000000,8.00,38.4062958,-110.7921524,1362.4000244,0.0,66.5,1.2,0.0,0.0,859,127,0,0,860.36,10.70,27.35,# data time:8150,pm2.5:6.445,pm10:5.704,O2:0.000,NO2:0.028,SO2:0.000,NH3:7.572
14:35:13,0,0,0,0,0,2700,2200,1,0,0,0,514,0,0,0,0,0.0000000,0.0000000,0.0000000,0.0000000,8.00,38.4062958,-110.7921524,1362.4000244,0.0,30.6,1.2,0.0,0.0,859,131,0,0,860.38,10.68,27.39,# data time:8150,pm2.5:6.445,pm10:5.704,O2:0.000,NO2:0.028,SO2:0.000,NH3:7.572
14:35:14,0,0,0,0,0,2700,2200,1,0,0,0,514,0,0,0,0,0.0000000,0.0000000,0.0000000,0.0000000,8.00,38.4062958,-110.7921524,1362.4000244,0.0,62.1,1.2,0.0,0.0,858,128,0,0,860.44,10.70,27.40,# data time:8150,pm2.5:6.445,pm10:5.704,O2:0.000,NO2:0.028,SO2:0.000,NH3:7.572
14:35:15,0,0,0,0,0,2700,2200,1,0,0,0,514,0,0,0,0,0.0000000,0.0000000,0.0000000,0.0000000,8.00,38.4062958,-110.7921524,1362.4000244,0.0,81.5,1.2,0.0,0.0,858,126,0,0,860.37,10.67,27.40,# data time:8150,pm2.5:6.445,pm10:5.704,O2:0.000,NO2:0.028,SO2:0.000,NH3:7.572
14:35:16,0,0,0,0,0,2700,2200,1,0,0,0,514,0,0,0,0,0.0000000,0.0000000,0.0000000,0.0000000,8.00,38.4062958,-110.7921524,1362.4000244,0.0,75.3,1.2,0.0,0.0,859,129,0,0,860.36,10.68,27.40,# data time:8150,pm2.5:6.445,pm10:5.704,O2:0.000,NO2:0.028,SO2:0.000,NH3:7.572
14:35:17,0,0,0,0,0,2700,2200,1,0,0,0,514,0,0,0,0,0.0000000,0.0000000,0.0000000,0.0000000,8.00,38.4062958,-110.7921524,1362.4000244,0.0,153.9,1.2,0.0,0.0,858,131,0,0,860.38,10.67,27.40,# data time:8160,pm2.5:6.445,pm10:5.704,O2:0.000,NO2:0.046,SO2:0.000,NH3:7.346
14:35:18,0,0,0,0,0,2700,2200,1,0,0,0,514,0,0,0,0,0.0000000,0.0000000,0.0000000,0.0000000,8.00,38.4062958,-110.7921524,1362.4000244,0.0,20.0,1.2,0.0,0.0,858,129,0,0,860.39,10.67,27.40,# data time:8160,pm2.5:6.445,pm10:5.704,O2:0.000,NO2:0.046,SO2:0.000,NH3:7.346
14:35:19,0,0,0,0,0,2700,2200,1,0,0,0,514,0,0,0,0,0.0000000,0.0000000,0.0000000,0.0000000,8.00,38.4062958,-110.7921524,1362.4000244,0.0,45.3,1.2,0.0,0.0,859,129,0,0,860.41,10.64,27.41,# data time:8160,pm2.5:6.445,pm10:5.704,O2:0.000,NO2:0.046,SO2:0.000,NH3:7.346
14:35:20,0,0,0,0,0,2700,2200,1,0,0,0,514,0,0,0,0,0.0000000,0.0000000,0.0000000,0.0000000,8.00,38.4062958,-110.7921524,1362.4000244,0.0,13.9,1.2,0.0,0.0,858,130,0,0,860.43,10.67,27.41,# data time:8160,pm2.5:6.445,pm10:5.704,O2:0.000,NO2:0.046,SO2:0.000,NH3:7.346
14:35:21,0,0,0,0,0,2700,2200,1,0,0,0,514,0,0,0,0,0.0000000,0.0000000,0.0000000,0.0000000,8.00,38.4062958,-110.7921524,1362.4000244,0.0,50.0,1.2,0.0,0.0,859,129,0,0,860.39,10.68,27.41,# data time:8160,pm2.5:6.445,pm10:5.704,O2:0.000,NO2:0.046,SO2:0.000,NH3:7.346
14:35:22,0,0,0,0,0,2700,2200,1,0,0,0,514,0,0,0,0,0.0000000,0.0000000,0.0000000,0.0000000,8.00,38.4062958,-110.7921524,1362.4000244,0.0,54.9,1.2,0.0,0.0,858,128,0,0,860.41,10.67,27.41,# data time:8160,pm2.5:6.445,pm10:5.704,O2:0.000,NO2:0.046,SO2:0.000,NH3:7.346
14:35:23,0,0,0,0,0,2700,2200,1,0,0,0,514,0,0,0,0,0.0000000,0.0000000,0.0000000,0.0000000,8.00,38.4062958,-110.7921524,1362.4000244,0.0,50.4,1.2,0.0,0.0,858,129,0,0,860.40,10.65,27.41,# data time:8160,pm2.5:6.445,pm10:5.704,O2:0.000,NO2:0.046,SO2:0.000,NH3:7.346
14:35:24,0,0,0,0,0,2700,2200,1,0,0,0,514,0,0,0,0,0.0000000,0.0000000,0.0000000,0.0000000,8.00,38.4062958,-110.7921524,1362.4000244,0.0,22.3,1.2,0.0,0.0,858,129,0,0,860.37,10.68,27.41,# data time:8160,pm2.5:6.445,pm10:5.704,O2:0.000,NO2:0.046,SO2:0.000,NH3:7.346
14:35:25,0,0,0,0,0,2700,2200,1,0,0,0,513,0,0,0,0,0.0000000,0.0000000,0.0000000,0.0000000,8.00,38.4062958,-110.7921524,1362.4000244,0.0,44.7,1.2,0.0,0.0,859,128,0,0,860.38,10.68,27.42,# data time:8160,pm2.5:6.445,pm10:5.704,O2:0.000,NO2:0.046,SO2:0.000,NH3:7.346
14:35:26,0,0,0,0,0,2700,2200,1,0,0,0,514,0,0,0,0,0.0000000,0.0000000,0.0000000,0.0000000,8.00,38.4062958,-110.7921524,1362.4000244,0.0,24.5,1.2,0.0,0.0,858,128,0,0,860.40,10.65,27.42,# data time:8170,pm2.5:6.445,pm10:5.704,O2:0.000,NO2:0.046,SO2:0.000,NH3:7.346
14:35:28,0,0,0,0,0,2700,2200,1,0,0,0,514,0,0,0,0,0.0000000,0.0000000,0.0000000,0.0000000,8.00,38.4062958,-110.7921524,1362.4000244,0.0,33.2,1.2,0.0,0.0,859,128,0,0,860.40,10.65,27.41,# data time:8170,pm2.5:6.445,pm10:5.704,O2:0.000,NO2:0.046,SO2:0.000,NH3:7.346
14:35:29,0,0,0,0,0,2700,2200,1,0,0,0,514,0,0,0,0,0.0000000,0.0000000,0.0000000,0.0000000,8.00,38.4062958,-110.7921524,1362.4000244,0.0,49.1,1.2,0.0,0.0,858,128,0,0,860.41,10.67,27.42,# data time:8170,pm2.5:6.445,pm10:5.704,O2:0.000,NO2:0.046,SO2:0.000,NH3:7.346
14:35:30,0,0,0,0,0,2700,2200,1,0,0,0,514,0,0,0,0,0.0000000,0.0000000,0.0000000,0.0000000,8.00,38.4062958,-110.7921524,1362.4000244,0.0,49.1,1.2,0.0,0.0,859,129,0,0,860.37,10.64,27.32,# data time:8170,pm2.5:6.445,pm10:5.704,O2:0.000,NO2:0.046,SO2:0.000,NH3:7.346
14:35:31,0,0,0,0,0,2700,2200,1,0,0,0,514,0,0,0,0,0.0000000,0.0000000,0.0000000,0.0000000,8.00,38.4062958,-110.7921524,1362.4000244,0.0,49.1,1.2,0.0,0.0,858,131,0,0,860.32,10.65,27.32,# data time:8170,pm2.5:6.445,pm10:5.704,O2:0.000,NO2:0.046,SO2:0.000,NH3:7.346
14:35:32,0,0,0,0,0,2700,2200,1,0,0,0,514,0,0,0,0,0.0000000,0.0000000,0.0000000,0.0000000,8.00,38.4062958,-110.7921524,1362.5000000,0.0,49.1,1.2,0.0,0.0,858,133,0,0,860.30,10.65,27.37,# data time:8170,pm2.5:6.445,pm10:5.704,O2:0.000,NO2:0.046,SO2:0.000,NH3:7.346
14:35:33,0,0,0,0,0,2700,2200,1,0,0,0,514,0,0,0,0,0.0000000,0.0000000,0.0000000,0.0000000,8.00,38.4062958,-110.7921524,1362.5000000,0.0,42.6,1.2,0.0,0.0,858,128,0,0,860.38,10.64,27.42,# data time:8170,pm2.5:6.445,pm10:5.704,O2:0.000,NO2:0.046,SO2:0.000,NH3:7.346
14:35:34,0,0,0,0,0,2700,2200,1,0,0,0,515,0,0,0,0,0.0000000,0.0000000,0.0000000,0.0000000,8.00,38.4062958,-110.7921524,1362.5000000,0.0,94.4,1.2,0.0,0.0,859,128,0,0,860.40,10.64,27.42,# data time:8170,pm2.5:6.445,pm10:5.704,O2:0.000,NO2:0.046,SO2:0.000,NH3:7.346
14:35:35,0,0,0,0,0,2700,2200,1,0,0,0,514,0,0,0,0,0.0000000,0.0000000,0.0000000,0.0000000,8.00,38.4062958,-110.7921524,1362.5000000,0.0,70.5,1.2,0.0,0.0,858,128,0,0,860.34,10.62,27.42,# data time:8170,pm2.5:6.445,pm10:5.704,O2:0.000,NO2:0.046,SO2:0.000,NH3:7.346
14:35:36,0,0,0,0,0,2700,2200,1,0,0,0,515,0,0,0,0,0.0000000,0.0000000,0.0000000,0.0000000,8.00,38.4062958,-110.7921524,1362.5000000,0.0,110.3,1.2,0.0,0.0,859,129,0,0,860.46,10.62,27.42,# data time:8170,pm2.5:6.445,pm10:5.704,O2:0.000,NO2:0.046,SO2:0.000,NH3:7.346
14:35:37,0,0,0,0,0,2700,2200,1,0,0,0,514,0,0,0,0,0.0000000,0.0000000,0.0000000,0.0000000,8.00,38.4062958,-110.7921524,1362.5000000,0.0,108.6,1.2,0.0,0.0,858,130,0,0,860.39,10.62,27.42,# data time:8180,pm2.5:6.445,pm10:5.704,O2:0.000,NO2:0.028,SO2:0.000,NH3:7.572
14:35:38,0,0,0,0,0,2700,2200,1,0,0,0,514,0,0,0,0,0.0000000,0.0000000,0.0000000,0.0000000,8.00,38.4062958,-110.7921524,1362.5000000,0.0,29.9,1.2,0.0,0.0,858,131,0,0,860.34,10.65,27.41,# data time:8180,pm2.5:6.445,pm10:5.704,O2:0.000,NO2:0.028,SO2:0.000,NH3:7.572
14:35:39,0,0,0,0,0,2700,2200,1,0,0,0,514,0,0,0,0,0.0000000,0.0000000,0.0000000,0.0000000,8.00,38.4062958,-110.7921524,1362.5000000,0.0,29.0,1.2,0.0,0.0,858,128,0,0,860.63,10.67,27.42,# data time:8180,pm2.5:6.445,pm10:5.704,O2:0.000,NO2:0.028,SO2:0.000,NH3:7.572
14:35:40,0,0,0,0,0,2700,2200,1,0,0,0,514,0,0,0,0,0.0000000,0.0000000,0.0000000,0.0000000,8.00,38.4062958,-110.7921524,1362.5000000,0.0,40.7,1.2,0.0,0.0,859,131,0,0,860.53,10.67,27.41,# data time:8180,pm2.5:6.445,pm10:5.704,O2:0.000,NO2:0.028,SO2:0.000,NH3:7.572
14:35:41,0,0,0,0,0,2700,2200,1,0,0,0,514,0,0,0,0,0.0000000,0.0000000,0.0000000,0.0000000,8.00,38.4062958,-110.7921524,1362.5000000,0.0,61.4,1.2,0.0,0.0,858,128,0,0,860.70,10.65,27.42,# data time:8180,pm2.5:6.445,pm10:5.704,O2:0.000,NO2:0.028,SO2:0.000,NH3:7.572
14:35:42,0,0,0,0,0,2700,2200,1,0,0,0,514,0,0,0,0,0.0000000,0.0000000,0.0000000,0.0000000,8.00,38.4062958,-110.7921524,1362.5000000,0.0,71.2,1.2,0.0,0.0,858,129,0,0,860.54,10.65,27.42,# data time:8180,pm2.5:6.445,pm10:5.704,O2:0.000,NO2:0.028,SO2:0.000,NH3:7.572
14:35:43,0,0,0,0,0,2700,2200,1,0,0,0,514,0,0,0,0,0.0000000,0.0000000,0.0000000,0.0000000,8.00,38.4062958,-110.7921524,1362.5000000,0.0,72.4,1.2,0.0,0.0,858,132,0,0,860.63,10.65,27.42,# data time:8180,pm2.5:6.445,pm10:5.704,O2:0.000,NO2:0.028,SO2:0.000,NH3:7.572
14:35:44,0,0,0,0,0,2700,2200,1,0,0,0,514,0,0,0,0,0.0000000,0.0000000,0.0000000,0.0000000,8.00,38.4062958,-110.7921524,1362.5000000,0.0,58.0,1.2,0.0,0.0,858,128,0,0,860.68,10.64,27.42,# data time:8180,pm2.5:6.445,pm10:5.704,O2:0.000,NO2:0.028,SO2:0.000,NH3:7.572
14:35:45,0,0,0,0,0,2700,2200,1,0,0,0,515,0,0,0,0,0.0000000,0.0000000,0.0000000,0.0000000,8.00,38.4062958,-110.7921371,1362.5000000,0.0,69.2,1.2,0.0,0.0,858,131,0,0,860.73,10.65,27.42,# data time:8180,pm2.5:6.445,pm10:5.704,O2:0.000,NO2:0.028,SO2:0.000,NH3:7.572
14:35:46,0,0,0,0,0,2700,2200,1,0,0,0,514,0,0,0,0,0.0000000,0.0000000,0.0000000,0.0000000,8.00,38.4062958,-110.7921371,1362.5000000,0.0,53.3,1.2,0.0,0.0,859,126,0,0,860.66,10.67,27.42,# data time:8180,pm2.5:6.445,pm10:5.704,O2:0.000,NO2:0.028,SO2:0.000,NH3:7.572
14:35:47,0,0,0,0,0,2700,2200,1,0,0,0,515,0,0,0,0,0.0000000,0.0000000,0.0000000,0.0000000,8.00,38.4062958,-110.7921371,1362.5000000,0.0,88.4,1.2,0.0,0.0,858,128,0,0,860.73,10.67,27.42,# data time:8190,pm2.5:6.445,pm10:5.704,O2:0.000,NO2:0.028,SO2:0.000,NH3:7.572
14:35:48,0,0,0,0,0,2700,2200,1,0,0,0,514,0,0,0,0,0.0000000,0.0000000,0.0000000,0.0000000,8.00,38.4062958,-110.7921371,1362.5000000,0.0,104.9,1.2,0.0,0.0,859,128,0,0,860.70,10.65,27.41,# data time:8190,pm2.5:6.445,pm10:5.704,O2:0.000,NO2:0.028,SO2:0.000,NH3:7.572
14:35:49,0,0,0,0,0,2700,2200,1,0,0,0,514,0,0,0,0,0.0000000,0.0000000,0.0000000,0.0000000,8.00,38.4062958,-110.7921371,1362.5000000,0.0,141.3,1.2,0.0,0.0,858,128,0,0,860.67,10.64,27.42,# data time:8190,pm2.5:6.445,pm10:5.704,O2:0.000,NO2:0.028,SO2:0.000,NH3:7.572
14:35:50,0,0,0,0,0,2700,2200,1,0,0,0,514,0,0,0,0,0.0000000,0.0000000,0.0000000,0.0000000,8.00,38.4062958,-110.7921371,1362.4000244,0.0,132.6,1.2,0.0,0.0,858,129,0,0,860.52,10.64,27.42,# data time:8190,pm2.5:6.445,pm10:5.704,O2:0.000,NO2:0.028,SO2:0.000,NH3:7.572
14:35:51,0,0,0,0,0,2700,2200,1,0,0,0,515,0,0,0,0,0.0000000,0.0000000,0.0000000,0.0000000,8.00,38.4062958,-110.7921371,1362.5000000,0.0,127.6,1.2,0.0,0.0,858,130,0,0,860.62,10.64,27.42,# data time:8190,pm2.5:6.445,pm10:5.704,O2:0.000,NO2:0.028,SO2:0.000,NH3:7.572
14:35:53,0,0,0,0,0,2700,2200,1,0,0,0,514,0,0,0,0,0.0000000,0.0000000,0.0000000,0.0000000,8.00,38.4062958,-110.7921371,1362.4000244,0.0,173.3,1.2,0.0,0.0,858,129,0,0,860.66,10.62,27.42,# data time:8190,pm2.5:6.445,pm10:5.704,O2:0.000,NO2:0.028,SO2:0.000,NH3:7.572
14:35:54,0,0,0,0,0,2700,2200,1,0,0,0,514,0,0,0,0,0.0000000,0.0000000,0.0000000,0.0000000,8.00,38.4062958,-110.7921371,1362.4000244,0.0,79.6,1.2,0.0,0.0,858,129,0,0,860.36,10.61,27.42,# data time:8190,pm2.5:6.445,pm10:5.704,O2:0.000,NO2:0.028,SO2:0.000,NH3:7.572
14:35:55,0,0,0,0,0,2700,2200,1,0,0,0,514,0,0,0,0,0.0000000,0.0000000,0.0000000,0.0000000,8.00,38.4062958,-110.7921371,1362.4000244,0.0,95.5,1.2,0.0,0.0,858,125,0,0,860.41,10.65,27.37,# data time:8190,pm2.5:6.445,pm10:5.704,O2:0.000,NO2:0.028,SO2:0.000,NH3:7.572
14:35:56,0,0,0,0,0,2700,2200,1,0,0,0,515,0,0,0,0,0.0000000,0.0000000,0.0000000,0.0000000,8.00,38.4062958,-110.7921371,1362.4000244,0.0,95.5,1.2,0.0,0.0,858,129,0,0,860.74,10.62,27.32,# data time:8190,pm2.5:6.445,pm10:5.704,O2:0.000,NO2:0.028,SO2:0.000,NH3:7.572
14:35:57,0,0,0,0,0,2700,2200,1,0,0,0,514,0,0,0,0,0.0000000,0.0000000,0.0000000,0.0000000,8.00,38.4062958,-110.7921371,1362.4000244,0.0,95.5,1.2,0.0,0.0,858,129,0,0,860.62,10.64,27.32,# data time:8200,pm2.5:6.445,pm10:5.704,O2:0.000,NO2:0.063,SO2:0.000,NH3:7.346
14:35:58,0,0,0,0,0,2700,2200,1,0,0,0,514,0,0,0,0,0.0000000,0.0000000,0.0000000,0.0000000,8.00,38.4062958,-110.7921371,1362.4000244,0.0,148.7,1.2,0.0,0.0,858,130,0,0,860.61,10.62,27.38,# data time:8200,pm2.5:6.445,pm10:5.704,O2:0.000,NO2:0.063,SO2:0.000,NH3:7.346
14:35:59,0,0,0,0,0,2700,2200,1,0,0,0,515,0,0,0,0,0.0000000,0.0000000,0.0000000,0.0000000,8.00,38.4062958,-110.7921371,1362.4000244,0.0,195.4,1.2,0.0,0.0,858,128,0,0,860.60,10.62,27.42,# data time:8200,pm2.5:6.445,pm10:5.704,O2:0.000,NO2:0.063,SO2:0.000,NH3:7.346
14:36:00,0,0,0,0,0,2700,2200,1,0,0,0,514,0,0,0,0,0.0000000,0.0000000,0.0000000,0.0000000,8.00,38.4062958,-110.7921371,1362.4000244,0.0,184.8,1.2,0.0,0.0,858,130,0,0,860.54,10.64,27.42,# data time:8200,pm2.5:6.445,pm10:5.704,O2:0.000,NO2:0.063,SO2:0.000,NH3:7.346
14:36:01,0,0,0,0,0,2700,2200,1,0,0,0,514,0,0,0,0,0.0000000,0.0000000,0.0000000,0.0000000,8.00,38.4062958,-110.7921371,1362.4000244,0.0,142.4,1.2,0.0,0.0,858,129,0,0,860.63,10.61,27.42,# data time:8200,pm2.5:6.445,pm10:5.704,O2:0.000,NO2:0.063,SO2:0.000,NH3:7.346
14:36:02,0,0,0,0,0,2700,2200,1,0,0,0,514,0,0,0,0,0.0000000,0.0000000,0.0000000,0.0000000,8.00,38.4062958,-110.7921371,1362.4000244,0.0,147.7,1.2,0.0,0.0,858,131,0,0,860.54,10.61,27.42,# data time:8200,pm2.5:6.445,pm10:5.704,O2:0.000,NO2:0.063,SO2:0.000,NH3:7.346
14:36:03,0,0,0,0,0,2700,2200,1,0,0,0,515,0,0,0,0,0.0000000,0.0000000,0.0000000,0.0000000,8.00,38.4062958,-110.7921371,1362.4000244,0.0,171.9,1.2,0.0,0.0,858,126,0,0,860.57,10.61,27.42,# data time:8200,pm2.5:6.445,pm10:5.704,O2:0.000,NO2:0.063,SO2:0.000,NH3:7.346
14:36:04,0,0,0,0,0,2700,2200,1,0,0,0,514,0,0,0,0,0.0000000,0.0000000,0.0000000,0.0000000,8.00,38.4062958,-110.7921371,1362.4000244,0.0,177.7,1.2,0.0,0.0,858,128,0,0,860.51,10.62,27.42,# data time:8200,pm2.5:6.445,pm10:5.704,O2:0.000,NO2:0.063,SO2:0.000,NH3:7.346
14:36:05,0,0,0,0,0,2700,2200,1,0,0,0,515,0,0,0,0,0.0000000,0.0000000,0.0000000,0.0000000,8.00,38.4062958,-110.7921371,1362.4000244,0.1,146.7,1.2,0.0,0.0,859,130,0,0,860.50,10.61,27.41,# data time:8200,pm2.5:6.445,pm10:5.704,O2:0.000,NO2:0.063,SO2:0.000,NH3:7.346
14:36:06,0,0,0,0,0,2700,2200,1,0,0,0,514,0,0,0,0,0.0000000,0.0000000,0.0000000,0.0000000,8.00,38.4062958,-110.7921371,1362.4000244,0.1,131.2,1.2,0.0,0.0,858,129,0,0,860.57,10.61,27.42,# data time:8200,pm2.5:6.445,pm10:5.704,O2:0.000,NO2:0.063,SO2:0.000,NH3:7.346
14:36:07,0,0,0,0,0,2700,2200,1,0,0,0,514,0,0,0,0,0.0000000,0.0000000,0.0000000,0.0000000,8.00,38.4062958,-110.7921371,1362.4000244,0.0,165.6,1.2,0.0,0.0,858,126,0,0,860.51,10.59,27.42,# data time:8210,pm2.5:6.445,pm10:5.704,O2:0.000,NO2:0.000,SO2:0.000,NH3:7.346
14:36:08,0,0,0,0,0,2700,2200,1,0,0,0,514,0,0,0,0,0.0000000,0.0000000,0.0000000,0.0000000,8.00,38.4062958,-110.7921371,1362.4000244,0.1,121.4,1.2,0.0,0.0,859,128,0,0,860.43,10.56,27.42,# data time:8210,pm2.5:6.445,pm10:5.704,O2:0.000,NO2:0.000,SO2:0.000,NH3:7.346
14:36:09,0,0,0,0,0,2700,2200,1,0,0,0,515,0,0,0,0,0.0000000,0.0000000,0.0000000,0.0000000,8.00,38.4062958,-110.7921371,1362.4000244,0.0,75.5,1.2,0.0,0.0,858,128,0,0,860.53,10.59,27.42,# data time:8210,pm2.5:6.445,pm10:5.704,O2:0.000,NO2:0.000,SO2:0.000,NH3:7.346
14:36:10,0,0,0,0,0,2700,2200,1,0,0,0,515,0,0,0,0,0.0000000,0.0000000,0.0000000,0.0000000,8.00,38.4062958,-110.7921371,1362.4000244,0.0,116.2,1.2,0.0,0.0,858,129,0,0,860.62,10.57,27.42,# data time:8210,pm2.5:6.445,pm10:5.704,O2:0.000,NO2:0.000,SO2:0.000,NH3:7.346
14:36:11,0,0,0,0,0,2700,2200,1,0,0,0,514,0,0,0,0,0.0000000,0.0000000,0.0000000,0.0000000,8.00,38.4062958,-110.7921371,1362.4000244,0.1,137.8,1.2,0.0,0.0,858,130,0,0,860.59,10.59,27.43,# data time:8210,pm2.5:6.445,pm10:5.704,O2:0.000,NO2:0.000,SO2:0.000,NH3:7.346
14:36:12,0,0,0,0,0,2700,2200,1,0,0,0,514,0,0,0,0,0.0000000,0.0000000,0.0000000,0.0000000,8.00,38.4062958,-110.7921371,1362.4000244,0.0,131.5,1.2,0.0,0.0,858,129,0,0,860.52,10.56,27.43,# data time:8210,pm2.5:6.445,pm10:5.704,O2:0.000,NO2:0.000,SO2:0.000,NH3:7.346
14:36:13,0,0,0,0,0,2700,2200,1,0,0,0,515,0,0,0,0,0.0000000,0.0000000,0.0000000,0.0000000,8.00,38.4062958,-110.7921371,1362.4000244,0.0,67.3,1.2,0.0,0.0,858,132,0,0,860.50,10.56,27.42,# data time:8210,pm2.5:6.445,pm10:5.704,O2:0.000,NO2:0.000,SO2:0.000,NH3:7.346
14:36:14,0,0,0,0,0,2700,2200,1,0,0,0,514,0,0,0,0,0.0000000,0.0000000,0.0000000,0.0000000,8.00,38.4062958,-110.7921371,1362.4000244,0.0,129.9,1.2,0.0,0.0,858,131,0,0,860.49,10.54,27.43,# data time:8210,pm2.5:6.445,pm10:5.704,O2:0.000,NO2:0.000,SO2:0.000,NH3:7.346
14:36:15,0,0,0,0,0,2700,2200,1,0,0,0,514,0,0,0,0,0.0000000,0.0000000,0.0000000,0.0000000,8.00,38.4062958,-110.7921371,1362.4000244,0.0,129.5,1.2,0.0,0.0,858,131,0,0,860.57,10.53,27.43,# data time:8210,pm2.5:6.445,pm10:5.704,O2:0.000,NO2:0.000,SO2:0.000,NH3:7.346
14:36:17,0,0,0,0,0,2700,2200,1,0,0,0,515,0,0,0,0,0.0000000,0.0000000,0.0000000,0.0000000,8.00,38.4062958,-110.7921371,1362.4000244,0.0,73.6,1.2,0.0,0.0,859,126,0,0,860.49,10.57,27.43,# data time:8220,pm2.5:6.445,pm10:5.704,O2:0.000,NO2:0.046,SO2:0.000,NH3:7.346
14:36:18,0,0,0,0,0,2700,2200,1,0,0,0,513,0,0,0,0,0.0000000,0.0000000,0.0000000,0.0000000,8.00,38.4062958,-110.7921371,1362.4000244,0.0,214.6,1.2,0.0,0.0,858,128,0,0,860.45,10.56,27.34,# data time:8220,pm2.5:6.445,pm10:5.704,O2:0.000,NO2:0.046,SO2:0.000,NH3:7.346
14:36:19,0,0,0,0,0,2700,2200,1,0,0,0,514,0,0,0,0,0.0000000,0.0000000,0.0000000,0.0000000,8.00,38.4062958,-110.7921371,1362.4000244,0.0,214.6,1.2,0.0,0.0,858,131,0,0,860.46,10.59,27.38,# data time:8220,pm2.5:6.445,pm10:5.704,O2:0.000,NO2:0.046,SO2:0.000,NH3:7.346
14:36:20,0,0,0,0,0,2700,2200,1,0,0,0,514,0,0,0,0,0.0000000,0.0000000,0.0000000,0.0000000,8.00,38.4062958,-110.7921371,1362.4000244,0.0,214.6,1.2,0.0,0.0,858,126,0,0,860.44,10.56,27.33,# data time:8220,pm2.5:6.445,pm10:5.704,O2:0.000,NO2:0.046,SO2:0.000,NH3:7.346
14:36:21,0,0,0,0,0,2700,2200,1,0,0,0,514,0,0,0,0,0.0000000,0.0000000,0.0000000,0.0000000,8.00,38.4062958,-110.7921371,1362.4000244,0.0,207.6,1.2,0.0,0.0,858,128,0,0,860.42,10.56,27.39,# data time:8220,pm2.5:6.445,pm10:5.704,O2:0.000,NO2:0.046,SO2:0.000,NH3:7.346
14:36:22,0,0,0,0,0,2700,2200,1,0,0,0,514,0,0,0,0,0.0000000,0.0000000,0.0000000,0.0000000,8.00,38.4062958,-110.7921371,1362.4000244,0.0,133.9,1.2,0.0,0.0,858,130,0,0,860.51,10.59,27.43,# data time:8220,pm2.5:6.445,pm10:5.704,O2:0.000,NO2:0.046,SO2:0.000,NH3:7.346
14:36:23,0,0,0,0,0,2700,2200,1,0,0,0,514,0,0,0,0,0.0000000,0.0000000,0.0000000,0.0000000,8.00,38.4062958,-110.7921371,1362.4000244,0.1,154.0,1.2,0.0,0.0,858,128,0,0,860.55,10.59,27.43,# data time:8220,pm2.5:6.445,pm10:5.704,O2:0.000,NO2:0.046,SO2:0.000,NH3:7.346
14:36:24,0,0,0,0,0,2700,2200,1,0,0,0,514,0,0,0,0,0.0000000,0.0000000,0.0000000,0.0000000,8.00,38.4062958,-110.7921371,1362.4000244,0.1,143.5,1.2,0.0,0.0,858,124,0,0,860.49,10.56,27.44,# data time:8220,pm2.5:6.445,pm10:5.704,O2:0.000,NO2:0.046,SO2:0.000,NH3:7.346
14:36:25,0,0,0,0,0,2700,2200,1,0,0,0,514,0,0,0,0,0.0000000,0.0000000,0.0000000,0.0000000,8.00,38.4062958,-110.7921371,1362.4000244,0.1,136.7,1.2,0.0,0.0,858,132,0,0,860.41,10.59,27.44,# data time:8220,pm2.5:6.445,pm10:5.704,O2:0.000,NO2:0.046,SO2:0.000,NH3:7.346
14:36:26,0,0,0,0,0,2700,2200,1,0,0,0,513,0,0,0,0,0.0000000,0.0000000,0.0000000,0.0000000,8.00,38.4062958,-110.7921371,1362.4000244,0.0,178.7,1.2,0.0,0.0,858,126,0,0,860.37,10.57,27.44,# data time:8220,pm2.5:6.445,pm10:5.704,O2:0.000,NO2:0.046,SO2:0.000,NH3:7.346
14:36:27,0,0,0,0,0,2700,2200,1,0,0,0,513,0,0,0,0,0.0000000,0.0000000,0.0000000,0.0000000,8.00,38.4062958,-110.7921371,1362.4000244,0.1,173.4,1.2,0.0,0.0,858,130,0,0,860.34,10.56,27.44,# data time:8230,pm2.5:6.445,pm10:5.704,O2:0.000,NO2:0.028,SO2:0.000,NH3:7.346
14:36:28,0,0,0,0,0,2700,2200,1,0,0,0,514,0,0,0,0,0.0000000,0.0000000,0.0000000,0.0000000,8.00,38.4062958,-110.7921371,1362.4000244,0.0,162.7,1.2,0.0,0.0,858,129,0,0,860.43,10.54,27.44,# data time:8230,pm2.5:6.445,pm10:5.704,O2:0.000,NO2:0.028,SO2:0.000,NH3:7.346
14:36:29,0,0,0,0,0,2700,2200,1,0,0,0,514,0,0,0,0,0.0000000,0.0000000,0.0000000,0.0000000,8.00,38.4062958,-110.7921371,1362.4000244,0.0,134.4,1.2,0.0,0.0,858,130,0,0,860.43,10.54,27.44,# data time:8230,pm2.5:6.445,pm10:5.704,O2:0.000,NO2:0.028,SO2:0.000,NH3:7.346
14:36:30,0,0,0,0,0,2700,2200,1,0,0,0,515,0,0,0,0,0.0000000,0.0000000,0.0000000,0.0000000,8.00,38.4062958,-110.7921371,1362.4000244,0.0,134.9,1.2,0.0,0.0,858,129,0,0,860.39,10.54,27.44,# data time:8230,pm2.5:6.445,pm10:5.704,O2:0.000,NO2:0.028,SO2:0.000,NH3:7.346
14:36:31,0,0,0,0,0,2700,2200,1,0,0,0,514,0,0,0,0,0.0000000,0.0000000,0.0000000,0.0000000,8.00,38.4062958,-110.7921371,1362.4000244,0.0,137.1,1.2,0.0,0.0,858,128,0,0,860.44,10.54,27.44,# data time:8230,pm2.5:6.445,pm10:5.704,O2:0.000,NO2:0.028,SO2:0.000,NH3:7.346
14:36:32,0,0,0,0,0,2700,2200,1,0,0,0,514,0,0,0,0,0.0000000,0.0000000,0.0000000,0.0000000,8.00,38.4062958,-110.7921371,1362.4000244,0.0,130.5,1.2,0.0,0.0,859,127,0,0,860.31,10.57,27.44,# data time:8230,pm2.5:6.445,pm10:5.704,O2:0.000,NO2:0.028,SO2:0.000,NH3:7.346
14:36:33,0,0,0,0,0,2700,2200,1,0,0,0,514,0,0,0,0,0.0000000,0.0000000,0.0000000,0.0000000,8.00,38.4062958,-110.7921371,1362.4000244,0.0,152.2,1.2,0.0,0.0,858,128,0,0,860.32,10.54,27.44,# data time:8230,pm2.5:6.445,pm10:5.704,O2:0.000,NO2:0.028,SO2:0.000,NH3:7.346
14:36:34,0,0,0,0,0,2700,2200,1,0,0,0,513,0,0,0,0,0.0000000,0.0000000,0.0000000,0.0000000,8.00,38.4062958,-110.7921371,1362.4000244,0.0,126.1,1.2,0.0,0.0,858,128,0,0,860.54,10.56,27.44,# data time:8230,pm2.5:6.445,pm10:5.704,O2:0.000,NO2:0.028,SO2:0.000,NH3:7.346
14:36:35,0,0,0,0,0,2700,2200,1,0,0,0,514,0,0,0,0,0.0000000,0.0000000,0.0000000,0.0000000,8.00,38.4062958,-110.7921371,1362.4000244,0.0,139.9,1.2,0.0,0.0,858,129,0,0,860.39,10.56,27.44,# data time:8230,pm2.5:6.445,pm10:5.704,O2:0.000,NO2:0.028,SO2:0.000,NH3:7.346
14:36:36,0,0,0,0,0,2700,2200,1,0,0,0,515,0,0,0,0,0.0000000,0.0000000,0.0000000,0.0000000,8.00,38.4062958,-110.7921371,1362.4000244,0.0,137.1,1.2,0.0,0.0,858,132,0,0,860.33,10.53,27.44,# data time:8240,pm2.5:6.445,pm10:5.704,O2:0.000,NO2:0.010,SO2:0.000,NH3:7.346
14:36:37,0,0,0,0,0,2700,2200,1,0,0,0,514,0,0,0,0,0.0000000,0.0000000,0.0000000,0.0000000,8.00,38.4062958,-110.7921371,1362.4000244,0.1,149.9,1.2,0.0,0.0,858,129,0,0,860.40,10.51,27.45,# data time:8240,pm2.5:6.445,pm10:5.704,O2:0.000,NO2:0.010,SO2:0.000,NH3:7.346
14:36:39,0,0,0,0,0,2700,2200,1,0,0,0,514,0,0,0,0,0.0000000,0.0000000,0.0000000,0.0000000,8.00,38.4062958,-110.7921371,1362.4000244,0.0,139.1,1.2,0.0,0.0,858,128,0,0,860.47,10.51,27.45,# data time:8240,pm2.5:6.445,pm10:5.704,O2:0.000,NO2:0.010,SO2:0.000,NH3:7.346
14:36:40,0,0,0,0,0,2700,2200,1,0,0,0,514,0,0,0,0,0.0000000,0.0000000,0.0000000,0.0000000,8.00,38.4062958,-110.7921371,1362.5000000,0.1,186.3,1.2,0.0,0.0,858,127,0,0,860.48,10.53,27.45,# data time:8240,pm2.5:6.445,pm10:5.704,O2:0.000,NO2:0.010,SO2:0.000,NH3:7.346
14:36:41,0,0,0,0,0,2700,2200,1,0,0,0,515,0,0,0,0,0.0000000,0.0000000,0.0000000,0.0000000,8.00,38.4062958,-110.7921371,1362.5000000,0.1,144.9,1.2,0.0,0.0,858,128,0,0,860.45,10.53,27.39,# data time:8240,pm2.5:6.445,pm10:5.704,O2:0.000,NO2:0.010,SO2:0.000,NH3:7.346
14:36:42,0,0,0,0,0,2700,2200,1,0,0,0,514,0,0,0,0,0.0000000,0.0000000,0.0000000,0.0000000,8.00,38.4062958,-110.7921371,1362.5000000,0.0,151.6,1.2,0.0,0.0,858,127,0,0,860.51,10.53,27.36,# data time:8240,pm2.5:6.445,pm10:5.704,O2:0.000,NO2:0.010,SO2:0.000,NH3:7.346
14:36:43,0,0,0,0,0,2700,2200,1,0,0,0,514,0,0,0,0,0.0000000,0.0000000,0.0000000,0.0000000,8.00,38.4062958,-110.7921371,1362.5000000,0.0,151.6,1.2,0.0,0.0,859,126,0,0,860.60,10.54,27.34,# data time:8240,pm2.5:6.445,pm10:5.704,O2:0.000,NO2:0.010,SO2:0.000,NH3:7.346
14:36:44,0,0,0,0,0,2700,2200,1,0,0,0,515,0,0,0,0,0.0000000,0.0000000,0.0000000,0.0000000,8.00,38.4062958,-110.7921371,1362.5000000,0.1,172.5,1.2,0.0,0.0,858,129,0,0,860.60,10.53,27.41,# data time:8240,pm2.5:6.445,pm10:5.704,O2:0.000,NO2:0.010,SO2:0.000,NH3:7.346
14:36:45,0,0,0,0,0,2700,2200,1,0,0,0,514,0,0,0,0,0.0000000,0.0000000,0.0000000,0.0000000,8.00,38.4062958,-110.7921371,1362.5000000,0.0,132.1,1.2,0.0,0.0,858,129,0,0,860.61,10.57,27.44,# data time:8240,pm2.5:6.445,pm10:5.704,O2:0.000,NO2:0.010,SO2:0.000,NH3:7.346
14:36:46,0,0,0,0,0,2700,2200,1,0,0,0,514,0,0,0,0,0.0000000,0.0000000,0.0000000,0.0000000,8.00,38.4062920,-110.7921371,1362.5000000,0.1,177.6,1.2,0.0,0.0,859,127,0,0,860.61,10.53,27.43,# data time:8240,pm2.5:6.445,pm10:5.704,O2:0.000,NO2:0.010,SO2:0.000,NH3:7.346
14:36:47,0,0,0,0,0,2700,2200,1,0,0,0,515,0,0,0,0,0.0000000,0.0000000,0.0000000,0.0000000,8.00,38.4062920,-110.7921371,1362.5000000,0.1,207.6,1.2,0.0,0.0,858,130,0,0,860.53,10.56,27.42,# data time:8250,pm2.5:6.445,pm10:5.704,O2:0.000,NO2:0.010,SO2:0.000,NH3:7.346
14:36:48,0,0,0,0,0,2700,2200,1,0,0,0,514,0,0,0,0,0.0000000,0.0000000,0.0000000,0.0000000,8.00,38.4062920,-110.7921371,1362.5000000,0.0,171.2,1.2,0.0,0.0,858,127,0,0,860.45,10.54,27.42,# data time:8250,pm2.5:6.445,pm10:5.704,O2:0.000,NO2:0.010,SO2:0.000,NH3:7.346
14:36:49,0,0,0,0,0,2700,2200,1,0,0,0,515,0,0,0,0,0.0000000,0.0000000,0.0000000,0.0000000,8.00,38.4062920,-110.7921371,1362.5000000,0.1,191.8,1.2,0.0,0.0,858,129,0,0,860.44,10.54,27.42,# data time:8250,pm2.5:6.445,pm10:5.704,O2:0.000,NO2:0.010,SO2:0.000,NH3:7.346
14:36:50,0,0,0,0,0,2700,2200,1,0,0,0,514,0,0,0,0,0.0000000,0.0000000,0.0000000,0.0000000,8.00,38.4062920,-110.7921371,1362.5000000,0.0,163.9,1.2,0.0,0.0,858,131,0,0,860.47,10.56,27.42,# data time:8250,pm2.5:6.445,pm10:5.704,O2:0.000,NO2:0.010,SO2:0.000,NH3:7.346
14:36:51,0,0,0,0,0,2700,2200,1,0,0,0,514,0,0,0,0,0.0000000,0.0000000,0.0000000,0.0000000,8.00,38.4062920,-110.7921371,1362.5000000,0.1,186.0,1.2,0.0,0.0,858,126,0,0,860.51,10.56,27.43,# data time:8250,pm2.5:6.445,pm10:5.704,O2:0.000,NO2:0.010,SO2:0.000,NH3:7.346
14:36:52,0,0,0,0,0,2700,2200,1,0,0,0,514,0,0,0,0,0.0000000,0.0000000,0.0000000,0.0000000,8.00,38.4062920,-110.7921371,1362.5000000,0.1,169.2,1.2,0.0,0.0,858,134,0,0,860.47,10.54,27.42,# data time:8250,pm2.5:6.445,pm10:5.704,O2:0.000,NO2:0.010,SO2:0.000,NH3:7.346
14:36:53,0,0,0,0,0,2700,2200,1,0,0,0,514,0,0,0,0,0.0000000,0.0000000,0.0000000,0.0000000,8.00,38.4062920,-110.7921371,1362.5000000,0.1,183.1,1.2,0.0,0.0,858,131,0,0,860.53,10.56,27.43,# data time:8250,pm2.5:6.445,pm10:5.704,O2:0.000,NO2:0.010,SO2:0.000,NH3:7.346
14:36:54,0,0,0,0,0,2700,2200,1,0,0,0,514,0,0,0,0,0.0000000,0.0000000,0.0000000,0.0000000,8.00,38.4062920,-110.7921371,1362.5000000,0.0,172.0,1.2,0.0,0.0,858,127,0,0,860.59,10.54,27.42,# data time:8250,pm2.5:6.445,pm10:5.704,O2:0.000,NO2:0.010,SO2:0.000,NH3:7.346
14:36:55,0,0,0,0,0,2700,2200,1,0,0,0,514,0,0,0,0,0.0000000,0.0000000,0.0000000,0.0000000,8.00,38.4062920,-110.7921371,1362.5000000,0.1,172.8,1.2,0.0,0.0,858,129,0,0,860.52,10.54,27.42,# data time:8250,pm2.5:6.445,pm10:5.704,O2:0.000,NO2:0.010,SO2:0.000,NH3:7.346
14:36:56,0,0,0,0,0,2700,2200,1,0,0,0,514,0,0,0,0,0.0000000,0.0000000,0.0000000,0.0000000,8.00,38.4062920,-110.7921371,1362.5000000,0.0,165.1,1.2,0.0,0.0,858,131,0,0,860.46,10.54,27.41,# data time:8250,pm2.5:6.445,pm10:5.704,O2:0.000,NO2:0.010,SO2:0.000,NH3:7.346
14:36:57,0,0,0,0,0,2700,2200,1,0,0,0,514,0,0,0,0,0.0000000,0.0000000,0.0000000,0.0000000,8.00,38.4062920,-110.7921371,1362.5000000,0.0,189.8,1.2,0.0,0.0,858,130,0,0,860.45,10.56,27.41,# data time:8260,pm2.5:6.445,pm10:5.704,O2:0.000,NO2:0.046,SO2:0.000,NH3:7.346
14:36:58,0,0,0,0,0,2700,2200,1,0,0,0,515,0,0,0,0,0.0000000,0.0000000,0.0000000,0.0000000,8.00,38.4062920,-110.7921371,1362.5000000,0.0,170.8,1.2,0.0,0.0,858,131,0,0,860.43,10.56,27.42,# data time:8260,pm2.5:6.445,pm10:5.704,O2:0.000,NO2:0.046,SO2:0.000,NH3:7.346
14:36:59,0,0,0,0,0,2700,2200,1,0,0,0,514,0,0,0,0,0.0000000,0.0000000,0.0000000,0.0000000,8.00,38.4062920,-110.7921371,1362.5000000,0.0,191.2,1.2,0.0,0.0,858,133,0,0,860.56,10.56,27.42,# data time:8260,pm2.5:6.445,pm10:5.704,O2:0.000,NO2:0.046,SO2:0.000,NH3:7.346
14:37:00,0,0,0,0,0,2700,2200,1,0,0,0,515,0,0,0,0,0.0000000,0.0000000,0.0000000,0.0000000,8.00,38.4062920,-110.7921371,1362.5000000,0.0,124.2,1.2,0.0,0.0,858,128,0,0,860.48,10.54,27.41,# data time:8260,pm2.5:6.445,pm10:5.704,O2:0.000,NO2:0.046,SO2:0.000,NH3:7.346
14:37:01,0,0,0,0,0,2700,2200,1,0,0,0,514,0,0,0,0,0.0000000,0.0000000,0.0000000,0.0000000,8.00,38.4062920,-110.7921371,1362.5000000,0.0,113.4,1.2,0.0,0.0,858,129,0,0,860.44,10.54,27.41,# data time:8260,pm2.5:6.445,pm10:5.704,O2:0.000,NO2:0.046,SO2:0.000,NH3:7.346
14:37:02,0,0,0,0,0,2700,2200,1,0,0,0,514,0,0,0,0,0.0000000,0.0000000,0.0000000,0.0000000,8.00,38.4062920,-110.7921371,1362.5000000,0.0,94.0,1.2,0.0,0.0,858,130,0,0,860.45,10.54,27.41,# data time:8260,pm2.5:6.445,pm10:5.704,O2:0.000,NO2:0.046,SO2:0.000,NH3:7.346
14:37:04,0,0,0,0,0,2700,2200,1,0,0,0,514,0,0,0,0,0.0000000,0.0000000,0.0000000,0.0000000,8.00,38.4062920,-110.7921371,1362.5000000,0.0,220.5,1.2,0.0,0.0,859,128,0,0,860.53,10.54,27.41,# data time:8260,pm2.5:6.445,pm10:5.704,O2:0.000,NO2:0.046,SO2:0.000,NH3:7.346
14:37:05,0,0,0,0,0,2700,2200,1,0,0,0,513,0,0,0,0,0.0000000,0.0000000,0.0000000,0.0000000,8.00,38.4062920,-110.7921371,1362.5000000,0.0,48.4,1.2,0.0,0.0,858,130,0,0,860.49,10.54,27.41,# data time:8260,pm2.5:6.445,pm10:5.704,O2:0.000,NO2:0.046,SO2:0.000,NH3:7.346
14:37:06,0,0,0,0,0,2700,2200,1,0,0,0,515,0,0,0,0,0.0000000,0.0000000,0.0000000,0.0000000,8.00,38.4062920,-110.7921371,1362.5000000,0.0,48.4,1.2,0.0,0.0,858,131,0,0,860.47,10.51,27.31,# data time:8260,pm2.5:6.445,pm10:5.704,O2:0.000,NO2:0.046,SO2:0.000,NH3:7.346
14:37:07,0,0,0,0,0,2700,2200,1,0,0,0,514,0,0,0,0,0.0000000,0.0000000,0.0000000,0.0000000,8.00,38.4062920,-110.7921371,1362.5000000,0.0,48.4,1.2,0.0,0.0,858,128,0,0,860.37,10.51,27.35,# data time:8270,pm2.5:6.445,pm10:5.704,O2:0.000,NO2:0.010,SO2:0.000,NH3:7.346
14:37:08,0,0,0,0,0,2700,2200,1,0,0,0,514,0,0,0,0,0.0000000,0.0000000,0.0000000,0.0000000,8.00,38.4062920,-110.7921371,1362.5000000,0.0,39.1,1.2,0.0,0.0,858,126,0,0,860.44,10.50,27.36,# data time:8270,pm2.5:6.445,pm10:5.704,O2:0.000,NO2:0.010,SO2:0.000,NH3:7.346
14:37:09,0,0,0,0,0,2700,2200,1,0,0,0,514,0,0,0,0,0.0000000,0.0000000,0.0000000,0.0000000,8.00,38.4062920,-110.7921371,1362.5000000,0.0,45.9,1.2,0.0,0.0,859,127,0,0,860.41,10.51,27.40,# data time:8270,pm2.5:6.445,pm10:5.704,O2:0.000,NO2:0.010,SO2:0.000,NH3:7.346
14:37:10,0,0,0,0,0,2700,2200,1,0,0,0,515,0,0,0,0,0.0000000,0.0000000,0.0000000,0.0000000,8.00,38.4062920,-110.7921371,1362.5000000,0.0,10.0,1.2,0.0,0.0,858,130,0,0,860.39,10.50,27.40,# data time:8270,pm2.5:6.445,pm10:5.704,O2:0.000,NO2:0.010,SO2:0.000,NH3:7.346
14:37:11,0,0,0,0,0,2700,2200,1,0,0,0,514,0,0,0,0,0.0000000,0.0000000,0.0000000,0.0000000,8.00,38.4062920,-110.7921371,1362.5000000,0.0,27.5,1.2,0.0,0.0,858,126,0,0,860.41,10.48,27.40,# data time:8270,pm2.5:6.445,pm10:5.704,O2:0.000,NO2:0.010,SO2:0.000,NH3:7.346
14:37:12,0,0,0,0,0,2700,2200,1,0,0,0,515,0,0,0,0,0.0000000,0.0000000,0.0000000,0.0000000,8.00,38.4062920,-110.7921371,1362.5000000,0.0,103.6,1.2,0.0,0.0,858,130,0,0,860.44,10.48,27.41,# data time:8270,pm2.5:6.445,pm10:5.704,O2:0.000,NO2:0.010,SO2:0.000,NH3:7.346
14:37:13,0,0,0,0,0,2700,2200,1,0,0,0,513,0,0,0,0,0.0000000,0.0000000,0.0000000,0.0000000,8.00,38.4062920,-110.7921371,1362.5000000,0.0,26.2,1.2,0.0,0.0,858,133,0,0,860.44,10.50,27.41,# data time:8270,pm2.5:6.445,pm10:5.704,O2:0.000,NO2:0.010,SO2:0.000,NH3:7.346
14:37:14,0,0,0,0,0,2700,2200,1,0,0,0,514,0,0,0,0,0.0000000,0.0000000,0.0000000,0.0000000,8.00,38.4062920,-110.7921371,1362.5000000,0.0,3.2,1.2,0.0,0.0,858,129,0,0,860.45,10.51,27.41,# data time:8270,pm2.5:6.445,pm10:5.704,O2:0.000,NO2:0.010,SO2:0.000,NH3:7.346
14:37:15,0,0,0,0,0,2700,2200,1,0,0,0,514,0,0,0,0,0.0000000,0.0000000,0.0000000,0.0000000,8.00,38.4062920,-110.7921371,1362.5000000,0.0,18.5,1.2,0.0,0.0,858,129,0,0,860.46,10.53,27.41,# data time:8270,pm2.5:6.445,pm10:5.704,O2:0.000,NO2:0.010,SO2:0.000,NH3:7.346
14:37:16,0,0,0,0,0,2700,2200,1,0,0,0,514,0,0,0,0,0.0000000,0.0000000,0.0000000,0.0000000,8.00,38.4062920,-110.7921371,1362.5000000,0.0,11.1,1.2,0.0,0.0,858,129,0,0,860.42,10.50,27.41,# data time:8270,pm2.5:6.445,pm10:5.704,O2:0.000,NO2:0.010,SO2:0.000,NH3:7.346
14:37:17,0,0,0,0,0,2700,2200,1,0,0,0,514,0,0,0,0,0.0000000,0.0000000,0.0000000,0.0000000,8.00,38.4062920,-110.7921371,1362.5000000,0.0,349.7,1.2,0.0,0.0,858,128,0,0,860.49,10.51,27.41,# data time:8280,pm2.5:6.445,pm10:5.704,O2:0.000,NO2:0.010,SO2:0.000,NH3:7.346
14:37:18,0,0,0,0,0,2700,2200,1,0,0,0,514,0,0,0,0,0.0000000,0.0000000,0.0000000,0.0000000,8.00,38.4062920,-110.7921371,1362.5000000,0.0,278.6,1.2,0.0,0.0,858,129,0,0,860.39,10.50,27.41,# data time:8280,pm2.5:6.445,pm10:5.704,O2:0.000,NO2:0.010,SO2:0.000,NH3:7.346
14:37:19,0,0,0,0,0,2700,2200,1,0,0,0,514,0,0,0,0,0.0000000,0.0000000,0.0000000,0.0000000,8.00,38.4062920,-110.7921371,1362.5000000,0.0,319.6,1.2,0.0,0.0,858,129,0,0,860.51,10.50,27.41,# data time:8280,pm2.5:6.445,pm10:5.704,O2:0.000,NO2:0.010,SO2:0.000,NH3:7.346
14:37:20,0,0,0,0,0,2700,2200,1,0,0,0,514,0,0,0,0,0.0000000,0.0000000,0.0000000,0.0000000,8.00,38.4062920,-110.7921371,1362.5000000,0.0,340.1,1.2,0.0,0.0,858,128,0,0,860.50,10.53,27.41,# data time:8280,pm2.5:6.445,pm10:5.704,O2:0.000,NO2:0.010,SO2:0.000,NH3:7.346
14:37:21,0,0,0,0,0,2700,2200,1,0,0,0,514,0,0,0,0,0.0000000,0.0000000,0.0000000,0.0000000,8.00,38.4062920,-110.7921371,1362.5000000,0.0,1.8,1.2,0.0,0.0,858,130,0,0,860.51,10.50,27.41,# data time:8280,pm2.5:6.445,pm10:5.704,O2:0.000,NO2:0.010,SO2:0.000,NH3:7.346
14:37:22,0,0,0,0,0,2700,2200,1,0,0,0,514,0,0,0,0,0.0000000,0.0000000,0.0000000,0.0000000,8.00,38.4062920,-110.7921371,1362.4000244,0.0,301.4,1.2,0.0,0.0,858,127,0,0,860.52,10.53,27.41,# data time:8280,pm2.5:6.445,pm10:5.704,O2:0.000,NO2:0.010,SO2:0.000,NH3:7.346
14:37:23,0,0,0,0,0,2700,2200,1,0,0,0,514,0,0,0,0,0.0000000,0.0000000,0.0000000,0.0000000,8.00,38.4062920,-110.7921371,1362.4000244,0.0,132.2,1.2,0.0,0.0,858,129,0,0,860.55,10.54,27.41,# data time:8280,pm2.5:6.445,pm10:5.704,O2:0.000,NO2:0.010,SO2:0.000,NH3:7.346
14:37:24,0,0,0,0,0,2700,2200,1,0,0,0,515,0,0,0,0,0.0000000,0.0000000,0.0000000,0.0000000,8.00,38.4062920,-110.7921371,1362.4000244,0.1,188.9,1.2,0.0,0.0,858,127,0,0,860.54,10.53,27.41,# data time:8280,pm2.5:6.445,pm10:5.704,O2:0.000,NO2:0.010,SO2:0.000,NH3:7.346
14:37:25,0,0,0,0,0,2700,2200,1,0,0,0,514,0,0,0,0,0.0000000,0.0000000,0.0000000,0.0000000,8.00,38.4062920,-110.7921371,1362.4000244,0.0,249.3,1.2,0.0,0.0,858,128,0,0,860.45,10.54,27.41,# data time:8280,pm2.5:6.445,pm10:5.704,O2:0.000,NO2:0.010,SO2:0.000,NH3:7.346
14:37:26,0,0,0,0,0,2700,2200,1,0,0,0,515,0,0,0,0,0.0000000,0.0000000,0.0000000,0.0000000,8.00,38.4062920,-110.7921371,1362.4000244,0.0,95.2,1.2,0.0,0.0,858,129,0,0,860.42,10.53,27.41,# data time:8290,pm2.5:6.445,pm10:5.704,O2:0.000,NO2:0.000,SO2:0.000,NH3:7.346
14:37:27,0,0,0,0,0,2700,2200,1,0,0,0,515,0,0,0,0,0.0000000,0.0000000,0.0000000,0.0000000,8.00,38.4062920,-110.7921371,1362.4000244,0.0,264.5,1.2,0.0,0.0,858,130,0,0,860.36,10.54,27.41,# data time:8290,pm2.5:6.445,pm10:5.704,O2:0.000,NO2:0.000,SO2:0.000,NH3:7.346
14:37:29,0,0,0,0,0,2700,2200,1,0,0,0,514,0,0,0,0,0.0000000,0.0000000,0.0000000,0.0000000,8.00,38.4062920,-110.7921371,1362.4000244,0.0,225.0,1.2,0.0,0.0,858,132,0,0,860.38,10.56,27.41,# data time:8290,pm2.5:6.445,pm10:5.704,O2:0.000,NO2:0.000,SO2:0.000,NH3:7.346
14:37:30,0,0,0,0,0,2700,2200,1,0,0,0,514,0,0,0,0,0.0000000,0.0000000,0.0000000,0.0000000,8.00,38.4062920,-110.7921371,1362.4000244,0.0,173.7,1.2,0.0,0.0,858,130,0,0,860.37,10.56,27.32,# data time:8290,pm2.5:6.445,pm10:5.704,O2:0.000,NO2:0.000,SO2:0.000,NH3:7.346
14:37:31,0,0,0,0,0,2700,2200,1,0,0,0,514,0,0,0,0,0.0000000,0.0000000,0.0000000,0.0000000,8.00,38.4062920,-110.7921371,1362.4000244,0.0,173.7,1.2,0.0,0.0,859,132,0,0,860.36,10.56,27.31,# data time:8290,pm2.5:6.445,pm10:5.704,O2:0.000,NO2:0.000,SO2:0.000,NH3:7.346
14:37:32,0,0,0,0,0,2700,2200,1,0,0,0,514,0,0,0,0,0.0000000,0.0000000,0.0000000,0.0000000,8.00,38.4062920,-110.7921371,1362.4000244,0.0,263.8,1.2,0.0,0.0,858,126,0,0,860.37,10.56,27.37,# data time:8290,pm2.5:6.445,pm10:5.704,O2:0.000,NO2:0.000,SO2:0.000,NH3:7.346
14:37:33,0,0,0,0,0,2700,2200,1,0,0,0,514,0,0,0,0,0.0000000,0.0000000,0.0000000,0.0000000,8.00,38.4062920,-110.7921371,1362.4000244,0.0,263.8,1.2,0.0,0.0,858,127,0,0,860.41,10.53,27.31,# data time:8290,pm2.5:6.445,pm10:5.704,O2:0.000,NO2:0.000,SO2:0.000,NH3:7.346
14:37:34,0,0,0,0,0,2700,2200,1,0,0,0,514,0,0,0,0,0.0000000,0.0000000,0.0000000,0.0000000,8.00,38.4062920,-110.7921371,1362.4000244,0.0,252.2,1.2,0.0,0.0,858,129,0,0,860.43,10.57,27.36,# data time:8290,pm2.5:6.445,pm10:5.704,O2:0.000,NO2:0.000,SO2:0.000,NH3:7.346
14:37:35,0,0,0,0,0,2700,2200,1,0,0,0,514,0,0,0,0,0.0000000,0.0000000,0.0000000,0.0000000,8.00,38.4062920,-110.7921371,1362.4000244,0.0,238.8,1.2,0.0,0.0,858,128,0,0,860.46,10.57,27.40,# data time:8290,pm2.5:6.445,pm10:5.704,O2:0.000,NO2:0.000,SO2:0.000,NH3:7.346
14:37:36,0,0,0,0,0,2700,2200,1,0,0,0,514,0,0,0,0,0.0000000,0.0000000,0.0000000,0.0000000,8.00,38.4062920,-110.7921371,1362.4000244,0.0,44.9,1.2,0.0,0.0,858,128,0,0,860.39,10.54,27.41,# data time:8290,pm2.5:6.445,pm10:5.704,O2:0.000,NO2:0.000,SO2:0.000,NH3:7.346
14:37:37,0,0,0,0,0,2700,2200,1,0,0,0,514,0,0,0,0,0.0000000,0.0000000,0.0000000,0.0000000,8.00,38.4062920,-110.7921371,1362.4000244,0.0,97.7,1.2,0.0,0.0,858,129,0,0,860.41,10.56,27.41,# data time:8300,pm2.5:6.445,pm10:5.704,O2:0.000,NO2:0.028,SO2:0.000,NH3:7.346
14:37:38,0,0,0,0,0,2700,2200,1,0,0,0,514,0,0,0,0,0.0000000,0.0000000,0.0000000,0.0000000,8.00,38.4062920,-110.7921371,1362.3000488,0.0,138.2,1.2,0.0,0.0,858,128,0,0,860.41,10.53,27.41,# data time:8300,pm2.5:6.445,pm10:5.704,O2:0.000,NO2:0.028,SO2:0.000,NH3:7.346
14:37:39,0,0,0,0,0,2700,2200,1,0,0,0,515,0,0,0,0,0.0000000,0.0000000,0.0000000,0.0000000,8.00,38.4062920,-110.7921371,1362.3000488,0.0,105.5,1.2,0.0,0.0,858,127,0,0,860.40,10.54,27.41,# data time:8300,pm2.5:6.445,pm10:5.704,O2:0.000,NO2:0.028,SO2:0.000,NH3:7.346
14:37:40,0,0,0,0,0,2700,2200,1,0,0,0,515,0,0,0,0,0.0000000,0.0000000,0.0000000,0.0000000,8.00,38.4062920,-110.7921371,1362.3000488,0.0,307.1,1.2,0.0,0.0,858,129,0,0,860.37,10.57,27.41,# data time:8300,pm2.5:6.445,pm10:5.704,O2:0.000,NO2:0.028,SO2:0.000,NH3:7.346
14:37:41,0,0,0,0,0,2700,2200,1,0,0,0,514,0,0,0,0,0.0000000,0.0000000,0.0000000,0.0000000,8.00,38.4062920,-110.7921371,1362.3000488,0.0,10.0,1.2,0.0,0.0,858,128,0,0,860.43,10.56,27.41,# data time:8300,pm2.5:6.445,pm10:5.704,O2:0.000,NO2:0.028,SO2:0.000,NH3:7.346
14:37:42,0,0,0,0,0,2700,2200,1,0,0,0,514,0,0,0,0,0.0000000,0.0000000,0.0000000,0.0000000,8.00,38.4062920,-110.7921371,1362.3000488,0.0,91.5,1.2,0.0,0.0,858,128,0,0,860.39,10.56,27.41,# data time:8300,pm2.5:6.445,pm10:5.704,O2:0.000,NO2:0.028,SO2:0.000,NH3:7.346
14:37:43,0,0,0,0,0,2700,2200,1,0,0,0,514,0,0,0,0,0.0000000,0.0000000,0.0000000,0.0000000,8.00,38.4062920,-110.7921371,1362.3000488,0.0,359.7,1.2,0.0,0.0,858,129,0,0,860.40,10.54,27.41,# data time:8300,pm2.5:6.445,pm10:5.704,O2:0.000,NO2:0.028,SO2:0.000,NH3:7.346
14:37:44,0,0,0,0,0,2700,2200,1,0,0,0,514,0,0,0,0,0.0000000,0.0000000,0.0000000,0.0000000,8.00,38.4062920,-110.7921371,1362.3000488,0.0,217.4,1.2,0.0,0.0,858,128,0,0,860.38,10.56,27.41,# data time:8300,pm2.5:6.445,pm10:5.704,O2:0.000,NO2:0.028,SO2:0.000,NH3:7.346
14:37:45,0,0,0,0,0,2700,2200,1,0,0,0,515,0,0,0,0,0.0000000,0.0000000,0.0000000,0.0000000,8.00,38.4062920,-110.7921371,1362.3000488,0.0,319.7,1.2,0.0,0.0,857,131,0,0,860.36,10.54,27.41,# data time:8300,pm2.5:6.445,pm10:5.704,O2:0.000,NO2:0.028,SO2:0.000,NH3:7.346
14:37:46,0,0,0,0,0,2700,2200,1,0,0,0,513,0,0,0,0,0.0000000,0.0000000,0.0000000,0.0000000,8.00,38.4062920,-110.7921371,1362.3000488,0.0,159.2,1.2,0.0,0.0,858,129,0,0,860.41,10.56,27.40,# data time:8310,pm2.5:6.445,pm10:5.704,O2:0.000,NO2:0.028,SO2:0.000,NH3:7.346
14:37:47,0,0,0,0,0,2700,2200,1,0,0,0,514,0,0,0,0,0.0000000,0.0000000,0.0000000,0.0000000,8.00,38.4062920,-110.7921371,1362.3000488,0.0,253.3,1.2,0.0,0.0,857,126,0,0,860.40,10.56,27.41,# data time:8310,pm2.5:6.445,pm10:5.704,O2:0.000,NO2:0.028,SO2:0.000,NH3:7.346
14:37:48,0,0,0,0,0,2700,2200,1,0,0,0,513,0,0,0,0,0.0000000,0.0000000,0.0000000,0.0000000,8.00,38.4062920,-110.7921371,1362.3000488,0.0,191.9,1.2,0.0,0.0,858,131,0,0,860.34,10.56,27.41,# data time:8310,pm2.5:6.445,pm10:5.704,O2:0.000,NO2:0.028,SO2:0.000,NH3:7.346
14:37:50,0,0,0,0,0,2700,2200,1,0,0,0,514,0,0,0,0,0.0000000,0.0000000,0.0000000,0.0000000,8.00,38.4062920,-110.7921371,1362.3000488,0.0,140.9,1.2,0.0,0.0,858,130,0,0,860.41,10.56,27.40,# data time:8310,pm2.5:6.445,pm10:5.704,O2:0.000,NO2:0.028,SO2:0.000,NH3:7.346
14:37:51,0,0,0,0,0,2700,2200,1,0,0,0,514,0,0,0,0,0.0000000,0.0000000,0.0000000,0.0000000,8.00,38.4062920,-110.7921371,1362.3000488,0.0,216.6,1.2,0.0,0.0,858,129,0,0,860.40,10.57,27.40,# data time:8310,pm2.5:6.445,pm10:5.704,O2:0.000,NO2:0.028,SO2:0.000,NH3:7.346
14:37:52,0,0,0,0,0,2700,2200,1,0,0,0,514,0,0,0,0,0.0000000,0.0000000,0.0000000,0.0000000,8.00,38.4062920,-110.7921371,1362.3000488,0.0,216.6,1.2,0.0,0.0,858,127,0,0,860.37,10.59,27.30,# data time:8310,pm2.5:6.445,pm10:5.704,O2:0.000,NO2:0.028,SO2:0.000,NH3:7.346
14:37:53,0,0,0,0,0,2700,2200,1,0,0,0,514,0,0,0,0,0.0000000,0.0000000,0.0000000,0.0000000,8.00,38.4062920,-110.7921371,1362.3000488,0.0,216.6,1.2,0.0,0.0,858,130,0,0,860.36,10.61,27.30,# data time:8310,pm2.5:6.445,pm10:5.704,O2:0.000,NO2:0.028,SO2:0.000,NH3:7.346
14:37:54,0,0,0,0,0,2700,2200,1,0,0,0,514,0,0,0,0,0.0000000,0.0000000,0.0000000,0.0000000,8.00,38.4062920,-110.7921371,1362.3000488,0.0,216.6,1.2,0.0,0.0,858,129,0,0,860.40,10.57,27.34,# data time:8310,pm2.5:6.445,pm10:5.704,O2:0.000,NO2:0.028,SO2:0.000,NH3:7.346
14:37:55,0,0,0,0,0,2700,2200,1,0,0,0,514,0,0,0,0,0.0000000,0.0000000,0.0000000,0.0000000,8.00,38.4062920,-110.7921371,1362.3000488,0.0,216.6,1.2,0.0,0.0,858,130,0,0,860.37,10.57,27.35,# data time:8310,pm2.5:6.445,pm10:5.704,O2:0.000,NO2:0.028,SO2:0.000,NH3:7.346
14:37:56,0,0,0,0,0,2700,2200,1,0,0,0,515,0,0,0,0,0.0000000,0.0000000,0.0000000,0.0000000,8.00,38.4062920,-110.7921371,1362.3000488,0.0,173.5,1.2,0.0,0.0,858,129,0,0,860.47,10.57,27.36,# data time:8310,pm2.5:6.445,pm10:5.704,O2:0.000,NO2:0.028,SO2:0.000,NH3:7.346
14:37:57,0,0,0,0,0,2700,2200,1,0,0,0,514,0,0,0,0,0.0000000,0.0000000,0.0000000,0.0000000,8.00,38.4062920,-110.7921371,1362.3000488,0.0,234.4,1.2,0.0,0.0,857,128,0,0,860.38,10.59,27.40,# data time:8320,pm2.5:5.640,pm10:4.991,O2:0.000,NO2:0.010,SO2:0.000,NH3:7.346
14:37:58,0,0,0,0,0,2700,2200,1,0,0,0,513,0,0,0,0,0.0000000,0.0000000,0.0000000,0.0000000,8.00,38.4062920,-110.7921371,1362.3000488,0.0,184.0,1.2,0.0,0.0,859,129,0,0,860.40,10.59,27.40,# data time:8320,pm2.5:5.640,pm10:4.991,O2:0.000,NO2:0.010,SO2:0.000,NH3:7.346
14:37:59,0,0,0,0,0,2700,2200,1,0,0,0,514,0,0,0,0,0.0000000,0.0000000,0.0000000,0.0000000,8.00,38.4062920,-110.7921371,1362.1999512,0.0,193.8,1.2,0.0,0.0,858,130,0,0,860.39,10.57,27.40,# data time:8320,pm2.5:5.640,pm10:4.991,O2:0.000,NO2:0.010,SO2:0.000,NH3:7.346
14:38:00,0,0,0,0,0,2700,2200,1,0,0,0,514,0,0,0,0,0.0000000,0.0000000,0.0000000,0.0000000,8.00,38.4062920,-110.7921371,1362.1999512,0.0,206.9,1.2,0.0,0.0,858,131,0,0,860.41,10.61,27.40,# data time:8320,pm2.5:5.640,pm10:4.991,O2:0.000,NO2:0.010,SO2:0.000,NH3:7.346
14:38:01,0,0,0,0,0,2700,2200,1,0,0,0,514,0,0,0,0,0.0000000,0.0000000,0.0000000,0.0000000,8.00,38.4062920,-110.7921371,1362.1999512,0.0,196.9,1.2,0.0,0.0,858,127,0,0,860.38,10.59,27.40,# data time:8320,pm2.5:5.640,pm10:4.991,O2:0.000,NO2:0.010,SO2:0.000,NH3:7.346
14:38:02,0,0,0,0,0,2700,2200,1,0,0,0,514,0,0,0,0,0.0000000,0.0000000,0.0000000,0.0000000,8.00,38.4062920,-110.7921371,1362.1999512,0.0,185.7,1.2,0.0,0.0,858,129,0,0,860.38,10.59,27.40,# data time:8320,pm2.5:5.640,pm10:4.991,O2:0.000,NO2:0.010,SO2:0.000,NH3:7.346
14:38:03,0,0,0,0,0,2700,2200,1,0,0,0,514,0,0,0,0,0.0000000,0.0000000,0.0000000,0.0000000,8.00,38.4062920,-110.7921371,1362.1999512,0.0,106.9,1.2,0.0,0.0,858,128,0,0,860.38,10.62,27.41,# data time:8320,pm2.5:5.640,pm10:4.991,O2:0.000,NO2:0.010,SO2:0.000,NH3:7.346
14:38:04,0,0,0,0,0,2700,2200,1,0,0,0,515,0,0,0,0,0.0000000,0.0000000,0.0000000,0.0000000,8.00,38.4062920,-110.7921371,1362.1999512,0.0,155.7,1.2,0.0,0.0,858,130,0,0,860.46,10.57,27.41,# data time:8320,pm2.5:5.640,pm10:4.991,O2:0.000,NO2:0.010,SO2:0.000,NH3:7.346
14:38:05,0,0,0,0,0,2700,2200,1,0,0,0,514,0,0,0,0,0.0000000,0.0000000,0.0000000,0.0000000,8.00,38.4062920,-110.7921371,1362.1999512,0.0,176.8,1.2,0.0,0.0,858,129,0,0,860.47,10.57,27.41,# data time:8320,pm2.5:5.640,pm10:4.991,O2:0.000,NO2:0.010,SO2:0.000,NH3:7.346
14:38:06,0,0,0,0,0,2700,2200,1,0,0,0,514,0,0,0,0,0.0000000,0.0000000,0.0000000,0.0000000,8.00,38.4062920,-110.7921371,1362.1999512,0.0,244.6,1.2,0.0,0.0,858,130,0,0,860.43,10.56,27.41,# data time:8320,pm2.5:5.640,pm10:4.991,O2:0.000,NO2:0.010,SO2:0.000,NH3:7.346
14:38:07,0,0,0,0,0,2700,2200,1,0,0,0,514,0,0,0,0,0.0000000,0.0000000,0.0000000,0.0000000,8.00,38.4062920,-110.7921371,1362.1999512,0.0,174.6,1.2,0.0,0.0,858,130,0,0,860.41,10.57,27.41,# data time:8330,pm2.5:6.445,pm10:5.704,O2:0.000,NO2:0.010,SO2:0.000,NH3:7.346
14:38:08,0,0,0,0,0,2700,2200,1,0,0,0,514,0,0,0,0,0.0000000,0.0000000,0.0000000,0.0000000,8.00,38.4062920,-110.7921371,1362.1999512,0.0,96.4,1.2,0.0,0.0,858,130,0,0,860.45,10.57,27.41,# data time:8330,pm2.5:6.445,pm10:5.704,O2:0.000,NO2:0.010,SO2:0.000,NH3:7.346
14:38:09,0,0,0,0,0,2700,2200,1,0,0,0,514,0,0,0,0,0.0000000,0.0000000,0.0000000,0.0000000,8.00,38.4062920,-110.7921371,1362.1999512,0.0,174.6,1.2,0.0,0.0,858,129,0,0,860.49,10.57,27.41,# data time:8330,pm2.5:6.445,pm10:5.704,O2:0.000,NO2:0.010,SO2:0.000,NH3:7.346
14:38:10,0,0,0,0,0,2700,2200,1,0,0,0,514,0,0,0,0,0.0000000,0.0000000,0.0000000,0.0000000,8.00,38.4062920,-110.7921371,1362.1999512,0.0,237.8,1.2,0.0,0.0,858,127,0,0,860.44,10.59,27.41,# data time:8330,pm2.5:6.445,pm10:5.704,O2:0.000,NO2:0.010,SO2:0.000,NH3:7.346
14:38:11,0,0,0,0,0,2700,2200,1,0,0,0,514,0,0,0,0,0.0000000,0.0000000,0.0000000,0.0000000,8.00,38.4062920,-110.7921371,1362.0999756,0.0,235.1,1.2,0.0,0.0,858,129,0,0,860.44,10.56,27.41,# data time:8330,pm2.5:6.445,pm10:5.704,O2:0.000,NO2:0.010,SO2:0.000,NH3:7.346
14:38:12,0,0,0,0,0,2700,2200,1,0,0,0,514,0,0,0,0,0.0000000,0.0000000,0.0000000,0.0000000,8.00,38.4062920,-110.7921371,1362.0999756,0.0,222.0,1.2,0.0,0.0,858,129,0,0,860.44,10.57,27.41,# data time:8330,pm2.5:6.445,pm10:5.704,O2:0.000,NO2:0.010,SO2:0.000,NH3:7.346
14:38:13,0,0,0,0,0,2700,2200,1,0,0,0,514,0,0,0,0,0.0000000,0.0000000,0.0000000,0.0000000,8.00,38.4062920,-110.7921371,1362.0999756,0.0,151.3,1.2,0.0,0.0,858,131,0,0,860.51,10.54,27.41,# data time:8330,pm2.5:6.445,pm10:5.704,O2:0.000,NO2:0.010,SO2:0.000,NH3:7.346
14:38:15,0,0,0,0,0,2700,2200,1,0,0,0,514,0,0,0,0,0.0000000,0.0000000,0.0000000,0.0000000,8.00,38.4062920,-110.7921371,1362.0999756,0.0,131.0,1.2,0.0,0.0,858,130,0,0,860.41,10.53,27.41,# data time:8330,pm2.5:6.445,pm10:5.704,O2:0.000,NO2:0.010,SO2:0.000,NH3:7.346
14:38:16,0,0,0,0,0,2700,2200,1,0,0,0,514,0,0,0,0,0.0000000,0.0000000,0.0000000,0.0000000,8.00,38.4062920,-110.7921371,1362.0999756,0.0,201.8,1.2,0.0,0.0,858,130,0,0,860.43,10.54,27.41,# data time:8330,pm2.5:6.445,pm10:5.704,O2:0.000,NO2:0.010,SO2:0.000,NH3:7.346
14:38:17,0,0,0,0,0,2700,2200,1,0,0,0,515,0,0,0,0,0.0000000,0.0000000,0.0000000,0.0000000,8.00,38.4062881,-110.7921371,1362.0999756,0.0,148.8,1.2,0.0,0.0,858,130,0,0,860.43,10.51,27.32,# data time:8340,pm2.5:6.445,pm10:5.704,O2:0.000,NO2:0.046,SO2:0.000,NH3:7.346
14:38:18,0,0,0,0,0,2700,2200,1,0,0,0,514,0,0,0,0,0.0000000,0.0000000,0.0000000,0.0000000,8.00,38.4062881,-110.7921371,1362.0999756,0.0,148.8,1.2,0.0,0.0,858,128,0,0,860.40,10.57,27.31,# data time:8340,pm2.5:6.445,pm10:5.704,O2:0.000,NO2:0.046,SO2:0.000,NH3:7.346
