Time, Motor A Speed, Motor A Dir, Motor B Speed, Motor B Dir, Servo Rail Current Sensor, Servo Pos - Arm L, Servo Pos - Arm R, Servo Pos - End, Servo Pos - Hopper, Servo Pos - Lid, Servo Pos - Extra, Servo Current, LED - Front L, LED - Front R, LED - Back L, LED - Back R, IMU Pitch, IMU Roll, IMU Yaw, Compass Heading, GPS Sats, GPS Latitude, GPS Longitude, GPS Altitude, GPS Speed, GPS Angle, GPS HDOP, GPS VDOP, GPS PDOP, Battery, Wind, Comm Xbee Latency, Comm Arduino Latency, Pressure, Humidity, Temperature, uRADMonitor
10:24:28,0,0,0,0,0,0,0,0,0,0,0,0,0,0,0,0,0.0000000,0.0000000,0.0000000,0.0000000,0.00,0.0000000,0.0000000,0.0000000,0.0,0.0,0.0,0.0,0.0,0,0,0,0,0.00,0.00,0.00,# data time:610,pm2.5:6.445,pm10:5.704,O2:0.000,NO2:0.000,SO2
10:24:29,0,0,0,0,0,0,0,0,0,0,0,514,0,0,0,0,0.0000000,0.0000000,0.0000000,0.0000000,9.00,38.4062195,-110.7922592,1367.5999756,0.0,0.0,0.9,0.0,0.0,900,127,0,0,862.96,19.75,22.51,# data time:610,pm2.5:6.445,pm10:5.704,O2:0.000,NO2:0.000,SO2
10:24:30,0,0,0,0,0,0,0,0,0,0,0,515,0,0,0,0,0.0000000,0.0000000,0.0000000,0.0000000,9.00,38.4062195,-110.7922592,1367.5999756,0.0,0.0,0.9,0.0,0.0,903,128,0,0,862.94,19.78,22.51,# data time:610,pm2.5:6.445,pm10:5.704,O2:0.000,NO2:0.000,SO2
10:24:31,0,0,0,0,0,0,0,0,0,0,0,515,0,0,0,0,0.0000000,0.0000000,0.0000000,0.0000000,9.00,38.4062195,-110.7922592,1367.5999756,0.3,83.7,0.9,0.0,0.0,900,126,0,0,862.94,19.78,22.52,# data time:610,pm2.5:6.445,pm10:5.704,O2:0.000,NO2:0.000,SO2
10:24:32,0,0,0,0,0,0,0,0,0,0,0,514,0,0,0,0,0.0000000,0.0000000,0.0000000,0.0000000,9.00,38.4062195,-110.7922592,1367.5999756,0.3,83.7,0.9,0.0,0.0,902,131,0,0,862.96,19.82,22.52,# data time:610,pm2.5:6.445,pm10:5.704,O2:0.000,NO2:0.000,SO2
10:24:33,0,0,0,0,0,0,0,0,0,0,0,514,0,0,0,0,0.0000000,0.0000000,0.0000000,0.0000000,9.00,38.4062157,-110.7922592,1367.5999756,0.1,135.4,0.9,0.0,0.0,901,130,0,0,862.98,19.79,22.57,# data time:610,pm2.5:6.445,pm10:5.704,O2:0.000,NO2:0.000,SO2
10:24:34,0,0,0,0,0,0,0,0,0,0,0,514,0,0,0,0,0.0000000,0.0000000,0.0000000,0.0000000,9.00,38.4062157,-110.7922440,1367.5999756,0.3,125.1,0.9,0.0,0.0,901,130,0,0,862.95,19.78,22.58,# data time:610,pm2.5:6.445,pm10:5.704,O2:0.000,NO2:0.000,SO2
10:24:35,0,0,0,0,0,0,0,0,0,0,0,514,0,0,0,0,0.0000000,0.0000000,0.0000000,0.0000000,9.00,38.4062157,-110.7922440,1367.5999756,0.5,128.2,0.9,0.0,0.0,902,128,0,0,862.98,19.70,22.58,# data time:610,pm2.5:6.445,pm10:5.704,O2:0.000,NO2:0.000,SO2
10:24:36,0,0,0,0,0,0,0,0,0,0,0,515,0,0,0,0,0.0000000,0.0000000,0.0000000,0.0000000,9.00,38.4062157,-110.7922440,1367.5999756,0.5,141.2,0.9,0.0,0.0,902,127,0,0,862.99,19.64,22.57,# data time:610,pm2.5:6.445,pm10:5.704,O2:0.000,NO2:0.000,SO2
10:24:37,0,0,0,0,0,0,0,0,0,0,0,514,0,0,0,0,0.0000000,0.0000000,0.0000000,0.0000000,9.00,38.4062119,-110.7922440,1367.5999756,0.3,124.9,0.9,0.0,0.0,901,124,0,0,862.98,19.58,22.56,# data time:610,pm2.5:6.445,pm10:5.704,O2:0.000,NO2:0.000,SO2
10:24:38,0,0,0,0,0,0,0,0,0,0,0,514,0,0,0,0,0.0000000,0.0000000,0.0000000,0.0000000,9.00,38.4062119,-110.7922440,1367.5999756,0.3,121.2,0.9,0.0,0.0,902,120,0,0,862.99,19.55,22.56,# data time:620,pm2.5:6.445,pm10:5.704,O2:0.000,NO2:0.000,SO2:0.000,NH3:3.952
10:24:39,0,0,0,0,0,0,0,0,0,0,0,515,0,0,0,0,0.0000000,0.0000000,0.0000000,0.0000000,9.00,38.4062119,-110.7922440,1367.5999756,0.2,73.2,0.9,0.0,0.0,903,125,0,0,862.96,19.53,22.56,# data time:620,pm2.5:6.445,pm10:5.704,O2:0.000,NO2:0.000,SO2:0.000,NH3:3.952
10:24:40,0,0,0,0,0,0,0,0,0,0,0,514,0,0,0,0,0.0000000,0.0000000,0.0000000,0.0000000,9.00,38.4062080,-110.7922287,1367.5999756,0.2,90.9,0.9,0.0,0.0,901,129,0,0,863.01,19.59,22.56,# data time:620,pm2.5:6.445,pm10:5.704,O2:0.000,NO2:0.000,SO2:0.000,NH3:3.952
10:24:41,0,0,0,0,0,0,0,0,0,0,0,515,0,0,0,0,0.0000000,0.0000000,0.0000000,0.0000000,9.00,38.4062042,-110.7922287,1367.5000000,0.2,124.3,0.9,0.0,0.0,903,124,0,0,862.94,19.64,22.56,# data time:620,pm2.5:6.445,pm10:5.704,O2:0.000,NO2:0.000,SO2:0.000,NH3:3.952
10:24:42,0,0,0,0,0,0,0,0,0,0,0,515,0,0,0,0,0.0000000,0.0000000,0.0000000,0.0000000,9.00,38.4062042,-110.7922287,1367.5000000,0.2,119.4,0.9,0.0,0.0,903,130,0,0,862.93,19.68,22.56,# data time:620,pm2.5:6.445,pm10:5.704,O2:0.000,NO2:0.000,SO2:0.000,NH3:3.952
10:24:43,0,0,0,0,0,0,0,0,0,0,0,515,0,0,0,0,0.0000000,0.0000000,0.0000000,0.0000000,9.00,38.4062004,-110.7922287,1367.4000244,0.1,242.9,0.9,0.0,0.0,901,128,0,0,862.95,19.73,22.56,# data time:620,pm2.5:6.445,pm10:5.704,O2:0.000,NO2:0.000,SO2:0.000,NH3:3.952
10:24:44,0,0,0,0,0,0,0,0,0,0,0,514,0,0,0,0,0.0000000,0.0000000,0.0000000,0.0000000,9.00,38.4062004,-110.7922287,1367.3000488,0.2,209.6,0.9,0.0,0.0,902,129,0,0,862.93,19.71,22.56,# data time:620,pm2.5:6.445,pm10:5.704,O2:0.000,NO2:0.000,SO2:0.000,NH3:3.952
10:24:45,0,0,0,0,0,0,0,0,0,0,0,514,0,0,0,0,0.0000000,0.0000000,0.0000000,0.0000000,9.00,38.4061966,-110.7922211,1367.1999512,0.2,206.1,0.9,0.0,0.0,899,128,0,0,862.96,19.73,22.56,# data time:620,pm2.5:6.445,pm10:5.704,O2:0.000,NO2:0.000,SO2:0.000,NH3:3.952
10:24:46,0,0,0,0,0,0,0,0,0,0,0,515,0,0,0,0,0.0000000,0.0000000,0.0000000,0.0000000,9.00,38.4061966,-110.7922211,1367.0999756,0.1,235.9,0.9,0.0,0.0,903,127,0,0,862.95,19.73,22.57,# data time:620,pm2.5:6.445,pm10:5.704,O2:0.000,NO2:0.000,SO2:0.000,NH3:3.952
10:24:47,0,0,0,0,0,0,0,0,0,0,0,515,0,0,0,0,0.0000000,0.0000000,0.0000000,0.0000000,9.00,38.4061966,-110.7922211,1367.0999756,0.2,235.9,0.9,0.0,0.0,901,128,0,0,862.99,19.75,22.57,# data time:620,pm2.5:6.445,pm10:5.704,O2:0.000,NO2:0.000,SO2:0.000,NH3:3.952
10:24:48,0,0,0,0,0,0,0,0,0,0,0,515,0,0,0,0,0.0000000,0.0000000,0.0000000,0.0000000,9.00,38.4061966,-110.7922211,1367.0000000,0.2,210.3,0.9,0.0,0.0,901,126,0,0,862.96,19.71,22.57,# data time:630,pm2.5:6.445,pm10:5.704,O2:0.000,NO2:0.000,SO2:0.000,NH3:4.178
10:24:49,0,0,0,0,0,0,0,0,0,0,0,515,0,0,0,0,0.0000000,0.0000000,0.0000000,0.0000000,9.00,38.4061966,-110.7922211,1366.9000244,0.1,161.9,0.9,0.0,0.0,901,128,0,0,862.93,19.73,22.57,# data time:630,pm2.5:6.445,pm10:5.704,O2:0.000,NO2:0.000,SO2:0.000,NH3:4.178
10:24:50,0,0,0,0,0,0,0,0,0,0,0,514,0,0,0,0,0.0000000,0.0000000,0.0000000,0.0000000,9.00,38.4061966,-110.7922211,1366.9000244,0.1,225.0,0.9,0.0,0.0,901,122,0,0,862.96,19.79,22.57,# data time:630,pm2.5:6.445,pm10:5.704,O2:0.000,NO2:0.000,SO2:0.000,NH3:4.178
10:24:51,0,0,0,0,0,0,0,0,0,0,0,514,0,0,0,0,0.0000000,0.0000000,0.0000000,0.0000000,9.00,38.4061928,-110.7922211,1366.8000488,0.2,200.1,0.9,0.0,0.0,901,125,0,0,862.94,19.79,22.57,# data time:630,pm2.5:6.445,pm10:5.704,O2:0.000,NO2:0.000,SO2:0.000,NH3:4.178
10:24:52,0,0,0,0,0,0,0,0,0,0,0,513,0,0,0,0,0.0000000,0.0000000,0.0000000,0.0000000,9.00,38.4061928,-110.7922211,1366.6999512,0.2,198.5,0.9,0.0,0.0,902,128,0,0,862.99,19.84,22.58,# data time:630,pm2.5:6.445,pm10:5.704,O2:0.000,NO2:0.000,SO2:0.000,NH3:4.178
10:24:53,0,0,0,0,0,0,0,0,0,0,0,515,0,0,0,0,0.0000000,0.0000000,0.0000000,0.0000000,9.00,38.4061928,-110.7922211,1366.6999512,0.1,194.0,0.9,0.0,0.0,902,128,0,0,862.91,19.85,22.58,# data time:630,pm2.5:6.445,pm10:5.704,O2:0.000,NO2:0.000,SO2:0.000,NH3:4.178
10:24:54,0,0,0,0,0,0,0,0,0,0,0,514,0,0,0,0,0.0000000,0.0000000,0.0000000,0.0000000,9.00,38.4061928,-110.7922211,1366.5000000,0.1,195.5,0.9,0.0,0.0,901,128,0,0,862.91,19.85,22.58,# data time:630,pm2.5:6.445,pm10:5.704,O2:0.000,NO2:0.000,SO2:0.000,NH3:4.178
10:24:55,0,0,0,0,0,0,0,0,0,0,0,514,0,0,0,0,0.0000000,0.0000000,0.0000000,0.0000000,9.00,38.4061966,-110.7922211,1366.4000244,0.1,217.9,0.9,0.0,0.0,901,125,0,0,862.96,19.85,22.59,# data time:630,pm2.5:6.445,pm10:5.704,O2:0.000,NO2:0.000,SO2:0.000,NH3:4.178
10:24:56,0,0,0,0,0,0,0,0,0,0,0,515,0,0,0,0,0.0000000,0.0000000,0.0000000,0.0000000,9.00,38.4061966,-110.7922211,1366.3000488,0.2,228.6,0.9,0.0,0.0,902,131,0,0,862.97,19.87,22.59,# data time:630,pm2.5:6.445,pm10:5.704,O2:0.000,NO2:0.000,SO2:0.000,NH3:4.178
10:24:57,0,0,0,0,0,0,0,0,0,0,0,514,0,0,0,0,0.0000000,0.0000000,0.0000000,0.0000000,9.00,38.4061966,-110.7922211,1366.0999756,0.3,233.8,0.9,0.0,0.0,901,126,0,0,862.93,19.85,22.59,# data time:640,pm2.5:6.445,pm10:5.704,O2:0.000,NO2:0.000,SO2:0.000,NH3:4.178
10:24:58,0,0,0,0,0,0,0,0,0,0,0,514,0,0,0,0,0.0000000,0.0000000,0.0000000,0.0000000,9.00,38.4061966,-110.7922211,1366.0000000,0.2,195.4,0.9,0.0,0.0,901,125,0,0,862.97,19.85,22.59,# data time:640,pm2.5:6.445,pm10:5.704,O2:0.000,NO2:0.000,SO2:0.000,NH3:4.178
10:24:59,0,0,0,0,0,0,0,0,0,0,0,515,0,0,0,0,0.0000000,0.0000000,0.0000000,0.0000000,9.00,38.4061966,-110.7922211,1365.9000244,0.2,141.0,0.9,0.0,0.0,901,125,0,0,862.95,19.84,22.59,# data time:640,pm2.5:6.445,pm10:5.704,O2:0.000,NO2:0.000,SO2:0.000,NH3:4.178
10:25:00,0,0,0,0,0,0,0,0,0,0,0,515,0,0,0,0,0.0000000,0.0000000,0.0000000,0.0000000,9.00,38.4061966,-110.7922211,1365.8000488,0.1,198.9,0.9,0.0,0.0,899,126,0,0,862.97,19.85,22.59,# data time:640,pm2.5:6.445,pm10:5.704,O2:0.000,NO2:0.000,SO2:0.000,NH3:4.178
10:25:01,0,0,0,0,0,0,0,0,0,0,0,515,0,0,0,0,0.0000000,0.0000000,0.0000000,0.0000000,9.00,38.4061966,-110.7922211,1365.6999512,0.0,241.5,0.9,0.0,0.0,900,127,0,0,862.93,19.85,22.59,# data time:640,pm2.5:6.445,pm10:5.704,O2:0.000,NO2:0.000,SO2:0.000,NH3:4.178
10:25:03,0,0,0,0,0,0,0,0,0,0,0,515,0,0,0,0,0.0000000,0.0000000,0.0000000,0.0000000,9.00,38.4062004,-110.7922211,1365.5999756,0.0,268.8,0.9,0.0,0.0,902,127,0,0,862.97,19.84,22.60,# data time:640,pm2.5:6.445,pm10:5.704,O2:0.000,NO2:0.000,SO2:0.000,NH3:4.178
10:25:04,0,0,0,0,0,0,0,0,0,0,0,515,0,0,0,0,0.0000000,0.0000000,0.0000000,0.0000000,9.00,38.4062004,-110.7922211,1365.4000244,0.1,208.4,0.9,0.0,0.0,899,129,0,0,862.92,19.82,22.60,# data time:640,pm2.5:6.445,pm10:5.704,O2:0.000,NO2:0.000,SO2:0.000,NH3:4.178
10:25:05,0,0,0,0,0,0,0,0,0,0,0,514,0,0,0,0,0.0000000,0.0000000,0.0000000,0.0000000,9.00,38.4061966,-110.7922211,1365.3000488,0.2,154.6,0.9,0.0,0.0,900,127,0,0,862.96,19.78,22.60,# data time:640,pm2.5:6.445,pm10:5.704,O2:0.000,NO2:0.000,SO2:0.000,NH3:4.178
10:25:06,0,0,0,0,0,0,0,0,0,0,0,515,0,0,0,0,0.0000000,0.0000000,0.0000000,0.0000000,9.00,38.4062004,-110.7922211,1365.0999756,0.1,152.6,0.9,0.0,0.0,900,125,0,0,862.92,19.75,22.60,# data time:640,pm2.5:6.445,pm10:5.704,O2:0.000,NO2:0.000,SO2:0.000,NH3:4.178
10:25:07,0,0,0,0,0,0,0,0,0,0,0,514,0,0,0,0,0.0000000,0.0000000,0.0000000,0.0000000,9.00,38.4062004,-110.7922058,1365.0000000,0.2,151.8,0.9,0.0,0.0,902,127,0,0,862.95,19.76,22.60,# data time:640,pm2.5:6.445,pm10:5.704,O2:0.000,NO2:0.000,SO2:0.000,NH3:4.178
10:25:08,0,0,0,0,0,0,0,0,0,0,0,514,0,0,0,0,0.0000000,0.0000000,0.0000000,0.0000000,9.00,38.4062004,-110.7922058,1364.9000244,0.2,161.9,0.9,0.0,0.0,901,129,0,0,862.94,19.70,22.60,# data time:650,pm2.5:6.445,pm10:5.704,O2:0.000,NO2:0.000,SO2:0.000,NH3:4.178
10:25:09,0,0,0,0,0,0,0,0,0,0,0,515,0,0,0,0,0.0000000,0.0000000,0.0000000,0.0000000,9.00,38.4062004,-110.7922058,1364.8000488,0.3,143.9,0.9,0.0,0.0,900,127,0,0,862.91,19.64,22.60,# data time:650,pm2.5:6.445,pm10:5.704,O2:0.000,NO2:0.000,SO2:0.000,NH3:4.178
10:25:10,0,0,0,0,0,0,0,0,0,0,0,514,0,0,0,0,0.0000000,0.0000000,0.0000000,0.0000000,9.00,38.4062042,-110.7922058,1364.6999512,0.2,128.3,0.9,0.0,0.0,901,126,0,0,862.97,19.64,22.60,# data time:650,pm2.5:6.445,pm10:5.704,O2:0.000,NO2:0.000,SO2:0.000,NH3:4.178
10:25:11,0,0,0,0,0,0,0,0,0,0,0,515,0,0,0,0,0.0000000,0.0000000,0.0000000,0.0000000,9.00,38.4062080,-110.7922058,1364.6999512,0.3,107.5,0.9,0.0,0.0,900,127,0,0,862.95,19.61,22.60,# data time:650,pm2.5:6.445,pm10:5.704,O2:0.000,NO2:0.000,SO2:0.000,NH3:4.178
10:25:12,0,0,0,0,0,0,0,0,0,0,0,515,0,0,0,0,0.0000000,0.0000000,0.0000000,0.0000000,9.00,38.4062080,-110.7922058,1364.6999512,0.2,128.9,0.9,0.0,0.0,900,127,0,0,862.99,19.58,22.61,# data time:650,pm2.5:6.445,pm10:5.704,O2:0.000,NO2:0.000,SO2:0.000,NH3:4.178
10:25:13,0,0,0,0,0,0,0,0,0,0,0,515,0,0,0,0,0.0000000,0.0000000,0.0000000,0.0000000,9.00,38.4062119,-110.7921906,1364.6999512,0.2,112.1,0.9,0.0,0.0,901,127,0,0,862.99,19.56,22.61,# data time:650,pm2.5:6.445,pm10:5.704,O2:0.000,NO2:0.000,SO2:0.000,NH3:4.178
10:25:14,0,0,0,0,0,0,0,0,0,0,0,515,0,0,0,0,0.0000000,0.0000000,0.0000000,0.0000000,9.00,38.4062157,-110.7921906,1364.6999512,0.1,44.1,0.9,0.0,0.0,901,129,0,0,862.93,19.53,22.51,# data time:650,pm2.5:6.445,pm10:5.704,O2:0.000,NO2:0.000,SO2:0.000,NH3:4.178
10:25:15,0,0,0,0,0,0,0,0,0,0,0,515,0,0,0,0,0.0000000,0.0000000,0.0000000,0.0000000,9.00,38.4062157,-110.7921906,1364.5999756,0.2,59.9,0.9,0.0,0.0,901,126,0,0,862.91,19.55,22.56,# data time:650,pm2.5:6.445,pm10:5.704,O2:0.000,NO2:0.000,SO2:0.000,NH3:4.178
10:25:16,0,0,0,0,0,0,0,0,0,0,0,515,0,0,0,0,0.0000000,0.0000000,0.0000000,0.0000000,9.00,38.4062195,-110.7921906,1364.5999756,0.2,59.9,0.9,0.0,0.0,901,127,0,0,862.92,19.52,22.50,# data time:650,pm2.5:6.445,pm10:5.704,O2:0.000,NO2:0.000,SO2:0.000,NH3:4.178
10:25:17,0,0,0,0,0,0,0,0,0,0,0,514,0,0,0,0,0.0000000,0.0000000,0.0000000,0.0000000,9.00,38.4062195,-110.7921906,1364.5999756,0.2,59.9,0.9,0.0,0.0,902,125,0,0,862.96,19.53,22.56,# data time:650,pm2.5:6.445,pm10:5.704,O2:0.000,NO2:0.000,SO2:0.000,NH3:4.178
10:25:18,0,0,0,0,0,0,0,0,0,0,0,515,0,0,0,0,0.0000000,0.0000000,0.0000000,0.0000000,9.00,38.4062195,-110.7921906,1364.5999756,0.1,1.9,0.9,0.0,0.0,900,126,0,0,862.97,19.55,22.61,# data time:660,pm2.5:6.445,pm10:5.704,O2:0.000,NO2:0.000,SO2:0.000,NH3:4.178
10:25:19,0,0,0,0,0,0,0,0,0,0,0,514,0,0,0,0,0.0000000,0.0000000,0.0000000,0.0000000,9.00,38.4062195,-110.7921906,1364.5000000,0.1,44.6,0.9,0.0,0.0,901,126,0,0,862.92,19.55,22.61,# data time:660,pm2.5:6.445,pm10:5.704,O2:0.000,NO2:0.000,SO2:0.000,NH3:4.178
10:25:20,0,0,0,0,0,0,0,0,0,0,0,514,0,0,0,0,0.0000000,0.0000000,0.0000000,0.0000000,9.00,38.4062195,-110.7921906,1364.5000000,0.1,117.2,0.9,0.0,0.0,902,129,0,0,862.92,19.52,22.61,# data time:660,pm2.5:6.445,pm10:5.704,O2:0.000,NO2:0.000,SO2:0.000,NH3:4.178
10:25:21,0,0,0,0,0,0,0,0,0,0,0,514,0,0,0,0,0.0000000,0.0000000,0.0000000,0.0000000,9.00,38.4062195,-110.7921906,1364.5000000,0.2,123.4,0.9,0.0,0.0,901,126,0,0,862.96,19.50,22.61,# data time:660,pm2.5:6.445,pm10:5.704,O2:0.000,NO2:0.000,SO2:0.000,NH3:4.178
10:25:22,0,0,0,0,0,0,0,0,0,0,0,515,0,0,0,0,0.0000000,0.0000000,0.0000000,0.0000000,9.00,38.4062195,-110.7921906,1364.5000000,0.1,184.3,0.9,0.0,0.0,900,133,0,0,862.97,19.50,22.61,# data time:660,pm2.5:6.445,pm10:5.704,O2:0.000,NO2:0.000,SO2:0.000,NH3:4.178
10:25:23,0,0,0,0,0,0,0,0,0,0,0,515,0,0,0,0,0.0000000,0.0000000,0.0000000,0.0000000,9.00,38.4062195,-110.7921906,1364.5000000,0.1,191.6,0.9,0.0,0.0,900,126,0,0,862.98,19.50,22.62,# data time:660,pm2.5:6.445,pm10:5.704,O2:0.000,NO2:0.000,SO2:0.000,NH3:4.178
10:25:24,0,0,0,0,0,0,0,0,0,0,0,514,0,0,0,0,0.0000000,0.0000000,0.0000000,0.0000000,9.00,38.4062195,-110.7921906,1364.5000000,0.2,168.6,0.9,0.0,0.0,901,126,0,0,862.97,19.52,22.62,# data time:660,pm2.5:6.445,pm10:5.704,O2:0.000,NO2:0.000,SO2:0.000,NH3:4.178
10:25:25,0,0,0,0,0,0,0,0,0,0,0,515,0,0,0,0,0.0000000,0.0000000,0.0000000,0.0000000,9.00,38.4062157,-110.7921906,1364.5000000,0.2,166.7,0.9,0.0,0.0,901,127,0,0,862.93,19.50,22.62,# data time:660,pm2.5:6.445,pm10:5.704,O2:0.000,NO2:0.000,SO2:0.000,NH3:4.178
10:25:26,0,0,0,0,0,0,0,0,0,0,0,515,0,0,0,0,0.0000000,0.0000000,0.0000000,0.0000000,9.00,38.4062157,-110.7921906,1364.5000000,0.3,156.4,0.9,0.0,0.0,901,131,0,0,862.98,19.53,22.62,# data time:660,pm2.5:6.445,pm10:5.704,O2:0.000,NO2:0.000,SO2:0.000,NH3:4.178
10:25:27,0,0,0,0,0,0,0,0,0,0,0,514,0,0,0,0,0.0000000,0.0000000,0.0000000,0.0000000,9.00,38.4062157,-110.7921906,1364.5000000,0.2,153.1,0.9,0.0,0.0,901,126,0,0,862.95,19.53,22.62,# data time:660,pm2.5:6.445,pm10:5.704,O2:0.000,NO2:0.000,SO2:0.000,NH3:4.178
10:25:28,0,0,0,0,0,0,0,0,0,0,0,514,0,0,0,0,0.0000000,0.0000000,0.0000000,0.0000000,9.00,38.4062157,-110.7921906,1364.5000000,0.2,213.1,0.9,0.0,0.0,900,128,0,0,862.98,19.55,22.62,# data time:670,pm2.5:6.445,pm10:5.704,O2:0.000,NO2:0.000,SO2:0.000,NH3:4.178
10:25:29,0,0,0,0,0,0,0,0,0,0,0,515,0,0,0,0,0.0000000,0.0000000,0.0000000,0.0000000,9.00,38.4062195,-110.7921906,1364.5000000,0.2,207.9,0.9,0.0,0.0,901,127,0,0,862.95,19.53,22.62,# data time:670,pm2.5:6.445,pm10:5.704,O2:0.000,NO2:0.000,SO2:0.000,NH3:4.178
10:25:30,0,0,0,0,0,0,0,0,0,0,0,514,0,0,0,0,0.0000000,0.0000000,0.0000000,0.0000000,9.00,38.4062195,-110.7921906,1364.4000244,0.0,245.5,0.9,0.0,0.0,899,117,0,0,862.98,19.50,22.62,# data time:670,pm2.5:6.445,pm10:5.704,O2:0.000,NO2:0.000,SO2:0.000,NH3:4.178
10:25:31,0,0,0,0,0,0,0,0,0,0,0,514,0,0,0,0,0.0000000,0.0000000,0.0000000,0.0000000,9.00,38.4062195,-110.7922058,1364.5000000,0.0,35.4,0.9,0.0,0.0,901,115,0,0,862.96,19.52,22.62,# data time:670,pm2.5:6.445,pm10:5.704,O2:0.000,NO2:0.000,SO2:0.000,NH3:4.178
10:25:32,0,0,0,0,0,0,0,0,0,0,0,514,0,0,0,0,0.0000000,0.0000000,0.0000000,0.0000000,9.00,38.4062195,-110.7922058,1364.5000000,0.1,2.9,0.9,0.0,0.0,901,127,0,0,862.93,19.47,22.63,# data time:670,pm2.5:6.445,pm10:5.704,O2:0.000,NO2:0.000,SO2:0.000,NH3:4.178
10:25:33,0,0,0,0,0,0,0,0,0,0,0,515,0,0,0,0,0.0000000,0.0000000,0.0000000,0.0000000,9.00,38.4062195,-110.7922058,1364.5000000,0.0,324.7,0.9,0.0,0.0,900,123,0,0,862.93,19.47,22.63,# data time:670,pm2.5:6.445,pm10:5.704,O2:0.000,NO2:0.000,SO2:0.000,NH3:4.178
10:25:34,0,0,0,0,0,0,0,0,0,0,0,515,0,0,0,0,0.0000000,0.0000000,0.0000000,0.0000000,9.00,38.4062195,-110.7922058,1364.5000000,0.2,342.2,0.9,0.0,0.0,900,128,0,0,862.93,19.46,22.63,# data time:670,pm2.5:6.445,pm10:5.704,O2:0.000,NO2:0.000,SO2:0.000,NH3:4.178
10:25:35,0,0,0,0,0,0,0,0,0,0,0,515,0,0,0,0,0.0000000,0.0000000,0.0000000,0.0000000,9.00,38.4062233,-110.7922058,1364.5000000,0.3,0.7,0.9,0.0,0.0,902,133,0,0,862.95,19.42,22.63,# data time:670,pm2.5:6.445,pm10:5.704,O2:0.000,NO2:0.000,SO2:0.000,NH3:4.178
10:25:36,0,0,0,0,0,0,0,0,0,0,0,515,0,0,0,0,0.0000000,0.0000000,0.0000000,0.0000000,9.00,38.4062233,-110.7922058,1364.4000244,0.2,348.4,0.9,0.0,0.0,901,126,0,0,862.92,19.46,22.63,# data time:670,pm2.5:6.445,pm10:5.704,O2:0.000,NO2:0.000,SO2:0.000,NH3:4.178
10:25:37,0,0,0,0,0,0,0,0,0,0,0,515,0,0,0,0,0.0000000,0.0000000,0.0000000,0.0000000,9.00,38.4062233,-110.7922058,1364.4000244,0.1,349.1,0.9,0.0,0.0,899,126,0,0,862.88,19.46,22.63,# data time:680,pm2.5:6.445,pm10:5.704,O2:0.000,NO2:0.000,SO2:0.000,NH3:4.178
10:25:38,0,0,0,0,0,0,0,0,0,0,0,514,0,0,0,0,0.0000000,0.0000000,0.0000000,0.0000000,9.00,38.4062233,-110.7922058,1364.4000244,0.1,331.5,0.9,0.0,0.0,901,127,0,0,862.94,19.49,22.63,# data time:680,pm2.5:6.445,pm10:5.704,O2:0.000,NO2:0.000,SO2:0.000,NH3:4.178
10:25:39,0,0,0,0,0,0,0,0,0,0,0,514,0,0,0,0,0.0000000,0.0000000,0.0000000,0.0000000,9.00,38.4062233,-110.7922058,1364.4000244,0.1,11.9,0.9,0.0,0.0,900,131,0,0,862.95,19.55,22.63,# data time:680,pm2.5:6.445,pm10:5.704,O2:0.000,NO2:0.000,SO2:0.000,NH3:4.178
10:25:40,0,0,0,0,0,0,0,0,0,0,0,514,0,0,0,0,0.0000000,0.0000000,0.0000000,0.0000000,9.00,38.4062309,-110.7922058,1364.4000244,0.1,233.9,0.9,0.0,0.0,900,126,0,0,862.97,19.50,22.64,# data time:680,pm2.5:6.445,pm10:5.704,O2:0.000,NO2:0.000,SO2:0.000,NH3:4.178
10:25:41,0,0,0,0,0,0,0,0,0,0,0,514,0,0,0,0,0.0000000,0.0000000,0.0000000,0.0000000,9.00,38.4062271,-110.7922058,1364.4000244,0.1,158.4,0.9,0.0,0.0,900,125,0,0,862.96,19.53,22.64,# data time:680,pm2.5:6.445,pm10:5.704,O2:0.000,NO2:0.000,SO2:0.000,NH3:4.178
10:25:42,0,0,0,0,0,0,0,0,0,0,0,515,0,0,0,0,0.0000000,0.0000000,0.0000000,0.0000000,9.00,38.4062271,-110.7921906,1364.4000244,0.2,104.6,0.9,0.0,0.0,900,125,0,0,862.94,19.50,22.64,# data time:680,pm2.5:6.445,pm10:5.704,O2:0.000,NO2:0.000,SO2:0.000,NH3:4.178
10:25:44,0,0,0,0,0,0,0,0,0,0,0,513,0,0,0,0,0.0000000,0.0000000,0.0000000,0.0000000,9.00,38.4062309,-110.7922058,1364.5000000,0.1,130.6,0.9,0.0,0.0,901,128,0,0,862.94,19.46,22.64,# data time:680,pm2.5:6.445,pm10:5.704,O2:0.000,NO2:0.000,SO2:0.000,NH3:4.178
10:25:45,0,0,0,0,0,0,0,0,0,0,0,514,0,0,0,0,0.0000000,0.0000000,0.0000000,0.0000000,9.00,38.4062309,-110.7922058,1364.5000000,0.1,272.2,0.9,0.0,0.0,901,127,0,0,862.92,19.44,22.64,# data time:680,pm2.5:6.445,pm10:5.704,O2:0.000,NO2:0.000,SO2:0.000,NH3:4.178
10:25:46,0,0,0,0,0,0,0,0,0,0,0,514,0,0,0,0,0.0000000,0.0000000,0.0000000,0.0000000,9.00,38.4062309,-110.7922058,1364.5000000,0.1,77.2,0.9,0.0,0.0,902,125,0,0,862.94,19.39,22.64,# data time:680,pm2.5:6.445,pm10:5.704,O2:0.000,NO2:0.000,SO2:0.000,NH3:4.178
10:25:47,0,0,0,0,0,0,0,0,0,0,0,516,0,0,0,0,0.0000000,0.0000000,0.0000000,0.0000000,9.00,38.4062309,-110.7922058,1364.5000000,0.0,101.7,0.9,0.0,0.0,902,126,0,0,862.97,19.38,22.64,# data time:680,pm2.5:6.445,pm10:5.704,O2:0.000,NO2:0.000,SO2:0.000,NH3:4.178
10:25:48,0,0,0,0,0,0,0,0,0,0,0,514,0,0,0,0,0.0000000,0.0000000,0.0000000,0.0000000,9.00,38.4062309,-110.7922058,1364.5000000,0.1,98.1,0.9,0.0,0.0,901,123,0,0,862.91,19.44,22.64,# data time:690,pm2.5:6.445,pm10:5.704,O2:0.000,NO2:0.000,SO2:0.000,NH3:4.178
10:25:49,0,0,0,0,0,0,0,0,0,0,0,515,0,0,0,0,0.0000000,0.0000000,0.0000000,0.0000000,9.00,38.4062309,-110.7922058,1364.5000000,0.0,355.6,0.9,0.0,0.0,901,125,0,0,862.95,19.44,22.64,# data time:690,pm2.5:6.445,pm10:5.704,O2:0.000,NO2:0.000,SO2:0.000,NH3:4.178
10:25:50,0,0,0,0,0,0,0,0,0,0,0,514,0,0,0,0,0.0000000,0.0000000,0.0000000,0.0000000,9.00,38.4062309,-110.7922058,1364.5000000,0.1,58.6,0.9,0.0,0.0,902,131,0,0,862.93,19.42,22.65,# data time:690,pm2.5:6.445,pm10:5.704,O2:0.000,NO2:0.000,SO2:0.000,NH3:4.178
10:25:51,0,0,0,0,0,0,0,0,0,0,0,514,0,0,0,0,0.0000000,0.0000000,0.0000000,0.0000000,9.00,38.4062347,-110.7922058,1364.5000000,0.1,208.8,0.9,0.0,0.0,900,126,0,0,862.94,19.44,22.65,# data time:690,pm2.5:6.445,pm10:5.704,O2:0.000,NO2:0.000,SO2:0.000,NH3:4.178
10:25:52,0,0,0,0,0,0,0,0,0,0,0,514,0,0,0,0,0.0000000,0.0000000,0.0000000,0.0000000,9.00,38.4062309,-110.7922058,1364.5000000,0.2,191.9,0.9,0.0,0.0,901,128,0,0,862.92,19.47,22.56,# data time:690,pm2.5:6.445,pm10:5.704,O2:0.000,NO2:0.000,SO2:0.000,NH3:4.178
10:25:53,0,0,0,0,0,0,0,0,0,0,0,515,0,0,0,0,0.0000000,0.0000000,0.0000000,0.0000000,9.00,38.4062309,-110.7922058,1364.5000000,0.3,206.0,0.9,0.0,0.0,900,132,0,0,862.95,19.49,22.62,# data time:690,pm2.5:6.445,pm10:5.704,O2:0.000,NO2:0.000,SO2:0.000,NH3:4.178
10:25:54,0,0,0,0,0,0,0,0,0,0,0,514,0,0,0,0,0.0000000,0.0000000,0.0000000,0.0000000,9.00,38.4062309,-110.7922058,1364.5000000,0.3,206.0,0.9,0.0,0.0,900,125,0,0,862.92,19.49,22.61,# data time:690,pm2.5:6.445,pm10:5.704,O2:0.000,NO2:0.000,SO2:0.000,NH3:4.178
10:25:55,0,0,0,0,0,0,0,0,0,0,0,515,0,0,0,0,0.0000000,0.0000000,0.0000000,0.0000000,9.00,38.4062271,-110.7922058,1364.5000000,0.2,144.0,0.9,0.0,0.0,900,129,0,0,862.92,19.46,22.66,# data time:690,pm2.5:6.445,pm10:5.704,O2:0.000,NO2:0.000,SO2:0.000,NH3:4.178
10:25:56,0,0,0,0,0,0,0,0,0,0,0,514,0,0,0,0,0.0000000,0.0000000,0.0000000,0.0000000,9.00,38.4062271,-110.7922058,1364.5000000,0.1,139.7,0.9,0.0,0.0,901,129,0,0,862.98,19.44,22.66,# data time:690,pm2.5:6.445,pm10:5.704,O2:0.000,NO2:0.000,SO2:0.000,NH3:4.178
10:25:57,0,0,0,0,0,0,0,0,0,0,0,515,0,0,0,0,0.0000000,0.0000000,0.0000000,0.0000000,9.00,38.4062271,-110.7922058,1364.5000000,0.0,289.7,0.9,0.0,0.0,901,136,0,0,862.94,19.42,22.66,# data time:690,pm2.5:6.445,pm10:5.704,O2:0.000,NO2:0.000,SO2:0.000,NH3:4.178
10:25:58,0,0,0,0,0,0,0,0,0,0,0,514,0,0,0,0,0.0000000,0.0000000,0.0000000,0.0000000,9.00,38.4062233,-110.7921906,1364.4000244,0.1,111.3,0.9,0.0,0.0,901,127,0,0,862.92,19.39,22.66,# data time:700,pm2.5:6.445,pm10:5.704,O2:0.000,NO2:0.000,SO2:0.000,NH3:4.178
10:25:59,0,0,0,0,0,0,0,0,0,0,0,515,0,0,0,0,0.0000000,0.0000000,0.0000000,0.0000000,9.00,38.4062233,-110.7921906,1364.3000488,0.3,78.9,0.9,0.0,0.0,898,131,0,0,862.92,19.35,22.67,# data time:700,pm2.5:6.445,pm10:5.704,O2:0.000,NO2:0.000,SO2:0.000,NH3:4.178
10:26:00,0,0,0,0,0,0,0,0,0,0,0,515,0,0,0,0,0.0000000,0.0000000,0.0000000,0.0000000,9.00,38.4062195,-110.7921906,1364.3000488,0.2,100.3,0.9,0.0,0.0,900,126,0,0,862.98,19.36,22.67,# data time:700,pm2.5:6.445,pm10:5.704,O2:0.000,NO2:0.000,SO2:0.000,NH3:4.178
10:26:01,0,0,0,0,0,0,0,0,0,0,0,516,0,0,0,0,0.0000000,0.0000000,0.0000000,0.0000000,9.00,38.4062195,-110.7921906,1364.3000488,0.2,92.6,0.9,0.0,0.0,899,127,0,0,862.94,19.33,22.68,# data time:700,pm2.5:6.445,pm10:5.704,O2:0.000,NO2:0.000,SO2:0.000,NH3:4.178
10:26:02,0,0,0,0,0,0,0,0,0,0,0,514,0,0,0,0,0.0000000,0.0000000,0.0000000,0.0000000,9.00,38.4062195,-110.7921906,1364.3000488,0.2,59.5,0.9,0.0,0.0,898,131,0,0,862.91,19.30,22.68,# data time:700,pm2.5:6.445,pm10:5.704,O2:0.000,NO2:0.000,SO2:0.000,NH3:4.178
10:26:03,0,0,0,0,0,0,0,0,0,0,0,515,0,0,0,0,0.0000000,0.0000000,0.0000000,0.0000000,9.00,38.4062195,-110.7921906,1364.3000488,0.1,14.8,0.9,0.0,0.0,901,123,0,0,862.91,19.35,22.68,# data time:700,pm2.5:6.445,pm10:5.704,O2:0.000,NO2:0.000,SO2:0.000,NH3:4.178
10:26:04,0,0,0,0,0,0,0,0,0,0,0,514,0,0,0,0,0.0000000,0.0000000,0.0000000,0.0000000,9.00,38.4062233,-110.7921906,1364.3000488,0.1,353.8,0.9,0.0,0.0,901,125,0,0,862.94,19.49,22.67,# data time:700,pm2.5:6.445,pm10:5.704,O2:0.000,NO2:0.000,SO2:0.000,NH3:4.178
10:26:05,0,0,0,0,0,0,0,0,0,0,0,515,0,0,0,0,0.0000000,0.0000000,0.0000000,0.0000000,9.00,38.4062233,-110.7921906,1364.3000488,0.2,20.7,0.9,0.0,0.0,901,120,0,0,862.96,19.68,22.67,# data time:700,pm2.5:6.445,pm10:5.704,O2:0.000,NO2:0.000,SO2:0.000,NH3:4.178
10:26:06,0,0,0,0,0,0,0,0,0,0,0,514,0,0,0,0,0.0000000,0.0000000,0.0000000,0.0000000,9.00,38.4062233,-110.7921906,1364.3000488,0.3,28.4,0.9,0.0,0.0,900,129,0,0,862.96,19.84,22.68,# data time:700,pm2.5:6.445,pm10:5.704,O2:0.000,NO2:0.000,SO2:0.000,NH3:4.178
10:26:07,0,0,0,0,0,0,0,0,0,0,0,514,0,0,0,0,0.0000000,0.0000000,0.0000000,0.0000000,9.00,38.4062233,-110.7921906,1364.1999512,0.3,43.8,0.9,0.0,0.0,900,128,0,0,862.93,19.88,22.68,# data time:700,pm2.5:6.445,pm10:5.704,O2:0.000,NO2:0.000,SO2:0.000,NH3:4.178
10:26:08,0,0,0,0,0,0,0,0,0,0,0,514,0,0,0,0,0.0000000,0.0000000,0.0000000,0.0000000,9.00,38.4062271,-110.7921829,1364.1999512,0.1,51.9,0.9,0.0,0.0,901,124,0,0,862.95,19.85,22.67,# data time:710,pm2.5:6.445,pm10:5.704,O2:0.000,NO2:0.000,SO2:0.000,NH3:4.178
10:26:09,0,0,0,0,0,0,0,0,0,0,0,514,0,0,0,0,0.0000000,0.0000000,0.0000000,0.0000000,9.00,38.4062271,-110.7921829,1364.1999512,0.1,55.3,0.9,0.0,0.0,899,128,0,0,862.96,19.85,22.68,# data time:710,pm2.5:6.445,pm10:5.704,O2:0.000,NO2:0.000,SO2:0.000,NH3:4.178
10:26:10,0,0,0,0,0,0,0,0,0,0,0,514,0,0,0,0,0.0000000,0.0000000,0.0000000,0.0000000,9.00,38.4062271,-110.7921829,1364.1999512,0.1,78.8,0.9,0.0,0.0,900,127,0,0,862.94,19.82,22.68,# data time:710,pm2.5:6.445,pm10:5.704,O2:0.000,NO2:0.000,SO2:0.000,NH3:4.178
10:26:11,0,0,0,0,0,0,0,0,0,0,0,515,0,0,0,0,0.0000000,0.0000000,0.0000000,0.0000000,9.00,38.4062271,-110.7921829,1364.1999512,0.2,68.1,0.9,0.0,0.0,899,125,0,0,862.92,19.81,22.67,# data time:710,pm2.5:6.445,pm10:5.704,O2:0.000,NO2:0.000,SO2:0.000,NH3:4.178
10:26:12,0,0,0,0,0,0,0,0,0,0,0,515,0,0,0,0,0.0000000,0.0000000,0.0000000,0.0000000,9.00,38.4062271,-110.7921829,1364.1999512,0.3,64.1,0.9,0.0,0.0,901,126,0,0,862.96,19.79,22.68,# data time:710,pm2.5:6.445,pm10:5.704,O2:0.000,NO2:0.000,SO2:0.000,NH3:4.178
10:26:13,0,0,0,0,0,0,0,0,0,0,0,515,0,0,0,0,0.0000000,0.0000000,0.0000000,0.0000000,9.00,38.4062271,-110.7921829,1364.1999512,0.1,349.4,0.9,0.0,0.0,900,128,0,0,862.93,19.81,22.68,# data time:710,pm2.5:6.445,pm10:5.704,O2:0.000,NO2:0.000,SO2:0.000,NH3:4.178
10:26:14,0,0,0,0,0,0,0,0,0,0,0,516,0,0,0,0,0.0000000,0.0000000,0.0000000,0.0000000,9.00,38.4062271,-110.7921829,1364.1999512,0.1,283.7,0.9,0.0,0.0,900,127,0,0,862.93,19.78,22.68,# data time:710,pm2.5:6.445,pm10:5.704,O2:0.000,NO2:0.000,SO2:0.000,NH3:4.178
10:26:15,0,0,0,0,0,0,0,0,0,0,0,515,0,0,0,0,0.0000000,0.0000000,0.0000000,0.0000000,9.00,38.4062271,-110.7921829,1364.1999512,0.1,345.1,0.9,0.0,0.0,901,127,0,0,862.96,19.81,22.68,# data time:710,pm2.5:6.445,pm10:5.704,O2:0.000,NO2:0.000,SO2:0.000,NH3:4.178
10:26:16,0,0,0,0,0,0,0,0,0,0,0,516,0,0,0,0,0.0000000,0.0000000,0.0000000,0.0000000,9.00,38.4062271,-110.7921829,1364.1999512,0.0,335.9,0.9,0.0,0.0,898,127,0,0,862.96,19.82,22.68,# data time:710,pm2.5:6.445,pm10:5.704,O2:0.000,NO2:0.000,SO2:0.000,NH3:4.178
10:26:17,0,0,0,0,0,0,0,0,0,0,0,514,0,0,0,0,0.0000000,0.0000000,0.0000000,0.0000000,9.00,38.4062271,-110.7921829,1364.1999512,0.0,300.3,0.9,0.0,0.0,900,126,0,0,862.99,19.84,22.68,# data time:720,pm2.5:6.445,pm10:5.704,O2:0.000,NO2:0.010,SO2:0.000,NH3:4.178
10:26:18,0,0,0,0,0,0,0,0,0,0,0,515,0,0,0,0,0.0000000,0.0000000,0.0000000,0.0000000,9.00,38.4062271,-110.7921829,1364.1999512,0.2,278.2,0.9,0.0,0.0,899,130,0,0,862.91,19.81,22.69,# data time:720,pm2.5:6.445,pm10:5.704,O2:0.000,NO2:0.010,SO2:0.000,NH3:4.178
10:26:19,0,0,0,0,0,0,0,0,0,0,0,525,0,0,0,0,0.0000000,0.0000000,0.0000000,0.0000000,9.00,38.4062271,-110.7921829,1364.1999512,0.1,300.9,0.9,0.0,0.0,898,125,0,0,862.97,19.79,22.68,# data time:720,pm2.5:6.445,pm10:5.704,O2:0.000,NO2:0.010,SO2:0.000,NH3:4.178
10:26:20,0,0,0,0,0,0,0,0,0,0,0,514,0,0,0,0,0.0000000,0.0000000,0.0000000,0.0000000,9.00,38.4062271,-110.7921829,1364.1999512,0.1,316.0,0.9,0.0,0.0,900,130,0,0,862.96,19.76,22.69,# data time:720,pm2.5:6.445,pm10:5.704,O2:0.000,NO2:0.010,SO2:0.000,NH3:4.178
10:26:22,0,0,0,0,0,0,0,0,0,0,0,515,0,0,0,0,0.0000000,0.0000000,0.0000000,0.0000000,9.00,38.4062271,-110.7921829,1364.1999512,0.1,18.8,0.9,0.0,0.0,899,129,0,0,862.92,19.70,22.68,# data time:720,pm2.5:6.445,pm10:5.704,O2:0.000,NO2:0.010,SO2:0.000,NH3:4.178
10:26:23,0,0,0,0,0,0,0,0,0,0,0,516,0,0,0,0,0.0000000,0.0000000,0.0000000,0.0000000,9.00,38.4062309,-110.7921829,1364.1999512,0.1,84.9,0.9,0.0,0.0,900,126,0,0,862.93,19.70,22.68,# data time:720,pm2.5:6.445,pm10:5.704,O2:0.000,NO2:0.010,SO2:0.000,NH3:4.178
10:26:24,0,0,0,0,0,0,0,0,0,0,0,515,0,0,0,0,0.0000000,0.0000000,0.0000000,0.0000000,9.00,38.4062309,-110.7921829,1364.1999512,0.1,185.1,0.9,0.0,0.0,902,125,0,0,862.93,19.67,22.69,# data time:720,pm2.5:6.445,pm10:5.704,O2:0.000,NO2:0.010,SO2:0.000,NH3:4.178
10:26:25,0,0,0,0,0,0,0,0,0,0,0,515,0,0,0,0,0.0000000,0.0000000,0.0000000,0.0000000,9.00,38.4062271,-110.7921829,1364.1999512,0.1,139.0,0.9,0.0,0.0,900,130,0,0,862.91,19.62,22.69,# data time:720,pm2.5:6.445,pm10:5.704,O2:0.000,NO2:0.010,SO2:0.000,NH3:4.178
10:26:26,0,0,0,0,0,0,0,0,0,0,0,515,0,0,0,0,0.0000000,0.0000000,0.0000000,0.0000000,9.00,38.4062271,-110.7921829,1364.1999512,0.1,141.4,0.9,0.0,0.0,901,128,0,0,862.91,19.61,22.68,# data time:720,pm2.5:6.445,pm10:5.704,O2:0.000,NO2:0.010,SO2:0.000,NH3:4.178
10:26:27,0,0,0,0,0,0,0,0,0,0,0,516,0,0,0,0,0.0000000,0.0000000,0.0000000,0.0000000,9.00,38.4062271,-110.7921829,1364.1999512,0.2,202.9,0.9,0.0,0.0,900,126,0,0,862.95,19.62,22.67,# data time:720,pm2.5:6.445,pm10:5.704,O2:0.000,NO2:0.010,SO2:0.000,NH3:4.178
10:26:28,0,0,0,0,0,0,0,0,0,0,0,514,0,0,0,0,0.0000000,0.0000000,0.0000000,0.0000000,9.00,38.4062271,-110.7921829,1364.1999512,0.1,277.6,0.9,0.0,0.0,900,124,0,0,862.93,19.67,22.67,# data time:730,pm2.5:6.445,pm10:5.704,O2:0.000,NO2:0.000,SO2:0.000,NH3:4.178
10:26:29,0,0,0,0,0,0,0,0,0,0,0,515,0,0,0,0,0.0000000,0.0000000,0.0000000,0.0000000,9.00,38.4062271,-110.7921829,1364.1999512,0.0,128.9,0.9,0.0,0.0,899,125,0,0,862.91,19.67,22.67,# data time:730,pm2.5:6.445,pm10:5.704,O2:0.000,NO2:0.000,SO2:0.000,NH3:4.178
10:26:30,0,0,0,0,0,0,0,0,0,0,0,515,0,0,0,0,0.0000000,0.0000000,0.0000000,0.0000000,9.00,38.4062271,-110.7921829,1364.1999512,0.2,160.4,0.9,0.0,0.0,901,133,0,0,862.93,19.71,22.67,# data time:730,pm2.5:6.445,pm10:5.704,O2:0.000,NO2:0.000,SO2:0.000,NH3:4.178
10:26:31,0,0,0,0,0,0,0,0,0,0,0,515,0,0,0,0,0.0000000,0.0000000,0.0000000,0.0000000,9.00,38.4062271,-110.7921829,1364.1999512,0.2,138.7,0.9,0.0,0.0,899,150,0,0,862.95,19.71,22.67,# data time:730,pm2.5:6.445,pm10:5.704,O2:0.000,NO2:0.000,SO2:0.000,NH3:4.178
10:26:32,0,0,0,0,0,0,0,0,0,0,0,514,0,0,0,0,0.0000000,0.0000000,0.0000000,0.0000000,9.00,38.4062233,-110.7921829,1364.1999512,0.3,109.3,0.9,0.0,0.0,900,147,0,0,862.92,19.76,22.68,# data time:730,pm2.5:6.445,pm10:5.704,O2:0.000,NO2:0.000,SO2:0.000,NH3:4.178
10:26:33,0,0,0,0,0,0,0,0,0,0,0,515,0,0,0,0,0.0000000,0.0000000,0.0000000,0.0000000,9.00,38.4062233,-110.7921829,1364.1999512,0.1,83.5,0.9,0.0,0.0,900,143,0,0,862.90,19.75,22.59,# data time:730,pm2.5:6.445,pm10:5.704,O2:0.000,NO2:0.000,SO2:0.000,NH3:4.178
10:26:34,0,0,0,0,0,0,0,0,0,0,0,514,0,0,0,0,0.0000000,0.0000000,0.0000000,0.0000000,9.00,38.4062233,-110.7921829,1364.1999512,0.1,19.5,0.9,0.0,0.0,899,140,0,0,862.89,19.65,22.58,# data time:730,pm2.5:6.445,pm10:5.704,O2:0.000,NO2:0.000,SO2:0.000,NH3:4.178
10:26:35,0,0,0,0,0,0,0,0,0,0,0,531,0,0,0,0,0.0000000,0.0000000,0.0000000,0.0000000,9.00,38.4062233,-110.7921829,1364.0999756,0.1,19.5,0.9,0.0,0.0,896,137,0,0,862.91,19.65,22.63,# data time:730,pm2.5:6.445,pm10:5.704,O2:0.000,NO2:0.000,SO2:0.000,NH3:4.178
10:26:36,0,0,0,0,0,0,0,0,0,0,0,515,0,0,0,0,0.0000000,0.0000000,0.0000000,0.0000000,9.00,38.4062271,-110.7921829,1364.0000000,0.1,19.5,0.9,0.0,0.0,899,140,0,0,862.93,19.55,22.57,# data time:730,pm2.5:6.445,pm10:5.704,O2:0.000,NO2:0.000,SO2:0.000,NH3:4.178
10:26:37,0,0,0,0,0,0,0,0,0,0,0,514,0,0,0,0,0.0000000,0.0000000,0.0000000,0.0000000,9.00,38.4062309,-110.7921829,1363.9000244,0.2,28.9,0.9,0.0,0.0,901,136,0,0,862.92,19.50,22.62,# data time:730,pm2.5:6.445,pm10:5.704,O2:0.000,NO2:0.000,SO2:0.000,NH3:4.178
10:26:38,0,0,0,0,0,0,0,0,0,0,0,515,0,0,0,0,0.0000000,0.0000000,0.0000000,0.0000000,9.00,38.4062233,-110.7921829,1363.8000488,0.0,5.0,0.9,0.0,0.0,899,136,0,0,862.97,19.50,22.66,# data time:740,pm2.5:5.640,pm10:4.991,O2:0.000,NO2:0.000,SO2:0.000,NH3:4.178
10:26:39,0,0,0,0,0,0,0,0,0,0,0,519,0,0,0,0,0.0000000,0.0000000,0.0000000,0.0000000,9.00,38.4062233,-110.7921829,1363.8000488,0.0,115.7,0.9,0.0,0.0,898,137,0,0,862.89,19.49,22.66,# data time:740,pm2.5:5.640,pm10:4.991,O2:0.000,NO2:0.000,SO2:0.000,NH3:4.178
10:26:40,0,0,0,0,0,0,0,0,0,0,0,550,0,0,0,0,0.0000000,0.0000000,0.0000000,0.0000000,9.00,38.4062233,-110.7921829,1363.8000488,0.0,152.1,0.9,0.0,0.0,892,138,0,0,862.90,19.46,22.65,# data time:740,pm2.5:5.640,pm10:4.991,O2:0.000,NO2:0.000,SO2:0.000,NH3:4.178
10:26:41,0,0,0,0,0,0,0,0,0,0,0,557,0,0,0,0,0.0000000,0.0000000,0.0000000,0.0000000,9.00,38.4062233,-110.7921829,1363.8000488,0.1,192.6,0.9,0.0,0.0,892,136,0,0,862.91,19.47,22.65,# data time:740,pm2.5:5.640,pm10:4.991,O2:0.000,NO2:0.000,SO2:0.000,NH3:4.178
10:26:42,0,0,0,0,0,0,0,0,0,0,0,514,0,0,0,0,0.0000000,0.0000000,0.0000000,0.0000000,9.00,38.4062233,-110.7921829,1363.8000488,0.1,174.1,0.9,0.0,0.0,900,136,0,0,862.93,19.46,22.66,# data time:740,pm2.5:5.640,pm10:4.991,O2:0.000,NO2:0.000,SO2:0.000,NH3:4.178
10:26:43,0,0,0,0,0,0,0,0,0,0,0,536,0,0,0,0,0.0000000,0.0000000,0.0000000,0.0000000,9.00,38.4062233,-110.7921829,1363.8000488,0.1,80.8,0.9,0.0,0.0,897,134,0,0,862.92,19.47,22.67,# data time:740,pm2.5:5.640,pm10:4.991,O2:0.000,NO2:0.000,SO2:0.000,NH3:4.178
10:26:44,0,0,0,0,0,0,0,0,0,0,0,533,0,0,0,0,0.0000000,0.0000000,0.0000000,0.0000000,9.00,38.4062233,-110.7921829,1363.8000488,0.1,355.0,0.9,0.0,0.0,897,134,0,0,862.91,19.49,22.67,# data time:740,pm2.5:5.640,pm10:4.991,O2:0.000,NO2:0.000,SO2:0.000,NH3:4.178
10:26:45,0,0,0,0,0,0,0,0,0,0,0,534,0,0,0,0,0.0000000,0.0000000,0.0000000,0.0000000,9.00,38.4062233,-110.7921829,1363.8000488,0.1,29.8,0.9,0.0,0.0,898,130,0,0,862.92,19.50,22.68,# data time:740,pm2.5:5.640,pm10:4.991,O2:0.000,NO2:0.000,SO2:0.000,NH3:4.178
10:26:46,0,0,0,0,0,0,0,0,0,0,0,531,0,0,0,0,0.0000000,0.0000000,0.0000000,0.0000000,9.00,38.4062233,-110.7921829,1363.8000488,0.2,315.2,0.9,0.0,0.0,896,132,0,0,862.92,19.62,22.68,# data time:740,pm2.5:5.640,pm10:4.991,O2:0.000,NO2:0.000,SO2:0.000,NH3:4.178
10:26:47,0,0,0,0,0,0,0,0,0,0,0,518,0,0,0,0,0.0000000,0.0000000,0.0000000,0.0000000,9.00,38.4062233,-110.7921829,1363.8000488,0.2,325.5,0.9,0.0,0.0,896,132,0,0,862.89,19.73,22.68,# data time:740,pm2.5:5.640,pm10:4.991,O2:0.000,NO2:0.000,SO2:0.000,NH3:4.178
10:26:48,0,0,0,0,0,0,0,0,0,0,0,518,0,0,0,0,0.0000000,0.0000000,0.0000000,0.0000000,9.00,38.4062233,-110.7921829,1363.8000488,0.1,52.8,0.9,0.0,0.0,897,136,0,0,862.95,19.73,22.68,# data time:750,pm2.5:6.445,pm10:5.704,O2:0.000,NO2:0.000,SO2:0.000,NH3:4.178
10:26:49,0,0,0,0,0,0,0,0,0,0,0,534,0,0,0,0,0.0000000,0.0000000,0.0000000,0.0000000,9.00,38.4062233,-110.7921829,1363.6999512,0.1,43.5,0.9,0.0,0.0,897,135,0,0,862.92,19.79,22.68,# data time:750,pm2.5:6.445,pm10:5.704,O2:0.000,NO2:0.000,SO2:0.000,NH3:4.178
10:26:50,0,0,0,0,0,0,0,0,0,0,0,531,0,0,0,0,0.0000000,0.0000000,0.0000000,0.0000000,9.00,38.4062271,-110.7921829,1363.6999512,0.1,45.1,0.9,0.0,0.0,898,132,0,0,862.94,19.78,22.68,# data time:750,pm2.5:6.445,pm10:5.704,O2:0.000,NO2:0.000,SO2:0.000,NH3:4.178
10:26:51,0,0,0,0,0,0,0,0,0,0,0,525,0,0,0,0,0.0000000,0.0000000,0.0000000,0.0000000,9.00,38.4062271,-110.7921829,1363.6999512,0.1,122.8,0.9,0.0,0.0,899,131,0,0,862.95,19.79,22.69,# data time:750,pm2.5:6.445,pm10:5.704,O2:0.000,NO2:0.000,SO2:0.000,NH3:4.178
10:26:52,0,0,0,0,0,0,0,0,0,0,0,533,0,0,0,0,0.0000000,0.0000000,0.0000000,0.0000000,9.00,38.4062271,-110.7921829,1363.6999512,0.2,187.6,0.9,0.0,0.0,897,132,0,0,862.92,19.84,22.69,# data time:750,pm2.5:6.445,pm10:5.704,O2:0.000,NO2:0.000,SO2:0.000,NH3:4.178
10:26:53,0,0,0,0,0,0,0,0,0,0,0,528,0,0,0,0,0.0000000,0.0000000,0.0000000,0.0000000,9.00,38.4062233,-110.7921829,1363.6999512,0.1,248.9,0.9,0.0,0.0,897,126,0,0,862.95,19.81,22.70,# data time:750,pm2.5:6.445,pm10:5.704,O2:0.000,NO2:0.000,SO2:0.000,NH3:4.178
10:26:54,0,0,0,0,0,0,0,0,0,0,0,529,0,0,0,0,0.0000000,0.0000000,0.0000000,0.0000000,9.00,38.4062233,-110.7921829,1363.6999512,0.2,228.7,0.9,0.0,0.0,897,127,0,0,862.96,19.78,22.69,# data time:750,pm2.5:6.445,pm10:5.704,O2:0.000,NO2:0.000,SO2:0.000,NH3:4.178
10:26:55,0,0,0,0,0,0,0,0,0,0,0,531,0,0,0,0,0.0000000,0.0000000,0.0000000,0.0000000,9.00,38.4062233,-110.7921829,1363.6999512,0.2,235.9,0.9,0.0,0.0,899,129,0,0,862.87,19.71,22.69,# data time:750,pm2.5:6.445,pm10:5.704,O2:0.000,NO2:0.000,SO2:0.000,NH3:4.178
10:26:56,0,0,0,0,0,0,0,0,0,0,0,531,0,0,0,0,0.0000000,0.0000000,0.0000000,0.0000000,9.00,38.4062233,-110.7921829,1363.6999512,0.2,206.0,0.9,0.0,0.0,897,128,0,0,862.88,19.70,22.69,# data time:750,pm2.5:6.445,pm10:5.704,O2:0.000,NO2:0.000,SO2:0.000,NH3:4.178
10:26:57,0,0,0,0,0,0,0,0,0,0,0,530,0,0,0,0,0.0000000,0.0000000,0.0000000,0.0000000,9.00,38.4062233,-110.7921829,1363.6999512,0.2,141.6,0.9,0.0,0.0,896,131,0,0,862.87,19.68,22.69,# data time:760,pm2.5:6.445,pm10:5.704,O2:0.000,NO2:0.000,SO2:0.000,NH3:4.178
10:26:58,0,0,0,0,0,0,0,0,0,0,0,527,0,0,0,0,0.0000000,0.0000000,0.0000000,0.0000000,9.00,38.4062233,-110.7921829,1363.6999512,0.1,157.3,0.9,0.0,0.0,898,134,0,0,862.92,19.70,22.69,# data time:760,pm2.5:6.445,pm10:5.704,O2:0.000,NO2:0.000,SO2:0.000,NH3:4.178
10:26:59,0,0,0,0,0,0,0,0,0,0,0,522,0,0,0,0,0.0000000,0.0000000,0.0000000,0.0000000,9.00,38.4062233,-110.7921829,1363.6999512,0.1,42.9,0.9,0.0,0.0,898,130,0,0,862.90,19.67,22.68,# data time:760,pm2.5:6.445,pm10:5.704,O2:0.000,NO2:0.000,SO2:0.000,NH3:4.178
10:27:00,0,0,0,0,0,0,0,0,0,0,0,530,0,0,0,0,0.0000000,0.0000000,0.0000000,0.0000000,9.00,38.4062233,-110.7921829,1363.6999512,0.2,43.5,0.9,0.0,0.0,898,129,0,0,862.96,19.64,22.69,# data time:760,pm2.5:6.445,pm10:5.704,O2:0.000,NO2:0.000,SO2:0.000,NH3:4.178
10:27:01,0,0,0,0,0,0,0,0,0,0,0,518,0,0,0,0,0.0000000,0.0000000,0.0000000,0.0000000,9.00,38.4062233,-110.7921829,1363.6999512,0.1,103.8,0.9,0.0,0.0,897,136,0,0,862.94,19.62,22.69,# data time:760,pm2.5:6.445,pm10:5.704,O2:0.000,NO2:0.000,SO2:0.000,NH3:4.178
10:27:02,0,0,0,0,0,0,0,0,0,0,0,518,0,0,0,0,0.0000000,0.0000000,0.0000000,0.0000000,9.00,38.4062233,-110.7921829,1363.6999512,0.2,105.5,0.9,0.0,0.0,897,125,0,0,862.93,19.65,22.68,# data time:760,pm2.5:6.445,pm10:5.704,O2:0.000,NO2:0.000,SO2:0.000,NH3:4.178
10:27:03,0,0,0,0,0,0,0,0,0,0,0,525,0,0,0,0,0.0000000,0.0000000,0.0000000,0.0000000,9.00,38.4062233,-110.7921829,1363.6999512,0.2,105.6,0.9,0.0,0.0,896,133,0,0,862.93,19.64,22.69,# data time:760,pm2.5:6.445,pm10:5.704,O2:0.000,NO2:0.000,SO2:0.000,NH3:4.178
10:27:04,0,0,0,0,0,0,0,0,0,0,0,521,0,0,0,0,0.0000000,0.0000000,0.0000000,0.0000000,9.00,38.4062233,-110.7921829,1363.6999512,0.1,92.5,0.9,0.0,0.0,898,131,0,0,862.88,19.65,22.68,# data time:760,pm2.5:6.445,pm10:5.704,O2:0.000,NO2:0.000,SO2:0.000,NH3:4.178
10:27:06,0,0,0,0,0,0,0,0,0,0,0,517,0,0,0,0,0.0000000,0.0000000,0.0000000,0.0000000,9.00,38.4062233,-110.7921829,1363.6999512,0.2,77.2,0.9,0.0,0.0,899,133,0,0,862.91,19.64,22.68,# data time:760,pm2.5:6.445,pm10:5.704,O2:0.000,NO2:0.000,SO2:0.000,NH3:4.178
10:27:07,0,0,0,0,0,0,0,0,0,0,0,518,0,0,0,0,0.0000000,0.0000000,0.0000000,0.0000000,9.00,38.4062233,-110.7921829,1363.6999512,0.4,79.4,0.9,0.0,0.0,899,134,0,0,862.96,19.65,22.69,# data time:760,pm2.5:6.445,pm10:5.704,O2:0.000,NO2:0.000,SO2:0.000,NH3:4.178
10:27:08,0,0,0,0,0,0,0,0,0,0,0,518,0,0,0,0,0.0000000,0.0000000,0.0000000,0.0000000,9.00,38.4062233,-110.7921677,1363.6999512,0.4,90.7,0.9,0.0,0.0,897,131,0,0,862.88,19.61,22.69,# data time:770,pm2.5:6.445,pm10:5.704,O2:0.000,NO2:0.000,SO2:0.000,NH3:4.178
10:27:09,0,0,0,0,0,0,0,0,0,0,0,527,0,0,0,0,0.0000000,0.0000000,0.0000000,0.0000000,9.00,38.4062233,-110.7921677,1363.6999512,0.3,95.5,0.9,0.0,0.0,898,127,0,0,862.89,19.59,22.68,# data time:770,pm2.5:6.445,pm10:5.704,O2:0.000,NO2:0.000,SO2:0.000,NH3:4.178
10:27:10,0,0,0,0,0,0,0,0,0,0,0,517,0,0,0,0,0.0000000,0.0000000,0.0000000,0.0000000,9.00,38.4062233,-110.7921677,1363.6999512,0.2,59.8,0.9,0.0,0.0,899,130,0,0,862.92,19.56,22.68,# data time:770,pm2.5:6.445,pm10:5.704,O2:0.000,NO2:0.000,SO2:0.000,NH3:4.178
10:27:11,0,0,0,0,0,0,0,0,0,0,0,529,0,0,0,0,0.0000000,0.0000000,0.0000000,0.0000000,9.00,38.4062233,-110.7921677,1363.6999512,0.2,11.9,0.9,0.0,0.0,897,122,0,0,862.90,19.55,22.68,# data time:770,pm2.5:6.445,pm10:5.704,O2:0.000,NO2:0.000,SO2:0.000,NH3:4.178
10:27:12,0,0,0,0,0,0,0,0,0,0,0,517,0,0,0,0,0.0000000,0.0000000,0.0000000,0.0000000,9.00,38.4062233,-110.7921677,1363.6999512,0.3,354.9,0.9,0.0,0.0,897,129,0,0,862.93,19.53,22.68,# data time:770,pm2.5:6.445,pm10:5.704,O2:0.000,NO2:0.000,SO2:0.000,NH3:4.178
10:27:13,0,0,0,0,0,0,0,0,0,0,0,528,0,0,0,0,0.0000000,0.0000000,0.0000000,0.0000000,9.00,38.4062271,-110.7921677,1363.6999512,0.2,353.3,0.9,0.0,0.0,898,130,0,0,862.91,19.50,22.68,# data time:770,pm2.5:6.445,pm10:5.704,O2:0.000,NO2:0.000,SO2:0.000,NH3:4.178
10:27:14,0,0,0,0,0,0,0,0,0,0,0,528,0,0,0,0,0.0000000,0.0000000,0.0000000,0.0000000,9.00,38.4062271,-110.7921677,1363.6999512,0.1,64.6,0.9,0.0,0.0,898,123,0,0,862.90,19.50,22.69,# data time:770,pm2.5:6.445,pm10:5.704,O2:0.000,NO2:0.000,SO2:0.000,NH3:4.178
10:27:15,0,0,0,0,0,0,0,0,0,0,0,530,0,0,0,0,0.0000000,0.0000000,0.0000000,0.0000000,9.00,38.4062271,-110.7921677,1363.6999512,0.2,67.3,0.9,0.0,0.0,896,133,0,0,862.86,19.50,22.69,# data time:770,pm2.5:6.445,pm10:5.704,O2:0.000,NO2:0.000,SO2:0.000,NH3:4.178
10:27:16,0,0,0,0,0,0,0,0,0,0,0,518,0,0,0,0,0.0000000,0.0000000,0.0000000,0.0000000,9.00,38.4062271,-110.7921677,1363.5999756,0.2,355.7,0.9,0.0,0.0,896,130,0,0,862.90,19.47,22.59,# data time:770,pm2.5:6.445,pm10:5.704,O2:0.000,NO2:0.000,SO2:0.000,NH3:4.178
10:27:17,0,0,0,0,0,0,0,0,0,0,0,528,0,0,0,0,0.0000000,0.0000000,0.0000000,0.0000000,9.00,38.4062271,-110.7921677,1363.5999756,0.3,14.2,0.9,0.0,0.0,898,127,0,0,862.90,19.47,22.59,# data time:770,pm2.5:6.445,pm10:5.704,O2:0.000,NO2:0.000,SO2:0.000,NH3:4.178
10:27:18,0,0,0,0,0,0,0,0,0,0,0,518,0,0,0,0,0.0000000,0.0000000,0.0000000,0.0000000,9.00,38.4062309,-110.7921677,1363.5999756,0.1,33.2,0.9,0.0,0.0,898,126,0,0,862.91,19.52,22.63,# data time:780,pm2.5:6.445,pm10:5.704,O2:0.000,NO2:0.000,SO2:0.000,NH3:4.178
