Time, Motor A Speed, Motor A Dir, Motor B Speed, Motor B Dir, Servo Rail Current Sensor, Servo Pos - Arm L, Servo Pos - Arm R, Servo Pos - End, Servo Pos - Hopper, Servo Pos - Lid, Servo Pos - Extra, Servo Current, LED - Front L, LED - Front R, LED - Back L, LED - Back R, IMU Pitch, IMU Roll, IMU Yaw, Compass Heading, GPS Sats, GPS Latitude, GPS Longitude, GPS Altitude, GPS Speed, GPS Angle, GPS HDOP, GPS VDOP, GPS PDOP, Battery, Wind, Comm Xbee Latency, Comm Arduino Latency, Pressure, Humidity, Temperature, uRADMonitor
7:37:31,0,0,0,0,0,0,0,0,0,0,0,0,0,0,0,0,0.0000000,0.0000000,0.0000000,0.0000000,0.00,0.0000000,0.0000000,0.0000000,0.0,0.0,0.0,0.0,0.0,0,0,0,0,0.00,0.00,0.00,0
7:37:32,0,0,0,0,0,0,0,0,0,0,0,515,0,0,0,0,0.0000000,0.0000000,0.0000000,0.0000000,0.00,0.0000000,0.0000000,0.0000000,0.0,0.0,0.0,0.0,0.0,922,126,0,0,862.42,42.27,5.33,0
7:37:33,0,0,0,0,0,0,0,0,0,0,0,514,0,0,0,0,0.0000000,0.0000000,0.0000000,0.0000000,0.00,0.0000000,0.0000000,0.0000000,0.0,0.0,0.0,0.0,0.0,921,124,0,0,862.42,42.22,5.36,0
7:37:34,0,0,0,0,0,0,0,0,0,0,0,514,0,0,0,0,0.0000000,0.0000000,0.0000000,0.0000000,0.00,0.0000000,0.0000000,0.0000000,0.0,0.0,0.0,0.0,0.0,921,127,0,0,862.49,42.18,5.37,0
7:37:35,0,0,0,0,0,0,0,0,0,0,0,514,0,0,0,0,0.0000000,0.0000000,0.0000000,0.0000000,0.00,0.0000000,0.0000000,0.0000000,0.0,0.0,0.0,0.0,0.0,923,125,0,0,862.45,42.15,5.36,0
7:37:36,0,0,0,0,0,0,0,0,0,0,0,514,0,0,0,0,0.0000000,0.0000000,0.0000000,0.0000000,0.00,0.0000000,0.0000000,0.0000000,0.0,0.0,0.0,0.0,0.0,922,127,0,0,862.48,42.16,5.36,0
7:37:37,0,0,0,0,0,0,0,0,0,0,0,514,0,0,0,0,0.0000000,0.0000000,0.0000000,0.0000000,0.00,0.0000000,0.0000000,0.0000000,0.0,0.0,0.0,0.0,0.0,922,123,0,0,862.47,42.19,5.36,0
7:37:38,0,0,0,0,0,0,0,0,0,0,0,514,0,0,0,0,0.0000000,0.0000000,0.0000000,0.0000000,0.00,0.0000000,0.0000000,0.0000000,0.0,0.0,0.0,0.0,0.0,922,126,0,0,862.47,42.21,5.36,0
7:37:39,0,0,0,0,0,0,0,0,0,0,0,513,0,0,0,0,0.0000000,0.0000000,0.0000000,0.0000000,0.00,0.0000000,0.0000000,0.0000000,0.0,0.0,0.0,0.0,0.0,921,124,0,0,862.44,42.21,5.35,# data time:90,pm2.5:6.445,pm10:5.704,O2:0.000,NO2:0.000,SO2:0.000,NH3:5.083
7:37:40,0,0,0,0,0,0,0,0,0,0,0,514,0,0,0,0,0.0000000,0.0000000,0.0000000,0.0000000,0.00,0.0000000,0.0000000,0.0000000,0.0,0.0,0.0,0.0,0.0,921,126,0,0,862.45,42.18,5.35,# data time:90,pm2.5:6.445,pm10:5.704,O2:0.000,NO2:0.000,SO2:0.000,NH3:5.083
7:37:41,0,0,0,0,0,0,0,0,0,0,0,514,0,0,0,0,0.0000000,0.0000000,0.0000000,0.0000000,0.00,0.0000000,0.0000000,0.0000000,0.0,0.0,0.0,0.0,0.0,921,127,0,0,862.51,42.16,5.41,# data time:90,pm2.5:6.445,pm10:5.704,O2:0.000,NO2:0.000,SO2:0.000,NH3:5.083
7:37:42,0,0,0,0,0,0,0,0,0,0,0,514,0,0,0,0,0.0000000,0.0000000,0.0000000,0.0000000,0.00,0.0000000,0.0000000,0.0000000,0.0,0.0,0.0,0.0,0.0,921,126,0,0,862.45,42.24,5.34,# data time:90,pm2.5:6.445,pm10:5.704,O2:0.000,NO2:0.000,SO2:0.000,NH3:5.083
7:37:43,0,0,0,0,0,0,0,0,0,0,0,514,0,0,0,0,0.0000000,0.0000000,0.0000000,0.0000000,0.00,0.0000000,0.0000000,0.0000000,0.0,0.0,0.0,0.0,0.0,921,126,0,0,862.43,42.33,5.34,# data time:90,pm2.5:6.445,pm10:5.704,O2:0.000,NO2:0.000,SO2:0.000,NH3:5.083
7:37:44,0,0,0,0,0,0,0,0,0,0,0,514,0,0,0,0,0.0000000,0.0000000,0.0000000,0.0000000,0.00,0.0000000,0.0000000,0.0000000,0.0,0.0,0.0,0.0,0.0,921,125,0,0,862.44,42.37,5.34,# data time:90,pm2.5:6.445,pm10:5.704,O2:0.000,NO2:0.000,SO2:0.000,NH3:5.083
7:37:45,0,0,0,0,0,0,0,0,0,0,0,514,0,0,0,0,0.0000000,0.0000000,0.0000000,0.0000000,0.00,0.0000000,0.0000000,0.0000000,0.0,0.0,0.0,0.0,0.0,921,125,0,0,862.40,42.40,5.33,# data time:90,pm2.5:6.445,pm10:5.704,O2:0.000,NO2:0.000,SO2:0.000,NH3:5.083
7:37:46,0,0,0,0,0,0,0,0,0,0,0,514,0,0,0,0,0.0000000,0.0000000,0.0000000,0.0000000,0.00,0.0000000,0.0000000,0.0000000,0.0,0.0,0.0,0.0,0.0,921,127,0,0,862.39,42.36,5.32,# data time:90,pm2.5:6.445,pm10:5.704,O2:0.000,NO2:0.000,SO2:0.000,NH3:5.083
7:37:47,0,0,0,0,0,0,0,0,0,0,0,514,0,0,0,0,0.0000000,0.0000000,0.0000000,0.0000000,0.00,0.0000000,0.0000000,0.0000000,0.0,0.0,0.0,0.0,0.0,921,127,0,0,862.52,42.31,5.40,# data time:90,pm2.5:6.445,pm10:5.704,O2:0.000,NO2:0.000,SO2:0.000,NH3:5.083
7:37:48,0,0,0,0,0,0,0,0,0,0,0,514,0,0,0,0,0.0000000,0.0000000,0.0000000,0.0000000,0.00,0.0000000,0.0000000,0.0000000,0.0,0.0,0.0,0.0,0.0,921,127,0,0,862.43,42.28,5.31,# data time:90,pm2.5:6.445,pm10:5.704,O2:0.000,NO2:0.000,SO2:0.000,NH3:5.083
7:37:49,0,0,0,0,0,0,0,0,0,0,0,514,0,0,0,0,0.0000000,0.0000000,0.0000000,0.0000000,0.00,0.0000000,0.0000000,0.0000000,0.0,0.0,0.0,0.0,0.0,921,124,0,0,862.43,42.22,5.26,# data time:100,pm2.5:6.445,pm10:5.704,O2:0.000,NO2:0.000,SO2:083
7:37:50,0,0,0,0,0,0,0,0,0,0,0,512,0,0,0,0,0.0000000,0.0000000,0.0000000,0.0000000,0.00,0.0000000,0.0000000,0.0000000,0.0,0.0,0.0,0.0,0.0,922,126,0,0,862.48,42.22,5.30,# data time:100,pm2.5:6.445,pm10:5.704,O2:0.000,NO2:0.000,SO2:083
7:37:51,0,0,0,0,0,0,0,0,0,0,0,514,0,0,0,0,0.0000000,0.0000000,0.0000000,0.0000000,0.00,0.0000000,0.0000000,0.0000000,0.0,0.0,0.0,0.0,0.0,921,128,0,0,862.49,42.24,5.30,# data time:100,pm2.5:6.445,pm10:5.704,O2:0.000,NO2:0.000,SO2:083
7:37:52,0,0,0,0,0,0,0,0,0,0,0,514,0,0,0,0,0.0000000,0.0000000,0.0000000,0.0000000,0.00,0.0000000,0.0000000,0.0000000,0.0,0.0,0.0,0.0,0.0,921,124,0,0,862.39,42.25,5.20,# data time:100,pm2.5:6.445,pm10:5.704,O2:0.000,NO2:0.000,SO2:083
7:37:53,0,0,0,0,0,0,0,0,0,0,0,514,0,0,0,0,0.0000000,0.0000000,0.0000000,0.0000000,0.00,0.0000000,0.0000000,0.0000000,60523.0,0.0,0.0,0.0,0.0,921,129,0,0,862.48,42.25,5.35,# data time:100,pm2.5:6.445,pm10:5.704,O2:0.000,NO2:0.000,SO2:083
7:37:54,0,0,0,0,0,0,0,0,0,0,0,514,0,0,0,0,0.0000000,0.0000000,0.0000000,0.0000000,0.00,0.0000000,0.0000000,0.0000000,0.0,0.0,0.0,0.0,0.0,921,124,0,0,862.47,42.22,5.29,# data time:100,pm2.5:6.445,pm10:5.704,O2:0.000,NO2:0.000,SO2:083
7:37:55,0,0,0,0,0,0,0,0,0,0,0,513,0,0,0,0,0.0000000,0.0000000,0.0000000,0.0000000,0.00,0.0000000,0.0000000,0.0000000,0.0,0.0,0.0,0.0,0.0,921,123,0,0,862.45,42.42,5.29,# data time:100,pm2.5:6.445,pm10:5.704,O2:0.000,NO2:0.000,SO2:083
7:37:56,0,0,0,0,0,0,0,0,0,0,0,514,0,0,0,0,0.0000000,0.0000000,0.0000000,0.0000000,0.00,0.0000000,0.0000000,0.0000000,0.0,0.0,0.0,0.0,0.0,920,129,0,0,862.43,42.60,5.28,# data time:100,pm2.5:6.445,pm10:5.704,O2:0.000,NO2:0.000,SO2:083
7:37:57,0,0,0,0,0,0,0,0,0,0,0,514,0,0,0,0,0.0000000,0.0000000,0.0000000,0.0000000,0.00,0.0000000,0.0000000,0.0000000,0.0,0.0,0.0,0.0,0.0,921,125,0,0,862.48,42.63,5.29,# data time:100,pm2.5:6.445,pm10:5.704,O2:0.000,NO2:0.000,SO2:083
7:37:58,0,0,0,0,0,0,0,0,0,0,0,514,0,0,0,0,0.0000000,0.0000000,0.0000000,0.0000000,3.00,0.0000000,0.0000000,0.0000000,0.0,0.0,0.0,0.0,0.0,921,125,0,0,862.38,42.63,5.24,# data time:100,pm2.5:6.445,pm10:5.704,O2:0.000,NO2:0.000,SO2:083
7:37:59,0,0,0,0,0,0,0,0,0,0,0,514,0,0,0,0,0.0000000,0.0000000,0.0000000,0.0000000,3.00,0.0000000,0.0000000,0.0000000,0.4,288.4,0.0,0.0,0.0,921,123,0,0,862.45,42.63,5.28,# data time:110,pm2.5:6.445,pm10:5.704,O2:0.000,NO2:0.000,SO2:0.000,NH3:5.536
7:38:00,0,0,0,0,0,0,0,0,0,0,0,513,0,0,0,0,0.0000000,0.0000000,0.0000000,0.0000000,3.00,0.0000000,0.0000000,0.0000000,0.8,264.2,0.0,0.0,0.0,921,123,0,0,862.43,42.85,5.28,# data time:110,pm2.5:6.445,pm10:5.704,O2:0.000,NO2:0.000,SO2:0.000,NH3:5.536
7:38:02,0,0,0,0,0,0,0,0,0,0,0,514,0,0,0,0,0.0000000,0.0000000,0.0000000,0.0000000,3.00,0.0000000,0.0000000,0.0000000,0.8,250.4,0.0,0.0,0.0,921,126,0,0,862.43,42.98,5.29,# data time:110,pm2.5:6.445,pm10:5.704,O2:0.000,NO2:0.000,SO2:0.000,NH3:5.536
7:38:03,0,0,0,0,0,0,0,0,0,0,0,513,0,0,0,0,0.0000000,0.0000000,0.0000000,0.0000000,3.00,0.0000000,0.0000000,0.0000000,0.8,246.6,0.0,0.0,0.0,921,126,0,0,862.47,43.11,5.29,# data time:110,pm2.5:6.445,pm10:5.704,O2:0.000,NO2:0.000,SO2:0.000,NH3:5.536
7:38:04,0,0,0,0,0,0,0,0,0,0,0,515,0,0,0,0,0.0000000,0.0000000,0.0000000,0.0000000,2.00,0.0000000,0.0000000,0.0000000,0.8,250.8,0.0,0.0,0.0,921,125,0,0,862.47,43.20,5.29,# data time:110,pm2.5:6.445,pm10:5.704,O2:0.000,NO2:0.000,SO2:0.000,NH3:5.536
7:38:05,0,0,0,0,0,0,0,0,0,0,0,514,0,0,0,0,0.0000000,0.0000000,0.0000000,0.0000000,2.00,0.0000000,0.0000000,0.0000000,0.8,246.3,0.0,0.0,0.0,920,127,0,0,862.50,43.41,5.35,# data time:110,pm2.5:6.445,pm10:5.704,O2:0.000,NO2:0.000,SO2:0.000,NH3:5.536
7:38:06,0,0,0,0,0,0,0,0,0,0,0,514,0,0,0,0,0.0000000,0.0000000,0.0000000,0.0000000,2.00,0.0000000,0.0000000,0.0000000,0.8,246.3,0.0,0.0,0.0,920,127,0,0,862.50,43.41,5.35,# data time:110,pm2.5:6.445,pm10:5.704,O2:0.000,NO2:0.000,SO2:0.000,NH3:5.536
7:38:07,0,0,0,0,0,0,0,0,0,0,0,514,0,0,0,0,0.0000000,0.0000000,0.0000000,0.0000000,2.00,0.0000000,0.0000000,0.0000000,0.9,251.3,0.0,0.0,0.0,919,128,0,0,862.45,43.61,5.30,# data time:110,pm2.5:6.445,pm10:5.704,O2:0.000,NO2:0.000,SO2:0.000,NH3:5.536
7:38:08,0,0,0,0,0,0,0,0,0,0,0,514,0,0,0,0,0.0000000,0.0000000,0.0000000,0.0000000,3.00,0.0000000,0.0000000,0.0000000,0.9,252.1,0.0,0.0,0.0,921,127,0,0,862.45,43.76,5.31,# data time:110,pm2.5:6.445,pm10:5.704,O2:0.000,NO2:0.000,SO2:0.000,NH3:5.536
7:38:09,0,0,0,0,0,0,0,0,0,0,0,514,0,0,0,0,0.0000000,0.0000000,0.0000000,0.0000000,3.00,0.0000000,0.0000000,0.0000000,0.9,245.2,0.0,0.0,0.0,920,126,0,0,862.44,43.88,5.31,# data time:120,pm2.5:5.640,pm10:4.991,O2:0.000,NO2:0.000,SO2:0.000,NH3:5.309
7:38:10,0,0,0,0,0,0,0,0,0,0,0,514,0,0,0,0,0.0000000,0.0000000,0.0000000,0.0000000,3.00,0.0000000,0.0000000,0.0000000,1.5,240.7,0.0,0.0,0.0,920,129,0,0,862.49,43.92,5.31,# data time:120,pm2.5:5.640,pm10:4.991,O2:0.000,NO2:0.000,SO2:0.000,NH3:5.309
7:38:11,0,0,0,0,0,0,0,0,0,0,0,514,0,0,0,0,0.0000000,0.0000000,0.0000000,0.0000000,3.00,0.0000000,0.0000000,0.0000000,1.8,238.6,0.0,0.0,0.0,920,129,0,0,862.46,43.92,5.37,# data time:120,pm2.5:5.640,pm10:4.991,O2:0.000,NO2:0.000,SO2:0.000,NH3:5.309
7:38:12,0,0,0,0,0,0,0,0,0,0,0,514,0,0,0,0,0.0000000,0.0000000,0.0000000,0.0000000,3.00,0.0000000,0.0000000,0.0000000,1.8,238.6,0.0,0.0,0.0,920,129,0,0,862.46,43.92,5.37,# data time:120,pm2.5:5.640,pm10:4.991,O2:0.000,NO2:0.000,SO2:0.000,NH3:5.309
7:38:13,0,0,0,0,0,0,0,0,0,0,0,513,0,0,0,0,0.0000000,0.0000000,0.0000000,0.0000000,3.00,0.0000000,0.0000000,0.0000000,1.5,234.6,0.0,0.0,0.0,921,125,0,0,862.49,43.75,5.28,# data time:120,pm2.5:5.640,pm10:4.991,O2:0.000,NO2:0.000,SO2:0.000,NH3:5.309
7:38:14,0,0,0,0,0,0,0,0,0,0,0,513,0,0,0,0,0.0000000,0.0000000,0.0000000,0.0000000,3.00,0.0000000,0.0000000,0.0000000,1.5,234.6,0.0,0.0,0.0,920,125,0,0,862.40,43.66,5.23,# data time:120,pm2.5:5.640,pm10:4.991,O2:0.000,NO2:0.000,SO2:0.000,NH3:5.309
7:38:15,0,0,0,0,0,0,0,0,0,0,0,513,0,0,0,0,0.0000000,0.0000000,0.0000000,0.0000000,3.00,0.0000000,0.0000000,0.0000000,1.5,237.1,0.0,0.0,0.0,918,125,0,0,862.49,43.56,5.26,# data time:120,pm2.5:5.640,pm10:4.991,O2:0.000,NO2:0.000,SO2:0.000,NH3:5.309
7:38:16,0,0,0,0,0,0,0,0,0,0,0,514,0,0,0,0,0.0000000,0.0000000,0.0000000,0.0000000,3.00,0.0000000,0.0000000,0.0000000,1.6,237.2,0.0,0.0,0.0,921,123,0,0,862.43,43.49,5.26,# data time:120,pm2.5:5.640,pm10:4.991,O2:0.000,NO2:0.000,SO2:0.000,NH3:5.309
7:38:17,0,0,0,0,0,0,0,0,0,0,0,513,0,0,0,0,0.0000000,0.0000000,0.0000000,0.0000000,3.00,0.0000000,0.0000000,0.0000000,1.7,234.4,0.0,0.0,0.0,920,125,0,0,862.46,43.38,5.33,# data time:120,pm2.5:5.640,pm10:4.991,O2:0.000,NO2:0.000,SO2:0.000,NH3:5.309
7:38:18,0,0,0,0,0,0,0,0,0,0,0,513,0,0,0,0,0.0000000,0.0000000,0.0000000,0.0000000,3.00,0.0000000,0.0000000,0.0000000,1.7,234.4,0.0,0.0,0.0,920,125,0,0,862.46,43.38,5.33,# data time:120,pm2.5:5.640,pm10:4.991,O2:0.000,NO2:0.000,SO2:0.000,NH3:5.309
7:38:19,0,0,0,0,0,0,0,0,0,0,0,514,0,0,0,0,0.0000000,0.0000000,0.0000000,0.0000000,3.00,0.0000000,0.0000000,0.0000000,1.8,243.1,0.0,0.0,0.0,920,127,0,0,862.44,43.21,5.24,# data time:130,pm2.5:6.445,pm10:5.704,O2:0.000,NO2:0.000,SO2:0.000,NH3:5.536
7:38:20,0,0,0,0,0,0,0,0,0,0,0,514,0,0,0,0,0.0000000,0.0000000,0.0000000,0.0000000,3.00,0.0000000,0.0000000,0.0000000,1.4,244.6,0.0,0.0,0.0,919,128,0,0,862.47,43.20,5.25,# data time:130,pm2.5:6.445,pm10:5.704,O2:0.000,NO2:0.000,SO2:0.000,NH3:5.536
7:38:21,0,0,0,0,0,0,0,0,0,0,0,513,0,0,0,0,0.0000000,0.0000000,0.0000000,0.0000000,3.00,0.0000000,0.0000000,0.0000000,1.5,247.3,0.0,0.0,0.0,920,127,0,0,862.45,43.18,5.25,# data time:130,pm2.5:6.445,pm10:5.704,O2:0.000,NO2:0.000,SO2:0.000,NH3:5.536
7:38:22,0,0,0,0,0,0,0,0,0,0,0,514,0,0,0,0,0.0000000,0.0000000,0.0000000,0.0000000,3.00,0.0000000,0.0000000,0.0000000,1.4,245.0,0.0,0.0,0.0,919,119,0,0,862.48,43.17,5.25,# data time:130,pm2.5:6.445,pm10:5.704,O2:0.000,NO2:0.000,SO2:0.000,NH3:5.536
7:38:23,0,0,0,0,0,0,0,0,0,0,0,514,0,0,0,0,0.0000000,0.0000000,0.0000000,0.0000000,3.00,0.0000000,0.0000000,0.0000000,1.3,252.1,0.0,0.0,0.0,919,127,0,0,862.49,43.18,5.25,# data time:130,pm2.5:6.445,pm10:5.704,O2:0.000,NO2:0.000,SO2:0.000,NH3:5.536
7:38:24,0,0,0,0,0,0,0,0,0,0,0,514,0,0,0,0,0.0000000,0.0000000,0.0000000,0.0000000,3.00,0.0000000,0.0000000,0.0000000,1.3,252.1,0.0,0.0,0.0,919,127,0,0,862.49,43.18,5.25,# data time:130,pm2.5:6.445,pm10:5.704,O2:0.000,NO2:0.000,SO2:0.000,NH3:5.536
7:38:25,0,0,0,0,0,0,0,0,0,0,0,514,0,0,0,0,0.0000000,0.0000000,0.0000000,0.0000000,3.00,0.0000000,0.0000000,0.0000000,0.9,251.1,0.0,0.0,0.0,920,127,0,0,862.43,43.11,5.19,# data time:130,pm2.5:6.445,pm10:5.704,O2:0.000,NO2:0.000,SO2:0.000,NH3:5.536
7:38:26,0,0,0,0,0,0,0,0,0,0,0,514,0,0,0,0,0.0000000,0.0000000,0.0000000,0.0000000,3.00,0.0000000,0.0000000,0.0000000,1.0,250.4,0.0,0.0,0.0,919,126,0,0,862.46,43.08,5.24,# data time:130,pm2.5:6.445,pm10:5.704,O2:0.000,NO2:0.000,SO2:0.000,NH3:5.536
7:38:27,0,0,0,0,0,0,0,0,0,0,0,514,0,0,0,0,0.0000000,0.0000000,0.0000000,0.0000000,3.00,0.0000000,0.0000000,0.0000000,1.1,256.3,0.0,0.0,0.0,920,127,0,0,862.44,43.05,5.24,# data time:130,pm2.5:6.445,pm10:5.704,O2:0.000,NO2:0.000,SO2:0.000,NH3:5.536
7:38:28,0,0,0,0,0,0,0,0,0,0,0,514,0,0,0,0,0.0000000,0.0000000,0.0000000,0.0000000,3.00,0.0000000,0.0000000,0.0000000,1.0,251.4,0.0,0.0,0.0,920,121,0,0,862.43,43.05,5.24,# data time:130,pm2.5:6.445,pm10:5.704,O2:0.000,NO2:0.000,SO2:0.000,NH3:5.536
7:38:29,0,0,0,0,0,0,0,0,0,0,0,513,0,0,0,0,0.0000000,0.0000000,0.0000000,0.0000000,3.00,0.0000000,0.0000000,0.0000000,1.0,258.6,0.0,0.0,0.0,920,127,0,0,862.45,43.00,5.24,# data time:140,pm2.5:6.445,pm10:5.704,O2:0.000,NO2:0.000,SO2:0.000,NH3:5.536
7:38:30,0,0,0,0,0,0,0,0,0,0,0,514,0,0,0,0,0.0000000,0.0000000,0.0000000,0.0000000,4.00,0.0000000,0.0000000,0.0000000,6.6,238.6,0.0,0.0,0.0,921,122,0,0,862.48,42.98,5.24,# data time:140,pm2.5:6.445,pm10:5.704,O2:0.000,NO2:0.000,SO2:0.000,NH3:5.536
7:38:31,0,0,0,0,0,0,0,0,0,0,0,515,0,0,0,0,0.0000000,0.0000000,0.0000000,0.0000000,4.00,0.0000000,0.0000000,0.0000000,6.7,238.7,0.0,0.0,0.0,919,126,0,0,862.41,42.88,5.13,# data time:140,pm2.5:6.445,pm10:5.704,O2:0.000,NO2:0.000,SO2:0.000,NH3:5.536
7:38:32,0,0,0,0,0,0,0,0,0,0,0,514,0,0,0,0,0.0000000,0.0000000,0.0000000,0.0000000,4.00,0.0000000,0.0000000,0.0000000,6.7,238.7,0.0,0.0,0.0,920,125,0,0,862.46,42.83,5.18,# data time:140,pm2.5:6.445,pm10:5.704,O2:0.000,NO2:0.000,SO2:0.000,NH3:5.536
7:38:33,0,0,0,0,0,0,0,0,0,0,0,514,0,0,0,0,0.0000000,0.0000000,0.0000000,0.0000000,4.00,38.4131966,-110.7962646,135.1000061,6.1,240.6,1.8,0.0,0.0,919,125,0,0,862.40,42.77,5.18,# data time:140,pm2.5:6.445,pm10:5.704,O2:0.000,NO2:0.000,SO2:0.000,NH3:5.536
7:38:34,0,0,0,0,0,0,0,0,0,0,0,514,0,0,0,0,0.0000000,0.0000000,0.0000000,0.0000000,4.00,38.4131050,-110.7966690,130.1999969,5.0,239.5,1.8,0.0,0.0,919,123,0,0,862.43,42.79,5.18,# data time:140,pm2.5:6.445,pm10:5.704,O2:0.000,NO2:0.000,SO2:0.000,NH3:5.536
7:38:35,0,0,0,0,0,0,0,0,0,0,0,514,0,0,0,0,0.0000000,0.0000000,0.0000000,0.0000000,4.00,38.4129753,-110.7968903,126.8000031,5.0,239.5,1.8,0.0,0.0,920,129,0,0,862.40,42.76,5.18,# data time:140,pm2.5:6.445,pm10:5.704,O2:0.000,NO2:0.000,SO2:0.000,NH3:5.536
7:38:36,0,0,0,0,0,0,0,0,0,0,0,514,0,0,0,0,0.0000000,0.0000000,0.0000000,0.0000000,4.00,38.4129028,-110.7969437,120.5999985,5.0,239.5,1.8,0.0,0.0,920,123,0,0,862.43,42.79,5.17,# data time:140,pm2.5:6.445,pm10:5.704,O2:0.000,NO2:0.000,SO2:0.000,NH3:5.536
7:38:37,0,0,0,0,0,0,0,0,0,0,0,514,0,0,0,0,0.0000000,0.0000000,0.0000000,0.0000000,4.00,38.4128304,-110.7971573,116.0999985,5.0,239.5,1.8,0.0,0.0,920,127,0,0,862.48,42.83,5.17,# data time:140,pm2.5:6.445,pm10:5.704,O2:0.000,NO2:0.000,SO2:0.000,NH3:5.536
7:38:38,0,0,0,0,0,0,0,0,0,0,0,514,0,0,0,0,0.0000000,0.0000000,0.0000000,0.0000000,4.00,38.4127693,-110.7972260,112.6999969,5.0,239.5,1.8,0.0,0.0,920,128,0,0,862.43,42.86,5.17,# data time:140,pm2.5:6.445,pm10:5.704,O2:0.000,NO2:0.000,SO2:0.000,NH3:5.536
7:38:39,0,0,0,0,0,0,0,0,0,0,0,514,0,0,0,0,0.0000000,0.0000000,0.0000000,0.0000000,4.00,38.4127045,-110.7972717,109.0000000,5.0,239.5,1.8,0.0,0.0,919,128,0,0,862.45,42.91,5.17,# data time:150,pm2.5:6.445,pm10:5.704,O2:0.000,NO2:0.000,SO2:0.000,NH3:5.536
7:38:40,0,0,0,0,0,0,0,0,0,0,0,514,0,0,0,0,0.0000000,0.0000000,0.0000000,0.0000000,4.00,38.4126244,-110.7973251,102.1999969,5.0,239.5,1.8,0.0,0.0,919,128,0,0,862.42,42.94,5.17,# data time:150,pm2.5:6.445,pm10:5.704,O2:0.000,NO2:0.000,SO2:0.000,NH3:5.536
7:38:41,0,0,0,0,0,0,0,0,0,0,0,514,0,0,0,0,0.0000000,0.0000000,0.0000000,0.0000000,4.00,38.4125633,-110.7973251,96.6999969,5.0,239.5,1.8,0.0,0.0,919,128,0,0,862.46,42.95,5.17,# data time:150,pm2.5:6.445,pm10:5.704,O2:0.000,NO2:0.000,SO2:0.000,NH3:5.536
7:38:42,0,0,0,0,0,0,0,0,0,0,0,514,0,0,0,0,0.0000000,0.0000000,0.0000000,0.0000000,4.00,38.4125252,-110.7973862,93.1999969,5.0,239.5,1.8,0.0,0.0,920,127,0,0,862.47,42.92,5.16,# data time:150,pm2.5:6.445,pm10:5.704,O2:0.000,NO2:0.000,SO2:0.000,NH3:5.536
7:38:43,0,0,0,0,0,0,0,0,0,0,0,514,0,0,0,0,0.0000000,0.0000000,0.0000000,0.0000000,4.00,38.4125252,-110.7973862,93.1999969,5.0,239.5,1.8,0.0,0.0,919,130,0,0,862.44,42.89,5.10,# data time:150,pm2.5:6.445,pm10:5.704,O2:0.000,NO2:0.000,SO2:0.000,NH3:5.536
7:38:44,0,0,0,0,0,0,0,0,0,0,0,514,0,0,0,0,0.0000000,0.0000000,0.0000000,0.0000000,4.00,38.4123802,-110.7974548,83.0999985,5.0,239.5,1.8,0.0,0.0,919,129,0,0,862.41,42.86,5.09,# data time:150,pm2.5:6.445,pm10:5.704,O2:0.000,NO2:0.000,SO2:0.000,NH3:5.536
7:38:45,0,0,0,0,0,0,0,0,0,0,0,513,0,0,0,0,0.0000000,0.0000000,0.0000000,0.0000000,4.00,38.4123383,-110.7974930,80.4000015,5.0,239.5,1.8,0.0,0.0,918,126,0,0,862.42,42.88,5.15,# data time:150,pm2.5:6.445,pm10:5.704,O2:0.000,NO2:0.000,SO2:0.000,NH3:5.536
7:38:47,0,0,0,0,0,0,0,0,0,0,0,513,0,0,0,0,0.0000000,0.0000000,0.0000000,0.0000000,4.00,38.4122772,-110.7975006,75.8000031,0.5,209.2,1.8,0.0,0.0,920,126,0,0,862.43,42.85,5.20,# data time:150,pm2.5:6.445,pm10:5.704,O2:0.000,NO2:0.000,SO2:0.000,NH3:5.536
7:38:48,0,0,0,0,0,0,0,0,0,0,0,514,0,0,0,0,0.0000000,0.0000000,0.0000000,0.0000000,4.00,38.4122238,-110.7975311,71.5000000,0.5,209.2,1.8,0.0,0.0,919,127,0,0,862.38,42.83,5.15,# data time:150,pm2.5:6.445,pm10:5.704,O2:0.000,NO2:0.000,SO2:0.000,NH3:5.536
7:38:49,0,0,0,0,0,0,0,0,0,0,0,513,0,0,0,0,0.0000000,0.0000000,0.0000000,0.0000000,4.00,38.4121742,-110.7975388,67.5999985,0.3,213.6,1.8,0.0,0.0,920,127,0,0,862.43,42.82,5.15,# data time:160,pm2.5:5.640,pm10:4.991,O2:0.000,NO2:0.000,SO2:0.000,NH3:5.536
7:38:50,0,0,0,0,0,0,0,0,0,0,0,514,0,0,0,0,0.0000000,0.0000000,0.0000000,0.0000000,4.00,38.4121246,-110.7975540,63.9000015,0.4,191.8,1.8,0.0,0.0,918,126,0,0,862.47,42.77,5.19,# data time:160,pm2.5:5.640,pm10:4.991,O2:0.000,NO2:0.000,SO2:0.000,NH3:5.536
7:38:51,0,0,0,0,0,0,0,0,0,0,0,515,0,0,0,0,0.0000000,0.0000000,0.0000000,0.0000000,4.00,38.4120750,-110.7975540,60.5999985,0.5,187.6,1.8,0.0,0.0,917,126,0,0,862.48,42.77,5.19,# data time:160,pm2.5:5.640,pm10:4.991,O2:0.000,NO2:0.000,SO2:0.000,NH3:5.536
7:38:52,0,0,0,0,0,0,0,0,0,0,0,513,0,0,0,0,0.0000000,0.0000000,0.0000000,0.0000000,4.00,38.4120293,-110.7975693,57.4000015,1.0,188.6,1.8,0.0,0.0,919,127,0,0,862.48,42.73,5.19,# data time:160,pm2.5:5.640,pm10:4.991,O2:0.000,NO2:0.000,SO2:0.000,NH3:5.536
7:38:53,0,0,0,0,0,0,0,0,0,0,0,514,0,0,0,0,0.0000000,0.0000000,0.0000000,0.0000000,4.00,38.4119873,-110.7975845,54.4000015,0.3,139.1,1.8,0.0,0.0,919,126,0,0,862.46,42.73,5.20,# data time:160,pm2.5:5.640,pm10:4.991,O2:0.000,NO2:0.000,SO2:0.000,NH3:5.536
7:38:54,0,0,0,0,0,0,0,0,0,0,0,514,0,0,0,0,0.0000000,0.0000000,0.0000000,0.0000000,5.00,38.4117775,-110.7976837,44.4000015,0.3,139.1,1.3,0.0,0.0,918,125,0,0,862.47,42.69,5.14,# data time:160,pm2.5:5.640,pm10:4.991,O2:0.000,NO2:0.000,SO2:0.000,NH3:5.536
7:38:55,0,0,0,0,0,0,0,0,0,0,0,513,0,0,0,0,0.0000000,0.0000000,0.0000000,0.0000000,5.00,38.4116211,-110.7977448,37.0999985,0.3,139.1,1.3,0.0,0.0,919,128,0,0,862.40,42.69,5.15,# data time:160,pm2.5:5.640,pm10:4.991,O2:0.000,NO2:0.000,SO2:0.000,NH3:5.536
7:38:56,0,0,0,0,0,0,0,0,0,0,0,513,0,0,0,0,0.0000000,0.0000000,0.0000000,0.0000000,5.00,38.4114990,-110.7977982,31.2999992,0.3,139.1,1.3,0.0,0.0,920,126,0,0,862.47,42.71,5.14,# data time:160,pm2.5:5.640,pm10:4.991,O2:0.000,NO2:0.000,SO2:0.000,NH3:5.536
7:38:57,0,0,0,0,0,0,0,0,0,0,0,514,0,0,0,0,0.0000000,0.0000000,0.0000000,0.0000000,5.00,38.4113922,-110.7978363,26.7000008,0.3,139.1,1.3,0.0,0.0,918,126,0,0,862.39,42.73,5.14,# data time:160,pm2.5:5.640,pm10:4.991,O2:0.000,NO2:0.000,SO2:0.000,NH3:5.536
7:38:58,0,0,0,0,0,0,0,0,0,0,0,514,0,0,0,0,0.0000000,0.0000000,0.0000000,0.0000000,5.00,38.4113121,-110.7978745,22.7999992,0.3,139.1,1.3,0.0,0.0,919,128,0,0,862.49,42.71,5.14,# data time:160,pm2.5:5.640,pm10:4.991,O2:0.000,NO2:0.000,SO2:0.000,NH3:5.536
7:38:59,0,0,0,0,0,0,0,0,0,0,0,513,0,0,0,0,0.0000000,0.0000000,0.0000000,0.0000000,5.00,38.4111671,-110.7979279,16.7000008,0.3,139.1,1.3,0.0,0.0,919,124,0,0,862.44,42.74,5.14,# data time:170,pm2.5:6.445,pm10:5.704,O2:0.000,NO2:0.000,SO2:0.000,NH3:5.536
7:39:00,0,0,0,0,0,0,0,0,0,0,0,514,0,0,0,0,0.0000000,0.0000000,0.0000000,0.0000000,5.00,38.4111137,-110.7979507,14.1999998,0.3,139.1,1.3,0.0,0.0,918,126,0,0,862.42,42.73,5.13,# data time:170,pm2.5:6.445,pm10:5.704,O2:0.000,NO2:0.000,SO2:0.000,NH3:5.536
7:39:01,0,0,0,0,0,0,0,0,0,0,0,514,0,0,0,0,0.0000000,0.0000000,0.0000000,0.0000000,5.00,38.4110641,-110.7979660,12.0000000,0.3,139.1,1.3,0.0,0.0,919,128,0,0,862.46,42.74,5.13,# data time:170,pm2.5:6.445,pm10:5.704,O2:0.000,NO2:0.000,SO2:0.000,NH3:5.536
7:39:02,0,0,0,0,0,0,0,0,0,0,0,514,0,0,0,0,0.0000000,0.0000000,0.0000000,0.0000000,5.00,38.4110222,-110.7979813,10.3000002,0.3,139.1,1.3,0.0,0.0,919,127,0,0,862.45,42.74,5.13,# data time:170,pm2.5:6.445,pm10:5.704,O2:0.000,NO2:0.000,SO2:0.000,NH3:5.536
7:39:03,0,0,0,0,0,0,0,0,0,0,0,514,0,0,0,0,0.0000000,0.0000000,0.0000000,0.0000000,5.00,38.4109840,-110.7979889,8.5000000,0.3,139.1,1.3,0.0,0.0,919,126,0,0,862.46,42.74,5.12,# data time:170,pm2.5:6.445,pm10:5.704,O2:0.000,NO2:0.000,SO2:0.000,NH3:5.536
7:39:04,0,0,0,0,0,0,0,0,0,0,0,513,0,0,0,0,0.0000000,0.0000000,0.0000000,0.0000000,5.00,38.4109497,-110.7979889,7.0000000,0.3,139.1,1.3,0.0,0.0,920,124,0,0,862.44,42.73,5.12,# data time:170,pm2.5:6.445,pm10:5.704,O2:0.000,NO2:0.000,SO2:0.000,NH3:5.536
7:39:05,0,0,0,0,0,0,0,0,0,0,0,514,0,0,0,0,0.0000000,0.0000000,0.0000000,0.0000000,5.00,38.4109154,-110.7980042,5.6999998,0.3,139.1,1.3,0.0,0.0,919,125,0,0,862.42,42.69,5.12,# data time:170,pm2.5:6.445,pm10:5.704,O2:0.000,NO2:0.000,SO2:0.000,NH3:5.536
7:39:06,0,0,0,0,0,0,0,0,0,0,0,514,0,0,0,0,0.0000000,0.0000000,0.0000000,0.0000000,5.00,38.4108505,-110.7980270,3.0999999,0.3,139.1,1.3,0.0,0.0,919,129,0,0,862.45,42.66,5.12,# data time:170,pm2.5:6.445,pm10:5.704,O2:0.000,NO2:0.000,SO2:0.000,NH3:5.536
7:39:07,0,0,0,0,0,0,0,0,0,0,0,514,0,0,0,0,0.0000000,0.0000000,0.0000000,0.0000000,5.00,38.4107971,-110.7980576,1.0000000,0.3,139.1,1.3,0.0,0.0,918,125,0,0,862.47,42.68,5.12,# data time:170,pm2.5:6.445,pm10:5.704,O2:0.000,NO2:0.000,SO2:0.000,NH3:5.536
7:39:08,0,0,0,0,0,0,0,0,0,0,0,515,0,0,0,0,0.0000000,0.0000000,0.0000000,0.0000000,5.00,38.4107475,-110.7980652,-0.7000000,0.3,139.1,1.3,0.0,0.0,919,126,0,0,862.39,42.68,5.12,# data time:170,pm2.5:6.445,pm10:5.704,O2:0.000,NO2:0.000,SO2:0.000,NH3:5.536
7:39:09,0,0,0,0,0,0,0,0,0,0,0,514,0,0,0,0,0.0000000,0.0000000,0.0000000,0.0000000,5.00,38.4107056,-110.7980804,-2.2000000,0.3,139.1,1.3,0.0,0.0,919,127,0,0,862.44,42.69,5.11,# data time:180,pm2.5:6.445,pm10:5.704,O2:0.000,NO2:0.000,SO2:0.000,NH3:5.762
7:39:10,0,0,0,0,0,0,0,0,0,0,0,514,0,0,0,0,0.0000000,0.0000000,0.0000000,0.0000000,5.00,38.4106712,-110.7980957,-3.5000000,0.3,139.1,1.3,0.0,0.0,918,128,0,0,862.40,42.71,5.06,# data time:180,pm2.5:6.445,pm10:5.704,O2:0.000,NO2:0.000,SO2:0.000,NH3:5.762
7:39:11,0,0,0,0,0,0,0,0,0,0,0,514,0,0,0,0,0.0000000,0.0000000,0.0000000,0.0000000,5.00,38.4106712,-110.7980957,-3.5000000,0.3,139.1,1.3,0.0,0.0,918,128,0,0,862.47,42.73,5.05,# data time:180,pm2.5:6.445,pm10:5.704,O2:0.000,NO2:0.000,SO2:0.000,NH3:5.762
7:39:12,0,0,0,0,0,0,0,0,0,0,0,514,0,0,0,0,0.0000000,0.0000000,0.0000000,0.0000000,5.00,38.4105988,-110.7981186,-6.0000000,0.3,139.1,1.3,0.0,0.0,919,128,0,0,862.45,42.73,5.05,# data time:180,pm2.5:6.445,pm10:5.704,O2:0.000,NO2:0.000,SO2:0.000,NH3:5.762
7:39:13,0,0,0,0,0,0,0,0,0,0,0,513,0,0,0,0,0.0000000,0.0000000,0.0000000,0.0000000,5.00,38.4105682,-110.7981339,-6.8000002,0.3,139.1,1.3,0.0,0.0,919,127,0,0,862.42,42.73,5.05,# data time:180,pm2.5:6.445,pm10:5.704,O2:0.000,NO2:0.000,SO2:0.000,NH3:5.762
7:39:14,0,0,0,0,0,0,0,0,0,0,0,514,0,0,0,0,0.0000000,0.0000000,0.0000000,0.0000000,5.00,38.4105453,-110.7981339,-7.5000000,0.6,211.4,1.3,0.0,0.0,919,129,0,0,862.41,42.74,5.11,# data time:180,pm2.5:6.445,pm10:5.704,O2:0.000,NO2:0.000,SO2:0.000,NH3:5.762
7:39:15,0,0,0,0,0,0,0,0,0,0,0,515,0,0,0,0,0.0000000,0.0000000,0.0000000,0.0000000,5.00,38.4105225,-110.7981339,-8.1000004,0.6,211.4,1.3,0.0,0.0,920,128,0,0,862.48,42.76,5.10,# data time:180,pm2.5:6.445,pm10:5.704,O2:0.000,NO2:0.000,SO2:0.000,NH3:5.762
7:39:16,0,0,0,0,0,0,0,0,0,0,0,514,0,0,0,0,0.0000000,0.0000000,0.0000000,0.0000000,5.00,38.4105034,-110.7981339,-8.6999998,0.6,211.4,1.3,0.0,0.0,918,125,0,0,862.44,42.74,5.10,# data time:180,pm2.5:6.445,pm10:5.704,O2:0.000,NO2:0.000,SO2:0.000,NH3:5.762
7:39:17,0,0,0,0,0,0,0,0,0,0,0,514,0,0,0,0,0.0000000,0.0000000,0.0000000,0.0000000,5.00,38.4104805,-110.7981339,-9.1999998,0.6,211.4,1.3,0.0,0.0,917,125,0,0,862.41,42.76,5.10,# data time:180,pm2.5:6.445,pm10:5.704,O2:0.000,NO2:0.000,SO2:0.000,NH3:5.762
7:39:18,0,0,0,0,0,0,0,0,0,0,0,513,0,0,0,0,0.0000000,0.0000000,0.0000000,0.0000000,5.00,38.4104614,-110.7981415,-9.5000000,0.6,211.4,1.3,0.0,0.0,919,126,0,0,862.44,42.74,5.10,# data time:180,pm2.5:6.445,pm10:5.704,O2:0.000,NO2:0.000,SO2:0.000,NH3:5.762
7:39:19,0,0,0,0,0,0,0,0,0,0,0,513,0,0,0,0,0.0000000,0.0000000,0.0000000,0.0000000,5.00,38.4104462,-110.7981415,-10.0000000,0.6,211.4,1.3,0.0,0.0,919,125,0,0,862.44,42.76,5.09,# data time:190,pm2.5:6.445,pm10:5.704,O2:0.000,NO2:0.000,SO2:0.000,NH3:5.536
7:39:20,0,0,0,0,0,0,0,0,0,0,0,513,0,0,0,0,0.0000000,0.0000000,0.0000000,0.0000000,5.00,38.4104271,-110.7981415,-10.3000002,0.6,211.4,1.3,0.0,0.0,918,126,0,0,862.47,42.76,5.10,# data time:190,pm2.5:6.445,pm10:5.704,O2:0.000,NO2:0.000,SO2:0.000,NH3:5.536
7:39:21,0,0,0,0,0,0,0,0,0,0,0,513,0,0,0,0,0.0000000,0.0000000,0.0000000,0.0000000,5.00,38.4104118,-110.7981339,-10.3999996,0.6,211.4,1.3,0.0,0.0,918,127,0,0,862.45,42.76,5.10,# data time:190,pm2.5:6.445,pm10:5.704,O2:0.000,NO2:0.000,SO2:0.000,NH3:5.536
7:39:22,0,0,0,0,0,0,0,0,0,0,0,514,0,0,0,0,0.0000000,0.0000000,0.0000000,0.0000000,5.00,38.4103966,-110.7981339,-10.6000004,0.6,211.4,1.3,0.0,0.0,918,126,0,0,862.47,42.76,5.10,# data time:190,pm2.5:6.445,pm10:5.704,O2:0.000,NO2:0.000,SO2:0.000,NH3:5.536
7:39:23,0,0,0,0,0,0,0,0,0,0,0,513,0,0,0,0,0.0000000,0.0000000,0.0000000,0.0000000,5.00,38.4103851,-110.7981339,-10.3000002,0.6,211.4,1.3,0.0,0.0,919,125,0,0,862.47,42.74,5.10,# data time:190,pm2.5:6.445,pm10:5.704,O2:0.000,NO2:0.000,SO2:0.000,NH3:5.536
7:39:24,0,0,0,0,0,0,0,0,0,0,0,513,0,0,0,0,0.0000000,0.0000000,0.0000000,0.0000000,5.00,38.4103699,-110.7981339,-10.3999996,0.6,211.4,1.3,0.0,0.0,917,128,0,0,862.45,42.77,5.10,# data time:190,pm2.5:6.445,pm10:5.704,O2:0.000,NO2:0.000,SO2:0.000,NH3:5.536
7:39:25,0,0,0,0,0,0,0,0,0,0,0,514,0,0,0,0,0.0000000,0.0000000,0.0000000,0.0000000,5.00,38.4103584,-110.7981415,-10.5000000,0.6,211.4,1.3,0.0,0.0,918,127,0,0,862.44,42.77,5.09,# data time:190,pm2.5:6.445,pm10:5.704,O2:0.000,NO2:0.000,SO2:0.000,NH3:5.536
7:39:26,0,0,0,0,0,0,0,0,0,0,0,514,0,0,0,0,0.0000000,0.0000000,0.0000000,0.0000000,5.00,38.4103470,-110.7981415,-10.5000000,0.6,211.4,1.3,0.0,0.0,918,125,0,0,862.49,42.82,5.09,# data time:190,pm2.5:6.445,pm10:5.704,O2:0.000,NO2:0.000,SO2:0.000,NH3:5.536
7:39:27,0,0,0,0,0,0,0,0,0,0,0,514,0,0,0,0,0.0000000,0.0000000,0.0000000,0.0000000,5.00,38.4103394,-110.7981415,-10.3999996,0.6,211.4,1.3,0.0,0.0,918,126,0,0,862.47,42.80,5.09,# data time:190,pm2.5:6.445,pm10:5.704,O2:0.000,NO2:0.000,SO2:0.000,NH3:5.536
7:39:28,0,0,0,0,0,0,0,0,0,0,0,513,0,0,0,0,0.0000000,0.0000000,0.0000000,0.0000000,5.00,38.4103279,-110.7981415,-10.3999996,0.6,211.4,1.3,0.0,0.0,918,126,0,0,862.45,42.83,5.09,# data time:190,pm2.5:6.445,pm10:5.704,O2:0.000,NO2:0.000,SO2:0.000,NH3:5.536
7:39:29,0,0,0,0,0,0,0,0,0,0,0,514,0,0,0,0,0.0000000,0.0000000,0.0000000,0.0000000,6.00,38.4103241,-110.7981415,-10.3999996,0.6,211.4,1.2,0.0,0.0,917,126,0,0,862.45,42.85,5.09,# data time:200,pm2.5:6.445,pm10:5.704,O2:0.000,NO2:0.000,SO2:0.000,NH3:5.762
7:39:30,0,0,0,0,0,0,0,0,0,0,0,514,0,0,0,0,0.0000000,0.0000000,0.0000000,0.0000000,6.00,38.4103203,-110.7981415,-10.3000002,0.6,211.4,1.2,0.0,0.0,919,125,0,0,862.44,42.88,5.09,# data time:200,pm2.5:6.445,pm10:5.704,O2:0.000,NO2:0.000,SO2:0.000,NH3:5.762
7:39:32,0,0,0,0,0,0,0,0,0,0,0,514,0,0,0,0,0.0000000,0.0000000,0.0000000,0.0000000,6.00,38.4103088,-110.7981415,-10.3000002,0.6,211.4,1.2,0.0,0.0,918,126,0,0,862.43,42.89,5.09,# data time:200,pm2.5:6.445,pm10:5.704,O2:0.000,NO2:0.000,SO2:0.000,NH3:5.762
7:39:33,0,0,0,0,0,0,0,0,0,0,0,513,0,0,0,0,0.0000000,0.0000000,0.0000000,0.0000000,6.00,38.4103012,-110.7981339,-10.0000000,0.6,211.4,1.2,0.0,0.0,919,128,0,0,862.46,42.88,5.08,# data time:200,pm2.5:6.445,pm10:5.704,O2:0.000,NO2:0.000,SO2:0.000,NH3:5.762
7:39:34,0,0,0,0,0,0,0,0,0,0,0,514,0,0,0,0,0.0000000,0.0000000,0.0000000,0.0000000,6.00,38.4102936,-110.7981415,-9.6999998,0.6,211.4,1.2,0.0,0.0,918,125,0,0,862.42,42.86,5.08,# data time:200,pm2.5:6.445,pm10:5.704,O2:0.000,NO2:0.000,SO2:0.000,NH3:5.762
7:39:35,0,0,0,0,0,0,0,0,0,0,0,514,0,0,0,0,0.0000000,0.0000000,0.0000000,0.0000000,6.00,38.4102898,-110.7981339,-9.5000000,0.6,211.4,1.2,0.0,0.0,919,126,0,0,862.45,42.83,5.08,# data time:200,pm2.5:6.445,pm10:5.704,O2:0.000,NO2:0.000,SO2:0.000,NH3:5.762
7:39:36,0,0,0,0,0,0,0,0,0,0,0,514,0,0,0,0,0.0000000,0.0000000,0.0000000,0.0000000,6.00,38.4102783,-110.7981339,-9.1999998,0.6,211.4,1.2,0.0,0.0,918,125,0,0,862.47,42.80,5.07,# data time:200,pm2.5:6.445,pm10:5.704,O2:0.000,NO2:0.000,SO2:0.000,NH3:5.762
7:39:37,0,0,0,0,0,0,0,0,0,0,0,514,0,0,0,0,0.0000000,0.0000000,0.0000000,0.0000000,6.00,38.4102707,-110.7981339,-8.8999996,0.6,211.4,1.2,0.0,0.0,919,128,0,0,862.46,42.79,5.07,# data time:200,pm2.5:6.445,pm10:5.704,O2:0.000,NO2:0.000,SO2:0.000,NH3:5.762
7:39:38,0,0,0,0,0,0,0,0,0,0,0,514,0,0,0,0,0.0000000,0.0000000,0.0000000,0.0000000,6.00,38.4102592,-110.7981186,-8.8000002,0.6,211.4,1.2,0.0,0.0,918,130,0,0,862.43,42.77,5.07,# data time:200,pm2.5:6.445,pm10:5.704,O2:0.000,NO2:0.000,SO2:0.000,NH3:5.762
7:39:39,0,0,0,0,0,0,0,0,0,0,0,513,0,0,0,0,0.0000000,0.0000000,0.0000000,0.0000000,6.00,38.4102478,-110.7981186,-8.5000000,0.6,211.4,1.2,0.0,0.0,919,125,0,0,862.44,42.74,5.07,# data time:210,pm2.5:6.445,pm10:5.704,O2:0.000,NO2:0.000,SO2:0.000,NH3:5.988
7:39:40,0,0,0,0,0,0,0,0,0,0,0,514,0,0,0,0,0.0000000,0.0000000,0.0000000,0.0000000,6.00,38.4102325,-110.7981033,-8.1999998,0.6,211.4,1.2,0.0,0.0,917,124,0,0,862.42,42.69,5.06,# data time:210,pm2.5:6.445,pm10:5.704,O2:0.000,NO2:0.000,SO2:0.000,NH3:5.988
7:39:41,0,0,0,0,0,0,0,0,0,0,0,514,0,0,0,0,0.0000000,0.0000000,0.0000000,0.0000000,6.00,38.4102249,-110.7981033,-8.0000000,0.6,211.4,1.2,0.0,0.0,918,126,0,0,862.47,42.66,5.06,# data time:210,pm2.5:6.445,pm10:5.704,O2:0.000,NO2:0.000,SO2:0.000,NH3:5.988
7:39:42,0,0,0,0,0,0,0,0,0,0,0,514,0,0,0,0,0.0000000,0.0000000,0.0000000,0.0000000,6.00,38.4102173,-110.7980957,-7.5999999,0.6,211.4,1.2,0.0,0.0,917,125,0,0,862.45,42.62,5.06,# data time:210,pm2.5:6.445,pm10:5.704,O2:0.000,NO2:0.000,SO2:0.000,NH3:5.988
7:39:43,0,0,0,0,0,0,0,0,0,0,0,514,0,0,0,0,0.0000000,0.0000000,0.0000000,0.0000000,6.00,38.4102097,-110.7980957,-7.3000002,0.6,211.4,1.2,0.0,0.0,918,124,0,0,862.46,42.59,5.06,# data time:210,pm2.5:6.445,pm10:5.704,O2:0.000,NO2:0.000,SO2:0.000,NH3:5.988
7:39:44,0,0,0,0,0,0,0,0,0,0,0,515,0,0,0,0,0.0000000,0.0000000,0.0000000,0.0000000,6.00,38.4102020,-110.7980957,-6.8000002,0.6,211.4,1.2,0.0,0.0,918,127,0,0,862.46,42.59,5.06,# data time:210,pm2.5:6.445,pm10:5.704,O2:0.000,NO2:0.000,SO2:0.000,NH3:5.988
7:39:45,0,0,0,0,0,0,0,0,0,0,0,514,0,0,0,0,0.0000000,0.0000000,0.0000000,0.0000000,6.00,38.4101944,-110.7980957,-6.4000001,0.6,211.4,1.2,0.0,0.0,918,128,0,0,862.50,42.57,5.06,# data time:210,pm2.5:6.445,pm10:5.704,O2:0.000,NO2:0.000,SO2:0.000,NH3:5.988
7:39:46,0,0,0,0,0,0,0,0,0,0,0,515,0,0,0,0,0.0000000,0.0000000,0.0000000,0.0000000,6.00,38.4101906,-110.7981033,-5.5000000,0.6,211.4,1.2,0.0,0.0,917,125,0,0,862.44,42.57,5.06,# data time:210,pm2.5:6.445,pm10:5.704,O2:0.000,NO2:0.000,SO2:0.000,NH3:5.988
7:39:47,0,0,0,0,0,0,0,0,0,0,0,514,0,0,0,0,0.0000000,0.0000000,0.0000000,0.0000000,6.00,38.4101830,-110.7981033,-5.0999999,0.6,211.4,1.2,0.0,0.0,918,127,0,0,862.45,42.56,5.06,# data time:210,pm2.5:6.445,pm10:5.704,O2:0.000,NO2:0.000,SO2:0.000,NH3:5.988
7:39:48,0,0,0,0,0,0,0,0,0,0,0,514,0,0,0,0,0.0000000,0.0000000,0.0000000,0.0000000,6.00,38.4101715,-110.7981033,-4.5000000,0.6,211.4,1.2,0.0,0.0,918,127,0,0,862.45,42.59,5.05,# data time:210,pm2.5:6.445,pm10:5.704,O2:0.000,NO2:0.000,SO2:0.000,NH3:5.988
7:39:49,0,0,0,0,0,0,0,0,0,0,0,514,0,0,0,0,0.0000000,0.0000000,0.0000000,0.0000000,6.00,38.4101639,-110.7980957,-3.9000001,0.6,211.4,1.2,0.0,0.0,917,127,0,0,862.47,42.63,5.05,# data time:220,pm2.5:6.445,pm10:5.704,O2:0.000,NO2:0.000,SO2:0.000,NH3:5.988
7:39:50,0,0,0,0,0,0,0,0,0,0,0,513,0,0,0,0,0.0000000,0.0000000,0.0000000,0.0000000,6.00,38.4101601,-110.7980957,-3.5000000,0.6,211.4,1.2,0.0,0.0,918,125,0,0,862.43,42.60,5.05,# data time:220,pm2.5:6.445,pm10:5.704,O2:0.000,NO2:0.000,SO2:0.000,NH3:5.988
7:39:51,0,0,0,0,0,0,0,0,0,0,0,514,0,0,0,0,0.0000000,0.0000000,0.0000000,0.0000000,6.00,38.4101486,-110.7980804,-2.9000001,0.6,211.4,1.2,0.0,0.0,918,128,0,0,862.49,42.63,5.05,# data time:220,pm2.5:6.445,pm10:5.704,O2:0.000,NO2:0.000,SO2:0.000,NH3:5.988
7:39:52,0,0,0,0,0,0,0,0,0,0,0,514,0,0,0,0,0.0000000,0.0000000,0.0000000,0.0000000,6.00,38.4101372,-110.7980804,-2.3000000,0.6,211.4,1.2,0.0,0.0,918,127,0,0,862.43,42.63,5.05,# data time:220,pm2.5:6.445,pm10:5.704,O2:0.000,NO2:0.000,SO2:0.000,NH3:5.988
7:39:53,0,0,0,0,0,0,0,0,0,0,0,514,0,0,0,0,0.0000000,0.0000000,0.0000000,0.0000000,6.00,38.4101334,-110.7980804,-1.8000000,0.6,211.4,1.2,0.0,0.0,917,123,0,0,862.47,42.62,5.03,# data time:220,pm2.5:6.445,pm10:5.704,O2:0.000,NO2:0.000,SO2:0.000,NH3:5.988
7:39:54,0,0,0,0,0,0,0,0,0,0,0,514,0,0,0,0,0.0000000,0.0000000,0.0000000,0.0000000,6.00,38.4101295,-110.7980957,-1.4000000,0.6,211.4,1.2,0.0,0.0,918,127,0,0,862.46,42.59,5.03,# data time:220,pm2.5:6.445,pm10:5.704,O2:0.000,NO2:0.000,SO2:0.000,NH3:5.988
7:39:55,0,0,0,0,0,0,0,0,0,0,0,514,0,0,0,0,0.0000000,0.0000000,0.0000000,0.0000000,6.00,38.4101219,-110.7980957,-0.9000000,0.6,211.4,1.2,0.0,0.0,918,125,0,0,862.48,42.59,5.03,# data time:220,pm2.5:6.445,pm10:5.704,O2:0.000,NO2:0.000,SO2:0.000,NH3:5.988
7:39:56,0,0,0,0,0,0,0,0,0,0,0,514,0,0,0,0,0.0000000,0.0000000,0.0000000,0.0000000,6.00,38.4101143,-110.7980957,0.0000000,0.6,211.4,1.2,0.0,0.0,918,125,0,0,862.46,42.57,5.03,# data time:220,pm2.5:6.445,pm10:5.704,O2:0.000,NO2:0.000,SO2:0.000,NH3:5.988
7:39:57,0,0,0,0,0,0,0,0,0,0,0,514,0,0,0,0,0.0000000,0.0000000,0.0000000,0.0000000,6.00,38.4101219,-110.7981033,0.9000000,0.6,211.4,1.2,0.0,0.0,918,127,0,0,862.45,42.56,5.03,# data time:220,pm2.5:6.445,pm10:5.704,O2:0.000,NO2:0.000,SO2:0.000,NH3:5.988
7:39:58,0,0,0,0,0,0,0,0,0,0,0,513,0,0,0,0,0.0000000,0.0000000,0.0000000,0.0000000,6.00,38.4101219,-110.7981033,1.6000000,0.6,211.4,1.2,0.0,0.0,918,128,0,0,862.44,42.54,5.03,# data time:220,pm2.5:6.445,pm10:5.704,O2:0.000,NO2:0.000,SO2:0.000,NH3:5.988
7:39:59,0,0,0,0,0,0,0,0,0,0,0,514,0,0,0,0,0.0000000,0.0000000,0.0000000,0.0000000,6.00,38.4101105,-110.7981033,2.5999999,0.6,211.4,1.2,0.0,0.0,918,125,0,0,862.46,42.57,5.02,# data time:230,pm2.5:5.640,pm10:4.991,O2:0.000,NO2:0.000,SO2:0.000,NH3:5.988
7:40:00,0,0,0,0,0,0,0,0,0,0,0,514,0,0,0,0,0.0000000,0.0000000,0.0000000,0.0000000,6.00,38.4101067,-110.7981186,3.4000001,0.6,211.4,1.2,0.0,0.0,918,129,0,0,862.42,42.56,4.97,# data time:230,pm2.5:5.640,pm10:4.991,O2:0.000,NO2:0.000,SO2:0.000,NH3:5.988
7:40:01,0,0,0,0,0,0,0,0,0,0,0,514,0,0,0,0,0.0000000,0.0000000,0.0000000,0.0000000,6.00,38.4101028,-110.7981186,3.4000001,0.1,161.0,1.2,0.0,0.0,917,129,0,0,862.45,42.59,4.97,# data time:230,pm2.5:5.640,pm10:4.991,O2:0.000,NO2:0.000,SO2:0.000,NH3:5.988
7:40:02,0,0,0,0,0,0,0,0,0,0,0,514,0,0,0,0,0.0000000,0.0000000,0.0000000,0.0000000,6.00,38.4100800,-110.7981033,6.0000000,0.1,161.0,1.2,0.0,0.0,918,129,0,0,862.44,42.63,4.96,# data time:230,pm2.5:5.640,pm10:4.991,O2:0.000,NO2:0.000,SO2:0.000,NH3:5.988
7:40:03,0,0,0,0,0,0,0,0,0,0,0,513,0,0,0,0,0.0000000,0.0000000,0.0000000,0.0000000,6.00,38.4100685,-110.7981033,6.6999998,0.1,161.0,1.2,0.0,0.0,918,125,0,0,862.52,42.68,5.01,# data time:230,pm2.5:5.640,pm10:4.991,O2:0.000,NO2:0.000,SO2:0.000,NH3:5.988
7:40:04,0,0,0,0,0,0,0,0,0,0,0,514,0,0,0,0,0.0000000,0.0000000,0.0000000,0.0000000,6.00,38.4100609,-110.7981033,7.4000001,0.1,161.0,1.2,0.0,0.0,917,127,0,0,862.51,42.68,4.96,# data time:230,pm2.5:5.640,pm10:4.991,O2:0.000,NO2:0.000,SO2:0.000,NH3:5.988
7:40:05,0,0,0,0,0,0,0,0,0,0,0,515,0,0,0,0,0.0000000,0.0000000,0.0000000,0.0000000,6.00,38.4100571,-110.7981033,8.1000004,0.4,144.5,1.2,0.0,0.0,917,126,0,0,862.50,42.71,5.01,# data time:230,pm2.5:5.640,pm10:4.991,O2:0.000,NO2:0.000,SO2:0.000,NH3:5.988
7:40:06,0,0,0,0,0,0,0,0,0,0,0,514,0,0,0,0,0.0000000,0.0000000,0.0000000,0.0000000,6.00,38.4100494,-110.7981033,9.1000004,0.4,144.5,1.2,0.0,0.0,917,126,0,0,862.49,42.77,5.01,# data time:230,pm2.5:5.640,pm10:4.991,O2:0.000,NO2:0.000,SO2:0.000,NH3:5.988
