Time, Motor A Speed, Motor A Dir, Motor B Speed, Motor B Dir, Servo Rail Current Sensor, Servo Pos - Arm L, Servo Pos - Arm R, Servo Pos - End, Servo Pos - Hopper, Servo Pos - Lid, Servo Pos - Extra, Servo Current, LED - Front L, LED - Front R, LED - Back L, LED - Back R, IMU Pitch, IMU Roll, IMU Yaw, Compass Heading, GPS Sats, GPS Latitude, GPS Longitude, GPS Altitude, GPS Speed, GPS Angle, GPS HDOP, GPS VDOP, GPS PDOP, Battery, Wind, Comm Xbee Latency, Comm Arduino Latency, Pressure, Humidity, Temperature, uRADMonitor
9:10:20,0,0,0,0,0,0,0,0,0,0,0,0,0,0,0,0,0.0000000,0.0000000,0.0000000,0.0000000,0.00,0.0000000,0.0000000,0.0000000,0.0,0.0,0.0,0.0,0.0,0,0,0,0,0.00,0.00,0.00,0
9:10:21,0,0,0,0,0,0,0,0,0,0,0,514,0,0,0,0,0.0000000,0.0000000,0.0000000,0.0000000,9.00,38.4063072,-110.7922058,1374.6999512,0.0,32.7,1.0,0.0,0.0,902,129,0,0,863.36,32.00,15.35,0
9:10:22,0,0,0,0,0,0,0,0,0,0,0,515,0,0,0,0,0.0000000,0.0000000,0.0000000,0.0000000,9.00,38.4063072,-110.7922058,1374.6999512,0.0,264.2,1.0,0.0,0.0,902,128,0,0,863.41,32.01,15.41,0
9:10:23,0,0,0,0,0,0,0,0,0,0,0,515,0,0,0,0,0.0000000,0.0000000,0.0000000,0.0000000,9.00,38.4063072,-110.7922058,1374.6999512,0.0,124.2,1.0,0.0,0.0,902,131,0,0,863.37,31.98,15.41,0
9:10:24,0,0,0,0,0,0,0,0,0,0,0,515,0,0,0,0,0.0000000,0.0000000,0.0000000,0.0000000,9.00,38.4063072,-110.7922058,1374.6999512,0.0,192.9,1.0,0.0,0.0,902,125,0,0,863.39,31.97,15.42,0
9:10:25,0,0,0,0,0,0,0,0,0,0,0,514,0,0,0,0,0.0000000,0.0000000,0.0000000,0.0000000,9.00,38.4063072,-110.7922058,1374.6999512,0.0,144.2,1.0,0.0,0.0,902,130,0,0,863.41,31.95,15.42,0
9:10:26,0,0,0,0,0,0,0,0,0,0,0,516,0,0,0,0,0.0000000,0.0000000,0.0000000,0.0000000,9.00,38.4063072,-110.7922058,1374.6999512,0.0,132.8,1.0,0.0,0.0,902,129,0,0,863.37,31.95,15.43,0
9:10:27,0,0,0,0,0,0,0,0,0,0,0,514,0,0,0,0,0.0000000,0.0000000,0.0000000,0.0000000,9.00,38.4063072,-110.7922058,1374.6999512,0.0,299.8,1.0,0.0,0.0,902,130,0,0,863.40,31.95,15.43,# data time:1330,pm2.5:6.445,pm10:5.704,O2:0.000,NO2:0.000,SO2:0.000,NH3:4.178
9:10:28,0,0,0,0,0,0,0,0,0,0,0,515,0,0,0,0,0.0000000,0.0000000,0.0000000,0.0000000,9.00,38.4063072,-110.7922058,1374.6999512,0.0,259.8,1.0,0.0,0.0,902,129,0,0,863.37,31.98,15.43,# data time:1330,pm2.5:6.445,pm10:5.704,O2:0.000,NO2:0.000,SO2:0.000,NH3:4.178
9:10:29,0,0,0,0,0,0,0,0,0,0,0,514,0,0,0,0,0.0000000,0.0000000,0.0000000,0.0000000,9.00,38.4063072,-110.7922058,1374.6999512,0.0,119.4,1.0,0.0,0.0,902,130,0,0,863.38,31.97,15.44,# data time:1330,pm2.5:6.445,pm10:5.704,O2:0.000,NO2:0.000,SO2:0.000,NH3:4.178
9:10:30,0,0,0,0,0,0,0,0,0,0,0,515,0,0,0,0,0.0000000,0.0000000,0.0000000,0.0000000,9.00,38.4063072,-110.7922058,1374.6999512,0.0,50.0,1.0,0.0,0.0,902,130,0,0,863.38,31.95,15.43,# data time:1330,pm2.5:6.445,pm10:5.704,O2:0.000,NO2:0.000,SO2:0.000,NH3:4.178
9:10:31,0,0,0,0,0,0,0,0,0,0,0,515,0,0,0,0,0.0000000,0.0000000,0.0000000,0.0000000,9.00,38.4063072,-110.7922058,1374.6999512,0.0,142.5,1.0,0.0,0.0,902,131,0,0,863.35,31.95,15.44,# data time:1330,pm2.5:6.445,pm10:5.704,O2:0.000,NO2:0.000,SO2:0.000,NH3:4.178
9:10:32,0,0,0,0,0,0,0,0,0,0,0,515,0,0,0,0,0.0000000,0.0000000,0.0000000,0.0000000,9.00,38.4063072,-110.7922058,1374.5999756,0.0,48.2,1.0,0.0,0.0,902,129,0,0,863.40,31.92,15.44,# data time:1330,pm2.5:6.445,pm10:5.704,O2:0.000,NO2:0.000,SO2:0.000,NH3:4.178
9:10:33,0,0,0,0,0,0,0,0,0,0,0,515,0,0,0,0,0.0000000,0.0000000,0.0000000,0.0000000,9.00,38.4063072,-110.7922058,1374.5000000,0.0,220.8,1.0,0.0,0.0,902,135,0,0,863.42,31.95,15.45,# data time:1330,pm2.5:6.445,pm10:5.704,O2:0.000,NO2:0.000,SO2:0.000,NH3:4.178
9:10:34,0,0,0,0,0,0,0,0,0,0,0,514,0,0,0,0,0.0000000,0.0000000,0.0000000,0.0000000,9.00,38.4063072,-110.7921906,1374.5000000,0.0,160.6,1.0,0.0,0.0,902,124,0,0,863.43,31.94,15.45,# data time:1330,pm2.5:6.445,pm10:5.704,O2:0.000,NO2:0.000,SO2:0.000,NH3:4.178
9:10:35,0,0,0,0,0,0,0,0,0,0,0,515,0,0,0,0,0.0000000,0.0000000,0.0000000,0.0000000,9.00,38.4063072,-110.7921906,1374.1999512,0.0,105.3,1.0,0.0,0.0,902,132,0,0,863.36,31.88,15.45,# data time:1330,pm2.5:6.445,pm10:5.704,O2:0.000,NO2:0.000,SO2:0.000,NH3:4.178
9:10:36,0,0,0,0,0,0,0,0,0,0,0,514,0,0,0,0,0.0000000,0.0000000,0.0000000,0.0000000,9.00,38.4063072,-110.7921906,1374.1999512,0.0,213.2,1.0,0.0,0.0,902,128,0,0,863.42,31.82,15.46,# data time:1330,pm2.5:6.445,pm10:5.704,O2:0.000,NO2:0.000,SO2:0.000,NH3:4.178
9:10:37,0,0,0,0,0,0,0,0,0,0,0,514,0,0,0,0,0.0000000,0.0000000,0.0000000,0.0000000,9.00,38.4063072,-110.7921906,1374.1999512,0.0,126.7,1.0,0.0,0.0,902,122,0,0,863.38,31.83,15.41,# data time:1340,pm2.5:6.445,pm10:5.704,O2:0.000,NO2:0.000,SO2:0.000,NH3:4.178
9:10:38,0,0,0,0,0,0,0,0,0,0,0,514,0,0,0,0,0.0000000,0.0000000,0.0000000,0.0000000,9.00,38.4063072,-110.7921906,1374.1999512,0.0,61.5,1.0,0.0,0.0,901,131,0,0,863.39,31.77,15.46,# data time:1340,pm2.5:6.445,pm10:5.704,O2:0.000,NO2:0.000,SO2:0.000,NH3:4.178
9:10:39,0,0,0,0,0,0,0,0,0,0,0,515,0,0,0,0,0.0000000,0.0000000,0.0000000,0.0000000,9.00,38.4063072,-110.7921906,1374.1999512,0.0,94.9,1.0,0.0,0.0,902,128,0,0,863.37,31.74,15.47,# data time:1340,pm2.5:6.445,pm10:5.704,O2:0.000,NO2:0.000,SO2:0.000,NH3:4.178
9:10:40,0,0,0,0,0,0,0,0,0,0,0,515,0,0,0,0,0.0000000,0.0000000,0.0000000,0.0000000,9.00,38.4063072,-110.7921906,1374.1999512,0.0,63.5,1.0,0.0,0.0,902,128,0,0,863.42,31.77,15.47,# data time:1340,pm2.5:6.445,pm10:5.704,O2:0.000,NO2:0.000,SO2:0.000,NH3:4.178
