Time, Motor A Speed, Motor A Dir, Motor B Speed, Motor B Dir, Servo Rail Current Sensor, Servo Pos - Arm L, Servo Pos - Arm R, Servo Pos - End, Servo Pos - Hopper, Servo Pos - Lid, Servo Pos - Extra, Servo Current, LED - Front L, LED - Front R, LED - Back L, LED - Back R, IMU Pitch, IMU Roll, IMU Yaw, Compass Heading, GPS Sats, GPS Latitude, GPS Longitude, GPS Altitude, GPS Speed, GPS Angle, GPS HDOP, GPS VDOP, GPS PDOP, Battery, Wind, Comm Xbee Latency, Comm Arduino Latency, Pressure, Humidity, Temperature, uRADMonitor
8:58:23,0,0,0,0,0,0,0,0,0,0,0,0,0,0,0,0,0.0000000,0.0000000,0.0000000,0.0000000,0.00,0.0000000,0.0000000,0.0000000,0.0,0.0,0.0,0.0,0.0,0,0,0,0,0.00,0.00,0.00,# data time:550,pm2.5:6.445,pm10:5.704,O2:0.000,NO2:0.000,SO2
8:58:25,0,0,0,0,0,0,0,0,0,0,0,514,0,0,0,0,0.0000000,0.0000000,0.0000000,0.0000000,9.00,38.4063339,-110.7921906,1381.0000000,0.0,327.4,1.0,0.0,0.0,907,128,0,0,863.46,36.01,12.98,# data time:550,pm2.5:6.445,pm10:5.704,O2:0.000,NO2:0.000,SO2
8:58:26,0,0,0,0,0,0,0,0,0,0,0,514,0,0,0,0,0.0000000,0.0000000,0.0000000,0.0000000,9.00,38.4063339,-110.7921906,1381.0000000,0.0,0.0,1.0,0.0,0.0,907,129,0,0,863.40,35.93,12.98,# data time:550,pm2.5:6.445,pm10:5.704,O2:0.000,NO2:0.000,SO2
8:58:27,0,0,0,0,0,0,0,0,0,0,0,514,0,0,0,0,0.0000000,0.0000000,0.0000000,0.0000000,9.00,38.4063339,-110.7921906,1381.0000000,0.0,71.0,1.0,0.0,0.0,907,129,0,0,863.43,35.83,13.03,# data time:550,pm2.5:6.445,pm10:5.704,O2:0.000,NO2:0.000,SO2
8:58:28,0,0,0,0,0,0,0,0,0,0,0,514,0,0,0,0,0.0000000,0.0000000,0.0000000,0.0000000,9.00,38.4063339,-110.7921906,1381.0000000,0.0,107.9,1.0,0.0,0.0,907,129,0,0,863.43,35.74,13.04,# data time:610,pm2.5:6.445,pm10:5.704,O2:0.000,NO2:0.000,SO2:0.000,NH3:5.083
8:58:29,0,0,0,0,0,0,0,0,0,0,0,514,0,0,0,0,0.0000000,0.0000000,0.0000000,0.0000000,9.00,38.4063339,-110.7921906,1381.0000000,0.0,298.4,1.0,0.0,0.0,907,130,0,0,863.39,35.68,13.04,# data time:610,pm2.5:6.445,pm10:5.704,O2:0.000,NO2:0.000,SO2:0.000,NH3:5.083
8:58:30,0,0,0,0,0,0,0,0,0,0,0,514,0,0,0,0,0.0000000,0.0000000,0.0000000,0.0000000,9.00,38.4063339,-110.7921906,1381.0000000,0.0,242.3,1.0,0.0,0.0,907,130,0,0,863.38,35.65,13.05,# data time:610,pm2.5:6.445,pm10:5.704,O2:0.000,NO2:0.000,SO2:0.000,NH3:5.083
8:58:31,0,0,0,0,0,0,0,0,0,0,0,514,0,0,0,0,0.0000000,0.0000000,0.0000000,0.0000000,9.00,38.4063339,-110.7921906,1381.0000000,0.0,330.0,1.0,0.0,0.0,906,128,0,0,863.46,35.60,13.06,# data time:610,pm2.5:6.445,pm10:5.704,O2:0.000,NO2:0.000,SO2:0.000,NH3:5.083
8:58:32,0,0,0,0,0,0,0,0,0,0,0,514,0,0,0,0,0.0000000,0.0000000,0.0000000,0.0000000,9.00,38.4063339,-110.7921906,1381.0000000,0.0,171.0,1.0,0.0,0.0,906,130,0,0,863.43,35.55,13.06,# data time:610,pm2.5:6.445,pm10:5.704,O2:0.000,NO2:0.000,SO2:0.000,NH3:5.083
8:58:33,0,0,0,0,0,0,0,0,0,0,0,514,0,0,0,0,0.0000000,0.0000000,0.0000000,0.0000000,9.00,38.4063339,-110.7921906,1381.0000000,0.0,42.6,1.0,0.0,0.0,906,131,0,0,863.47,35.52,13.06,# data time:610,pm2.5:6.445,pm10:5.704,O2:0.000,NO2:0.000,SO2:0.000,NH3:5.083
8:58:34,0,0,0,0,0,0,0,0,0,0,0,514,0,0,0,0,0.0000000,0.0000000,0.0000000,0.0000000,9.00,38.4063339,-110.7921906,1381.0000000,0.0,14.9,1.0,0.0,0.0,907,127,0,0,863.42,35.52,13.07,# data time:610,pm2.5:6.445,pm10:5.704,O2:0.000,NO2:0.000,SO2:0.000,NH3:5.083
8:58:35,0,0,0,0,0,0,0,0,0,0,0,515,0,0,0,0,0.0000000,0.0000000,0.0000000,0.0000000,9.00,38.4063339,-110.7921906,1381.0000000,0.0,105.2,1.0,0.0,0.0,907,129,0,0,863.39,35.48,13.07,# data time:610,pm2.5:6.445,pm10:5.704,O2:0.000,NO2:0.000,SO2:0.000,NH3:5.083
8:58:36,0,0,0,0,0,0,0,0,0,0,0,514,0,0,0,0,0.0000000,0.0000000,0.0000000,0.0000000,9.00,38.4063339,-110.7921906,1381.0000000,0.0,295.5,1.0,0.0,0.0,906,130,0,0,863.43,35.48,13.07,# data time:610,pm2.5:6.445,pm10:5.704,O2:0.000,NO2:0.000,SO2:0.000,NH3:5.083
8:58:37,0,0,0,0,0,0,0,0,0,0,0,514,0,0,0,0,0.0000000,0.0000000,0.0000000,0.0000000,9.00,38.4063339,-110.7921906,1381.0000000,0.0,299.0,1.0,0.0,0.0,907,128,0,0,863.48,35.45,13.08,# data time:620,pm2.5:6.445,pm10:5.704,O2:0.000,NO2:0.000,SO2:0.000,NH3:5.083
8:58:38,0,0,0,0,0,0,0,0,0,0,0,514,0,0,0,0,0.0000000,0.0000000,0.0000000,0.0000000,9.00,38.4063339,-110.7921906,1381.0000000,0.0,0.0,1.0,0.0,0.0,906,130,0,0,863.42,35.42,13.08,# data time:620,pm2.5:6.445,pm10:5.704,O2:0.000,NO2:0.000,SO2:0.000,NH3:5.083
8:58:39,0,0,0,0,0,0,0,0,0,0,0,515,0,0,0,0,0.0000000,0.0000000,0.0000000,0.0000000,9.00,38.4063339,-110.7921906,1381.0000000,0.0,47.1,1.0,0.0,0.0,906,133,0,0,863.39,35.43,13.08,# data time:620,pm2.5:6.445,pm10:5.704,O2:0.000,NO2:0.000,SO2:0.000,NH3:5.083
8:58:40,0,0,0,0,0,0,0,0,0,0,0,514,0,0,0,0,0.0000000,0.0000000,0.0000000,0.0000000,9.00,38.4063339,-110.7921906,1381.0000000,0.0,51.5,1.0,0.0,0.0,907,130,0,0,863.41,35.40,13.09,# data time:620,pm2.5:6.445,pm10:5.704,O2:0.000,NO2:0.000,SO2:0.000,NH3:5.083
8:58:41,0,0,0,0,0,0,0,0,0,0,0,515,0,0,0,0,0.0000000,0.0000000,0.0000000,0.0000000,9.00,38.4063339,-110.7921906,1381.0000000,0.0,98.2,1.0,0.0,0.0,907,132,0,0,863.39,35.36,13.09,# data time:620,pm2.5:6.445,pm10:5.704,O2:0.000,NO2:0.000,SO2:0.000,NH3:5.083
8:58:42,0,0,0,0,0,0,0,0,0,0,0,514,0,0,0,0,0.0000000,0.0000000,0.0000000,0.0000000,9.00,38.4063339,-110.7921906,1381.0000000,0.0,349.1,1.0,0.0,0.0,906,128,0,0,863.37,35.32,13.09,# data time:620,pm2.5:6.445,pm10:5.704,O2:0.000,NO2:0.000,SO2:0.000,NH3:5.083
8:58:43,0,0,0,0,0,0,0,0,0,0,0,514,0,0,0,0,0.0000000,0.0000000,0.0000000,0.0000000,9.00,38.4063339,-110.7921906,1381.0000000,0.0,228.5,1.0,0.0,0.0,907,128,0,0,863.44,35.34,13.10,# data time:620,pm2.5:6.445,pm10:5.704,O2:0.000,NO2:0.000,SO2:0.000,NH3:5.083
8:58:44,0,0,0,0,0,0,0,0,0,0,0,514,0,0,0,0,0.0000000,0.0000000,0.0000000,0.0000000,9.00,38.4063339,-110.7921906,1381.0000000,0.0,125.7,1.0,0.0,0.0,907,131,0,0,863.44,35.31,13.10,# data time:620,pm2.5:6.445,pm10:5.704,O2:0.000,NO2:0.000,SO2:0.000,NH3:5.083
8:58:45,0,0,0,0,0,0,0,0,0,0,0,514,0,0,0,0,0.0000000,0.0000000,0.0000000,0.0000000,9.00,38.4063339,-110.7921906,1381.0000000,0.0,164.7,1.0,0.0,0.0,906,129,0,0,863.45,35.31,13.10,# data time:620,pm2.5:6.445,pm10:5.704,O2:0.000,NO2:0.000,SO2:0.000,NH3:5.083
8:58:46,0,0,0,0,0,0,0,0,0,0,0,513,0,0,0,0,0.0000000,0.0000000,0.0000000,0.0000000,9.00,38.4063339,-110.7921906,1381.0000000,0.0,135.9,1.0,0.0,0.0,907,133,0,0,863.44,35.29,13.11,# data time:620,pm2.5:6.445,pm10:5.704,O2:0.000,NO2:0.000,SO2:0.000,NH3:5.083
8:58:47,0,0,0,0,0,0,0,0,0,0,0,515,0,0,0,0,0.0000000,0.0000000,0.0000000,0.0000000,9.00,38.4063339,-110.7921906,1381.0000000,0.0,250.5,1.0,0.0,0.0,906,131,0,0,863.41,35.32,13.11,# data time:630,pm2.5:6.445,pm10:5.704,O2:0.000,NO2:0.000,SO2:0.000,NH3:5.083
8:58:48,0,0,0,0,0,0,0,0,0,0,0,514,0,0,0,0,0.0000000,0.0000000,0.0000000,0.0000000,9.00,38.4063339,-110.7921906,1381.0000000,0.0,55.3,1.0,0.0,0.0,907,131,0,0,863.50,35.32,13.11,# data time:630,pm2.5:6.445,pm10:5.704,O2:0.000,NO2:0.000,SO2:0.000,NH3:5.083
8:58:49,0,0,0,0,0,0,0,0,0,0,0,514,0,0,0,0,0.0000000,0.0000000,0.0000000,0.0000000,9.00,38.4063339,-110.7921906,1381.0000000,0.0,152.9,1.0,0.0,0.0,907,129,0,0,863.45,35.34,13.12,# data time:630,pm2.5:6.445,pm10:5.704,O2:0.000,NO2:0.000,SO2:0.000,NH3:5.083
8:58:50,0,0,0,0,0,0,0,0,0,0,0,514,0,0,0,0,0.0000000,0.0000000,0.0000000,0.0000000,9.00,38.4063339,-110.7921906,1381.0000000,0.0,246.3,1.0,0.0,0.0,907,128,0,0,863.43,35.36,13.12,# data time:630,pm2.5:6.445,pm10:5.704,O2:0.000,NO2:0.000,SO2:0.000,NH3:5.083
8:58:51,0,0,0,0,0,0,0,0,0,0,0,514,0,0,0,0,0.0000000,0.0000000,0.0000000,0.0000000,9.00,38.4063339,-110.7921906,1381.0000000,0.0,304.3,1.0,0.0,0.0,907,129,0,0,863.42,35.36,13.12,# data time:630,pm2.5:6.445,pm10:5.704,O2:0.000,NO2:0.000,SO2:0.000,NH3:5.083
8:58:52,0,0,0,0,0,0,0,0,0,0,0,514,0,0,0,0,0.0000000,0.0000000,0.0000000,0.0000000,9.00,38.4063339,-110.7921906,1381.0000000,0.0,112.9,1.0,0.0,0.0,907,126,0,0,863.38,35.37,13.12,# data time:630,pm2.5:6.445,pm10:5.704,O2:0.000,NO2:0.000,SO2:0.000,NH3:5.083
8:58:53,0,0,0,0,0,0,0,0,0,0,0,515,0,0,0,0,0.0000000,0.0000000,0.0000000,0.0000000,9.00,38.4063339,-110.7921906,1381.0000000,0.0,157.1,1.0,0.0,0.0,906,127,0,0,863.43,35.39,13.13,# data time:630,pm2.5:6.445,pm10:5.704,O2:0.000,NO2:0.000,SO2:0.000,NH3:5.083
8:58:54,0,0,0,0,0,0,0,0,0,0,0,515,0,0,0,0,0.0000000,0.0000000,0.0000000,0.0000000,9.00,38.4063339,-110.7921906,1381.0000000,0.0,234.5,1.0,0.0,0.0,907,133,0,0,863.40,35.40,13.13,# data time:630,pm2.5:6.445,pm10:5.704,O2:0.000,NO2:0.000,SO2:0.000,NH3:5.083
8:58:55,0,0,0,0,0,0,0,0,0,0,0,514,0,0,0,0,0.0000000,0.0000000,0.0000000,0.0000000,9.00,38.4063339,-110.7921906,1381.0000000,0.0,17.2,1.0,0.0,0.0,907,129,0,0,863.38,35.42,13.13,# data time:630,pm2.5:6.445,pm10:5.704,O2:0.000,NO2:0.000,SO2:0.000,NH3:5.083
8:58:56,0,0,0,0,0,0,0,0,0,0,0,514,0,0,0,0,0.0000000,0.0000000,0.0000000,0.0000000,9.00,38.4063339,-110.7921906,1381.0000000,0.0,185.3,1.0,0.0,0.0,906,130,0,0,863.46,35.40,13.13,# data time:630,pm2.5:6.445,pm10:5.704,O2:0.000,NO2:0.000,SO2:0.000,NH3:5.083
8:58:57,0,0,0,0,0,0,0,0,0,0,0,514,0,0,0,0,0.0000000,0.0000000,0.0000000,0.0000000,9.00,38.4063339,-110.7921906,1381.0000000,0.0,97.1,1.0,0.0,0.0,907,130,0,0,863.40,35.46,13.14,# data time:640,pm2.5:6.445,pm10:5.704,O2:0.000,NO2:0.000,SO2:0.000,NH3:5.083
8:58:58,0,0,0,0,0,0,0,0,0,0,0,514,0,0,0,0,0.0000000,0.0000000,0.0000000,0.0000000,9.00,38.4063339,-110.7921906,1381.0000000,0.0,309.0,1.0,0.0,0.0,907,127,0,0,863.42,35.48,13.14,# data time:640,pm2.5:6.445,pm10:5.704,O2:0.000,NO2:0.000,SO2:0.000,NH3:5.083
8:58:59,0,0,0,0,0,0,0,0,0,0,0,513,0,0,0,0,0.0000000,0.0000000,0.0000000,0.0000000,9.00,38.4063339,-110.7921906,1381.0000000,0.0,84.0,1.0,0.0,0.0,906,128,0,0,863.41,35.48,13.14,# data time:640,pm2.5:6.445,pm10:5.704,O2:0.000,NO2:0.000,SO2:0.000,NH3:5.083
8:59:00,0,0,0,0,0,0,0,0,0,0,0,514,0,0,0,0,0.0000000,0.0000000,0.0000000,0.0000000,9.00,38.4063339,-110.7921906,1381.0000000,0.0,117.4,1.0,0.0,0.0,907,132,0,0,863.42,35.46,13.15,# data time:640,pm2.5:6.445,pm10:5.704,O2:0.000,NO2:0.000,SO2:0.000,NH3:5.083
8:59:01,0,0,0,0,0,0,0,0,0,0,0,515,0,0,0,0,0.0000000,0.0000000,0.0000000,0.0000000,9.00,38.4063339,-110.7921906,1381.0000000,0.0,0.0,1.0,0.0,0.0,906,127,0,0,863.42,35.46,13.15,# data time:640,pm2.5:6.445,pm10:5.704,O2:0.000,NO2:0.000,SO2:0.000,NH3:5.083
8:59:02,0,0,0,0,0,0,0,0,0,0,0,515,0,0,0,0,0.0000000,0.0000000,0.0000000,0.0000000,9.00,38.4063339,-110.7921906,1381.0000000,0.0,140.5,1.0,0.0,0.0,906,131,0,0,863.41,35.45,13.15,# data time:640,pm2.5:6.445,pm10:5.704,O2:0.000,NO2:0.000,SO2:0.000,NH3:5.083
8:59:03,0,0,0,0,0,0,0,0,0,0,0,514,0,0,0,0,0.0000000,0.0000000,0.0000000,0.0000000,9.00,38.4063339,-110.7921906,1381.0000000,0.0,146.7,1.0,0.0,0.0,906,130,0,0,863.42,35.43,13.16,# data time:640,pm2.5:6.445,pm10:5.704,O2:0.000,NO2:0.000,SO2:0.000,NH3:5.083
8:59:04,0,0,0,0,0,0,0,0,0,0,0,514,0,0,0,0,0.0000000,0.0000000,0.0000000,0.0000000,9.00,38.4063339,-110.7921906,1381.0000000,0.0,275.2,1.0,0.0,0.0,906,130,0,0,863.39,35.42,13.16,# data time:640,pm2.5:6.445,pm10:5.704,O2:0.000,NO2:0.000,SO2:0.000,NH3:5.083
8:59:05,0,0,0,0,0,0,0,0,0,0,0,514,0,0,0,0,0.0000000,0.0000000,0.0000000,0.0000000,9.00,38.4063339,-110.7921906,1381.0000000,0.0,255.1,1.0,0.0,0.0,907,129,0,0,863.42,35.46,13.16,# data time:640,pm2.5:6.445,pm10:5.704,O2:0.000,NO2:0.000,SO2:0.000,NH3:5.083
8:59:06,0,0,0,0,0,0,0,0,0,0,0,515,0,0,0,0,0.0000000,0.0000000,0.0000000,0.0000000,9.00,38.4063339,-110.7921906,1381.0000000,0.0,168.2,1.0,0.0,0.0,907,128,0,0,863.42,35.45,13.17,# data time:640,pm2.5:6.445,pm10:5.704,O2:0.000,NO2:0.000,SO2:0.000,NH3:5.083
8:59:07,0,0,0,0,0,0,0,0,0,0,0,514,0,0,0,0,0.0000000,0.0000000,0.0000000,0.0000000,9.00,38.4063339,-110.7921906,1381.0000000,0.0,61.2,1.0,0.0,0.0,906,129,0,0,863.41,35.46,13.17,# data time:650,pm2.5:6.445,pm10:5.704,O2:0.000,NO2:0.000,SO2:0.000,NH3:5.083
8:59:08,0,0,0,0,0,0,0,0,0,0,0,514,0,0,0,0,0.0000000,0.0000000,0.0000000,0.0000000,9.00,38.4063339,-110.7921906,1381.0000000,0.0,197.1,1.0,0.0,0.0,907,131,0,0,863.43,35.48,13.17,# data time:650,pm2.5:6.445,pm10:5.704,O2:0.000,NO2:0.000,SO2:0.000,NH3:5.083
8:59:09,0,0,0,0,0,0,0,0,0,0,0,515,0,0,0,0,0.0000000,0.0000000,0.0000000,0.0000000,9.00,38.4063339,-110.7921906,1381.0000000,0.0,190.9,1.0,0.0,0.0,906,125,0,0,863.40,35.51,13.18,# data time:650,pm2.5:6.445,pm10:5.704,O2:0.000,NO2:0.000,SO2:0.000,NH3:5.083
8:59:10,0,0,0,0,0,0,0,0,0,0,0,514,0,0,0,0,0.0000000,0.0000000,0.0000000,0.0000000,9.00,38.4063339,-110.7921906,1381.0000000,0.0,136.7,1.0,0.0,0.0,907,130,0,0,863.44,35.52,13.18,# data time:650,pm2.5:6.445,pm10:5.704,O2:0.000,NO2:0.000,SO2:0.000,NH3:5.083
8:59:11,0,0,0,0,0,0,0,0,0,0,0,514,0,0,0,0,0.0000000,0.0000000,0.0000000,0.0000000,9.00,38.4063339,-110.7921906,1381.0000000,0.0,111.0,1.0,0.0,0.0,906,130,0,0,863.41,35.49,13.18,# data time:650,pm2.5:6.445,pm10:5.704,O2:0.000,NO2:0.000,SO2:0.000,NH3:5.083
8:59:12,0,0,0,0,0,0,0,0,0,0,0,514,0,0,0,0,0.0000000,0.0000000,0.0000000,0.0000000,9.00,38.4063339,-110.7921906,1381.0000000,0.0,116.2,1.0,0.0,0.0,907,128,0,0,863.40,35.49,13.19,# data time:650,pm2.5:6.445,pm10:5.704,O2:0.000,NO2:0.000,SO2:0.000,NH3:5.083
8:59:13,0,0,0,0,0,0,0,0,0,0,0,514,0,0,0,0,0.0000000,0.0000000,0.0000000,0.0000000,9.00,38.4063339,-110.7921906,1381.0000000,0.0,105.2,1.0,0.0,0.0,907,123,0,0,863.39,35.46,13.19,# data time:650,pm2.5:6.445,pm10:5.704,O2:0.000,NO2:0.000,SO2:0.000,NH3:5.083
8:59:14,0,0,0,0,0,0,0,0,0,0,0,514,0,0,0,0,0.0000000,0.0000000,0.0000000,0.0000000,9.00,38.4063339,-110.7921906,1381.0000000,0.0,113.5,1.0,0.0,0.0,906,129,0,0,863.42,35.46,13.19,# data time:650,pm2.5:6.445,pm10:5.704,O2:0.000,NO2:0.000,SO2:0.000,NH3:5.083
8:59:15,0,0,0,0,0,0,0,0,0,0,0,515,0,0,0,0,0.0000000,0.0000000,0.0000000,0.0000000,9.00,38.4063339,-110.7921906,1381.0000000,0.0,6.7,0.9,0.0,0.0,907,131,0,0,863.38,35.42,13.21,# data time:650,pm2.5:6.445,pm10:5.704,O2:0.000,NO2:0.000,SO2:0.000,NH3:5.083
8:59:16,0,0,0,0,0,0,0,0,0,0,0,514,0,0,0,0,0.0000000,0.0000000,0.0000000,0.0000000,9.00,38.4063339,-110.7921906,1381.0000000,0.0,271.0,1.0,0.0,0.0,907,131,0,0,863.42,35.40,13.21,# data time:650,pm2.5:6.445,pm10:5.704,O2:0.000,NO2:0.000,SO2:0.000,NH3:5.083
8:59:17,0,0,0,0,0,0,0,0,0,0,0,514,0,0,0,0,0.0000000,0.0000000,0.0000000,0.0000000,9.00,38.4063339,-110.7921906,1381.0000000,0.0,35.3,1.0,0.0,0.0,907,127,0,0,863.43,35.39,13.21,# data time:660,pm2.5:6.445,pm10:5.704,O2:0.000,NO2:0.000,SO2:0.000,NH3:5.083
8:59:18,0,0,0,0,0,0,0,0,0,0,0,515,0,0,0,0,0.0000000,0.0000000,0.0000000,0.0000000,9.00,38.4063339,-110.7921906,1381.0000000,0.0,189.7,1.0,0.0,0.0,906,132,0,0,863.41,35.34,13.21,# data time:660,pm2.5:6.445,pm10:5.704,O2:0.000,NO2:0.000,SO2:0.000,NH3:5.083
8:59:19,0,0,0,0,0,0,0,0,0,0,0,514,0,0,0,0,0.0000000,0.0000000,0.0000000,0.0000000,9.00,38.4063339,-110.7921906,1381.0000000,0.0,14.4,1.0,0.0,0.0,907,128,0,0,863.39,35.32,13.22,# data time:660,pm2.5:6.445,pm10:5.704,O2:0.000,NO2:0.000,SO2:0.000,NH3:5.083
8:59:20,0,0,0,0,0,0,0,0,0,0,0,515,0,0,0,0,0.0000000,0.0000000,0.0000000,0.0000000,9.00,38.4063339,-110.7921906,1381.0000000,0.0,135.4,1.0,0.0,0.0,906,133,0,0,863.36,35.29,13.12,# data time:660,pm2.5:6.445,pm10:5.704,O2:0.000,NO2:0.000,SO2:0.000,NH3:5.083
8:59:21,0,0,0,0,0,0,0,0,0,0,0,515,0,0,0,0,0.0000000,0.0000000,0.0000000,0.0000000,9.00,38.4063339,-110.7921906,1381.0000000,0.0,188.3,1.0,0.0,0.0,906,126,0,0,863.37,35.26,13.11,# data time:660,pm2.5:6.445,pm10:5.704,O2:0.000,NO2:0.000,SO2:0.000,NH3:5.083
8:59:22,0,0,0,0,0,0,0,0,0,0,0,515,0,0,0,0,0.0000000,0.0000000,0.0000000,0.0000000,9.00,38.4063339,-110.7921906,1381.0000000,0.0,13.7,1.0,0.0,0.0,907,132,0,0,863.39,35.22,13.12,# data time:660,pm2.5:6.445,pm10:5.704,O2:0.000,NO2:0.000,SO2:0.000,NH3:5.083
8:59:24,0,0,0,0,0,0,0,0,0,0,0,514,0,0,0,0,0.0000000,0.0000000,0.0000000,0.0000000,9.00,38.4063339,-110.7921906,1381.0000000,0.0,238.4,1.0,0.0,0.0,907,127,0,0,863.37,35.25,13.18,# data time:660,pm2.5:6.445,pm10:5.704,O2:0.000,NO2:0.000,SO2:0.000,NH3:5.083
8:59:25,0,0,0,0,0,0,0,0,0,0,0,514,0,0,0,0,0.0000000,0.0000000,0.0000000,0.0000000,9.00,38.4063339,-110.7921906,1381.0000000,0.0,343.5,1.0,0.0,0.0,906,132,0,0,863.41,35.23,13.24,# data time:660,pm2.5:6.445,pm10:5.704,O2:0.000,NO2:0.000,SO2:0.000,NH3:5.083
8:59:26,0,0,0,0,0,0,0,0,0,0,0,515,0,0,0,0,0.0000000,0.0000000,0.0000000,0.0000000,9.00,38.4063339,-110.7921906,1381.0000000,0.0,344.1,1.0,0.0,0.0,906,130,0,0,863.40,35.20,13.24,# data time:660,pm2.5:6.445,pm10:5.704,O2:0.000,NO2:0.000,SO2:0.000,NH3:5.083
8:59:27,0,0,0,0,0,0,0,0,0,0,0,514,0,0,0,0,0.0000000,0.0000000,0.0000000,0.0000000,9.00,38.4063339,-110.7921906,1381.0000000,0.0,9.6,1.0,0.0,0.0,906,129,0,0,863.37,35.20,13.24,# data time:660,pm2.5:6.445,pm10:5.704,O2:0.000,NO2:0.000,SO2:0.000,NH3:5.083
8:59:28,0,0,0,0,0,0,0,0,0,0,0,515,0,0,0,0,0.0000000,0.0000000,0.0000000,0.0000000,9.00,38.4063301,-110.7921906,1381.0000000,0.0,92.1,1.0,0.0,0.0,906,128,0,0,863.42,35.23,13.24,# data time:670,pm2.5:6.445,pm10:5.704,O2:0.000,NO2:0.000,SO2:0.000,NH3:5.083
8:59:29,0,0,0,0,0,0,0,0,0,0,0,515,0,0,0,0,0.0000000,0.0000000,0.0000000,0.0000000,9.00,38.4063301,-110.7921906,1381.0000000,0.0,173.4,1.0,0.0,0.0,906,128,0,0,863.44,35.23,13.25,# data time:670,pm2.5:6.445,pm10:5.704,O2:0.000,NO2:0.000,SO2:0.000,NH3:5.083
8:59:30,0,0,0,0,0,0,0,0,0,0,0,515,0,0,0,0,0.0000000,0.0000000,0.0000000,0.0000000,9.00,38.4063301,-110.7921906,1381.0000000,0.0,90.3,1.0,0.0,0.0,907,130,0,0,863.43,35.23,13.25,# data time:670,pm2.5:6.445,pm10:5.704,O2:0.000,NO2:0.000,SO2:0.000,NH3:5.083
8:59:31,0,0,0,0,0,0,0,0,0,0,0,515,0,0,0,0,0.0000000,0.0000000,0.0000000,0.0000000,9.00,38.4063301,-110.7921906,1381.0000000,0.0,27.9,1.0,0.0,0.0,906,128,0,0,863.44,35.26,13.25,# data time:670,pm2.5:6.445,pm10:5.704,O2:0.000,NO2:0.000,SO2:0.000,NH3:5.083
8:59:32,0,0,0,0,0,0,0,0,0,0,0,514,0,0,0,0,0.0000000,0.0000000,0.0000000,0.0000000,9.00,38.4063301,-110.7921906,1381.0000000,0.0,185.0,1.0,0.0,0.0,907,128,0,0,863.38,35.25,13.26,# data time:670,pm2.5:6.445,pm10:5.704,O2:0.000,NO2:0.000,SO2:0.000,NH3:5.083
8:59:33,0,0,0,0,0,0,0,0,0,0,0,514,0,0,0,0,0.0000000,0.0000000,0.0000000,0.0000000,9.00,38.4063301,-110.7921906,1381.0000000,0.0,53.0,1.0,0.0,0.0,906,134,0,0,863.42,35.25,13.26,# data time:670,pm2.5:6.445,pm10:5.704,O2:0.000,NO2:0.000,SO2:0.000,NH3:5.083
8:59:34,0,0,0,0,0,0,0,0,0,0,0,513,0,0,0,0,0.0000000,0.0000000,0.0000000,0.0000000,9.00,38.4063301,-110.7921906,1381.0000000,0.0,213.2,1.0,0.0,0.0,906,130,0,0,863.40,35.25,13.26,# data time:670,pm2.5:6.445,pm10:5.704,O2:0.000,NO2:0.000,SO2:0.000,NH3:5.083
8:59:35,0,0,0,0,0,0,0,0,0,0,0,514,0,0,0,0,0.0000000,0.0000000,0.0000000,0.0000000,9.00,38.4063263,-110.7921906,1381.0000000,0.0,116.9,1.0,0.0,0.0,907,130,0,0,863.40,35.23,13.27,# data time:670,pm2.5:6.445,pm10:5.704,O2:0.000,NO2:0.000,SO2:0.000,NH3:5.083
8:59:36,0,0,0,0,0,0,0,0,0,0,0,514,0,0,0,0,0.0000000,0.0000000,0.0000000,0.0000000,9.00,38.4063263,-110.7921906,1381.0000000,0.0,13.6,1.0,0.0,0.0,907,132,0,0,863.43,35.20,13.27,# data time:670,pm2.5:6.445,pm10:5.704,O2:0.000,NO2:0.000,SO2:0.000,NH3:5.083
8:59:37,0,0,0,0,0,0,0,0,0,0,0,514,0,0,0,0,0.0000000,0.0000000,0.0000000,0.0000000,9.00,38.4063263,-110.7921906,1380.9000244,0.0,105.3,1.0,0.0,0.0,906,131,0,0,863.44,35.22,13.27,# data time:680,pm2.5:6.445,pm10:5.704,O2:0.000,NO2:0.000,SO2:0.000,NH3:5.083
8:59:38,0,0,0,0,0,0,0,0,0,0,0,515,0,0,0,0,0.0000000,0.0000000,0.0000000,0.0000000,9.00,38.4063263,-110.7921906,1380.9000244,0.0,334.5,1.0,0.0,0.0,906,125,0,0,863.36,35.20,13.27,# data time:680,pm2.5:6.445,pm10:5.704,O2:0.000,NO2:0.000,SO2:0.000,NH3:5.083
8:59:39,0,0,0,0,0,0,0,0,0,0,0,514,0,0,0,0,0.0000000,0.0000000,0.0000000,0.0000000,9.00,38.4063263,-110.7921906,1380.8000488,0.0,294.6,1.0,0.0,0.0,906,132,0,0,863.40,35.20,13.28,# data time:680,pm2.5:6.445,pm10:5.704,O2:0.000,NO2:0.000,SO2:0.000,NH3:5.083
8:59:40,0,0,0,0,0,0,0,0,0,0,0,514,0,0,0,0,0.0000000,0.0000000,0.0000000,0.0000000,9.00,38.4063263,-110.7921906,1380.6999512,0.0,276.5,1.0,0.0,0.0,906,129,0,0,863.42,35.14,13.28,# data time:680,pm2.5:6.445,pm10:5.704,O2:0.000,NO2:0.000,SO2:0.000,NH3:5.083
8:59:41,0,0,0,0,0,0,0,0,0,0,0,514,0,0,0,0,0.0000000,0.0000000,0.0000000,0.0000000,9.00,38.4063225,-110.7921906,1380.5999756,0.0,37.4,1.0,0.0,0.0,907,129,0,0,863.37,35.14,13.28,# data time:680,pm2.5:6.445,pm10:5.704,O2:0.000,NO2:0.000,SO2:0.000,NH3:5.083
8:59:42,0,0,0,0,0,0,0,0,0,0,0,514,0,0,0,0,0.0000000,0.0000000,0.0000000,0.0000000,9.00,38.4063225,-110.7921906,1380.5999756,0.0,264.2,1.0,0.0,0.0,906,128,0,0,863.43,35.13,13.29,# data time:680,pm2.5:6.445,pm10:5.704,O2:0.000,NO2:0.000,SO2:0.000,NH3:5.083
8:59:43,0,0,0,0,0,0,0,0,0,0,0,514,0,0,0,0,0.0000000,0.0000000,0.0000000,0.0000000,9.00,38.4063225,-110.7921906,1380.5999756,0.0,265.2,1.0,0.0,0.0,907,132,0,0,863.40,35.13,13.29,# data time:680,pm2.5:6.445,pm10:5.704,O2:0.000,NO2:0.000,SO2:0.000,NH3:5.083
8:59:44,0,0,0,0,0,0,0,0,0,0,0,514,0,0,0,0,0.0000000,0.0000000,0.0000000,0.0000000,9.00,38.4063225,-110.7921906,1380.5000000,0.0,303.3,1.0,0.0,0.0,906,130,0,0,863.42,35.10,13.29,# data time:680,pm2.5:6.445,pm10:5.704,O2:0.000,NO2:0.000,SO2:0.000,NH3:5.083
8:59:45,0,0,0,0,0,0,0,0,0,0,0,514,0,0,0,0,0.0000000,0.0000000,0.0000000,0.0000000,9.00,38.4063225,-110.7921906,1380.4000244,0.0,298.4,1.0,0.0,0.0,906,127,0,0,863.43,35.13,13.29,# data time:680,pm2.5:6.445,pm10:5.704,O2:0.000,NO2:0.000,SO2:0.000,NH3:5.083
8:59:46,0,0,0,0,0,0,0,0,0,0,0,514,0,0,0,0,0.0000000,0.0000000,0.0000000,0.0000000,9.00,38.4063225,-110.7921906,1380.3000488,0.0,248.4,1.0,0.0,0.0,906,132,0,0,863.47,35.14,13.30,# data time:680,pm2.5:6.445,pm10:5.704,O2:0.000,NO2:0.000,SO2:0.000,NH3:5.083
8:59:47,0,0,0,0,0,0,0,0,0,0,0,515,0,0,0,0,0.0000000,0.0000000,0.0000000,0.0000000,9.00,38.4063225,-110.7921906,1380.1999512,0.0,184.4,1.0,0.0,0.0,906,129,0,0,863.42,35.14,13.30,# data time:690,pm2.5:5.640,pm10:4.991,O2:0.000,NO2:0.000,SO2:0.000,NH3:5.083
8:59:48,0,0,0,0,0,0,0,0,0,0,0,515,0,0,0,0,0.0000000,0.0000000,0.0000000,0.0000000,9.00,38.4063187,-110.7921906,1380.1999512,0.0,180.3,1.0,0.0,0.0,907,131,0,0,863.40,35.13,13.31,# data time:690,pm2.5:5.640,pm10:4.991,O2:0.000,NO2:0.000,SO2:0.000,NH3:5.083
8:59:49,0,0,0,0,0,0,0,0,0,0,0,514,0,0,0,0,0.0000000,0.0000000,0.0000000,0.0000000,9.00,38.4063187,-110.7921906,1380.1999512,0.0,166.1,1.0,0.0,0.0,906,127,0,0,863.40,35.10,13.31,# data time:690,pm2.5:5.640,pm10:4.991,O2:0.000,NO2:0.000,SO2:0.000,NH3:5.083
8:59:50,0,0,0,0,0,0,0,0,0,0,0,514,0,0,0,0,0.0000000,0.0000000,0.0000000,0.0000000,9.00,38.4063187,-110.7921906,1380.0999756,0.0,171.9,1.0,0.0,0.0,907,129,0,0,863.36,35.13,13.31,# data time:690,pm2.5:5.640,pm10:4.991,O2:0.000,NO2:0.000,SO2:0.000,NH3:5.083
8:59:51,0,0,0,0,0,0,0,0,0,0,0,514,0,0,0,0,0.0000000,0.0000000,0.0000000,0.0000000,9.00,38.4063187,-110.7921906,1380.0999756,0.0,205.0,1.0,0.0,0.0,907,127,0,0,863.41,35.11,13.31,# data time:690,pm2.5:5.640,pm10:4.991,O2:0.000,NO2:0.000,SO2:0.000,NH3:5.083
8:59:52,0,0,0,0,0,0,0,0,0,0,0,515,0,0,0,0,0.0000000,0.0000000,0.0000000,0.0000000,9.00,38.4063187,-110.7921906,1380.0999756,0.0,267.8,1.0,0.0,0.0,906,131,0,0,863.40,35.11,13.32,# data time:690,pm2.5:5.640,pm10:4.991,O2:0.000,NO2:0.000,SO2:0.000,NH3:5.083
8:59:53,0,0,0,0,0,0,0,0,0,0,0,514,0,0,0,0,0.0000000,0.0000000,0.0000000,0.0000000,9.00,38.4063187,-110.7921906,1380.0999756,0.0,303.0,1.0,0.0,0.0,906,128,0,0,863.45,35.11,13.32,# data time:690,pm2.5:5.640,pm10:4.991,O2:0.000,NO2:0.000,SO2:0.000,NH3:5.083
8:59:54,0,0,0,0,0,0,0,0,0,0,0,515,0,0,0,0,0.0000000,0.0000000,0.0000000,0.0000000,9.00,38.4063187,-110.7921906,1380.0999756,0.0,55.0,1.0,0.0,0.0,906,130,0,0,863.37,35.10,13.32,# data time:690,pm2.5:5.640,pm10:4.991,O2:0.000,NO2:0.000,SO2:0.000,NH3:5.083
8:59:55,0,0,0,0,0,0,0,0,0,0,0,514,0,0,0,0,0.0000000,0.0000000,0.0000000,0.0000000,9.00,38.4063187,-110.7921906,1380.0999756,0.0,0.0,1.0,0.0,0.0,906,128,0,0,863.40,35.10,13.33,# data time:690,pm2.5:5.640,pm10:4.991,O2:0.000,NO2:0.000,SO2:0.000,NH3:5.083
8:59:56,0,0,0,0,0,0,0,0,0,0,0,514,0,0,0,0,0.0000000,0.0000000,0.0000000,0.0000000,9.00,38.4063187,-110.7921906,1380.0999756,0.0,253.5,1.0,0.0,0.0,906,127,0,0,863.40,35.08,13.33,# data time:690,pm2.5:5.640,pm10:4.991,O2:0.000,NO2:0.000,SO2:0.000,NH3:5.083
8:59:57,0,0,0,0,0,0,0,0,0,0,0,515,0,0,0,0,0.0000000,0.0000000,0.0000000,0.0000000,9.00,38.4063187,-110.7921906,1380.0999756,0.0,217.6,1.0,0.0,0.0,906,129,0,0,863.39,35.08,13.34,# data time:700,pm2.5:6.445,pm10:5.704,O2:0.000,NO2:0.000,SO2:0.000,NH3:5.083
8:59:58,0,0,0,0,0,0,0,0,0,0,0,514,0,0,0,0,0.0000000,0.0000000,0.0000000,0.0000000,9.00,38.4063187,-110.7921906,1380.0999756,0.0,163.1,1.0,0.0,0.0,906,131,0,0,863.41,35.05,13.33,# data time:700,pm2.5:6.445,pm10:5.704,O2:0.000,NO2:0.000,SO2:0.000,NH3:5.083
8:59:59,0,0,0,0,0,0,0,0,0,0,0,514,0,0,0,0,0.0000000,0.0000000,0.0000000,0.0000000,9.00,38.4063187,-110.7921906,1380.0999756,0.0,210.9,1.0,0.0,0.0,906,127,0,0,863.39,35.05,13.34,# data time:700,pm2.5:6.445,pm10:5.704,O2:0.000,NO2:0.000,SO2:0.000,NH3:5.083
9:00:00,0,0,0,0,0,0,0,0,0,0,0,514,0,0,0,0,0.0000000,0.0000000,0.0000000,0.0000000,9.00,38.4063187,-110.7921906,1380.0999756,0.0,217.4,1.0,0.0,0.0,906,131,0,0,863.38,35.03,13.34,# data time:700,pm2.5:6.445,pm10:5.704,O2:0.000,NO2:0.000,SO2:0.000,NH3:5.083
9:00:01,0,0,0,0,0,0,0,0,0,0,0,514,0,0,0,0,0.0000000,0.0000000,0.0000000,0.0000000,9.00,38.4063187,-110.7921906,1380.0999756,0.0,177.4,1.0,0.0,0.0,906,131,0,0,863.40,35.00,13.34,# data time:700,pm2.5:6.445,pm10:5.704,O2:0.000,NO2:0.000,SO2:0.000,NH3:5.083
9:00:02,0,0,0,0,0,0,0,0,0,0,0,514,0,0,0,0,0.0000000,0.0000000,0.0000000,0.0000000,9.00,38.4063187,-110.7921906,1380.0999756,0.0,227.5,1.0,0.0,0.0,906,127,0,0,863.38,34.99,13.34,# data time:700,pm2.5:6.445,pm10:5.704,O2:0.000,NO2:0.000,SO2:0.000,NH3:5.083
9:00:03,0,0,0,0,0,0,0,0,0,0,0,512,0,0,0,0,0.0000000,0.0000000,0.0000000,0.0000000,9.00,38.4063187,-110.7921906,1380.0999756,0.0,194.6,1.0,0.0,0.0,906,135,0,0,863.39,35.02,13.35,# data time:700,pm2.5:6.445,pm10:5.704,O2:0.000,NO2:0.000,SO2:0.000,NH3:5.083
9:00:04,0,0,0,0,0,0,0,0,0,0,0,514,0,0,0,0,0.0000000,0.0000000,0.0000000,0.0000000,9.00,38.4063187,-110.7921906,1380.0999756,0.0,199.6,1.0,0.0,0.0,906,131,0,0,863.37,34.96,13.35,# data time:700,pm2.5:6.445,pm10:5.704,O2:0.000,NO2:0.000,SO2:0.000,NH3:5.083
9:00:05,0,0,0,0,0,0,0,0,0,0,0,515,0,0,0,0,0.0000000,0.0000000,0.0000000,0.0000000,9.00,38.4063187,-110.7921906,1380.0999756,0.0,139.4,1.0,0.0,0.0,906,126,0,0,863.36,34.97,13.36,# data time:700,pm2.5:6.445,pm10:5.704,O2:0.000,NO2:0.000,SO2:0.000,NH3:5.083
9:00:06,0,0,0,0,0,0,0,0,0,0,0,514,0,0,0,0,0.0000000,0.0000000,0.0000000,0.0000000,9.00,38.4063187,-110.7921906,1380.0999756,0.0,199.2,1.0,0.0,0.0,906,130,0,0,863.39,34.99,13.36,# data time:700,pm2.5:6.445,pm10:5.704,O2:0.000,NO2:0.000,SO2:0.000,NH3:5.083
9:00:07,0,0,0,0,0,0,0,0,0,0,0,514,0,0,0,0,0.0000000,0.0000000,0.0000000,0.0000000,9.00,38.4063187,-110.7921906,1380.0999756,0.0,196.6,1.0,0.0,0.0,906,132,0,0,863.41,34.99,13.36,# data time:710,pm2.5:5.640,pm10:4.991,O2:0.000,NO2:0.000,SO2:0.000,NH3:5.083
9:00:08,0,0,0,0,0,0,0,0,0,0,0,514,0,0,0,0,0.0000000,0.0000000,0.0000000,0.0000000,9.00,38.4063187,-110.7921906,1380.0999756,0.0,179.9,1.0,0.0,0.0,906,129,0,0,863.38,34.97,13.37,# data time:710,pm2.5:5.640,pm10:4.991,O2:0.000,NO2:0.000,SO2:0.000,NH3:5.083
9:00:09,0,0,0,0,0,0,0,0,0,0,0,514,0,0,0,0,0.0000000,0.0000000,0.0000000,0.0000000,9.00,38.4063187,-110.7921906,1380.0999756,0.0,176.8,1.0,0.0,0.0,906,130,0,0,863.37,34.97,13.37,# data time:710,pm2.5:5.640,pm10:4.991,O2:0.000,NO2:0.000,SO2:0.000,NH3:5.083
9:00:10,0,0,0,0,0,0,0,0,0,0,0,515,0,0,0,0,0.0000000,0.0000000,0.0000000,0.0000000,9.00,38.4063187,-110.7921906,1380.0999756,0.0,106.6,1.0,0.0,0.0,906,129,0,0,863.37,35.00,13.37,# data time:710,pm2.5:5.640,pm10:4.991,O2:0.000,NO2:0.000,SO2:0.000,NH3:5.083
9:00:11,0,0,0,0,0,0,0,0,0,0,0,515,0,0,0,0,0.0000000,0.0000000,0.0000000,0.0000000,9.00,38.4063187,-110.7921906,1380.0999756,0.0,195.5,1.0,0.0,0.0,906,129,0,0,863.40,34.99,13.38,# data time:710,pm2.5:5.640,pm10:4.991,O2:0.000,NO2:0.000,SO2:0.000,NH3:5.083
9:00:12,0,0,0,0,0,0,0,0,0,0,0,514,0,0,0,0,0.0000000,0.0000000,0.0000000,0.0000000,9.00,38.4063187,-110.7921906,1380.0999756,0.0,205.0,1.0,0.0,0.0,907,130,0,0,863.39,34.96,13.37,# data time:710,pm2.5:5.640,pm10:4.991,O2:0.000,NO2:0.000,SO2:0.000,NH3:5.083
9:00:13,0,0,0,0,0,0,0,0,0,0,0,515,0,0,0,0,0.0000000,0.0000000,0.0000000,0.0000000,9.00,38.4063187,-110.7921906,1380.0999756,0.1,223.2,1.0,0.0,0.0,906,131,0,0,863.39,34.97,13.38,# data time:710,pm2.5:5.640,pm10:4.991,O2:0.000,NO2:0.000,SO2:0.000,NH3:5.083
9:00:14,0,0,0,0,0,0,0,0,0,0,0,514,0,0,0,0,0.0000000,0.0000000,0.0000000,0.0000000,9.00,38.4063187,-110.7921906,1380.0999756,0.1,188.5,1.0,0.0,0.0,907,130,0,0,863.41,34.93,13.39,# data time:710,pm2.5:5.640,pm10:4.991,O2:0.000,NO2:0.000,SO2:0.000,NH3:5.083
9:00:15,0,0,0,0,0,0,0,0,0,0,0,514,0,0,0,0,0.0000000,0.0000000,0.0000000,0.0000000,9.00,38.4063187,-110.7921906,1380.0999756,0.0,306.2,1.0,0.0,0.0,906,128,0,0,863.38,34.90,13.39,# data time:710,pm2.5:5.640,pm10:4.991,O2:0.000,NO2:0.000,SO2:0.000,NH3:5.083
9:00:16,0,0,0,0,0,0,0,0,0,0,0,515,0,0,0,0,0.0000000,0.0000000,0.0000000,0.0000000,9.00,38.4063187,-110.7921906,1380.0999756,0.0,253.0,1.0,0.0,0.0,906,129,0,0,863.40,34.90,13.39,# data time:710,pm2.5:5.640,pm10:4.991,O2:0.000,NO2:0.000,SO2:0.000,NH3:5.083
9:00:17,0,0,0,0,0,0,0,0,0,0,0,514,0,0,0,0,0.0000000,0.0000000,0.0000000,0.0000000,9.00,38.4063187,-110.7921906,1380.0999756,0.0,157.7,1.0,0.0,0.0,906,127,0,0,863.38,34.91,13.39,# data time:720,pm2.5:4.834,pm10:4.278,O2:0.000,NO2:0.000,SO2:0.000,NH3:5.083
9:00:18,0,0,0,0,0,0,0,0,0,0,0,514,0,0,0,0,0.0000000,0.0000000,0.0000000,0.0000000,9.00,38.4063187,-110.7921906,1380.0999756,0.0,135.6,1.0,0.0,0.0,906,132,0,0,863.39,34.91,13.40,# data time:720,pm2.5:4.834,pm10:4.278,O2:0.000,NO2:0.000,SO2:0.000,NH3:5.083
9:00:19,0,0,0,0,0,0,0,0,0,0,0,514,0,0,0,0,0.0000000,0.0000000,0.0000000,0.0000000,9.00,38.4063187,-110.7921906,1380.0999756,0.0,303.9,1.0,0.0,0.0,907,127,0,0,863.41,34.91,13.40,# data time:720,pm2.5:4.834,pm10:4.278,O2:0.000,NO2:0.000,SO2:0.000,NH3:5.083
9:00:20,0,0,0,0,0,0,0,0,0,0,0,515,0,0,0,0,0.0000000,0.0000000,0.0000000,0.0000000,9.00,38.4063187,-110.7921906,1380.0999756,0.0,310.1,1.0,0.0,0.0,906,130,0,0,863.38,34.93,13.40,# data time:720,pm2.5:4.834,pm10:4.278,O2:0.000,NO2:0.000,SO2:0.000,NH3:5.083
9:00:21,0,0,0,0,0,0,0,0,0,0,0,514,0,0,0,0,0.0000000,0.0000000,0.0000000,0.0000000,9.00,38.4063187,-110.7921906,1380.0999756,0.0,219.5,1.0,0.0,0.0,906,125,0,0,863.42,34.96,13.41,# data time:720,pm2.5:4.834,pm10:4.278,O2:0.000,NO2:0.000,SO2:0.000,NH3:5.083
9:00:22,0,0,0,0,0,0,0,0,0,0,0,515,0,0,0,0,0.0000000,0.0000000,0.0000000,0.0000000,9.00,38.4063187,-110.7921906,1380.0999756,0.0,29.4,1.0,0.0,0.0,905,128,0,0,863.43,34.96,13.41,# data time:720,pm2.5:4.834,pm10:4.278,O2:0.000,NO2:0.000,SO2:0.000,NH3:5.083
9:00:23,0,0,0,0,0,0,0,0,0,0,0,514,0,0,0,0,0.0000000,0.0000000,0.0000000,0.0000000,9.00,38.4063187,-110.7921906,1380.0999756,0.0,336.8,1.0,0.0,0.0,906,129,0,0,863.37,34.96,13.41,# data time:720,pm2.5:4.834,pm10:4.278,O2:0.000,NO2:0.000,SO2:0.000,NH3:5.083
9:00:24,0,0,0,0,0,0,0,0,0,0,0,514,0,0,0,0,0.0000000,0.0000000,0.0000000,0.0000000,9.00,38.4063187,-110.7921906,1380.0999756,0.0,231.2,1.0,0.0,0.0,906,129,0,0,863.43,34.93,13.41,# data time:720,pm2.5:4.834,pm10:4.278,O2:0.000,NO2:0.000,SO2:0.000,NH3:5.083
9:00:25,0,0,0,0,0,0,0,0,0,0,0,514,0,0,0,0,0.0000000,0.0000000,0.0000000,0.0000000,9.00,38.4063187,-110.7921906,1380.0999756,0.0,97.5,1.0,0.0,0.0,906,128,0,0,863.43,34.88,13.33,# data time:720,pm2.5:4.834,pm10:4.278,O2:0.000,NO2:0.000,SO2:0.000,NH3:5.083
9:00:26,0,0,0,0,0,0,0,0,0,0,0,514,0,0,0,0,0.0000000,0.0000000,0.0000000,0.0000000,9.00,38.4063187,-110.7921906,1380.0999756,0.0,160.3,1.0,0.0,0.0,906,130,0,0,863.28,34.90,13.32,# data time:720,pm2.5:4.834,pm10:4.278,O2:0.000,NO2:0.000,SO2:0.000,NH3:5.083
9:00:28,0,0,0,0,0,0,0,0,0,0,0,514,0,0,0,0,0.0000000,0.0000000,0.0000000,0.0000000,9.00,38.4063187,-110.7921906,1380.0999756,0.0,96.5,1.0,0.0,0.0,905,131,0,0,863.33,34.87,13.39,# data time:730,pm2.5:6.445,pm10:5.704,O2:0.000,NO2:0.000,SO2:083
9:00:29,0,0,0,0,0,0,0,0,0,0,0,514,0,0,0,0,0.0000000,0.0000000,0.0000000,0.0000000,9.00,38.4063187,-110.7921906,1380.0999756,0.0,96.5,1.0,0.0,0.0,906,127,0,0,863.36,34.87,13.38,# data time:730,pm2.5:6.445,pm10:5.704,O2:0.000,NO2:0.000,SO2:083
9:00:30,0,0,0,0,0,0,0,0,0,0,0,514,0,0,0,0,0.0000000,0.0000000,0.0000000,0.0000000,9.00,38.4063187,-110.7921906,1380.0999756,0.0,294.3,1.0,0.0,0.0,906,133,0,0,863.37,34.88,13.44,# data time:730,pm2.5:6.445,pm10:5.704,O2:0.000,NO2:0.000,SO2:083
9:00:31,0,0,0,0,0,0,0,0,0,0,0,514,0,0,0,0,0.0000000,0.0000000,0.0000000,0.0000000,9.00,38.4063187,-110.7921906,1380.0999756,0.0,281.7,1.0,0.0,0.0,906,130,0,0,863.38,34.87,13.44,# data time:730,pm2.5:6.445,pm10:5.704,O2:0.000,NO2:0.000,SO2:083
9:00:32,0,0,0,0,0,0,0,0,0,0,0,514,0,0,0,0,0.0000000,0.0000000,0.0000000,0.0000000,9.00,38.4063187,-110.7921906,1380.0999756,0.0,171.0,1.0,0.0,0.0,906,130,0,0,863.42,34.84,13.45,# data time:730,pm2.5:6.445,pm10:5.704,O2:0.000,NO2:0.000,SO2:083
9:00:33,0,0,0,0,0,0,0,0,0,0,0,515,0,0,0,0,0.0000000,0.0000000,0.0000000,0.0000000,9.00,38.4063187,-110.7921906,1380.0999756,0.0,326.3,1.0,0.0,0.0,906,128,0,0,863.39,34.85,13.46,# data time:730,pm2.5:6.445,pm10:5.704,O2:0.000,NO2:0.000,SO2:083
9:00:34,0,0,0,0,0,0,0,0,0,0,0,515,0,0,0,0,0.0000000,0.0000000,0.0000000,0.0000000,9.00,38.4063187,-110.7921906,1380.0999756,0.0,321.2,1.0,0.0,0.0,906,126,0,0,863.37,34.85,13.46,# data time:730,pm2.5:6.445,pm10:5.704,O2:0.000,NO2:0.000,SO2:083
9:00:35,0,0,0,0,0,0,0,0,0,0,0,514,0,0,0,0,0.0000000,0.0000000,0.0000000,0.0000000,9.00,38.4063187,-110.7921906,1380.0999756,0.0,198.4,1.0,0.0,0.0,906,131,0,0,863.38,34.85,13.45,# data time:730,pm2.5:6.445,pm10:5.704,O2:0.000,NO2:0.000,SO2:083
9:00:36,0,0,0,0,0,0,0,0,0,0,0,514,0,0,0,0,0.0000000,0.0000000,0.0000000,0.0000000,9.00,38.4063187,-110.7921906,1380.0999756,0.0,173.2,1.0,0.0,0.0,906,132,0,0,863.38,34.85,13.46,# data time:730,pm2.5:6.445,pm10:5.704,O2:0.000,NO2:0.000,SO2:083
9:00:37,0,0,0,0,0,0,0,0,0,0,0,514,0,0,0,0,0.0000000,0.0000000,0.0000000,0.0000000,9.00,38.4063187,-110.7921906,1380.0999756,0.0,217.9,1.0,0.0,0.0,906,130,0,0,863.41,34.85,13.47,# data time:740,pm2.5:6.445,pm10:5.704,O2:0.000,NO2:0.000,SO2:0.000,NH3:5.083
9:00:38,0,0,0,0,0,0,0,0,0,0,0,515,0,0,0,0,0.0000000,0.0000000,0.0000000,0.0000000,9.00,38.4063187,-110.7921906,1380.0999756,0.0,216.2,1.0,0.0,0.0,905,130,0,0,863.34,34.84,13.47,# data time:740,pm2.5:6.445,pm10:5.704,O2:0.000,NO2:0.000,SO2:0.000,NH3:5.083
9:00:39,0,0,0,0,0,0,0,0,0,0,0,514,0,0,0,0,0.0000000,0.0000000,0.0000000,0.0000000,9.00,38.4063187,-110.7921906,1380.0999756,0.0,229.7,1.0,0.0,0.0,906,128,0,0,863.37,34.87,13.47,# data time:740,pm2.5:6.445,pm10:5.704,O2:0.000,NO2:0.000,SO2:0.000,NH3:5.083
9:00:40,0,0,0,0,0,0,0,0,0,0,0,514,0,0,0,0,0.0000000,0.0000000,0.0000000,0.0000000,9.00,38.4063187,-110.7921906,1380.0999756,0.0,174.2,1.0,0.0,0.0,905,129,0,0,863.39,34.85,13.47,# data time:740,pm2.5:6.445,pm10:5.704,O2:0.000,NO2:0.000,SO2:0.000,NH3:5.083
9:00:41,0,0,0,0,0,0,0,0,0,0,0,515,0,0,0,0,0.0000000,0.0000000,0.0000000,0.0000000,9.00,38.4063187,-110.7921906,1380.0999756,0.0,182.5,1.0,0.0,0.0,906,127,0,0,863.36,34.87,13.48,# data time:740,pm2.5:6.445,pm10:5.704,O2:0.000,NO2:0.000,SO2:0.000,NH3:5.083
9:00:42,0,0,0,0,0,0,0,0,0,0,0,514,0,0,0,0,0.0000000,0.0000000,0.0000000,0.0000000,9.00,38.4063187,-110.7921906,1380.0999756,0.0,209.4,1.0,0.0,0.0,906,130,0,0,863.40,34.85,13.48,# data time:740,pm2.5:6.445,pm10:5.704,O2:0.000,NO2:0.000,SO2:0.000,NH3:5.083
9:00:43,0,0,0,0,0,0,0,0,0,0,0,514,0,0,0,0,0.0000000,0.0000000,0.0000000,0.0000000,9.00,38.4063187,-110.7921906,1380.0999756,0.0,204.9,1.0,0.0,0.0,906,128,0,0,863.40,34.85,13.48,# data time:740,pm2.5:6.445,pm10:5.704,O2:0.000,NO2:0.000,SO2:0.000,NH3:5.083
9:00:44,0,0,0,0,0,0,0,0,0,0,0,515,0,0,0,0,0.0000000,0.0000000,0.0000000,0.0000000,9.00,38.4063148,-110.7921906,1380.0999756,0.0,182.1,1.0,0.0,0.0,906,130,0,0,863.35,34.88,13.48,# data time:740,pm2.5:6.445,pm10:5.704,O2:0.000,NO2:0.000,SO2:0.000,NH3:5.083
9:00:45,0,0,0,0,0,0,0,0,0,0,0,514,0,0,0,0,0.0000000,0.0000000,0.0000000,0.0000000,9.00,38.4063148,-110.7921906,1380.0999756,0.0,136.4,1.0,0.0,0.0,905,127,0,0,863.40,34.87,13.49,# data time:740,pm2.5:6.445,pm10:5.704,O2:0.000,NO2:0.000,SO2:0.000,NH3:5.083
9:00:46,0,0,0,0,0,0,0,0,0,0,0,514,0,0,0,0,0.0000000,0.0000000,0.0000000,0.0000000,9.00,38.4063148,-110.7921906,1380.0999756,0.0,187.4,1.0,0.0,0.0,905,129,0,0,863.39,34.87,13.49,# data time:740,pm2.5:6.445,pm10:5.704,O2:0.000,NO2:0.000,SO2:0.000,NH3:5.083
9:00:47,0,0,0,0,0,0,0,0,0,0,0,515,0,0,0,0,0.0000000,0.0000000,0.0000000,0.0000000,9.00,38.4063148,-110.7921906,1380.0999756,0.0,298.3,1.0,0.0,0.0,905,129,0,0,863.36,34.85,13.50,# data time:750,pm2.5:6.445,pm10:5.704,O2:0.000,NO2:0.000,SO2:
9:00:48,0,0,0,0,0,0,0,0,0,0,0,516,0,0,0,0,0.0000000,0.0000000,0.0000000,0.0000000,9.00,38.4063148,-110.7921906,1380.0999756,0.0,266.8,1.0,0.0,0.0,906,129,0,0,863.39,34.85,13.50,# data time:750,pm2.5:6.445,pm10:5.704,O2:0.000,NO2:0.000,SO2:
9:00:49,0,0,0,0,0,0,0,0,0,0,0,513,0,0,0,0,0.0000000,0.0000000,0.0000000,0.0000000,9.00,38.4063148,-110.7921906,1380.0999756,0.0,192.6,1.0,0.0,0.0,906,130,0,0,863.37,34.85,13.50,# data time:750,pm2.5:6.445,pm10:5.704,O2:0.000,NO2:0.000,SO2:
9:00:50,0,0,0,0,0,0,0,0,0,0,0,514,0,0,0,0,0.0000000,0.0000000,0.0000000,0.0000000,9.00,38.4063148,-110.7921906,1380.0999756,0.0,195.7,1.0,0.0,0.0,906,127,0,0,863.37,34.84,13.50,# data time:750,pm2.5:6.445,pm10:5.704,O2:0.000,NO2:0.000,SO2:
9:00:51,0,0,0,0,0,0,0,0,0,0,0,514,0,0,0,0,0.0000000,0.0000000,0.0000000,0.0000000,9.00,38.4063148,-110.7921906,1380.0999756,0.0,144.4,1.0,0.0,0.0,906,129,0,0,863.39,34.84,13.51,# data time:750,pm2.5:6.445,pm10:5.704,O2:0.000,NO2:0.000,SO2:
9:00:52,0,0,0,0,0,0,0,0,0,0,0,514,0,0,0,0,0.0000000,0.0000000,0.0000000,0.0000000,9.00,38.4063148,-110.7921906,1380.0999756,0.0,345.7,1.0,0.0,0.0,905,128,0,0,863.39,34.85,13.51,# data time:750,pm2.5:6.445,pm10:5.704,O2:0.000,NO2:0.000,SO2:
9:00:53,0,0,0,0,0,0,0,0,0,0,0,514,0,0,0,0,0.0000000,0.0000000,0.0000000,0.0000000,9.00,38.4063148,-110.7921906,1380.0999756,0.0,92.4,1.0,0.0,0.0,907,132,0,0,863.39,34.84,13.52,# data time:750,pm2.5:6.445,pm10:5.704,O2:0.000,NO2:0.000,SO2:
9:00:54,0,0,0,0,0,0,0,0,0,0,0,514,0,0,0,0,0.0000000,0.0000000,0.0000000,0.0000000,9.00,38.4063148,-110.7921906,1380.0000000,0.0,240.6,1.0,0.0,0.0,906,121,0,0,863.33,34.84,13.52,# data time:750,pm2.5:6.445,pm10:5.704,O2:0.000,NO2:0.000,SO2:
9:00:55,0,0,0,0,0,0,0,0,0,0,0,514,0,0,0,0,0.0000000,0.0000000,0.0000000,0.0000000,9.00,38.4063148,-110.7921906,1380.0000000,0.0,343.6,1.0,0.0,0.0,906,129,0,0,863.36,34.85,13.52,# data time:750,pm2.5:6.445,pm10:5.704,O2:0.000,NO2:0.000,SO2:
9:00:56,0,0,0,0,0,0,0,0,0,0,0,514,0,0,0,0,0.0000000,0.0000000,0.0000000,0.0000000,9.00,38.4063148,-110.7921906,1380.0000000,0.0,327.6,1.0,0.0,0.0,905,127,0,0,863.37,34.84,13.53,# data time:750,pm2.5:6.445,pm10:5.704,O2:0.000,NO2:0.000,SO2:
9:00:57,0,0,0,0,0,0,0,0,0,0,0,515,0,0,0,0,0.0000000,0.0000000,0.0000000,0.0000000,9.00,38.4063148,-110.7921906,1380.0000000,0.0,180.3,1.0,0.0,0.0,906,126,0,0,863.35,34.82,13.53,# data time:760,pm2.5:6.445,pm10:5.704,O2:0.000,NO2:0.000,SO2:0.000,NH3:5.083
9:00:58,0,0,0,0,0,0,0,0,0,0,0,515,0,0,0,0,0.0000000,0.0000000,0.0000000,0.0000000,9.00,38.4063148,-110.7921906,1380.0000000,0.0,356.3,1.0,0.0,0.0,905,130,0,0,863.37,34.82,13.53,# data time:760,pm2.5:6.445,pm10:5.704,O2:0.000,NO2:0.000,SO2:0.000,NH3:5.083
9:00:59,0,0,0,0,0,0,0,0,0,0,0,514,0,0,0,0,0.0000000,0.0000000,0.0000000,0.0000000,9.00,38.4063148,-110.7921906,1380.0000000,0.0,10.9,1.0,0.0,0.0,905,134,0,0,863.34,34.81,13.54,# data time:760,pm2.5:6.445,pm10:5.704,O2:0.000,NO2:0.000,SO2:0.000,NH3:5.083
9:01:00,0,0,0,0,0,0,0,0,0,0,0,515,0,0,0,0,0.0000000,0.0000000,0.0000000,0.0000000,9.00,38.4063148,-110.7921906,1380.0000000,0.0,250.0,1.0,0.0,0.0,906,129,0,0,863.37,34.78,13.54,# data time:760,pm2.5:6.445,pm10:5.704,O2:0.000,NO2:0.000,SO2:0.000,NH3:5.083
9:01:01,0,0,0,0,0,0,0,0,0,0,0,515,0,0,0,0,0.0000000,0.0000000,0.0000000,0.0000000,9.00,38.4063148,-110.7921906,1380.0000000,0.0,202.1,1.0,0.0,0.0,906,127,0,0,863.36,34.81,13.54,# data time:760,pm2.5:6.445,pm10:5.704,O2:0.000,NO2:0.000,SO2:0.000,NH3:5.083
9:01:02,0,0,0,0,0,0,0,0,0,0,0,515,0,0,0,0,0.0000000,0.0000000,0.0000000,0.0000000,9.00,38.4063148,-110.7921906,1380.0000000,0.0,114.3,1.0,0.0,0.0,906,132,0,0,863.41,34.78,13.54,# data time:760,pm2.5:6.445,pm10:5.704,O2:0.000,NO2:0.000,SO2:0.000,NH3:5.083
9:01:03,0,0,0,0,0,0,0,0,0,0,0,515,0,0,0,0,0.0000000,0.0000000,0.0000000,0.0000000,9.00,38.4063148,-110.7921906,1380.0000000,0.0,207.2,1.0,0.0,0.0,905,130,0,0,863.35,34.78,13.55,# data time:760,pm2.5:6.445,pm10:5.704,O2:0.000,NO2:0.000,SO2:0.000,NH3:5.083
9:01:04,0,0,0,0,0,0,0,0,0,0,0,515,0,0,0,0,0.0000000,0.0000000,0.0000000,0.0000000,9.00,38.4063148,-110.7921906,1380.0000000,0.0,227.6,1.0,0.0,0.0,906,131,0,0,863.39,34.76,13.55,# data time:760,pm2.5:6.445,pm10:5.704,O2:0.000,NO2:0.000,SO2:0.000,NH3:5.083
9:01:05,0,0,0,0,0,0,0,0,0,0,0,514,0,0,0,0,0.0000000,0.0000000,0.0000000,0.0000000,9.00,38.4063148,-110.7921906,1380.0000000,0.0,224.3,1.0,0.0,0.0,906,130,0,0,863.39,34.76,13.55,# data time:760,pm2.5:6.445,pm10:5.704,O2:0.000,NO2:0.000,SO2:0.000,NH3:5.083
9:01:06,0,0,0,0,0,0,0,0,0,0,0,515,0,0,0,0,0.0000000,0.0000000,0.0000000,0.0000000,9.00,38.4063148,-110.7921906,1380.0000000,0.0,265.3,1.0,0.0,0.0,906,129,0,0,863.39,34.79,13.56,# data time:760,pm2.5:6.445,pm10:5.704,O2:0.000,NO2:0.000,SO2:0.000,NH3:5.083
9:01:07,0,0,0,0,0,0,0,0,0,0,0,514,0,0,0,0,0.0000000,0.0000000,0.0000000,0.0000000,9.00,38.4063148,-110.7921906,1380.0000000,0.0,218.0,1.0,0.0,0.0,905,128,0,0,863.31,34.79,13.56,# data time:770,pm2.5:5.640,pm10:4.991,O2:0.000,NO2:0.000,SO2:0.000,NH3:5.083
9:01:08,0,0,0,0,0,0,0,0,0,0,0,514,0,0,0,0,0.0000000,0.0000000,0.0000000,0.0000000,9.00,38.4063148,-110.7921906,1380.0000000,0.0,190.6,1.0,0.0,0.0,906,128,0,0,863.35,34.74,13.56,# data time:770,pm2.5:5.640,pm10:4.991,O2:0.000,NO2:0.000,SO2:0.000,NH3:5.083
9:01:09,0,0,0,0,0,0,0,0,0,0,0,515,0,0,0,0,0.0000000,0.0000000,0.0000000,0.0000000,9.00,38.4063148,-110.7921906,1380.0000000,0.0,193.2,1.0,0.0,0.0,906,129,0,0,863.40,34.74,13.57,# data time:770,pm2.5:5.640,pm10:4.991,O2:0.000,NO2:0.000,SO2:0.000,NH3:5.083
9:01:10,0,0,0,0,0,0,0,0,0,0,0,515,0,0,0,0,0.0000000,0.0000000,0.0000000,0.0000000,9.00,38.4063148,-110.7921906,1380.0000000,0.0,161.8,1.0,0.0,0.0,906,124,0,0,863.40,34.76,13.57,# data time:770,pm2.5:5.640,pm10:4.991,O2:0.000,NO2:0.000,SO2:0.000,NH3:5.083
9:01:11,0,0,0,0,0,0,0,0,0,0,0,514,0,0,0,0,0.0000000,0.0000000,0.0000000,0.0000000,9.00,38.4063148,-110.7921906,1380.0000000,0.0,208.2,1.0,0.0,0.0,905,127,0,0,863.38,34.74,13.57,# data time:770,pm2.5:5.640,pm10:4.991,O2:0.000,NO2:0.000,SO2:0.000,NH3:5.083
9:01:12,0,0,0,0,0,0,0,0,0,0,0,515,0,0,0,0,0.0000000,0.0000000,0.0000000,0.0000000,9.00,38.4063148,-110.7921906,1380.0000000,0.0,273.3,1.0,0.0,0.0,906,129,0,0,863.36,34.73,13.57,# data time:770,pm2.5:5.640,pm10:4.991,O2:0.000,NO2:0.000,SO2:0.000,NH3:5.083
9:01:13,0,0,0,0,0,0,0,0,0,0,0,515,0,0,0,0,0.0000000,0.0000000,0.0000000,0.0000000,9.00,38.4063148,-110.7921906,1380.0000000,0.0,135.8,1.0,0.0,0.0,905,130,0,0,863.37,34.73,13.58,# data time:770,pm2.5:5.640,pm10:4.991,O2:0.000,NO2:0.000,SO2:0.000,NH3:5.083
9:01:14,0,0,0,0,0,0,0,0,0,0,0,514,0,0,0,0,0.0000000,0.0000000,0.0000000,0.0000000,9.00,38.4063148,-110.7921906,1380.0000000,0.0,126.9,1.0,0.0,0.0,906,129,0,0,863.38,34.71,13.58,# data time:770,pm2.5:5.640,pm10:4.991,O2:0.000,NO2:0.000,SO2:0.000,NH3:5.083
9:01:15,0,0,0,0,0,0,0,0,0,0,0,514,0,0,0,0,0.0000000,0.0000000,0.0000000,0.0000000,9.00,38.4063148,-110.7921906,1380.0000000,0.0,255.7,1.0,0.0,0.0,906,129,0,0,863.36,34.68,13.59,# data time:770,pm2.5:5.640,pm10:4.991,O2:0.000,NO2:0.000,SO2:0.000,NH3:5.083
9:01:16,0,0,0,0,0,0,0,0,0,0,0,514,0,0,0,0,0.0000000,0.0000000,0.0000000,0.0000000,9.00,38.4063148,-110.7921906,1380.0000000,0.0,213.2,1.0,0.0,0.0,906,130,0,0,863.35,34.70,13.59,# data time:770,pm2.5:5.640,pm10:4.991,O2:0.000,NO2:0.000,SO2:0.000,NH3:5.083
9:01:17,0,0,0,0,0,0,0,0,0,0,0,514,0,0,0,0,0.0000000,0.0000000,0.0000000,0.0000000,9.00,38.4063148,-110.7921906,1380.0000000,0.0,321.0,1.0,0.0,0.0,906,132,0,0,863.35,34.67,13.59,# data time:780,pm2.5:6.445,pm10:5.704,O2:0.000,NO2:0.000,SO2
9:01:18,0,0,0,0,0,0,0,0,0,0,0,514,0,0,0,0,0.0000000,0.0000000,0.0000000,0.0000000,9.00,38.4063148,-110.7921906,1380.0000000,0.0,290.2,1.0,0.0,0.0,905,129,0,0,863.36,34.65,13.59,# data time:780,pm2.5:6.445,pm10:5.704,O2:0.000,NO2:0.000,SO2
9:01:19,0,0,0,0,0,0,0,0,0,0,0,514,0,0,0,0,0.0000000,0.0000000,0.0000000,0.0000000,9.00,38.4063148,-110.7921906,1380.0000000,0.0,333.6,1.0,0.0,0.0,906,129,0,0,863.40,34.64,13.60,# data time:780,pm2.5:6.445,pm10:5.704,O2:0.000,NO2:0.000,SO2
9:01:20,0,0,0,0,0,0,0,0,0,0,0,513,0,0,0,0,0.0000000,0.0000000,0.0000000,0.0000000,9.00,38.4063148,-110.7921906,1380.0000000,0.0,344.1,1.0,0.0,0.0,906,130,0,0,863.34,34.62,13.60,# data time:780,pm2.5:6.445,pm10:5.704,O2:0.000,NO2:0.000,SO2
9:01:21,0,0,0,0,0,0,0,0,0,0,0,514,0,0,0,0,0.0000000,0.0000000,0.0000000,0.0000000,9.00,38.4063148,-110.7921906,1380.0000000,0.0,197.1,1.0,0.0,0.0,906,130,0,0,863.40,34.62,13.60,# data time:780,pm2.5:6.445,pm10:5.704,O2:0.000,NO2:0.000,SO2
9:01:22,0,0,0,0,0,0,0,0,0,0,0,514,0,0,0,0,0.0000000,0.0000000,0.0000000,0.0000000,9.00,38.4063148,-110.7921906,1380.0000000,0.0,61.8,1.0,0.0,0.0,905,128,0,0,863.32,34.64,13.60,# data time:780,pm2.5:6.445,pm10:5.704,O2:0.000,NO2:0.000,SO2
9:01:23,0,0,0,0,0,0,0,0,0,0,0,514,0,0,0,0,0.0000000,0.0000000,0.0000000,0.0000000,9.00,38.4063148,-110.7921906,1380.0000000,0.0,174.0,1.0,0.0,0.0,905,128,0,0,863.35,34.65,13.61,# data time:780,pm2.5:6.445,pm10:5.704,O2:0.000,NO2:0.000,SO2
9:01:24,0,0,0,0,0,0,0,0,0,0,0,514,0,0,0,0,0.0000000,0.0000000,0.0000000,0.0000000,9.00,38.4063148,-110.7921906,1380.0000000,0.0,58.4,1.0,0.0,0.0,905,132,0,0,863.37,34.65,13.61,# data time:780,pm2.5:6.445,pm10:5.704,O2:0.000,NO2:0.000,SO2
9:01:25,0,0,0,0,0,0,0,0,0,0,0,514,0,0,0,0,0.0000000,0.0000000,0.0000000,0.0000000,9.00,38.4063148,-110.7921906,1380.0000000,0.0,358.2,1.0,0.0,0.0,906,124,0,0,863.38,34.68,13.62,# data time:780,pm2.5:6.445,pm10:5.704,O2:0.000,NO2:0.000,SO2
9:01:26,0,0,0,0,0,0,0,0,0,0,0,515,0,0,0,0,0.0000000,0.0000000,0.0000000,0.0000000,9.00,38.4063148,-110.7921906,1380.0000000,0.0,339.8,1.0,0.0,0.0,905,130,0,0,863.39,34.67,13.62,# data time:780,pm2.5:6.445,pm10:5.704,O2:0.000,NO2:0.000,SO2
9:01:27,0,0,0,0,0,0,0,0,0,0,0,514,0,0,0,0,0.0000000,0.0000000,0.0000000,0.0000000,9.00,38.4063148,-110.7921906,1380.0000000,0.0,339.8,1.0,0.0,0.0,905,130,0,0,863.38,34.68,13.58,# data time:790,pm2.5:5.640,pm10:4.991,O2:0.000,NO2:0.000,SO2:0.000,NH3:4.630
9:01:28,0,0,0,0,0,0,0,0,0,0,0,514,0,0,0,0,0.0000000,0.0000000,0.0000000,0.0000000,9.00,38.4063148,-110.7921906,1379.9000244,0.0,75.7,1.0,0.0,0.0,905,132,0,0,863.34,34.67,13.58,# data time:790,pm2.5:5.640,pm10:4.991,O2:0.000,NO2:0.000,SO2:0.000,NH3:4.630
9:01:29,0,0,0,0,0,0,0,0,0,0,0,514,0,0,0,0,0.0000000,0.0000000,0.0000000,0.0000000,9.00,38.4063148,-110.7921906,1379.9000244,0.0,170.0,1.0,0.0,0.0,906,127,0,0,863.38,34.71,13.63,# data time:790,pm2.5:5.640,pm10:4.991,O2:0.000,NO2:0.000,SO2:0.000,NH3:4.630
9:01:30,0,0,0,0,0,0,0,0,0,0,0,514,0,0,0,0,0.0000000,0.0000000,0.0000000,0.0000000,9.00,38.4063148,-110.7921906,1379.9000244,0.0,276.4,1.0,0.0,0.0,905,128,0,0,863.33,34.70,13.54,# data time:790,pm2.5:5.640,pm10:4.991,O2:0.000,NO2:0.000,SO2:0.000,NH3:4.630
9:01:31,0,0,0,0,0,0,0,0,0,0,0,514,0,0,0,0,0.0000000,0.0000000,0.0000000,0.0000000,9.00,38.4063148,-110.7921906,1379.9000244,0.0,97.4,1.0,0.0,0.0,906,129,0,0,863.32,34.71,13.54,# data time:790,pm2.5:5.640,pm10:4.991,O2:0.000,NO2:0.000,SO2:0.000,NH3:4.630
9:01:33,0,0,0,0,0,0,0,0,0,0,0,513,0,0,0,0,0.0000000,0.0000000,0.0000000,0.0000000,9.00,38.4063148,-110.7921906,1379.9000244,0.0,80.9,1.0,0.0,0.0,905,130,0,0,863.40,34.68,13.60,# data time:790,pm2.5:5.640,pm10:4.991,O2:0.000,NO2:0.000,SO2:0.000,NH3:4.630
9:01:34,0,0,0,0,0,0,0,0,0,0,0,515,0,0,0,0,0.0000000,0.0000000,0.0000000,0.0000000,9.00,38.4063148,-110.7921906,1379.9000244,0.0,80.9,1.0,0.0,0.0,905,130,0,0,863.35,34.65,13.54,# data time:790,pm2.5:5.640,pm10:4.991,O2:0.000,NO2:0.000,SO2:0.000,NH3:4.630
9:01:35,0,0,0,0,0,0,0,0,0,0,0,515,0,0,0,0,0.0000000,0.0000000,0.0000000,0.0000000,9.00,38.4063148,-110.7921906,1379.9000244,0.0,8.6,1.0,0.0,0.0,906,130,0,0,863.31,34.65,13.64,# data time:790,pm2.5:5.640,pm10:4.991,O2:0.000,NO2:0.000,SO2:0.000,NH3:4.630
9:01:36,0,0,0,0,0,0,0,0,0,0,0,515,0,0,0,0,0.0000000,0.0000000,0.0000000,0.0000000,9.00,38.4063148,-110.7921906,1379.9000244,0.0,339.5,1.0,0.0,0.0,905,130,0,0,863.36,34.64,13.65,# data time:790,pm2.5:5.640,pm10:4.991,O2:0.000,NO2:0.000,SO2:0.000,NH3:4.630
9:01:37,0,0,0,0,0,0,0,0,0,0,0,513,0,0,0,0,0.0000000,0.0000000,0.0000000,0.0000000,9.00,38.4063148,-110.7921906,1379.9000244,0.0,245.7,1.0,0.0,0.0,905,129,0,0,863.42,34.58,13.65,# data time:800,pm2.5:5.640,pm10:4.991,O2:0.000,NO2:0.000,SO2:0H3:4.630
9:01:38,0,0,0,0,0,0,0,0,0,0,0,514,0,0,0,0,0.0000000,0.0000000,0.0000000,0.0000000,9.00,38.4063148,-110.7921906,1379.9000244,0.0,138.1,1.0,0.0,0.0,905,131,0,0,863.36,34.58,13.66,# data time:800,pm2.5:5.640,pm10:4.991,O2:0.000,NO2:0.000,SO2:0H3:4.630
9:01:39,0,0,0,0,0,0,0,0,0,0,0,514,0,0,0,0,0.0000000,0.0000000,0.0000000,0.0000000,9.00,38.4063148,-110.7921906,1379.9000244,0.0,91.1,1.0,0.0,0.0,905,127,0,0,863.35,34.55,13.66,# data time:800,pm2.5:5.640,pm10:4.991,O2:0.000,NO2:0.000,SO2:0H3:4.630
9:01:40,0,0,0,0,0,0,0,0,0,0,0,515,0,0,0,0,0.0000000,0.0000000,0.0000000,0.0000000,9.00,38.4063148,-110.7921906,1379.9000244,0.0,304.6,1.0,0.0,0.0,905,125,0,0,863.35,34.53,13.67,# data time:800,pm2.5:5.640,pm10:4.991,O2:0.000,NO2:0.000,SO2:0H3:4.630
9:01:41,0,0,0,0,0,0,0,0,0,0,0,514,0,0,0,0,0.0000000,0.0000000,0.0000000,0.0000000,9.00,38.4063148,-110.7921906,1379.9000244,0.0,165.9,1.0,0.0,0.0,905,133,0,0,863.39,34.52,13.67,# data time:800,pm2.5:5.640,pm10:4.991,O2:0.000,NO2:0.000,SO2:0H3:4.630
9:01:42,0,0,0,0,0,0,0,0,0,0,0,514,0,0,0,0,0.0000000,0.0000000,0.0000000,0.0000000,9.00,38.4063148,-110.7921906,1379.9000244,0.0,321.4,1.0,0.0,0.0,905,128,0,0,863.39,34.52,13.67,# data time:800,pm2.5:5.640,pm10:4.991,O2:0.000,NO2:0.000,SO2:0H3:4.630
9:01:43,0,0,0,0,0,0,0,0,0,0,0,514,0,0,0,0,0.0000000,0.0000000,0.0000000,0.0000000,9.00,38.4063148,-110.7921906,1379.9000244,0.0,54.9,1.0,0.0,0.0,905,131,0,0,863.39,34.52,13.69,# data time:800,pm2.5:5.640,pm10:4.991,O2:0.000,NO2:0.000,SO2:0H3:4.630
9:01:44,0,0,0,0,0,0,0,0,0,0,0,514,0,0,0,0,0.0000000,0.0000000,0.0000000,0.0000000,9.00,38.4063148,-110.7921906,1379.9000244,0.1,96.7,1.0,0.0,0.0,905,134,0,0,863.35,34.47,13.69,# data time:800,pm2.5:5.640,pm10:4.991,O2:0.000,NO2:0.000,SO2:0H3:4.630
9:01:45,0,0,0,0,0,0,0,0,0,0,0,515,0,0,0,0,0.0000000,0.0000000,0.0000000,0.0000000,9.00,38.4063148,-110.7921906,1379.9000244,0.0,22.0,1.0,0.0,0.0,905,129,0,0,863.38,34.50,13.69,# data time:800,pm2.5:5.640,pm10:4.991,O2:0.000,NO2:0.000,SO2:0H3:4.630
9:01:46,0,0,0,0,0,0,0,0,0,0,0,514,0,0,0,0,0.0000000,0.0000000,0.0000000,0.0000000,9.00,38.4063148,-110.7921906,1379.8000488,0.0,34.1,1.0,0.0,0.0,906,128,0,0,863.37,34.45,13.70,# data time:800,pm2.5:5.640,pm10:4.991,O2:0.000,NO2:0.000,SO2:0H3:4.630
9:01:47,0,0,0,0,0,0,0,0,0,0,0,515,0,0,0,0,0.0000000,0.0000000,0.0000000,0.0000000,9.00,38.4063148,-110.7921906,1379.8000488,0.0,34.1,1.0,0.0,0.0,905,129,0,0,863.39,34.47,13.65,# data time:810,pm2.5:6.445,pm10:5.704,O2:0.000,NO2:0.000,SO2:0.000,NH3:4.630
9:01:48,0,0,0,0,0,0,0,0,0,0,0,514,0,0,0,0,0.0000000,0.0000000,0.0000000,0.0000000,9.00,38.4063148,-110.7921906,1379.8000488,0.0,95.1,1.0,0.0,0.0,906,128,0,0,863.33,34.47,13.64,# data time:810,pm2.5:6.445,pm10:5.704,O2:0.000,NO2:0.000,SO2:0.000,NH3:4.630
9:01:49,0,0,0,0,0,0,0,0,0,0,0,515,0,0,0,0,0.0000000,0.0000000,0.0000000,0.0000000,9.00,38.4063148,-110.7921906,1379.8000488,0.0,303.7,1.0,0.0,0.0,905,130,0,0,863.34,34.49,13.70,# data time:810,pm2.5:6.445,pm10:5.704,O2:0.000,NO2:0.000,SO2:0.000,NH3:4.630
9:01:50,0,0,0,0,0,0,0,0,0,0,0,513,0,0,0,0,0.0000000,0.0000000,0.0000000,0.0000000,9.00,38.4063148,-110.7921906,1379.8000488,0.0,141.1,1.0,0.0,0.0,906,130,0,0,863.37,34.52,13.70,# data time:810,pm2.5:6.445,pm10:5.704,O2:0.000,NO2:0.000,SO2:0.000,NH3:4.630
9:01:51,0,0,0,0,0,0,0,0,0,0,0,514,0,0,0,0,0.0000000,0.0000000,0.0000000,0.0000000,9.00,38.4063148,-110.7921906,1379.8000488,0.0,57.0,1.0,0.0,0.0,905,129,0,0,863.36,34.52,13.71,# data time:810,pm2.5:6.445,pm10:5.704,O2:0.000,NO2:0.000,SO2:0.000,NH3:4.630
9:01:52,0,0,0,0,0,0,0,0,0,0,0,515,0,0,0,0,0.0000000,0.0000000,0.0000000,0.0000000,9.00,38.4063148,-110.7921906,1379.8000488,0.0,42.8,1.0,0.0,0.0,906,129,0,0,863.39,34.50,13.71,# data time:810,pm2.5:6.445,pm10:5.704,O2:0.000,NO2:0.000,SO2:0.000,NH3:4.630
9:01:53,0,0,0,0,0,0,0,0,0,0,0,515,0,0,0,0,0.0000000,0.0000000,0.0000000,0.0000000,9.00,38.4063148,-110.7921906,1379.8000488,0.0,47.7,1.0,0.0,0.0,905,129,0,0,863.39,34.47,13.72,# data time:810,pm2.5:6.445,pm10:5.704,O2:0.000,NO2:0.000,SO2:0.000,NH3:4.630
9:01:54,0,0,0,0,0,0,0,0,0,0,0,515,0,0,0,0,0.0000000,0.0000000,0.0000000,0.0000000,9.00,38.4063148,-110.7921906,1379.8000488,0.0,33.8,1.0,0.0,0.0,905,129,0,0,863.38,34.44,13.72,# data time:810,pm2.5:6.445,pm10:5.704,O2:0.000,NO2:0.000,SO2:0.000,NH3:4.630
9:01:55,0,0,0,0,0,0,0,0,0,0,0,514,0,0,0,0,0.0000000,0.0000000,0.0000000,0.0000000,9.00,38.4063148,-110.7921906,1379.8000488,0.0,253.8,1.0,0.0,0.0,906,129,0,0,863.34,34.42,13.72,# data time:810,pm2.5:6.445,pm10:5.704,O2:0.000,NO2:0.000,SO2:0.000,NH3:4.630
9:01:56,0,0,0,0,0,0,0,0,0,0,0,514,0,0,0,0,0.0000000,0.0000000,0.0000000,0.0000000,9.00,38.4063148,-110.7921906,1379.8000488,0.0,256.8,1.0,0.0,0.0,905,129,0,0,863.34,34.42,13.73,# data time:810,pm2.5:6.445,pm10:5.704,O2:0.000,NO2:0.000,SO2:0.000,NH3:4.630
9:01:57,0,0,0,0,0,0,0,0,0,0,0,515,0,0,0,0,0.0000000,0.0000000,0.0000000,0.0000000,9.00,38.4063148,-110.7921906,1379.6999512,0.0,76.1,1.0,0.0,0.0,905,127,0,0,863.37,34.39,13.73,# data time:820,pm2.5:6.445,pm10:5.704,O2:0.000,NO2:0.000,SO2:00,NH3:4.857
9:01:58,0,0,0,0,0,0,0,0,0,0,0,515,0,0,0,0,0.0000000,0.0000000,0.0000000,0.0000000,9.00,38.4063148,-110.7921906,1379.6999512,0.0,276.8,1.0,0.0,0.0,905,132,0,0,863.36,34.41,13.73,# data time:820,pm2.5:6.445,pm10:5.704,O2:0.000,NO2:0.000,SO2:00,NH3:4.857
9:01:59,0,0,0,0,0,0,0,0,0,0,0,514,0,0,0,0,0.0000000,0.0000000,0.0000000,0.0000000,9.00,38.4063148,-110.7921906,1379.6999512,0.0,4.4,1.0,0.0,0.0,905,130,0,0,863.33,34.38,13.74,# data time:820,pm2.5:6.445,pm10:5.704,O2:0.000,NO2:0.000,SO2:00,NH3:4.857
9:02:00,0,0,0,0,0,0,0,0,0,0,0,515,0,0,0,0,0.0000000,0.0000000,0.0000000,0.0000000,9.00,38.4063148,-110.7921906,1379.6999512,0.0,259.5,1.0,0.0,0.0,905,130,0,0,863.39,34.33,13.74,# data time:820,pm2.5:6.445,pm10:5.704,O2:0.000,NO2:0.000,SO2:00,NH3:4.857
9:02:01,0,0,0,0,0,0,0,0,0,0,0,515,0,0,0,0,0.0000000,0.0000000,0.0000000,0.0000000,9.00,38.4063148,-110.7921906,1379.6999512,0.0,239.7,1.0,0.0,0.0,906,129,0,0,863.35,34.36,13.75,# data time:820,pm2.5:6.445,pm10:5.704,O2:0.000,NO2:0.000,SO2:00,NH3:4.857
9:02:02,0,0,0,0,0,0,0,0,0,0,0,514,0,0,0,0,0.0000000,0.0000000,0.0000000,0.0000000,9.00,38.4063148,-110.7921906,1379.6999512,0.0,0.2,1.0,0.0,0.0,905,128,0,0,863.42,34.33,13.75,# data time:820,pm2.5:6.445,pm10:5.704,O2:0.000,NO2:0.000,SO2:00,NH3:4.857
9:02:03,0,0,0,0,0,0,0,0,0,0,0,514,0,0,0,0,0.0000000,0.0000000,0.0000000,0.0000000,9.00,38.4063148,-110.7921906,1379.6999512,0.0,12.0,1.0,0.0,0.0,905,126,0,0,863.36,34.30,13.75,# data time:820,pm2.5:6.445,pm10:5.704,O2:0.000,NO2:0.000,SO2:00,NH3:4.857
9:02:04,0,0,0,0,0,0,0,0,0,0,0,514,0,0,0,0,0.0000000,0.0000000,0.0000000,0.0000000,9.00,38.4063148,-110.7921906,1379.6999512,0.0,71.2,1.0,0.0,0.0,905,131,0,0,863.40,34.29,13.75,# data time:820,pm2.5:6.445,pm10:5.704,O2:0.000,NO2:0.000,SO2:00,NH3:4.857
9:02:05,0,0,0,0,0,0,0,0,0,0,0,515,0,0,0,0,0.0000000,0.0000000,0.0000000,0.0000000,9.00,38.4063148,-110.7921906,1379.6999512,0.0,319.5,1.0,0.0,0.0,905,129,0,0,863.40,34.29,13.76,# data time:820,pm2.5:6.445,pm10:5.704,O2:0.000,NO2:0.000,SO2:00,NH3:4.857
9:02:06,0,0,0,0,0,0,0,0,0,0,0,514,0,0,0,0,0.0000000,0.0000000,0.0000000,0.0000000,9.00,38.4063148,-110.7921906,1379.6999512,0.1,307.3,1.0,0.0,0.0,904,131,0,0,863.38,34.33,13.76,# data time:820,pm2.5:6.445,pm10:5.704,O2:0.000,NO2:0.000,SO2:00,NH3:4.857
9:02:07,0,0,0,0,0,0,0,0,0,0,0,514,0,0,0,0,0.0000000,0.0000000,0.0000000,0.0000000,9.00,38.4063148,-110.7921906,1379.1999512,0.0,33.4,1.0,0.0,0.0,905,133,0,0,863.43,34.32,13.77,# data time:830,pm2.5:5.640,pm10:4.991,O2:0.000,NO2:0.000,SO2
9:02:08,0,0,0,0,0,0,0,0,0,0,0,514,0,0,0,0,0.0000000,0.0000000,0.0000000,0.0000000,9.00,38.4063148,-110.7921906,1378.8000488,0.0,214.1,1.0,0.0,0.0,905,131,0,0,863.38,34.35,13.77,# data time:830,pm2.5:5.640,pm10:4.991,O2:0.000,NO2:0.000,SO2
9:02:09,0,0,0,0,0,0,0,0,0,0,0,514,0,0,0,0,0.0000000,0.0000000,0.0000000,0.0000000,9.00,38.4063110,-110.7921906,1378.6999512,0.0,180.8,1.0,0.0,0.0,905,128,0,0,863.38,34.36,13.77,# data time:830,pm2.5:5.640,pm10:4.991,O2:0.000,NO2:0.000,SO2
9:02:10,0,0,0,0,0,0,0,0,0,0,0,514,0,0,0,0,0.0000000,0.0000000,0.0000000,0.0000000,9.00,38.4063110,-110.7921906,1378.8000488,0.0,147.2,1.0,0.0,0.0,905,132,0,0,863.38,34.33,13.77,# data time:830,pm2.5:5.640,pm10:4.991,O2:0.000,NO2:0.000,SO2
9:02:11,0,0,0,0,0,0,0,0,0,0,0,514,0,0,0,0,0.0000000,0.0000000,0.0000000,0.0000000,9.00,38.4063072,-110.7921906,1379.0000000,0.0,164.5,1.0,0.0,0.0,905,128,0,0,863.42,34.15,13.77,# data time:830,pm2.5:5.640,pm10:4.991,O2:0.000,NO2:0.000,SO2
9:02:12,0,0,0,0,0,0,0,0,0,0,0,515,0,0,0,0,0.0000000,0.0000000,0.0000000,0.0000000,9.00,38.4063072,-110.7921906,1378.9000244,0.0,98.3,1.0,0.0,0.0,905,125,0,0,863.35,34.09,13.77,# data time:830,pm2.5:5.640,pm10:4.991,O2:0.000,NO2:0.000,SO2
9:02:13,0,0,0,0,0,0,0,0,0,0,0,514,0,0,0,0,0.0000000,0.0000000,0.0000000,0.0000000,9.00,38.4063072,-110.7921906,1378.9000244,0.0,204.4,1.0,0.0,0.0,905,131,0,0,863.39,34.12,13.78,# data time:830,pm2.5:5.640,pm10:4.991,O2:0.000,NO2:0.000,SO2
9:02:14,0,0,0,0,0,0,0,0,0,0,0,515,0,0,0,0,0.0000000,0.0000000,0.0000000,0.0000000,9.00,38.4063072,-110.7921906,1378.9000244,0.0,2.4,1.0,0.0,0.0,905,129,0,0,863.38,34.07,13.78,# data time:830,pm2.5:5.640,pm10:4.991,O2:0.000,NO2:0.000,SO2
9:02:15,0,0,0,0,0,0,0,0,0,0,0,515,0,0,0,0,0.0000000,0.0000000,0.0000000,0.0000000,9.00,38.4063072,-110.7921906,1378.9000244,0.0,31.8,1.0,0.0,0.0,905,130,0,0,863.34,33.98,13.78,# data time:830,pm2.5:5.640,pm10:4.991,O2:0.000,NO2:0.000,SO2
9:02:16,0,0,0,0,0,0,0,0,0,0,0,516,0,0,0,0,0.0000000,0.0000000,0.0000000,0.0000000,9.00,38.4063072,-110.7921906,1378.9000244,0.0,285.5,1.0,0.0,0.0,905,132,0,0,863.43,33.91,13.79,# data time:830,pm2.5:5.640,pm10:4.991,O2:0.000,NO2:0.000,SO2
9:02:17,0,0,0,0,0,0,0,0,0,0,0,514,0,0,0,0,0.0000000,0.0000000,0.0000000,0.0000000,9.00,38.4063072,-110.7921906,1378.9000244,0.0,248.6,1.0,0.0,0.0,905,125,0,0,863.39,33.86,13.79,# data time:840,pm2.5:6.445,pm10:5.704,O2:0.000,NO2:0.000,SO2
9:02:18,0,0,0,0,0,0,0,0,0,0,0,515,0,0,0,0,0.0000000,0.0000000,0.0000000,0.0000000,9.00,38.4063072,-110.7921906,1378.9000244,0.0,284.0,1.0,0.0,0.0,905,125,0,0,863.37,33.83,13.79,# data time:840,pm2.5:6.445,pm10:5.704,O2:0.000,NO2:0.000,SO2
9:02:19,0,0,0,0,0,0,0,0,0,0,0,515,0,0,0,0,0.0000000,0.0000000,0.0000000,0.0000000,9.00,38.4063072,-110.7921906,1378.9000244,0.0,314.0,1.0,0.0,0.0,905,126,0,0,863.36,33.83,13.80,# data time:840,pm2.5:6.445,pm10:5.704,O2:0.000,NO2:0.000,SO2
9:02:20,0,0,0,0,0,0,0,0,0,0,0,515,0,0,0,0,0.0000000,0.0000000,0.0000000,0.0000000,9.00,38.4063072,-110.7921906,1378.9000244,0.0,292.3,1.0,0.0,0.0,905,128,0,0,863.37,33.81,13.80,# data time:840,pm2.5:6.445,pm10:5.704,O2:0.000,NO2:0.000,SO2
9:02:21,0,0,0,0,0,0,0,0,0,0,0,515,0,0,0,0,0.0000000,0.0000000,0.0000000,0.0000000,9.00,38.4063072,-110.7921906,1378.9000244,0.0,279.4,1.0,0.0,0.0,905,128,0,0,863.38,33.89,13.81,# data time:840,pm2.5:6.445,pm10:5.704,O2:0.000,NO2:0.000,SO2
