Time, Motor A Speed, Motor A Dir, Motor B Speed, Motor B Dir, Servo Rail Current Sensor, Servo Pos - Arm L, Servo Pos - Arm R, Servo Pos - End, Servo Pos - Hopper, Servo Pos - Lid, Servo Pos - Extra, Servo Current, LED - Front L, LED - Front R, LED - Back L, LED - Back R, IMU Pitch, IMU Roll, IMU Yaw, Compass Heading, GPS Sats, GPS Latitude, GPS Longitude, GPS Altitude, GPS Speed, GPS Angle, GPS HDOP, GPS VDOP, GPS PDOP, Battery, Wind, Comm Xbee Latency, Comm Arduino Latency, Pressure, Humidity, Temperature, uRADMonitor
13:04:24,0,0,0,0,0,2700,2200,1,0,0,0,515,0,0,0,0,0.0000000,0.0000000,0.0000000,0.0000000,8.00,38.3977470,-110.7923431,1357.0000000,0.0,114.4,0.9,0.0,0.0,876,153,0,0,863.23,36.62,34.13,# data time:2700,pm2.5:6.445,pm10:5.704,O2:0.000,NO2:0.000,SO2:0.000,NH3:2.367
13:04:25,0,0,0,0,0,2700,2200,1,0,0,0,515,0,0,0,0,0.0000000,0.0000000,0.0000000,0.0000000,8.00,38.3977470,-110.7923431,1357.0000000,0.0,144.5,0.9,0.0,0.0,877,155,0,0,863.24,36.61,34.13,# data time:2700,pm2.5:6.445,pm10:5.704,O2:0.000,NO2:0.000,SO2:0.000,NH3:2.367
13:04:26,0,0,0,0,0,2700,2200,1,0,0,0,515,0,0,0,0,0.0000000,0.0000000,0.0000000,0.0000000,8.00,38.3977470,-110.7923431,1357.0000000,0.0,144.5,0.9,0.0,0.0,876,154,0,0,863.16,36.61,34.14,# data time:2700,pm2.5:6.445,pm10:5.704,O2:0.000,NO2:0.000,SO2:0.000,NH3:2.367
13:04:27,0,0,0,0,0,2700,2200,1,0,0,0,515,0,0,0,0,0.0000000,0.0000000,0.0000000,0.0000000,8.00,38.3977470,-110.7923431,1357.0000000,0.0,108.5,0.9,0.0,0.0,876,155,0,0,863.26,37.06,34.19,# data time:2700,pm2.5:6.445,pm10:5.704,O2:0.000,NO2:0.000,SO2:0.000,NH3:2.367
13:04:28,0,0,0,0,0,2700,2200,1,0,0,0,514,0,0,0,0,0.0000000,0.0000000,0.0000000,0.0000000,8.00,38.3977470,-110.7923431,1357.0000000,0.0,108.5,0.9,0.0,0.0,876,156,0,0,863.29,37.14,34.25,# data time:2700,pm2.5:6.445,pm10:5.704,O2:0.000,NO2:0.000,SO2:0.000,NH3:2.367
13:04:29,0,0,0,0,0,2700,2200,1,0,0,0,514,0,0,0,0,0.0000000,0.0000000,0.0000000,0.0000000,8.00,38.3977470,-110.7923431,1357.0999756,0.0,32.9,0.9,0.0,0.0,876,158,0,0,863.33,37.26,34.30,# data time:2700,pm2.5:6.445,pm10:5.704,O2:0.000,NO2:0.000,SO2:0.000,NH3:2.367
13:04:30,0,0,0,0,0,2700,2200,1,0,0,0,516,0,0,0,0,0.0000000,0.0000000,0.0000000,0.0000000,8.00,38.3977470,-110.7923431,1357.0999756,0.0,42.9,0.9,0.0,0.0,876,169,0,0,863.36,37.78,34.13,# data time:2710,pm2.5:6.445,pm10:5.704,O2:0.000,NO2:0.010,SO2:0.000,NH3:2.594
13:04:31,0,0,0,0,0,2700,2200,1,0,0,0,514,0,0,0,0,0.0000000,0.0000000,0.0000000,0.0000000,8.00,38.3977470,-110.7923431,1357.0999756,0.0,94.9,0.9,0.0,0.0,876,159,0,0,863.33,37.70,34.04,# data time:2710,pm2.5:6.445,pm10:5.704,O2:0.000,NO2:0.010,SO2:0.000,NH3:2.594
13:04:32,0,0,0,0,0,2700,2200,1,0,0,0,515,0,0,0,0,0.0000000,0.0000000,0.0000000,0.0000000,8.00,38.3977470,-110.7923431,1357.0999756,0.0,321.2,0.9,0.0,0.0,877,156,0,0,863.32,37.42,34.07,# data time:2710,pm2.5:6.445,pm10:5.704,O2:0.000,NO2:0.010,SO2:0.000,NH3:2.594
13:04:33,0,0,0,0,0,2700,2200,1,0,0,0,515,0,0,0,0,0.0000000,0.0000000,0.0000000,0.0000000,8.00,38.3977470,-110.7923431,1357.0999756,0.0,69.1,0.9,0.0,0.0,876,156,0,0,863.33,37.38,34.03,# data time:2710,pm2.5:6.445,pm10:5.704,O2:0.000,NO2:0.010,SO2:0.000,NH3:2.594
13:04:34,0,0,0,0,0,2700,2200,1,0,0,0,515,0,0,0,0,0.0000000,0.0000000,0.0000000,0.0000000,8.00,38.3977470,-110.7923431,1357.0999756,0.0,117.4,0.9,0.0,0.0,876,157,0,0,863.32,37.78,33.81,# data time:2710,pm2.5:6.445,pm10:5.704,O2:0.000,NO2:0.010,SO2:0.000,NH3:2.594
13:04:35,0,0,0,0,0,2700,2200,1,0,0,0,514,0,0,0,0,0.0000000,0.0000000,0.0000000,0.0000000,8.00,38.3977470,-110.7923431,1357.0999756,0.0,18.6,0.9,0.0,0.0,876,155,0,0,863.31,37.99,33.85,# data time:2710,pm2.5:6.445,pm10:5.704,O2:0.000,NO2:0.010,SO2:0.000,NH3:2.594
13:04:36,0,0,0,0,0,2700,2200,1,0,0,0,515,0,0,0,0,0.0000000,0.0000000,0.0000000,0.0000000,8.00,38.3977470,-110.7923431,1357.0999756,0.0,156.5,0.9,0.0,0.0,876,153,0,0,863.30,38.24,33.74,# data time:2710,pm2.5:6.445,pm10:5.704,O2:0.000,NO2:0.010,SO2:0.000,NH3:2.594
13:04:37,0,0,0,0,0,2700,2200,1,0,0,0,515,0,0,0,0,0.0000000,0.0000000,0.0000000,0.0000000,8.00,38.3977470,-110.7923431,1357.0999756,0.0,342.3,0.9,0.0,0.0,876,155,0,0,863.31,38.39,33.67,# data time:2710,pm2.5:6.445,pm10:5.704,O2:0.000,NO2:0.010,SO2:0.000,NH3:2.594
13:04:38,0,0,0,0,0,2700,2200,1,0,0,0,515,0,0,0,0,0.0000000,0.0000000,0.0000000,0.0000000,8.00,38.3977470,-110.7923431,1357.0999756,0.0,0.0,0.9,0.0,0.0,876,156,0,0,863.32,38.16,33.46,# data time:2710,pm2.5:6.445,pm10:5.704,O2:0.000,NO2:0.010,SO2:0.000,NH3:2.594
13:04:39,0,0,0,0,0,2700,2200,1,0,0,0,515,0,0,0,0,0.0000000,0.0000000,0.0000000,0.0000000,8.00,38.3977470,-110.7923431,1357.0999756,0.0,254.6,0.9,0.0,0.0,876,155,0,0,863.40,38.33,33.28,# data time:2710,pm2.5:6.445,pm10:5.704,O2:0.000,NO2:0.010,SO2:0.000,NH3:2.594
13:04:40,0,0,0,0,0,2700,2200,1,0,0,0,515,0,0,0,0,0.0000000,0.0000000,0.0000000,0.0000000,8.00,38.3977470,-110.7923431,1357.0999756,0.0,0.0,0.9,0.0,0.0,876,154,0,0,863.34,38.32,33.22,# data time:2720,pm2.5:5.640,pm10:4.991,O2:0.000,NO2:0.010,SO2:0.000,NH3:2.367
13:04:41,0,0,0,0,0,2700,2200,1,0,0,0,514,0,0,0,0,0.0000000,0.0000000,0.0000000,0.0000000,8.00,38.3977470,-110.7923431,1357.0999756,0.0,265.8,0.9,0.0,0.0,876,149,0,0,863.31,38.39,33.25,# data time:2720,pm2.5:5.640,pm10:4.991,O2:0.000,NO2:0.010,SO2:0.000,NH3:2.367
13:04:42,0,0,0,0,0,2700,2200,1,0,0,0,515,0,0,0,0,0.0000000,0.0000000,0.0000000,0.0000000,8.00,38.3977470,-110.7923431,1357.0999756,0.0,149.6,0.9,0.0,0.0,877,145,0,0,863.30,38.07,33.42,# data time:2720,pm2.5:5.640,pm10:4.991,O2:0.000,NO2:0.010,SO2:0.000,NH3:2.367
13:04:43,0,0,0,0,0,2700,2200,1,0,0,0,515,0,0,0,0,0.0000000,0.0000000,0.0000000,0.0000000,8.00,38.3977470,-110.7923431,1357.0999756,0.0,324.5,0.9,0.0,0.0,877,151,0,0,863.27,37.83,33.52,# data time:2720,pm2.5:5.640,pm10:4.991,O2:0.000,NO2:0.010,SO2:0.000,NH3:2.367
13:04:44,0,0,0,0,0,2700,2200,1,0,0,0,516,0,0,0,0,0.0000000,0.0000000,0.0000000,0.0000000,8.00,38.3977470,-110.7923431,1357.0999756,0.0,317.3,0.9,0.0,0.0,875,150,0,0,863.29,37.75,33.54,# data time:2720,pm2.5:5.640,pm10:4.991,O2:0.000,NO2:0.010,SO2:0.000,NH3:2.367
13:04:45,0,0,0,0,0,2700,2200,1,0,0,0,514,0,0,0,0,0.0000000,0.0000000,0.0000000,0.0000000,8.00,38.3977470,-110.7923431,1357.0999756,0.0,84.7,0.9,0.0,0.0,876,156,0,0,863.26,37.63,33.57,# data time:2720,pm2.5:5.640,pm10:4.991,O2:0.000,NO2:0.010,SO2:0.000,NH3:2.367
13:04:46,0,0,0,0,0,2700,2200,1,0,0,0,515,0,0,0,0,0.0000000,0.0000000,0.0000000,0.0000000,8.00,38.3977470,-110.7923431,1357.0999756,0.0,54.8,0.9,0.0,0.0,876,155,0,0,863.28,37.60,33.60,# data time:2720,pm2.5:5.640,pm10:4.991,O2:0.000,NO2:0.010,SO2:0.000,NH3:2.367
13:04:47,0,0,0,0,0,2700,2200,1,0,0,0,515,0,0,0,0,0.0000000,0.0000000,0.0000000,0.0000000,8.00,38.3977470,-110.7923431,1357.0999756,0.0,50.6,0.9,0.0,0.0,876,155,0,0,863.26,37.42,33.49,# data time:2720,pm2.5:5.640,pm10:4.991,O2:0.000,NO2:0.010,SO2:0.000,NH3:2.367
13:04:48,0,0,0,0,0,2700,2200,1,0,0,0,515,0,0,0,0,0.0000000,0.0000000,0.0000000,0.0000000,8.00,38.3977470,-110.7923431,1357.0999756,0.0,65.0,0.9,0.0,0.0,877,158,0,0,863.27,37.35,33.33,# data time:2720,pm2.5:5.640,pm10:4.991,O2:0.000,NO2:0.010,SO2:0.000,NH3:2.367
13:04:49,0,0,0,0,0,2700,2200,1,0,0,0,515,0,0,0,0,0.0000000,0.0000000,0.0000000,0.0000000,8.00,38.3977470,-110.7923431,1357.0999756,0.0,84.7,0.9,0.0,0.0,876,160,0,0,863.28,37.38,33.26,# data time:2730,pm2.5:6.445,pm10:5.704,O2:0.000,NO2:0.000,SO2:0.000,NH3:2.367
13:04:51,0,0,0,0,0,2700,2200,1,0,0,0,515,0,0,0,0,0.0000000,0.0000000,0.0000000,0.0000000,8.00,38.3977470,-110.7923431,1357.0999756,0.0,69.3,0.9,0.0,0.0,876,157,0,0,863.31,37.31,33.20,# data time:2730,pm2.5:6.445,pm10:5.704,O2:0.000,NO2:0.000,SO2:0.000,NH3:2.367
13:04:52,0,0,0,0,0,2700,2200,1,0,0,0,515,0,0,0,0,0.0000000,0.0000000,0.0000000,0.0000000,8.00,38.3977470,-110.7923431,1357.0999756,0.0,315.9,0.9,0.0,0.0,877,160,0,0,863.31,37.52,33.08,# data time:2730,pm2.5:6.445,pm10:5.704,O2:0.000,NO2:0.000,SO2:0.000,NH3:2.367
13:04:53,0,0,0,0,0,2700,2200,1,0,0,0,515,0,0,0,0,0.0000000,0.0000000,0.0000000,0.0000000,8.00,38.3977470,-110.7923431,1357.0999756,0.0,315.9,0.9,0.0,0.0,875,160,0,0,863.32,37.80,32.85,# data time:2730,pm2.5:6.445,pm10:5.704,O2:0.000,NO2:0.000,SO2:0.000,NH3:2.367
13:04:54,0,0,0,0,0,2700,2200,1,0,0,0,514,0,0,0,0,0.0000000,0.0000000,0.0000000,0.0000000,8.00,38.3977470,-110.7923431,1357.0999756,0.0,315.9,0.9,0.0,0.0,876,155,0,0,863.31,38.13,32.65,# data time:2730,pm2.5:6.445,pm10:5.704,O2:0.000,NO2:0.000,SO2:0.000,NH3:2.367
13:04:55,0,0,0,0,0,2700,2200,1,0,0,0,515,0,0,0,0,0.0000000,0.0000000,0.0000000,0.0000000,8.00,38.3977470,-110.7923431,1357.0999756,0.0,249.4,0.9,0.0,0.0,876,156,0,0,863.27,38.54,32.83,# data time:2730,pm2.5:6.445,pm10:5.704,O2:0.000,NO2:0.000,SO2:0.000,NH3:2.367
13:04:56,0,0,0,0,0,2700,2200,1,0,0,0,515,0,0,0,0,0.0000000,0.0000000,0.0000000,0.0000000,8.00,38.3977470,-110.7923431,1357.0999756,0.0,59.4,0.9,0.0,0.0,876,163,0,0,863.30,38.79,32.99,# data time:2730,pm2.5:6.445,pm10:5.704,O2:0.000,NO2:0.000,SO2:0.000,NH3:2.367
13:04:57,0,0,0,0,0,2700,2200,1,0,0,0,515,0,0,0,0,0.0000000,0.0000000,0.0000000,0.0000000,8.00,38.3977470,-110.7923431,1357.0999756,0.0,123.9,0.9,0.0,0.0,876,165,0,0,863.31,38.73,33.10,# data time:2730,pm2.5:6.445,pm10:5.704,O2:0.000,NO2:0.000,SO2:0.000,NH3:2.367
13:04:58,0,0,0,0,0,2700,2200,1,0,0,0,515,0,0,0,0,0.0000000,0.0000000,0.0000000,0.0000000,8.00,38.3977470,-110.7923431,1357.0999756,0.0,277.9,0.9,0.0,0.0,876,164,0,0,863.31,38.53,33.21,# data time:2730,pm2.5:6.445,pm10:5.704,O2:0.000,NO2:0.000,SO2:0.000,NH3:2.367
13:04:59,0,0,0,0,0,2700,2200,1,0,0,0,515,0,0,0,0,0.0000000,0.0000000,0.0000000,0.0000000,8.00,38.3977470,-110.7923431,1357.0999756,0.0,327.8,0.9,0.0,0.0,876,162,0,0,863.34,38.41,33.23,# data time:2730,pm2.5:6.445,pm10:5.704,O2:0.000,NO2:0.000,SO2:0.000,NH3:2.367
13:05:00,0,0,0,0,0,2700,2200,1,0,0,0,515,0,0,0,0,0.0000000,0.0000000,0.0000000,0.0000000,8.00,38.3977470,-110.7923431,1357.0999756,0.0,333.8,0.9,0.0,0.0,877,167,0,0,863.29,38.36,33.24,# data time:2740,pm2.5:6.445,pm10:5.704,O2:0.000,NO2:0.000,SO2:0.000,NH3:2.820
13:05:01,0,0,0,0,0,2700,2200,1,0,0,0,515,0,0,0,0,0.0000000,0.0000000,0.0000000,0.0000000,8.00,38.3977470,-110.7923431,1357.0999756,0.0,312.3,0.9,0.0,0.0,876,162,0,0,863.25,37.74,33.26,# data time:2740,pm2.5:6.445,pm10:5.704,O2:0.000,NO2:0.000,SO2:0.000,NH3:2.820
13:05:02,0,0,0,0,0,2700,2200,1,0,0,0,515,0,0,0,0,0.0000000,0.0000000,0.0000000,0.0000000,8.00,38.3977470,-110.7923431,1357.0999756,0.0,308.3,0.9,0.0,0.0,877,159,0,0,863.27,37.06,33.32,# data time:2740,pm2.5:6.445,pm10:5.704,O2:0.000,NO2:0.000,SO2:0.000,NH3:2.820
13:05:03,0,0,0,0,0,2700,2200,1,0,0,0,516,0,0,0,0,0.0000000,0.0000000,0.0000000,0.0000000,8.00,38.3977470,-110.7923431,1357.0999756,0.0,350.1,0.9,0.0,0.0,876,154,0,0,863.27,36.74,33.37,# data time:2740,pm2.5:6.445,pm10:5.704,O2:0.000,NO2:0.000,SO2:0.000,NH3:2.820
13:05:04,0,0,0,0,0,2700,2200,1,0,0,0,515,0,0,0,0,0.0000000,0.0000000,0.0000000,0.0000000,8.00,38.3977470,-110.7923431,1357.0999756,0.0,90.9,0.9,0.0,0.0,876,154,0,0,863.26,36.35,33.44,# data time:2740,pm2.5:6.445,pm10:5.704,O2:0.000,NO2:0.000,SO2:0.000,NH3:2.820
13:05:05,0,0,0,0,0,2700,2200,1,0,0,0,515,0,0,0,0,0.0000000,0.0000000,0.0000000,0.0000000,8.00,38.3977470,-110.7923431,1357.0999756,0.0,93.9,0.9,0.0,0.0,876,151,0,0,863.22,36.24,33.52,# data time:2740,pm2.5:6.445,pm10:5.704,O2:0.000,NO2:0.000,SO2:0.000,NH3:2.820
13:05:06,0,0,0,0,0,2700,2200,1,0,0,0,516,0,0,0,0,0.0000000,0.0000000,0.0000000,0.0000000,8.00,38.3977470,-110.7923431,1357.0999756,0.0,87.6,0.9,0.0,0.0,876,155,0,0,863.28,36.55,33.62,# data time:2740,pm2.5:6.445,pm10:5.704,O2:0.000,NO2:0.000,SO2:0.000,NH3:2.820
13:05:07,0,0,0,0,0,2700,2200,1,0,0,0,515,0,0,0,0,0.0000000,0.0000000,0.0000000,0.0000000,8.00,38.3977470,-110.7923431,1357.0999756,0.0,112.3,0.9,0.0,0.0,877,150,0,0,863.33,36.93,33.68,# data time:2740,pm2.5:6.445,pm10:5.704,O2:0.000,NO2:0.000,SO2:0.000,NH3:2.820
13:05:08,0,0,0,0,0,2700,2200,1,0,0,0,515,0,0,0,0,0.0000000,0.0000000,0.0000000,0.0000000,8.00,38.3977470,-110.7923431,1357.0999756,0.0,131.3,0.9,0.0,0.0,876,150,0,0,863.25,36.67,33.73,# data time:2740,pm2.5:6.445,pm10:5.704,O2:0.000,NO2:0.000,SO2:0.000,NH3:2.820
13:05:09,0,0,0,0,0,2700,2200,1,0,0,0,514,0,0,0,0,0.0000000,0.0000000,0.0000000,0.0000000,8.00,38.3977470,-110.7923431,1357.0999756,0.0,151.6,0.9,0.0,0.0,876,152,0,0,863.30,36.77,33.62,# data time:2740,pm2.5:6.445,pm10:5.704,O2:0.000,NO2:0.000,SO2:0.000,NH3:2.820
13:05:10,0,0,0,0,0,2700,2200,1,0,0,0,515,0,0,0,0,0.0000000,0.0000000,0.0000000,0.0000000,8.00,38.3977470,-110.7923431,1357.0999756,0.0,246.3,0.9,0.0,0.0,876,154,0,0,863.24,37.23,33.57,# data time:2750,pm2.5:6.445,pm10:5.704,O2:0.000,NO2:0.028,SO2:0.000,NH3:2.820
13:05:11,0,0,0,0,0,2700,2200,1,0,0,0,514,0,0,0,0,0.0000000,0.0000000,0.0000000,0.0000000,8.00,38.3977470,-110.7923431,1357.0999756,0.0,284.6,0.9,0.0,0.0,876,149,0,0,863.24,37.37,33.60,# data time:2750,pm2.5:6.445,pm10:5.704,O2:0.000,NO2:0.028,SO2:0.000,NH3:2.820
13:05:12,0,0,0,0,0,2700,2200,1,0,0,0,515,0,0,0,0,0.0000000,0.0000000,0.0000000,0.0000000,8.00,38.3977470,-110.7923431,1357.0999756,0.0,260.3,0.9,0.0,0.0,876,145,0,0,863.29,37.29,33.70,# data time:2750,pm2.5:6.445,pm10:5.704,O2:0.000,NO2:0.028,SO2:0.000,NH3:2.820
13:05:13,0,0,0,0,0,2700,2200,1,0,0,0,514,0,0,0,0,0.0000000,0.0000000,0.0000000,0.0000000,8.00,38.3977470,-110.7923431,1357.0999756,0.0,277.6,0.9,0.0,0.0,876,144,0,0,863.33,36.85,33.81,# data time:2750,pm2.5:6.445,pm10:5.704,O2:0.000,NO2:0.028,SO2:0.000,NH3:2.820
13:05:14,0,0,0,0,0,2700,2200,1,0,0,0,514,0,0,0,0,0.0000000,0.0000000,0.0000000,0.0000000,8.00,38.3977470,-110.7923431,1357.0999756,0.0,264.2,0.9,0.0,0.0,876,145,0,0,863.28,36.61,33.87,# data time:2750,pm2.5:6.445,pm10:5.704,O2:0.000,NO2:0.028,SO2:0.000,NH3:2.820
13:05:16,0,0,0,0,0,2700,2200,1,0,0,0,515,0,0,0,0,0.0000000,0.0000000,0.0000000,0.0000000,8.00,38.3977470,-110.7923431,1357.0999756,0.0,6.6,0.9,0.0,0.0,876,150,0,0,863.30,36.80,33.83,# data time:2750,pm2.5:6.445,pm10:5.704,O2:0.000,NO2:0.028,SO2:0.000,NH3:2.820
13:05:17,0,0,0,0,0,2700,2200,1,0,0,0,514,0,0,0,0,0.0000000,0.0000000,0.0000000,0.0000000,8.00,38.3977470,-110.7923431,1357.0999756,0.0,90.0,0.9,0.0,0.0,876,145,0,0,863.30,36.94,33.87,# data time:2750,pm2.5:6.445,pm10:5.704,O2:0.000,NO2:0.028,SO2:0.000,NH3:2.820
13:05:18,0,0,0,0,0,2700,2200,1,0,0,0,516,0,0,0,0,0.0000000,0.0000000,0.0000000,0.0000000,8.00,38.3977470,-110.7923431,1357.0999756,0.0,93.6,0.9,0.0,0.0,876,143,0,0,863.30,36.88,33.81,# data time:2750,pm2.5:6.445,pm10:5.704,O2:0.000,NO2:0.028,SO2:0.000,NH3:2.820
13:05:19,0,0,0,0,0,2700,2200,1,0,0,0,514,0,0,0,0,0.0000000,0.0000000,0.0000000,0.0000000,8.00,38.3977470,-110.7923431,1357.0999756,0.0,90.6,0.9,0.0,0.0,876,137,0,0,863.31,37.60,33.88,# data time:2750,pm2.5:6.445,pm10:5.704,O2:0.000,NO2:0.028,SO2:0.000,NH3:2.820
13:05:20,0,0,0,0,0,2700,2200,1,0,0,0,515,0,0,0,0,0.0000000,0.0000000,0.0000000,0.0000000,8.00,38.3977470,-110.7923431,1357.0999756,0.0,100.0,0.9,0.0,0.0,876,143,0,0,863.36,37.93,33.97,# data time:2760,pm2.5:6.445,pm10:5.704,O2:0.000,NO2:0.000,SO2:0.000,NH3:2.820
13:05:21,0,0,0,0,0,2700,2200,1,0,0,0,515,0,0,0,0,0.0000000,0.0000000,0.0000000,0.0000000,8.00,38.3977470,-110.7923431,1357.0999756,0.0,100.0,0.9,0.0,0.0,876,143,0,0,863.35,37.63,34.08,# data time:2760,pm2.5:6.445,pm10:5.704,O2:0.000,NO2:0.000,SO2:0.000,NH3:2.820
13:05:22,0,0,0,0,0,2700,2200,1,0,0,0,514,0,0,0,0,0.0000000,0.0000000,0.0000000,0.0000000,8.00,38.3977470,-110.7923431,1357.0999756,0.0,276.3,0.9,0.0,0.0,876,144,0,0,863.33,37.40,34.19,# data time:2760,pm2.5:6.445,pm10:5.704,O2:0.000,NO2:0.000,SO2:0.000,NH3:2.820
13:05:23,0,0,0,0,0,2700,2200,1,0,0,0,515,0,0,0,0,0.0000000,0.0000000,0.0000000,0.0000000,8.00,38.3977470,-110.7923431,1357.0999756,0.0,270.6,0.9,0.0,0.0,876,147,0,0,863.31,37.31,34.25,# data time:2760,pm2.5:6.445,pm10:5.704,O2:0.000,NO2:0.000,SO2:0.000,NH3:2.820
13:05:24,0,0,0,0,0,2700,2200,1,0,0,0,515,0,0,0,0,0.0000000,0.0000000,0.0000000,0.0000000,8.00,38.3977470,-110.7923431,1357.0999756,0.0,292.0,0.9,0.0,0.0,876,148,0,0,863.27,37.55,34.14,# data time:2760,pm2.5:6.445,pm10:5.704,O2:0.000,NO2:0.000,SO2:0.000,NH3:2.820
13:05:25,0,0,0,0,0,2700,2200,1,0,0,0,516,0,0,0,0,0.0000000,0.0000000,0.0000000,0.0000000,8.00,38.3977470,-110.7923431,1357.0999756,0.0,275.2,0.9,0.0,0.0,876,144,0,0,863.25,37.74,34.06,# data time:2760,pm2.5:6.445,pm10:5.704,O2:0.000,NO2:0.000,SO2:0.000,NH3:2.820
13:05:26,0,0,0,0,0,2700,2200,1,0,0,0,515,0,0,0,0,0.0000000,0.0000000,0.0000000,0.0000000,8.00,38.3977470,-110.7923431,1357.0999756,0.0,269.1,0.9,0.0,0.0,876,143,0,0,863.25,37.95,34.06,# data time:2760,pm2.5:6.445,pm10:5.704,O2:0.000,NO2:0.000,SO2:0.000,NH3:2.820
13:05:27,0,0,0,0,0,2700,2200,1,0,0,0,515,0,0,0,0,0.0000000,0.0000000,0.0000000,0.0000000,8.00,38.3977470,-110.7923431,1357.0999756,0.0,358.7,0.9,0.0,0.0,876,144,0,0,863.25,38.22,34.17,# data time:2760,pm2.5:6.445,pm10:5.704,O2:0.000,NO2:0.000,SO2:0.000,NH3:2.820
13:05:28,0,0,0,0,0,2700,2200,1,0,0,0,514,0,0,0,0,0.0000000,0.0000000,0.0000000,0.0000000,8.00,38.3977470,-110.7923431,1357.0999756,0.0,19.2,0.9,0.0,0.0,876,144,0,0,863.31,38.54,34.27,# data time:2760,pm2.5:6.445,pm10:5.704,O2:0.000,NO2:0.000,SO2:0.000,NH3:2.820
13:05:29,0,0,0,0,0,2700,2200,1,0,0,0,515,0,0,0,0,0.0000000,0.0000000,0.0000000,0.0000000,8.00,38.3977470,-110.7923431,1357.0999756,0.0,43.7,0.9,0.0,0.0,876,153,0,0,863.31,38.62,34.36,# data time:2760,pm2.5:6.445,pm10:5.704,O2:0.000,NO2:0.000,SO2:0.000,NH3:2.820
13:05:30,0,0,0,0,0,2700,2200,1,0,0,0,514,0,0,0,0,0.0000000,0.0000000,0.0000000,0.0000000,8.00,38.3977470,-110.7923431,1357.0999756,0.0,44.3,0.9,0.0,0.0,876,150,0,0,863.24,38.50,34.38,# data time:2770,pm2.5:6.445,pm10:5.704,O2:0.000,NO2:0.010,SO2:0.000,NH3:3.273
13:05:31,0,0,0,0,0,2700,2200,1,0,0,0,514,0,0,0,0,0.0000000,0.0000000,0.0000000,0.0000000,8.00,38.3977470,-110.7923431,1357.0999756,0.0,301.4,0.9,0.0,0.0,876,166,0,0,863.08,38.41,34.22,# data time:2770,pm2.5:6.445,pm10:5.704,O2:0.000,NO2:0.010,SO2:0.000,NH3:3.273
13:05:32,0,0,0,0,0,2700,2200,1,0,0,0,514,0,0,0,0,0.0000000,0.0000000,0.0000000,0.0000000,8.00,38.3977470,-110.7923431,1357.0999756,0.1,182.8,0.9,0.0,0.0,876,188,0,0,863.27,38.61,33.91,# data time:2770,pm2.5:6.445,pm10:5.704,O2:0.000,NO2:0.010,SO2:0.000,NH3:3.273
13:05:33,0,0,0,0,0,2700,2200,1,0,0,0,514,0,0,0,0,0.0000000,0.0000000,0.0000000,0.0000000,8.00,38.3977470,-110.7923431,1357.0999756,0.0,91.2,0.9,0.0,0.0,876,196,0,0,863.30,38.90,33.85,# data time:2770,pm2.5:6.445,pm10:5.704,O2:0.000,NO2:0.010,SO2:0.000,NH3:3.273
13:05:34,0,0,0,0,0,2700,2200,1,0,0,0,515,0,0,0,0,0.0000000,0.0000000,0.0000000,0.0000000,8.00,38.3977470,-110.7923431,1357.0999756,0.0,60.5,0.9,0.0,0.0,876,190,0,0,863.38,38.79,33.62,# data time:2770,pm2.5:6.445,pm10:5.704,O2:0.000,NO2:0.010,SO2:0.000,NH3:3.273
13:05:35,0,0,0,0,0,2700,2200,1,0,0,0,515,0,0,0,0,0.0000000,0.0000000,0.0000000,0.0000000,8.00,38.3977470,-110.7923431,1357.0999756,0.0,217.8,0.9,0.0,0.0,876,181,0,0,863.29,38.57,33.36,# data time:2770,pm2.5:6.445,pm10:5.704,O2:0.000,NO2:0.010,SO2:0.000,NH3:3.273
13:05:36,0,0,0,0,0,2700,2200,1,0,0,0,515,0,0,0,0,0.0000000,0.0000000,0.0000000,0.0000000,8.00,38.3977470,-110.7923431,1357.0999756,0.0,160.7,0.9,0.0,0.0,876,179,0,0,863.35,38.48,33.14,# data time:2770,pm2.5:6.445,pm10:5.704,O2:0.000,NO2:0.010,SO2:0.000,NH3:3.273
13:05:37,0,0,0,0,0,2700,2200,1,0,0,0,514,0,0,0,0,0.0000000,0.0000000,0.0000000,0.0000000,8.00,38.3977470,-110.7923431,1357.0999756,0.0,199.8,0.9,0.0,0.0,876,173,0,0,863.30,38.59,33.00,# data time:2770,pm2.5:6.445,pm10:5.704,O2:0.000,NO2:0.010,SO2:0.000,NH3:3.273
13:05:38,0,0,0,0,0,2700,2200,1,0,0,0,515,0,0,0,0,0.0000000,0.0000000,0.0000000,0.0000000,8.00,38.3977470,-110.7923431,1357.0999756,0.0,204.8,0.9,0.0,0.0,877,173,0,0,863.25,38.65,32.83,# data time:2770,pm2.5:6.445,pm10:5.704,O2:0.000,NO2:0.010,SO2:0.000,NH3:3.273
13:05:39,0,0,0,0,0,2700,2200,1,0,0,0,515,0,0,0,0,0.0000000,0.0000000,0.0000000,0.0000000,8.00,38.3977470,-110.7923431,1357.0999756,0.0,33.0,0.9,0.0,0.0,876,175,0,0,863.27,38.79,32.70,# data time:2770,pm2.5:6.445,pm10:5.704,O2:0.000,NO2:0.010,SO2:0.000,NH3:3.273
13:05:40,0,0,0,0,0,2700,2200,1,0,0,0,514,0,0,0,0,0.0000000,0.0000000,0.0000000,0.0000000,8.00,38.3977470,-110.7923431,1357.0999756,0.0,56.5,0.9,0.0,0.0,876,176,0,0,863.30,39.12,32.50,# data time:2780,pm2.5:6.445,pm10:5.704,O2:0.000,NO2:0.000,SO2:0.000,NH3:3.273
13:05:41,0,0,0,0,0,2700,2200,1,0,0,0,514,0,0,0,0,0.0000000,0.0000000,0.0000000,0.0000000,8.00,38.3977470,-110.7923431,1357.0999756,0.0,57.4,0.9,0.0,0.0,876,178,0,0,863.30,38.99,32.46,# data time:2780,pm2.5:6.445,pm10:5.704,O2:0.000,NO2:0.000,SO2:0.000,NH3:3.273
13:05:43,0,0,0,0,0,2700,2200,1,0,0,0,515,0,0,0,0,0.0000000,0.0000000,0.0000000,0.0000000,8.00,38.3977470,-110.7923431,1357.0999756,0.0,60.8,0.9,0.0,0.0,876,176,0,0,863.29,38.86,32.35,# data time:2780,pm2.5:6.445,pm10:5.704,O2:0.000,NO2:0.000,SO2:0.000,NH3:3.273
13:05:44,0,0,0,0,0,2700,2200,1,0,0,0,514,0,0,0,0,0.0000000,0.0000000,0.0000000,0.0000000,8.00,38.3977470,-110.7923431,1357.0999756,0.0,62.1,0.9,0.0,0.0,876,175,0,0,863.35,38.77,32.14,# data time:2780,pm2.5:6.445,pm10:5.704,O2:0.000,NO2:0.000,SO2:0.000,NH3:3.273
13:05:45,0,0,0,0,0,2700,2200,1,0,0,0,515,0,0,0,0,0.0000000,0.0000000,0.0000000,0.0000000,8.00,38.3977470,-110.7923431,1357.0999756,0.1,55.2,0.9,0.0,0.0,876,174,0,0,863.34,38.65,32.05,# data time:2780,pm2.5:6.445,pm10:5.704,O2:0.000,NO2:0.000,SO2:0.000,NH3:3.273
13:05:46,0,0,0,0,0,2700,2200,1,0,0,0,514,0,0,0,0,0.0000000,0.0000000,0.0000000,0.0000000,8.00,38.3977470,-110.7923431,1357.0999756,0.0,95.3,0.9,0.0,0.0,876,171,0,0,863.34,38.39,32.16,# data time:2780,pm2.5:6.445,pm10:5.704,O2:0.000,NO2:0.000,SO2:0.000,NH3:3.273
13:05:47,0,0,0,0,0,2700,2200,1,0,0,0,515,0,0,0,0,0.0000000,0.0000000,0.0000000,0.0000000,8.00,38.3977470,-110.7923431,1357.0999756,0.0,48.2,0.9,0.0,0.0,876,162,0,0,863.31,38.41,32.33,# data time:2780,pm2.5:6.445,pm10:5.704,O2:0.000,NO2:0.000,SO2:0.000,NH3:3.273
13:05:48,0,0,0,0,0,2700,2200,1,0,0,0,515,0,0,0,0,0.0000000,0.0000000,0.0000000,0.0000000,8.00,38.3977470,-110.7923431,1357.0999756,0.0,266.1,0.9,0.0,0.0,876,157,0,0,863.29,38.50,32.45,# data time:2780,pm2.5:6.445,pm10:5.704,O2:0.000,NO2:0.000,SO2:0.000,NH3:3.273
13:05:49,0,0,0,0,0,2700,2200,1,0,0,0,514,0,0,0,0,0.0000000,0.0000000,0.0000000,0.0000000,8.00,38.3977470,-110.7923431,1357.0999756,0.0,266.1,0.9,0.0,0.0,876,154,0,0,863.31,38.51,32.60,# data time:2780,pm2.5:6.445,pm10:5.704,O2:0.000,NO2:0.000,SO2:0.000,NH3:3.273
13:05:50,0,0,0,0,0,2700,2200,1,0,0,0,515,0,0,0,0,0.0000000,0.0000000,0.0000000,0.0000000,8.00,38.3977470,-110.7923431,1357.0999756,0.0,266.1,0.9,0.0,0.0,876,153,0,0,863.33,38.65,32.65,# data time:2790,pm2.5:6.445,pm10:5.704,O2:0.000,NO2:0.010,SO2:0.000,NH3:3.273
13:05:51,0,0,0,0,0,2700,2200,1,0,0,0,515,0,0,0,0,0.0000000,0.0000000,0.0000000,0.0000000,8.00,38.3977470,-110.7923431,1357.0999756,0.0,15.4,0.9,0.0,0.0,876,152,0,0,863.29,38.53,32.80,# data time:2790,pm2.5:6.445,pm10:5.704,O2:0.000,NO2:0.010,SO2:0.000,NH3:3.273
13:05:52,0,0,0,0,0,2700,2200,1,0,0,0,514,0,0,0,0,0.0000000,0.0000000,0.0000000,0.0000000,8.00,38.3977470,-110.7923431,1357.0999756,0.0,113.3,0.9,0.0,0.0,876,155,0,0,863.32,38.16,32.95,# data time:2790,pm2.5:6.445,pm10:5.704,O2:0.000,NO2:0.010,SO2:0.000,NH3:3.273
13:05:53,0,0,0,0,0,2700,2200,1,0,0,0,515,0,0,0,0,0.0000000,0.0000000,0.0000000,0.0000000,8.00,38.3977470,-110.7923431,1357.0999756,0.0,89.3,0.9,0.0,0.0,876,150,0,0,863.31,38.13,33.05,# data time:2790,pm2.5:6.445,pm10:5.704,O2:0.000,NO2:0.010,SO2:0.000,NH3:3.273
13:05:54,0,0,0,0,0,2700,2200,1,0,0,0,515,0,0,0,0,0.0000000,0.0000000,0.0000000,0.0000000,8.00,38.3977470,-110.7923431,1357.0999756,0.0,111.3,0.9,0.0,0.0,876,153,0,0,863.39,38.36,33.12,# data time:2790,pm2.5:6.445,pm10:5.704,O2:0.000,NO2:0.010,SO2:0.000,NH3:3.273
13:05:55,0,0,0,0,0,2700,2200,1,0,0,0,515,0,0,0,0,0.0000000,0.0000000,0.0000000,0.0000000,8.00,38.3977470,-110.7923431,1357.0999756,0.0,92.5,0.9,0.0,0.0,876,159,0,0,863.34,38.71,33.16,# data time:2790,pm2.5:6.445,pm10:5.704,O2:0.000,NO2:0.010,SO2:0.000,NH3:3.273
13:05:56,0,0,0,0,0,2700,2200,1,0,0,0,516,0,0,0,0,0.0000000,0.0000000,0.0000000,0.0000000,8.00,38.3977470,-110.7923431,1357.0999756,0.0,102.2,0.9,0.0,0.0,876,164,0,0,863.39,39.40,33.19,# data time:2790,pm2.5:6.445,pm10:5.704,O2:0.000,NO2:0.010,SO2:0.000,NH3:3.273
13:05:57,0,0,0,0,0,2700,2200,1,0,0,0,514,0,0,0,0,0.0000000,0.0000000,0.0000000,0.0000000,8.00,38.3977470,-110.7923431,1357.0999756,0.0,190.7,0.9,0.0,0.0,876,155,0,0,863.43,39.95,33.22,# data time:2790,pm2.5:6.445,pm10:5.704,O2:0.000,NO2:0.010,SO2:0.000,NH3:3.273
13:05:58,0,0,0,0,0,2700,2200,1,0,0,0,514,0,0,0,0,0.0000000,0.0000000,0.0000000,0.0000000,8.00,38.3977470,-110.7923431,1357.0999756,0.0,269.7,0.9,0.0,0.0,876,157,0,0,863.36,40.15,33.28,# data time:2790,pm2.5:6.445,pm10:5.704,O2:0.000,NO2:0.010,SO2:0.000,NH3:3.273
13:05:59,0,0,0,0,0,2700,2200,1,0,0,0,514,0,0,0,0,0.0000000,0.0000000,0.0000000,0.0000000,8.00,38.3977470,-110.7923431,1357.0999756,0.0,289.0,0.9,0.0,0.0,876,147,0,0,863.46,40.19,33.28,# data time:2790,pm2.5:6.445,pm10:5.704,O2:0.000,NO2:0.010,SO2:0.000,NH3:3.273
13:06:00,0,0,0,0,0,2700,2200,1,0,0,0,515,0,0,0,0,0.0000000,0.0000000,0.0000000,0.0000000,8.00,38.3977470,-110.7923431,1357.0999756,0.0,278.2,0.9,0.0,0.0,876,155,0,0,863.41,39.92,33.31,# data time:2800,pm2.5:6.445,pm10:5.704,O2:0.000,NO2:0.046,SO2:0.000,NH3:3.273
13:06:01,0,0,0,0,0,2700,2200,1,0,0,0,514,0,0,0,0,0.0000000,0.0000000,0.0000000,0.0000000,8.00,38.3977470,-110.7923431,1357.0999756,0.0,285.2,0.9,0.0,0.0,876,157,0,0,863.42,39.95,33.29,# data time:2800,pm2.5:6.445,pm10:5.704,O2:0.000,NO2:0.046,SO2:0.000,NH3:3.273
13:06:02,0,0,0,0,0,2700,2200,1,0,0,0,515,0,0,0,0,0.0000000,0.0000000,0.0000000,0.0000000,8.00,38.3977470,-110.7923431,1357.0999756,0.0,289.0,0.9,0.0,0.0,876,158,0,0,863.46,40.44,33.08,# data time:2800,pm2.5:6.445,pm10:5.704,O2:0.000,NO2:0.046,SO2:0.000,NH3:3.273
13:06:03,0,0,0,0,0,2700,2200,1,0,0,0,515,0,0,0,0,0.0000000,0.0000000,0.0000000,0.0000000,8.00,38.3977470,-110.7923431,1357.0999756,0.0,355.4,0.9,0.0,0.0,876,160,0,0,863.45,40.63,32.97,# data time:2800,pm2.5:6.445,pm10:5.704,O2:0.000,NO2:0.046,SO2:0.000,NH3:3.273
13:06:04,0,0,0,0,0,2700,2200,1,0,0,0,515,0,0,0,0,0.0000000,0.0000000,0.0000000,0.0000000,8.00,38.3977470,-110.7923431,1357.0999756,0.0,111.3,0.9,0.0,0.0,876,156,0,0,863.40,40.53,32.91,# data time:2800,pm2.5:6.445,pm10:5.704,O2:0.000,NO2:0.046,SO2:0.000,NH3:3.273
13:06:05,0,0,0,0,0,2700,2200,1,0,0,0,515,0,0,0,0,0.0000000,0.0000000,0.0000000,0.0000000,8.00,38.3977470,-110.7923431,1357.0999756,0.0,119.5,0.9,0.0,0.0,876,159,0,0,863.45,40.63,32.82,# data time:2800,pm2.5:6.445,pm10:5.704,O2:0.000,NO2:0.046,SO2:0.000,NH3:3.273
13:06:06,0,0,0,0,0,2700,2200,1,0,0,0,515,0,0,0,0,0.0000000,0.0000000,0.0000000,0.0000000,8.00,38.3977470,-110.7923431,1357.0999756,0.0,96.8,0.9,0.0,0.0,876,171,0,0,863.41,40.77,32.63,# data time:2800,pm2.5:6.445,pm10:5.704,O2:0.000,NO2:0.046,SO2:0.000,NH3:3.273
13:06:07,0,0,0,0,0,2700,2200,1,0,0,0,515,0,0,0,0,0.0000000,0.0000000,0.0000000,0.0000000,8.00,38.3977470,-110.7923431,1357.0999756,0.0,96.9,0.9,0.0,0.0,876,170,0,0,863.40,40.57,32.58,# data time:2800,pm2.5:6.445,pm10:5.704,O2:0.000,NO2:0.046,SO2:0.000,NH3:3.273
13:06:09,0,0,0,0,0,2700,2200,1,0,0,0,514,0,0,0,0,0.0000000,0.0000000,0.0000000,0.0000000,8.00,38.3977470,-110.7923431,1357.0999756,0.0,96.8,0.9,0.0,0.0,876,173,0,0,863.30,40.50,32.52,# data time:2800,pm2.5:6.445,pm10:5.704,O2:0.000,NO2:0.046,SO2:0.000,NH3:3.273
13:06:09,0,0,0,0,0,2700,2200,1,0,0,0,515,0,0,0,0,0.0000000,0.0000000,0.0000000,0.0000000,8.00,38.3977470,-110.7923431,1357.0999756,0.0,172.8,0.9,0.0,0.0,876,180,0,0,863.27,40.13,32.58,# data time:2810,pm2.5:6.445,pm10:5.704,O2:0.000,NO2:0.010,SO2:0.000,NH3:3.273
13:06:11,0,0,0,0,0,2700,2200,1,0,0,0,515,0,0,0,0,0.0000000,0.0000000,0.0000000,0.0000000,8.00,38.3977470,-110.7923431,1357.0999756,0.0,324.3,0.9,0.0,0.0,876,179,0,0,863.33,40.02,32.59,# data time:2810,pm2.5:6.445,pm10:5.704,O2:0.000,NO2:0.010,SO2:0.000,NH3:3.273
13:06:12,0,0,0,0,0,2700,2200,1,0,0,0,514,0,0,0,0,0.0000000,0.0000000,0.0000000,0.0000000,8.00,38.3977470,-110.7923431,1357.0999756,0.0,328.5,0.9,0.0,0.0,876,175,0,0,863.35,40.04,32.63,# data time:2810,pm2.5:6.445,pm10:5.704,O2:0.000,NO2:0.010,SO2:0.000,NH3:3.273
13:06:13,0,0,0,0,0,2700,2200,1,0,0,0,514,0,0,0,0,0.0000000,0.0000000,0.0000000,0.0000000,8.00,38.3977470,-110.7923431,1357.0999756,0.0,342.0,0.9,0.0,0.0,876,173,0,0,863.27,39.93,32.66,# data time:2810,pm2.5:6.445,pm10:5.704,O2:0.000,NO2:0.010,SO2:0.000,NH3:3.273
13:06:14,0,0,0,0,0,2700,2200,1,0,0,0,515,0,0,0,0,0.0000000,0.0000000,0.0000000,0.0000000,8.00,38.3977470,-110.7923431,1357.0999756,0.0,276.7,0.9,0.0,0.0,876,171,0,0,863.36,40.19,32.81,# data time:2810,pm2.5:6.445,pm10:5.704,O2:0.000,NO2:0.010,SO2:0.000,NH3:3.273
13:06:15,0,0,0,0,0,2700,2200,1,0,0,0,514,0,0,0,0,0.0000000,0.0000000,0.0000000,0.0000000,8.00,38.3977470,-110.7923431,1357.0999756,0.0,358.6,0.9,0.0,0.0,876,171,0,0,863.34,39.98,32.92,# data time:2810,pm2.5:6.445,pm10:5.704,O2:0.000,NO2:0.010,SO2:0.000,NH3:3.273
13:06:16,0,0,0,0,0,2700,2200,1,0,0,0,515,0,0,0,0,0.0000000,0.0000000,0.0000000,0.0000000,8.00,38.3977470,-110.7923431,1357.0999756,0.0,103.7,0.9,0.0,0.0,875,162,0,0,863.40,39.90,33.04,# data time:2810,pm2.5:6.445,pm10:5.704,O2:0.000,NO2:0.010,SO2:0.000,NH3:3.273
13:06:17,0,0,0,0,0,2700,2200,1,0,0,0,515,0,0,0,0,0.0000000,0.0000000,0.0000000,0.0000000,8.00,38.3977470,-110.7923431,1357.0999756,0.0,110.1,0.9,0.0,0.0,876,166,0,0,863.34,39.99,33.09,# data time:2810,pm2.5:6.445,pm10:5.704,O2:0.000,NO2:0.010,SO2:0.000,NH3:3.273
13:06:18,0,0,0,0,0,2700,2200,1,0,0,0,514,0,0,0,0,0.0000000,0.0000000,0.0000000,0.0000000,8.00,38.3977470,-110.7923431,1357.0999756,0.0,76.7,0.9,0.0,0.0,876,181,0,0,863.44,39.92,33.04,# data time:2810,pm2.5:6.445,pm10:5.704,O2:0.000,NO2:0.010,SO2:0.000,NH3:3.273
13:06:19,0,0,0,0,0,2700,2200,1,0,0,0,515,0,0,0,0,0.0000000,0.0000000,0.0000000,0.0000000,8.00,38.3977470,-110.7923431,1357.0999756,0.0,89.4,0.9,0.0,0.0,876,182,0,0,863.42,40.24,32.94,# data time:2810,pm2.5:6.445,pm10:5.704,O2:0.000,NO2:0.010,SO2:0.000,NH3:3.273
13:06:20,0,0,0,0,0,2700,2200,1,0,0,0,515,0,0,0,0,0.0000000,0.0000000,0.0000000,0.0000000,8.00,38.3977470,-110.7923431,1357.0999756,0.0,108.0,0.9,0.0,0.0,876,172,0,0,863.44,40.10,33.01,# data time:2820,pm2.5:6.445,pm10:5.704,O2:0.000,NO2:0.000,SO2:0.000,NH3:3.725
13:06:21,0,0,0,0,0,2700,2200,1,0,0,0,514,0,0,0,0,0.0000000,0.0000000,0.0000000,0.0000000,8.00,38.3977470,-110.7923431,1357.0999756,0.0,165.9,0.9,0.0,0.0,876,170,0,0,863.37,39.60,33.12,# data time:2820,pm2.5:6.445,pm10:5.704,O2:0.000,NO2:0.000,SO2:0.000,NH3:3.725
13:06:22,0,0,0,0,0,2700,2200,1,0,0,0,514,0,0,0,0,0.0000000,0.0000000,0.0000000,0.0000000,8.00,38.3977470,-110.7923431,1357.0999756,0.0,248.9,0.9,0.0,0.0,876,169,0,0,863.29,39.54,33.09,# data time:2820,pm2.5:6.445,pm10:5.704,O2:0.000,NO2:0.000,SO2:0.000,NH3:3.725
13:06:23,0,0,0,0,0,2700,2200,1,0,0,0,515,0,0,0,0,0.0000000,0.0000000,0.0000000,0.0000000,8.00,38.3977470,-110.7923431,1357.0999756,0.0,268.9,0.9,0.0,0.0,876,170,0,0,863.41,39.34,33.02,# data time:2820,pm2.5:6.445,pm10:5.704,O2:0.000,NO2:0.000,SO2:0.000,NH3:3.725
13:06:24,0,0,0,0,0,2700,2200,1,0,0,0,515,0,0,0,0,0.0000000,0.0000000,0.0000000,0.0000000,8.00,38.3977470,-110.7923431,1357.0999756,0.0,278.2,0.9,0.0,0.0,876,172,0,0,863.37,39.49,33.09,# data time:2820,pm2.5:6.445,pm10:5.704,O2:0.000,NO2:0.000,SO2:0.000,NH3:3.725
13:06:25,0,0,0,0,0,2700,2200,1,0,0,0,515,0,0,0,0,0.0000000,0.0000000,0.0000000,0.0000000,8.00,38.3977470,-110.7923431,1357.0999756,0.0,241.5,0.9,0.0,0.0,876,164,0,0,863.35,39.40,33.19,# data time:2820,pm2.5:6.445,pm10:5.704,O2:0.000,NO2:0.000,SO2:0.000,NH3:3.725
13:06:26,0,0,0,0,0,2700,2200,1,0,0,0,515,0,0,0,0,0.0000000,0.0000000,0.0000000,0.0000000,8.00,38.3977470,-110.7923431,1357.0999756,0.0,261.0,0.9,0.0,0.0,876,162,0,0,863.37,39.32,33.29,# data time:2820,pm2.5:6.445,pm10:5.704,O2:0.000,NO2:0.000,SO2:0.000,NH3:3.725
13:06:27,0,0,0,0,0,2700,2200,1,0,0,0,515,0,0,0,0,0.0000000,0.0000000,0.0000000,0.0000000,8.00,38.3977470,-110.7923431,1357.0999756,0.0,14.2,0.9,0.0,0.0,876,162,0,0,863.36,39.43,33.38,# data time:2820,pm2.5:6.445,pm10:5.704,O2:0.000,NO2:0.000,SO2:0.000,NH3:3.725
13:06:28,0,0,0,0,0,2700,2200,1,0,0,0,514,0,0,0,0,0.0000000,0.0000000,0.0000000,0.0000000,8.00,38.3977470,-110.7923431,1357.0999756,0.0,93.8,0.9,0.0,0.0,876,161,0,0,863.37,39.52,33.45,# data time:2820,pm2.5:6.445,pm10:5.704,O2:0.000,NO2:0.000,SO2:0.000,NH3:3.725
13:06:29,0,0,0,0,0,2700,2200,1,0,0,0,515,0,0,0,0,0.0000000,0.0000000,0.0000000,0.0000000,8.00,38.3977470,-110.7923431,1357.0999756,0.0,70.1,0.9,0.0,0.0,876,157,0,0,863.39,39.76,33.46,# data time:2820,pm2.5:6.445,pm10:5.704,O2:0.000,NO2:0.000,SO2:0.000,NH3:3.725
13:06:30,0,0,0,0,0,2700,2200,1,0,0,0,514,0,0,0,0,0.0000000,0.0000000,0.0000000,0.0000000,8.00,38.3977470,-110.7923431,1357.0999756,0.0,97.8,0.9,0.0,0.0,876,161,0,0,863.40,39.89,33.48,# data time:2830,pm2.5:6.445,pm10:5.704,O2:0.000,NO2:0.028,SO2:0.000,NH3:3.725
13:06:31,0,0,0,0,0,2700,2200,1,0,0,0,515,0,0,0,0,0.0000000,0.0000000,0.0000000,0.0000000,8.00,38.3977470,-110.7923431,1357.0999756,0.0,90.9,0.9,0.0,0.0,876,166,0,0,863.45,39.41,33.37,# data time:2830,pm2.5:6.445,pm10:5.704,O2:0.000,NO2:0.028,SO2:0.000,NH3:3.725
13:06:32,0,0,0,0,0,2700,2200,1,0,0,0,515,0,0,0,0,0.0000000,0.0000000,0.0000000,0.0000000,8.00,38.3977470,-110.7923431,1357.0999756,0.0,101.6,0.9,0.0,0.0,876,165,0,0,863.39,39.06,33.24,# data time:2830,pm2.5:6.445,pm10:5.704,O2:0.000,NO2:0.028,SO2:0.000,NH3:3.725
13:06:33,0,0,0,0,0,2700,2200,1,0,0,0,515,0,0,0,0,0.0000000,0.0000000,0.0000000,0.0000000,8.00,38.3977470,-110.7923431,1357.0999756,0.0,183.3,0.9,0.0,0.0,876,158,0,0,863.40,39.20,33.26,# data time:2830,pm2.5:6.445,pm10:5.704,O2:0.000,NO2:0.028,SO2:0.000,NH3:3.725
13:06:34,0,0,0,0,0,2700,2200,1,0,0,0,514,0,0,0,0,0.0000000,0.0000000,0.0000000,0.0000000,8.00,38.3977470,-110.7923431,1357.0999756,0.0,282.4,0.9,0.0,0.0,876,159,0,0,863.40,39.11,33.30,# data time:2830,pm2.5:6.445,pm10:5.704,O2:0.000,NO2:0.028,SO2:0.000,NH3:3.725
13:06:36,0,0,0,0,0,2700,2200,1,0,0,0,514,0,0,0,0,0.0000000,0.0000000,0.0000000,0.0000000,8.00,38.3977470,-110.7923431,1357.0999756,0.0,276.3,0.9,0.0,0.0,876,159,0,0,863.36,38.65,33.34,# data time:2830,pm2.5:6.445,pm10:5.704,O2:0.000,NO2:0.028,SO2:0.000,NH3:3.725
13:06:37,0,0,0,0,0,2700,2200,1,0,0,0,515,0,0,0,0,0.0000000,0.0000000,0.0000000,0.0000000,8.00,38.3977470,-110.7923431,1357.0999756,0.0,258.7,0.9,0.0,0.0,876,157,0,0,863.34,38.19,33.42,# data time:2830,pm2.5:6.445,pm10:5.704,O2:0.000,NO2:0.028,SO2:0.000,NH3:3.725
13:06:38,0,0,0,0,0,2700,2200,1,0,0,0,515,0,0,0,0,0.0000000,0.0000000,0.0000000,0.0000000,8.00,38.3977470,-110.7923431,1357.0999756,0.0,276.0,0.9,0.0,0.0,876,153,0,0,863.39,37.84,33.50,# data time:2830,pm2.5:6.445,pm10:5.704,O2:0.000,NO2:0.028,SO2:0.000,NH3:3.725
13:06:39,0,0,0,0,0,2700,2200,1,0,0,0,515,0,0,0,0,0.0000000,0.0000000,0.0000000,0.0000000,8.00,38.3977470,-110.7923431,1357.0999756,0.0,270.4,0.9,0.0,0.0,875,154,0,0,863.32,37.72,33.59,# data time:2830,pm2.5:6.445,pm10:5.704,O2:0.000,NO2:0.028,SO2:0.000,NH3:3.725
13:06:40,0,0,0,0,0,2700,2200,1,0,0,0,515,0,0,0,0,0.0000000,0.0000000,0.0000000,0.0000000,8.00,38.3977470,-110.7923431,1357.0999756,0.0,8.6,0.9,0.0,0.0,876,147,0,0,863.27,37.16,33.65,# data time:2840,pm2.5:6.445,pm10:5.704,O2:0.000,NO2:0.000,SO2:0.000,NH3:3.725
13:06:41,0,0,0,0,0,2700,2200,1,0,0,0,515,0,0,0,0,0.0000000,0.0000000,0.0000000,0.0000000,8.00,38.3977470,-110.7923431,1357.0999756,0.0,63.8,0.9,0.0,0.0,876,151,0,0,863.32,37.35,33.72,# data time:2840,pm2.5:6.445,pm10:5.704,O2:0.000,NO2:0.000,SO2:0.000,NH3:3.725
13:06:42,0,0,0,0,0,2700,2200,1,0,0,0,516,0,0,0,0,0.0000000,0.0000000,0.0000000,0.0000000,8.00,38.3977470,-110.7923431,1357.0999756,0.0,63.8,0.9,0.0,0.0,876,152,0,0,863.32,37.37,33.77,# data time:2840,pm2.5:6.445,pm10:5.704,O2:0.000,NO2:0.000,SO2:0.000,NH3:3.725
13:06:43,0,0,0,0,0,2700,2200,1,0,0,0,514,0,0,0,0,0.0000000,0.0000000,0.0000000,0.0000000,8.00,38.3977470,-110.7923431,1357.0999756,0.0,107.4,0.9,0.0,0.0,876,150,0,0,863.38,38.03,33.98,# data time:2840,pm2.5:6.445,pm10:5.704,O2:0.000,NO2:0.000,SO2:0.000,NH3:3.725
13:06:44,0,0,0,0,0,2700,2200,1,0,0,0,515,0,0,0,0,0.0000000,0.0000000,0.0000000,0.0000000,8.00,38.3977470,-110.7923431,1357.0999756,0.0,91.6,0.9,0.0,0.0,876,147,0,0,863.33,37.61,34.13,# data time:2840,pm2.5:6.445,pm10:5.704,O2:0.000,NO2:0.000,SO2:0.000,NH3:3.725
13:06:45,0,0,0,0,0,2700,2200,1,0,0,0,514,0,0,0,0,0.0000000,0.0000000,0.0000000,0.0000000,8.00,38.3977470,-110.7923431,1357.0999756,0.0,171.7,0.9,0.0,0.0,876,147,0,0,863.33,37.02,34.20,# data time:2840,pm2.5:6.445,pm10:5.704,O2:0.000,NO2:0.000,SO2:0.000,NH3:3.725
13:06:46,0,0,0,0,0,2700,2200,1,0,0,0,515,0,0,0,0,0.0000000,0.0000000,0.0000000,0.0000000,8.00,38.3977470,-110.7923431,1357.0999756,0.0,215.5,0.9,0.0,0.0,876,141,0,0,863.36,37.38,34.29,# data time:2840,pm2.5:6.445,pm10:5.704,O2:0.000,NO2:0.000,SO2:0.000,NH3:3.725
13:06:47,0,0,0,0,0,2700,2200,1,0,0,0,515,0,0,0,0,0.0000000,0.0000000,0.0000000,0.0000000,8.00,38.3977470,-110.7923431,1357.0999756,0.0,217.1,0.9,0.0,0.0,876,138,0,0,863.31,37.81,34.30,# data time:2840,pm2.5:6.445,pm10:5.704,O2:0.000,NO2:0.000,SO2:0.000,NH3:3.725
13:06:48,0,0,0,0,0,2700,2200,1,0,0,0,514,0,0,0,0,0.0000000,0.0000000,0.0000000,0.0000000,8.00,38.3977470,-110.7923431,1357.0999756,0.0,219.0,0.9,0.0,0.0,876,140,0,0,863.34,37.70,34.34,# data time:2840,pm2.5:6.445,pm10:5.704,O2:0.000,NO2:0.000,SO2:0.000,NH3:3.725
13:06:49,0,0,0,0,0,2700,2200,1,0,0,0,515,0,0,0,0,0.0000000,0.0000000,0.0000000,0.0000000,8.00,38.3977470,-110.7923431,1357.0999756,0.0,203.7,0.9,0.0,0.0,876,137,0,0,863.35,37.61,34.36,# data time:2840,pm2.5:6.445,pm10:5.704,O2:0.000,NO2:0.000,SO2:0.000,NH3:3.725
13:06:50,0,0,0,0,0,2700,2200,1,0,0,0,514,0,0,0,0,0.0000000,0.0000000,0.0000000,0.0000000,8.00,38.3977470,-110.7923431,1357.0999756,0.0,219.8,0.9,0.0,0.0,876,140,0,0,863.31,37.54,34.17,# data time:2850,pm2.5:6.445,pm10:5.704,O2:0.000,NO2:0.028,SO2:0.000,NH3:3.952
13:06:51,0,0,0,0,0,2700,2200,1,0,0,0,514,0,0,0,0,0.0000000,0.0000000,0.0000000,0.0000000,8.00,38.3977470,-110.7923431,1357.0999756,0.0,41.7,0.9,0.0,0.0,876,140,0,0,863.29,37.35,34.24,# data time:2850,pm2.5:6.445,pm10:5.704,O2:0.000,NO2:0.028,SO2:0.000,NH3:3.952
13:06:52,0,0,0,0,0,2700,2200,1,0,0,0,515,0,0,0,0,0.0000000,0.0000000,0.0000000,0.0000000,8.00,38.3977470,-110.7923431,1357.0999756,0.0,31.4,0.9,0.0,0.0,876,141,0,0,863.28,37.29,34.39,# data time:2850,pm2.5:6.445,pm10:5.704,O2:0.000,NO2:0.028,SO2:0.000,NH3:3.952
13:06:53,0,0,0,0,0,2700,2200,1,0,0,0,515,0,0,0,0,0.0000000,0.0000000,0.0000000,0.0000000,8.00,38.3977470,-110.7923431,1357.0999756,0.0,40.8,0.9,0.0,0.0,876,139,0,0,863.32,36.99,34.52,# data time:2850,pm2.5:6.445,pm10:5.704,O2:0.000,NO2:0.028,SO2:0.000,NH3:3.952
13:06:54,0,0,0,0,0,2700,2200,1,0,0,0,515,0,0,0,0,0.0000000,0.0000000,0.0000000,0.0000000,8.00,38.3977470,-110.7923431,1357.0999756,0.0,35.7,0.9,0.0,0.0,876,142,0,0,863.35,36.68,34.59,# data time:2850,pm2.5:6.445,pm10:5.704,O2:0.000,NO2:0.028,SO2:0.000,NH3:3.952
13:06:55,0,0,0,0,0,2700,2200,1,0,0,0,515,0,0,0,0,0.0000000,0.0000000,0.0000000,0.0000000,8.00,38.3977470,-110.7923431,1357.0999756,0.0,37.2,0.9,0.0,0.0,876,151,0,0,863.29,36.80,34.64,# data time:2850,pm2.5:6.445,pm10:5.704,O2:0.000,NO2:0.028,SO2:0.000,NH3:3.952
13:06:56,0,0,0,0,0,2700,2200,1,0,0,0,514,0,0,0,0,0.0000000,0.0000000,0.0000000,0.0000000,8.00,38.3977470,-110.7923431,1357.0999756,0.0,39.6,0.9,0.0,0.0,876,155,0,0,863.29,36.99,34.70,# data time:2850,pm2.5:6.445,pm10:5.704,O2:0.000,NO2:0.028,SO2:0.000,NH3:3.952
13:06:57,0,0,0,0,0,2700,2200,1,0,0,0,514,0,0,0,0,0.0000000,0.0000000,0.0000000,0.0000000,8.00,38.3977470,-110.7923431,1357.0999756,0.0,199.2,0.9,0.0,0.0,876,158,0,0,863.33,36.64,34.76,# data time:2850,pm2.5:6.445,pm10:5.704,O2:0.000,NO2:0.028,SO2:0.000,NH3:3.952
13:06:58,0,0,0,0,0,2700,2200,1,0,0,0,515,0,0,0,0,0.0000000,0.0000000,0.0000000,0.0000000,8.00,38.3977470,-110.7923431,1357.0999756,0.0,219.5,0.9,0.0,0.0,876,153,0,0,863.35,36.62,34.79,# data time:2850,pm2.5:6.445,pm10:5.704,O2:0.000,NO2:0.028,SO2:0.000,NH3:3.952
13:06:59,0,0,0,0,0,2700,2200,1,0,0,0,515,0,0,0,0,0.0000000,0.0000000,0.0000000,0.0000000,8.00,38.3977470,-110.7923431,1357.0999756,0.0,204.9,0.9,0.0,0.0,876,158,0,0,863.35,37.00,34.80,# data time:2850,pm2.5:6.445,pm10:5.704,O2:0.000,NO2:0.028,SO2:0.000,NH3:3.952
13:07:00,0,0,0,0,0,2700,2200,1,0,0,0,514,0,0,0,0,0.0000000,0.0000000,0.0000000,0.0000000,8.00,38.3977470,-110.7923431,1357.0999756,0.0,216.5,0.9,0.0,0.0,876,158,0,0,863.36,37.57,34.74,# data time:2860,pm2.5:5.640,pm10:4.991,O2:0.000,NO2:0.010,SO2:0.000,NH3:4.178
13:07:01,0,0,0,0,0,2700,2200,1,0,0,0,514,0,0,0,0,0.0000000,0.0000000,0.0000000,0.0000000,8.00,38.3977470,-110.7923431,1357.0999756,0.0,206.1,0.9,0.0,0.0,876,161,0,0,863.37,38.15,34.70,# data time:2860,pm2.5:5.640,pm10:4.991,O2:0.000,NO2:0.010,SO2:0.000,NH3:4.178
13:07:02,0,0,0,0,0,2700,2200,1,0,0,0,515,0,0,0,0,0.0000000,0.0000000,0.0000000,0.0000000,8.00,38.3977470,-110.7923431,1357.0999756,0.0,235.8,0.9,0.0,0.0,876,161,0,0,863.34,38.61,34.68,# data time:2860,pm2.5:5.640,pm10:4.991,O2:0.000,NO2:0.010,SO2:0.000,NH3:4.178
13:07:03,0,0,0,0,0,2700,2200,1,0,0,0,514,0,0,0,0,0.0000000,0.0000000,0.0000000,0.0000000,8.00,38.3977470,-110.7923431,1357.0999756,0.0,21.1,0.9,0.0,0.0,876,165,0,0,863.31,38.35,34.71,# data time:2860,pm2.5:5.640,pm10:4.991,O2:0.000,NO2:0.010,SO2:0.000,NH3:4.178
13:07:04,0,0,0,0,0,2700,2200,1,0,0,0,515,0,0,0,0,0.0000000,0.0000000,0.0000000,0.0000000,8.00,38.3977470,-110.7923431,1357.0999756,0.0,16.0,0.9,0.0,0.0,876,166,0,0,863.35,37.86,34.72,# data time:2860,pm2.5:5.640,pm10:4.991,O2:0.000,NO2:0.010,SO2:0.000,NH3:4.178
13:07:06,0,0,0,0,0,2700,2200,1,0,0,0,515,0,0,0,0,0.0000000,0.0000000,0.0000000,0.0000000,8.00,38.3977470,-110.7923431,1357.0999756,0.0,10.4,0.9,0.0,0.0,877,178,0,0,863.25,37.34,34.47,# data time:2860,pm2.5:5.640,pm10:4.991,O2:0.000,NO2:0.010,SO2:0.000,NH3:4.178
13:07:07,0,0,0,0,0,2700,2200,1,0,0,0,515,0,0,0,0,0.0000000,0.0000000,0.0000000,0.0000000,8.00,38.3977470,-110.7923431,1357.0999756,0.0,39.7,0.9,0.0,0.0,876,180,0,0,863.32,37.26,34.20,# data time:2860,pm2.5:5.640,pm10:4.991,O2:0.000,NO2:0.010,SO2:0.000,NH3:4.178
13:07:08,0,0,0,0,0,2700,2200,1,0,0,0,514,0,0,0,0,0.0000000,0.0000000,0.0000000,0.0000000,8.00,38.3977470,-110.7923431,1357.0999756,0.0,37.1,0.9,0.0,0.0,876,177,0,0,863.31,37.35,34.06,# data time:2860,pm2.5:5.640,pm10:4.991,O2:0.000,NO2:0.010,SO2:0.000,NH3:4.178
13:07:09,0,0,0,0,0,2700,2200,1,0,0,0,515,0,0,0,0,0.0000000,0.0000000,0.0000000,0.0000000,8.00,38.3977470,-110.7923431,1357.0999756,0.0,43.8,0.9,0.0,0.0,876,168,0,0,863.22,37.05,34.08,# data time:2860,pm2.5:5.640,pm10:4.991,O2:0.000,NO2:0.010,SO2:0.000,NH3:4.178
13:07:10,0,0,0,0,0,2700,2200,1,0,0,0,514,0,0,0,0,0.0000000,0.0000000,0.0000000,0.0000000,8.00,38.3977470,-110.7923431,1357.0999756,0.0,43.8,0.9,0.0,0.0,876,164,0,0,863.29,36.88,34.14,# data time:2870,pm2.5:6.445,pm10:5.704,O2:0.000,NO2:0.046,SO2:0.000,NH3:4.178
13:07:11,0,0,0,0,0,2700,2200,1,0,0,0,514,0,0,0,0,0.0000000,0.0000000,0.0000000,0.0000000,8.00,38.3977470,-110.7923431,1357.0999756,0.0,43.8,0.9,0.0,0.0,876,160,0,0,863.28,36.82,34.23,# data time:2870,pm2.5:6.445,pm10:5.704,O2:0.000,NO2:0.046,SO2:0.000,NH3:4.178
13:07:12,0,0,0,0,0,2700,2200,1,0,0,0,515,0,0,0,0,0.0000000,0.0000000,0.0000000,0.0000000,8.00,38.3977470,-110.7923431,1357.0999756,0.0,228.8,0.9,0.0,0.0,876,162,0,0,863.28,36.85,34.35,# data time:2870,pm2.5:6.445,pm10:5.704,O2:0.000,NO2:0.046,SO2:0.000,NH3:4.178
13:07:13,0,0,0,0,0,2700,2200,1,0,0,0,515,0,0,0,0,0.0000000,0.0000000,0.0000000,0.0000000,8.00,38.3977470,-110.7923431,1357.0999756,0.0,202.9,0.9,0.0,0.0,876,161,0,0,863.28,36.77,34.48,# data time:2870,pm2.5:6.445,pm10:5.704,O2:0.000,NO2:0.046,SO2:0.000,NH3:4.178
13:07:14,0,0,0,0,0,2700,2200,1,0,0,0,516,0,0,0,0,0.0000000,0.0000000,0.0000000,0.0000000,8.00,38.3977470,-110.7923431,1357.0999756,0.0,218.3,0.9,0.0,0.0,875,156,0,0,863.27,36.48,34.58,# data time:2870,pm2.5:6.445,pm10:5.704,O2:0.000,NO2:0.046,SO2:0.000,NH3:4.178
13:07:15,0,0,0,0,0,2700,2200,1,0,0,0,514,0,0,0,0,0.0000000,0.0000000,0.0000000,0.0000000,8.00,38.3977470,-110.7923431,1357.0999756,0.0,42.1,0.9,0.0,0.0,876,155,0,0,863.31,36.22,34.66,# data time:2870,pm2.5:6.445,pm10:5.704,O2:0.000,NO2:0.046,SO2:0.000,NH3:4.178
13:07:16,0,0,0,0,0,2700,2200,1,0,0,0,516,0,0,0,0,0.0000000,0.0000000,0.0000000,0.0000000,8.00,38.3977470,-110.7923431,1357.0999756,0.0,25.0,0.9,0.0,0.0,876,154,0,0,863.20,35.78,34.70,# data time:2870,pm2.5:6.445,pm10:5.704,O2:0.000,NO2:0.046,SO2:0.000,NH3:4.178
13:07:17,0,0,0,0,0,2700,2200,1,0,0,0,515,0,0,0,0,0.0000000,0.0000000,0.0000000,0.0000000,8.00,38.3977470,-110.7923431,1357.0999756,0.0,36.5,0.9,0.0,0.0,876,160,0,0,863.26,35.54,34.73,# data time:2870,pm2.5:6.445,pm10:5.704,O2:0.000,NO2:0.046,SO2:0.000,NH3:4.178
13:07:18,0,0,0,0,0,2700,2200,1,0,0,0,515,0,0,0,0,0.0000000,0.0000000,0.0000000,0.0000000,8.00,38.3977470,-110.7923431,1357.0999756,0.0,38.8,0.9,0.0,0.0,876,150,0,0,863.16,35.45,34.75,# data time:2870,pm2.5:6.445,pm10:5.704,O2:0.000,NO2:0.046,SO2:0.000,NH3:4.178
13:07:19,0,0,0,0,0,2700,2200,1,0,0,0,515,0,0,0,0,0.0000000,0.0000000,0.0000000,0.0000000,8.00,38.3977470,-110.7923431,1357.0999756,0.0,34.8,0.9,0.0,0.0,876,159,0,0,863.19,35.14,34.77,# data time:2870,pm2.5:6.445,pm10:5.704,O2:0.000,NO2:0.046,SO2:0.000,NH3:4.178
13:07:20,0,0,0,0,0,2700,2200,1,0,0,0,514,0,0,0,0,0.0000000,0.0000000,0.0000000,0.0000000,8.00,38.3977470,-110.7923431,1357.0999756,0.0,38.3,0.9,0.0,0.0,875,161,0,0,863.20,34.70,34.78,# data time:2880,pm2.5:6.445,pm10:5.704,O2:0.000,NO2:0.028,SO2:0.000,NH3:4.404
13:07:21,0,0,0,0,0,2700,2200,1,0,0,0,514,0,0,0,0,0.0000000,0.0000000,0.0000000,0.0000000,8.00,38.3977470,-110.7923431,1357.0999756,0.0,191.2,0.9,0.0,0.0,875,158,0,0,863.21,34.33,34.78,# data time:2880,pm2.5:6.445,pm10:5.704,O2:0.000,NO2:0.028,SO2:0.000,NH3:4.404
13:07:22,0,0,0,0,0,2700,2200,1,0,0,0,515,0,0,0,0,0.0000000,0.0000000,0.0000000,0.0000000,8.00,38.3977470,-110.7923431,1357.0999756,0.0,216.9,0.9,0.0,0.0,875,157,0,0,863.13,34.23,34.83,# data time:2880,pm2.5:6.445,pm10:5.704,O2:0.000,NO2:0.028,SO2:0.000,NH3:4.404
13:07:23,0,0,0,0,0,2700,2200,1,0,0,0,515,0,0,0,0,0.0000000,0.0000000,0.0000000,0.0000000,8.00,38.3977470,-110.7923431,1357.0999756,0.0,211.9,0.9,0.0,0.0,875,155,0,0,863.21,34.15,34.87,# data time:2880,pm2.5:6.445,pm10:5.704,O2:0.000,NO2:0.028,SO2:0.000,NH3:4.404
13:07:24,0,0,0,0,0,2700,2200,1,0,0,0,514,0,0,0,0,0.0000000,0.0000000,0.0000000,0.0000000,8.00,38.3977470,-110.7923431,1357.0999756,0.0,176.3,0.9,0.0,0.0,876,156,0,0,863.17,34.38,34.90,# data time:2880,pm2.5:6.445,pm10:5.704,O2:0.000,NO2:0.028,SO2:0.000,NH3:4.404
13:07:25,0,0,0,0,0,2700,2200,1,0,0,0,514,0,0,0,0,0.0000000,0.0000000,0.0000000,0.0000000,8.00,38.3977470,-110.7923431,1357.0999756,0.0,172.0,0.9,0.0,0.0,876,162,0,0,863.20,34.44,34.90,# data time:2880,pm2.5:6.445,pm10:5.704,O2:0.000,NO2:0.028,SO2:0.000,NH3:4.404
13:07:26,0,0,0,0,0,2700,2200,1,0,0,0,515,0,0,0,0,0.0000000,0.0000000,0.0000000,0.0000000,8.00,38.3977470,-110.7923431,1357.0999756,0.0,229.0,0.9,0.0,0.0,876,163,0,0,863.15,34.65,34.91,# data time:2880,pm2.5:6.445,pm10:5.704,O2:0.000,NO2:0.028,SO2:0.000,NH3:4.404
13:07:27,0,0,0,0,0,2700,2200,1,0,0,0,513,0,0,0,0,0.0000000,0.0000000,0.0000000,0.0000000,8.00,38.3977470,-110.7923431,1357.0999756,0.0,96.7,0.9,0.0,0.0,875,164,0,0,863.21,34.99,34.87,# data time:2880,pm2.5:6.445,pm10:5.704,O2:0.000,NO2:0.028,SO2:0.000,NH3:4.404
13:07:28,0,0,0,0,0,2700,2200,1,0,0,0,515,0,0,0,0,0.0000000,0.0000000,0.0000000,0.0000000,8.00,38.3977470,-110.7923431,1357.0999756,0.0,38.1,0.9,0.0,0.0,876,166,0,0,863.25,35.23,34.81,# data time:2880,pm2.5:6.445,pm10:5.704,O2:0.000,NO2:0.028,SO2:0.000,NH3:4.404
13:07:29,0,0,0,0,0,2700,2200,1,0,0,0,514,0,0,0,0,0.0000000,0.0000000,0.0000000,0.0000000,8.00,38.3977470,-110.7923431,1357.0999756,0.0,50.8,0.9,0.0,0.0,875,166,0,0,863.21,35.43,34.82,# data time:2890,pm2.5:6.445,pm10:5.704,O2:0.000,NO2:0.000,SO2:0.000,NH3:4.178
13:07:31,0,0,0,0,0,2700,2200,1,0,0,0,515,0,0,0,0,0.0000000,0.0000000,0.0000000,0.0000000,8.00,38.3977470,-110.7923431,1357.0999756,0.0,54.0,0.9,0.0,0.0,876,162,0,0,863.22,35.58,34.79,# data time:2890,pm2.5:6.445,pm10:5.704,O2:0.000,NO2:0.000,SO2:0.000,NH3:4.178
13:07:32,0,0,0,0,0,2700,2200,1,0,0,0,514,0,0,0,0,0.0000000,0.0000000,0.0000000,0.0000000,8.00,38.3977470,-110.7923431,1357.0999756,0.0,49.4,0.9,0.0,0.0,876,164,0,0,863.28,35.60,34.71,# data time:2890,pm2.5:6.445,pm10:5.704,O2:0.000,NO2:0.000,SO2:0.000,NH3:4.178
13:07:33,0,0,0,0,0,2700,2200,1,0,0,0,515,0,0,0,0,0.0000000,0.0000000,0.0000000,0.0000000,8.00,38.3977470,-110.7923431,1357.0999756,0.0,49.8,0.9,0.0,0.0,875,154,0,0,863.20,35.86,34.29,# data time:2890,pm2.5:6.445,pm10:5.704,O2:0.000,NO2:0.000,SO2:0.000,NH3:4.178
13:07:34,0,0,0,0,0,2700,2200,1,0,0,0,514,0,0,0,0,0.0000000,0.0000000,0.0000000,0.0000000,8.00,38.3977470,-110.7923431,1357.0999756,0.0,49.8,0.9,0.0,0.0,876,163,0,0,863.32,35.98,34.07,# data time:2890,pm2.5:6.445,pm10:5.704,O2:0.000,NO2:0.000,SO2:0.000,NH3:4.178
13:07:35,0,0,0,0,0,2700,2200,1,0,0,0,515,0,0,0,0,0.0000000,0.0000000,0.0000000,0.0000000,8.00,38.3977470,-110.7923431,1357.0999756,0.0,213.8,0.9,0.0,0.0,875,160,0,0,863.21,35.89,33.99,# data time:2890,pm2.5:6.445,pm10:5.704,O2:0.000,NO2:0.000,SO2:0.000,NH3:4.178
13:07:36,0,0,0,0,0,2700,2200,1,0,0,0,514,0,0,0,0,0.0000000,0.0000000,0.0000000,0.0000000,8.00,38.3977470,-110.7923431,1357.0999756,0.0,234.8,0.9,0.0,0.0,876,163,0,0,863.21,35.78,34.04,# data time:2890,pm2.5:6.445,pm10:5.704,O2:0.000,NO2:0.000,SO2:0.000,NH3:4.178
13:07:37,0,0,0,0,0,2700,2200,1,0,0,0,515,0,0,0,0,0.0000000,0.0000000,0.0000000,0.0000000,8.00,38.3977470,-110.7923431,1357.0999756,0.0,238.9,0.9,0.0,0.0,876,160,0,0,863.24,35.32,34.14,# data time:2890,pm2.5:6.445,pm10:5.704,O2:0.000,NO2:0.000,SO2:0.000,NH3:4.178
13:07:38,0,0,0,0,0,2700,2200,1,0,0,0,515,0,0,0,0,0.0000000,0.0000000,0.0000000,0.0000000,8.00,38.3977470,-110.7923431,1357.0999756,0.0,225.4,0.9,0.0,0.0,876,158,0,0,863.22,34.85,34.20,# data time:2890,pm2.5:6.445,pm10:5.704,O2:0.000,NO2:0.000,SO2:0.000,NH3:4.178
13:07:39,0,0,0,0,0,2700,2200,1,0,0,0,515,0,0,0,0,0.0000000,0.0000000,0.0000000,0.0000000,8.00,38.3977470,-110.7923431,1357.0999756,0.0,51.9,0.9,0.0,0.0,875,157,0,0,863.14,34.65,34.25,# data time:2890,pm2.5:6.445,pm10:5.704,O2:0.000,NO2:0.000,SO2:0.000,NH3:4.178
13:07:40,0,0,0,0,0,2700,2200,1,0,0,0,515,0,0,0,0,0.0000000,0.0000000,0.0000000,0.0000000,8.00,38.3977470,-110.7923431,1357.0999756,0.0,29.3,0.9,0.0,0.0,875,154,0,0,863.23,34.68,34.29,# data time:2900,pm2.5:6.445,pm10:5.704,O2:0.000,NO2:0.010,SO2:0.000,NH3:4.178
13:07:41,0,0,0,0,0,2700,2200,1,0,0,0,514,0,0,0,0,0.0000000,0.0000000,0.0000000,0.0000000,8.00,38.3977470,-110.7923431,1357.0999756,0.0,36.8,0.9,0.0,0.0,876,150,0,0,863.23,34.79,34.28,# data time:2900,pm2.5:6.445,pm10:5.704,O2:0.000,NO2:0.010,SO2:0.000,NH3:4.178
13:07:42,0,0,0,0,0,2700,2200,1,0,0,0,515,0,0,0,0,0.0000000,0.0000000,0.0000000,0.0000000,8.00,38.3977470,-110.7923431,1357.0999756,0.0,44.8,0.9,0.0,0.0,875,150,0,0,863.23,34.90,34.07,# data time:2900,pm2.5:6.445,pm10:5.704,O2:0.000,NO2:0.010,SO2:0.000,NH3:4.178
13:07:43,0,0,0,0,0,2700,2200,1,0,0,0,515,0,0,0,0,0.0000000,0.0000000,0.0000000,0.0000000,8.00,38.3977470,-110.7923431,1357.0999756,0.0,31.1,0.9,0.0,0.0,876,154,0,0,863.16,35.07,33.95,# data time:2900,pm2.5:6.445,pm10:5.704,O2:0.000,NO2:0.010,SO2:0.000,NH3:4.178
13:07:44,0,0,0,0,0,2700,2200,1,0,0,0,515,0,0,0,0,0.0000000,0.0000000,0.0000000,0.0000000,8.00,38.3977470,-110.7923431,1357.0999756,0.0,35.1,0.9,0.0,0.0,876,153,0,0,863.26,35.34,33.81,# data time:2900,pm2.5:6.445,pm10:5.704,O2:0.000,NO2:0.010,SO2:0.000,NH3:4.178
13:07:45,0,0,0,0,0,2700,2200,1,0,0,0,515,0,0,0,0,0.0000000,0.0000000,0.0000000,0.0000000,8.00,38.3977470,-110.7923431,1357.0999756,0.0,179.6,0.9,0.0,0.0,876,154,0,0,863.24,35.42,33.73,# data time:2900,pm2.5:6.445,pm10:5.704,O2:0.000,NO2:0.010,SO2:0.000,NH3:4.178
13:07:46,0,0,0,0,0,2700,2200,1,0,0,0,515,0,0,0,0,0.0000000,0.0000000,0.0000000,0.0000000,8.00,38.3977470,-110.7923431,1357.0999756,0.0,220.3,0.9,0.0,0.0,876,150,0,0,863.15,35.40,33.64,# data time:2900,pm2.5:6.445,pm10:5.704,O2:0.000,NO2:0.010,SO2:0.000,NH3:4.178
13:07:47,0,0,0,0,0,2700,2200,1,0,0,0,514,0,0,0,0,0.0000000,0.0000000,0.0000000,0.0000000,8.00,38.3977470,-110.7923431,1357.0999756,0.0,211.4,0.9,0.0,0.0,876,148,0,0,863.21,35.46,33.66,# data time:2900,pm2.5:6.445,pm10:5.704,O2:0.000,NO2:0.010,SO2:0.000,NH3:4.178
13:07:48,0,0,0,0,0,2700,2200,1,0,0,0,515,0,0,0,0,0.0000000,0.0000000,0.0000000,0.0000000,8.00,38.3977470,-110.7923431,1357.0999756,0.0,234.8,0.9,0.0,0.0,876,145,0,0,863.21,35.74,33.81,# data time:2900,pm2.5:6.445,pm10:5.704,O2:0.000,NO2:0.010,SO2:0.000,NH3:4.178
13:07:49,0,0,0,0,0,2700,2200,1,0,0,0,515,0,0,0,0,0.0000000,0.0000000,0.0000000,0.0000000,8.00,38.3977470,-110.7923431,1357.0999756,0.0,212.5,0.9,0.0,0.0,876,151,0,0,863.28,36.12,33.86,# data time:2900,pm2.5:6.445,pm10:5.704,O2:0.000,NO2:0.010,SO2:0.000,NH3:4.178
13:07:50,0,0,0,0,0,2700,2200,1,0,0,0,514,0,0,0,0,0.0000000,0.0000000,0.0000000,0.0000000,8.00,38.3977470,-110.7923431,1357.0999756,0.0,225.6,0.9,0.0,0.0,876,149,0,0,863.29,36.32,33.87,# data time:2910,pm2.5:6.445,pm10:5.704,O2:0.000,NO2:0.000,SO2:0.000,NH3:4.178
13:07:51,0,0,0,0,0,2700,2200,1,0,0,0,516,0,0,0,0,0.0000000,0.0000000,0.0000000,0.0000000,8.00,38.3977470,-110.7923431,1357.0999756,0.0,15.2,0.9,0.0,0.0,876,146,0,0,863.22,36.51,33.88,# data time:2910,pm2.5:6.445,pm10:5.704,O2:0.000,NO2:0.000,SO2:0.000,NH3:4.178
13:07:52,0,0,0,0,0,2700,2200,1,0,0,0,515,0,0,0,0,0.0000000,0.0000000,0.0000000,0.0000000,8.00,38.3977470,-110.7923431,1357.0999756,0.0,59.4,0.9,0.0,0.0,875,144,0,0,863.29,36.55,33.97,# data time:2910,pm2.5:6.445,pm10:5.704,O2:0.000,NO2:0.000,SO2:0.000,NH3:4.178
13:07:53,0,0,0,0,0,2700,2200,1,0,0,0,514,0,0,0,0,0.0000000,0.0000000,0.0000000,0.0000000,8.00,38.3977470,-110.7923431,1357.0999756,0.0,29.6,0.9,0.0,0.0,875,144,0,0,863.28,36.53,33.97,# data time:2910,pm2.5:6.445,pm10:5.704,O2:0.000,NO2:0.000,SO2:0.000,NH3:4.178
13:07:54,0,0,0,0,0,2700,2200,1,0,0,0,515,0,0,0,0,0.0000000,0.0000000,0.0000000,0.0000000,8.00,38.3977470,-110.7923431,1357.0999756,0.0,59.2,0.9,0.0,0.0,876,146,0,0,863.30,36.19,33.89,# data time:2910,pm2.5:6.445,pm10:5.704,O2:0.000,NO2:0.000,SO2:0.000,NH3:4.178
13:07:55,0,0,0,0,0,2700,2200,1,0,0,0,515,0,0,0,0,0.0000000,0.0000000,0.0000000,0.0000000,8.00,38.3977470,-110.7923431,1357.0999756,0.0,50.3,0.9,0.0,0.0,876,146,0,0,863.24,36.03,34.00,# data time:2910,pm2.5:6.445,pm10:5.704,O2:0.000,NO2:0.000,SO2:0.000,NH3:4.178
13:07:57,0,0,0,0,0,2700,2200,1,0,0,0,515,0,0,0,0,0.0000000,0.0000000,0.0000000,0.0000000,8.00,38.3977470,-110.7923431,1357.0999756,0.0,54.7,0.9,0.0,0.0,876,149,0,0,863.21,35.83,34.14,# data time:2910,pm2.5:6.445,pm10:5.704,O2:0.000,NO2:0.000,SO2:0.000,NH3:4.178
13:07:58,0,0,0,0,0,2700,2200,1,0,0,0,515,0,0,0,0,0.0000000,0.0000000,0.0000000,0.0000000,8.00,38.3977470,-110.7923431,1357.0999756,0.0,218.6,0.9,0.0,0.0,876,152,0,0,863.24,35.42,34.27,# data time:2910,pm2.5:6.445,pm10:5.704,O2:0.000,NO2:0.000,SO2:0.000,NH3:4.178
13:07:59,0,0,0,0,0,2700,2200,1,0,0,0,514,0,0,0,0,0.0000000,0.0000000,0.0000000,0.0000000,8.00,38.3977470,-110.7923431,1357.0999756,0.0,219.8,0.9,0.0,0.0,876,147,0,0,863.22,34.85,34.36,# data time:2910,pm2.5:6.445,pm10:5.704,O2:0.000,NO2:0.000,SO2:0.000,NH3:4.178
13:08:00,0,0,0,0,0,2700,2200,1,0,0,0,514,0,0,0,0,0.0000000,0.0000000,0.0000000,0.0000000,8.00,38.3977470,-110.7923431,1357.0999756,0.0,199.2,0.9,0.0,0.0,875,145,0,0,863.23,34.59,34.41,# data time:2920,pm2.5:6.445,pm10:5.704,O2:0.000,NO2:0.000,SO2:0.000,NH3:4.630
13:08:01,0,0,0,0,0,2700,2200,1,0,0,0,515,0,0,0,0,0.0000000,0.0000000,0.0000000,0.0000000,8.00,38.3977470,-110.7923431,1357.0999756,0.0,204.6,0.9,0.0,0.0,876,146,0,0,863.18,34.55,34.33,# data time:2920,pm2.5:6.445,pm10:5.704,O2:0.000,NO2:0.000,SO2:0.000,NH3:4.630
13:08:02,0,0,0,0,0,2700,2200,1,0,0,0,515,0,0,0,0,0.0000000,0.0000000,0.0000000,0.0000000,8.00,38.3977470,-110.7923431,1357.0999756,0.0,239.0,0.9,0.0,0.0,876,151,0,0,863.12,34.23,34.34,# data time:2920,pm2.5:6.445,pm10:5.704,O2:0.000,NO2:0.000,SO2:0.000,NH3:4.630
13:08:03,0,0,0,0,0,2700,2200,1,0,0,0,515,0,0,0,0,0.0000000,0.0000000,0.0000000,0.0000000,8.00,38.3977470,-110.7923431,1357.0999756,0.0,229.5,0.9,0.0,0.0,876,149,0,0,863.18,34.18,34.39,# data time:2920,pm2.5:6.445,pm10:5.704,O2:0.000,NO2:0.000,SO2:0.000,NH3:4.630
13:08:04,0,0,0,0,0,2700,2200,1,0,0,0,515,0,0,0,0,0.0000000,0.0000000,0.0000000,0.0000000,8.00,38.3977470,-110.7923431,1357.0999756,0.0,229.5,0.9,0.0,0.0,875,152,0,0,863.20,34.36,34.43,# data time:2920,pm2.5:6.445,pm10:5.704,O2:0.000,NO2:0.000,SO2:0.000,NH3:4.630
13:08:05,0,0,0,0,0,2700,2200,1,0,0,0,515,0,0,0,0,0.0000000,0.0000000,0.0000000,0.0000000,8.00,38.3977470,-110.7923431,1357.0999756,0.0,40.6,0.9,0.0,0.0,875,153,0,0,863.27,35.00,34.52,# data time:2920,pm2.5:6.445,pm10:5.704,O2:0.000,NO2:0.000,SO2:0.000,NH3:4.630
13:08:06,0,0,0,0,0,2700,2200,1,0,0,0,514,0,0,0,0,0.0000000,0.0000000,0.0000000,0.0000000,8.00,38.3977470,-110.7923431,1357.0999756,0.0,40.9,0.9,0.0,0.0,876,152,0,0,863.29,35.19,34.61,# data time:2920,pm2.5:6.445,pm10:5.704,O2:0.000,NO2:0.000,SO2:0.000,NH3:4.630
13:08:07,0,0,0,0,0,2700,2200,1,0,0,0,515,0,0,0,0,0.0000000,0.0000000,0.0000000,0.0000000,8.00,38.3977470,-110.7923431,1357.0999756,0.0,46.0,0.9,0.0,0.0,875,156,0,0,863.19,34.94,34.67,# data time:2920,pm2.5:6.445,pm10:5.704,O2:0.000,NO2:0.000,SO2:0.000,NH3:4.630
13:08:08,0,0,0,0,0,2700,2200,1,0,0,0,515,0,0,0,0,0.0000000,0.0000000,0.0000000,0.0000000,8.00,38.3977470,-110.7923431,1357.0999756,0.0,9.5,0.9,0.0,0.0,876,156,0,0,863.29,34.70,34.69,# data time:2920,pm2.5:6.445,pm10:5.704,O2:0.000,NO2:0.000,SO2:0.000,NH3:4.630
13:08:09,0,0,0,0,0,2700,2200,1,0,0,0,515,0,0,0,0,0.0000000,0.0000000,0.0000000,0.0000000,8.00,38.3977470,-110.7923431,1357.0999756,0.0,185.0,0.9,0.0,0.0,875,156,0,0,863.25,34.88,34.72,# data time:2920,pm2.5:6.445,pm10:5.704,O2:0.000,NO2:0.000,SO2:0.000,NH3:4.630
13:08:10,0,0,0,0,0,2700,2200,1,0,0,0,515,0,0,0,0,0.0000000,0.0000000,0.0000000,0.0000000,8.00,38.3977470,-110.7923431,1357.0999756,0.0,172.3,0.9,0.0,0.0,875,157,0,0,863.31,35.14,34.75,# data time:2930,pm2.5:6.445,pm10:5.704,O2:0.000,NO2:0.000,SO2:0.000,NH3:4.630
13:08:11,0,0,0,0,0,2700,2200,1,0,0,0,515,0,0,0,0,0.0000000,0.0000000,0.0000000,0.0000000,8.00,38.3977470,-110.7923431,1357.0999756,0.0,209.4,0.9,0.0,0.0,875,150,0,0,863.25,35.17,34.81,# data time:2930,pm2.5:6.445,pm10:5.704,O2:0.000,NO2:0.000,SO2:0.000,NH3:4.630
13:08:12,0,0,0,0,0,2700,2200,1,0,0,0,515,0,0,0,0,0.0000000,0.0000000,0.0000000,0.0000000,8.00,38.3977470,-110.7923431,1357.0999756,0.0,191.1,0.9,0.0,0.0,875,154,0,0,863.30,34.93,34.87,# data time:2930,pm2.5:6.445,pm10:5.704,O2:0.000,NO2:0.000,SO2:0.000,NH3:4.630
13:08:13,0,0,0,0,0,2700,2200,1,0,0,0,515,0,0,0,0,0.0000000,0.0000000,0.0000000,0.0000000,8.00,38.3977470,-110.7923431,1357.0999756,0.0,233.2,0.9,0.0,0.0,876,153,0,0,863.33,34.62,34.89,# data time:2930,pm2.5:6.445,pm10:5.704,O2:0.000,NO2:0.000,SO2:0.000,NH3:4.630
13:08:14,0,0,0,0,0,2700,2200,1,0,0,0,515,0,0,0,0,0.0000000,0.0000000,0.0000000,0.0000000,8.00,38.3977470,-110.7923431,1357.0999756,0.0,231.5,0.9,0.0,0.0,876,155,0,0,863.24,34.53,34.89,# data time:2930,pm2.5:6.445,pm10:5.704,O2:0.000,NO2:0.000,SO2:0.000,NH3:4.630
13:08:15,0,0,0,0,0,2700,2200,1,0,0,0,514,0,0,0,0,0.0000000,0.0000000,0.0000000,0.0000000,8.00,38.3977470,-110.7923431,1357.0999756,0.0,51.9,0.9,0.0,0.0,876,153,0,0,863.29,34.62,34.87,# data time:2930,pm2.5:6.445,pm10:5.704,O2:0.000,NO2:0.000,SO2:0.000,NH3:4.630
13:08:16,0,0,0,0,0,2700,2200,1,0,0,0,515,0,0,0,0,0.0000000,0.0000000,0.0000000,0.0000000,8.00,38.3977470,-110.7923431,1357.0999756,0.0,29.4,0.9,0.0,0.0,875,153,0,0,863.24,34.55,34.86,# data time:2930,pm2.5:6.445,pm10:5.704,O2:0.000,NO2:0.000,SO2:0.000,NH3:4.630
