Time, Motor A Speed, Motor A Dir, Motor B Speed, Motor B Dir, Servo Rail Current Sensor, Servo Pos - Arm L, Servo Pos - Arm R, Servo Pos - End, Servo Pos - Hopper, Servo Pos - Lid, Servo Pos - Extra, Servo Current, LED - Front L, LED - Front R, LED - Back L, LED - Back R, IMU Pitch, IMU Roll, IMU Yaw, Compass Heading, GPS Sats, GPS Latitude, GPS Longitude, GPS Altitude, GPS Speed, GPS Angle, GPS HDOP, GPS VDOP, GPS PDOP, Battery, Wind, Comm Xbee Latency, Comm Arduino Latency, Pressure, Humidity, Temperature, uRADMonitor
14:49:24,0,0,0,0,0,2700,2200,1,0,0,0,515,0,0,0,0,0.0000000,0.0000000,0.0000000,0.0000000,8.00,38.4062767,-110.7921524,1359.9000244,0.0,282.1,1.3,0.0,0.0,856,128,0,0,860.25,10.25,27.40,# data time:9000,pm2.5:5.640,pm10:4.991,O2:0.000,NO2:0.046,SO2:0.000,NH3:7.346
14:49:25,0,0,0,0,0,2700,2200,1,0,0,0,515,0,0,0,0,0.0000000,0.0000000,0.0000000,0.0000000,8.00,38.4062767,-110.7921524,1359.9000244,0.0,312.3,1.3,0.0,0.0,856,127,0,0,860.16,10.25,27.45,# data time:9000,pm2.5:5.640,pm10:4.991,O2:0.000,NO2:0.046,SO2:0.000,NH3:7.346
14:49:26,0,0,0,0,0,2700,2200,1,0,0,0,515,0,0,0,0,0.0000000,0.0000000,0.0000000,0.0000000,8.00,38.4062767,-110.7921524,1359.9000244,0.0,310.0,1.3,0.0,0.0,856,129,0,0,860.24,10.25,27.50,# data time:9010,pm2.5:6.445,pm10:5.704,O2:0.000,NO2:0.028,SO2:0.000,NH3:7.346
14:49:27,0,0,0,0,0,2700,2200,1,0,0,0,514,0,0,0,0,0.0000000,0.0000000,0.0000000,0.0000000,8.00,38.4062767,-110.7921524,1359.9000244,0.1,306.1,1.3,0.0,0.0,856,131,0,0,860.29,10.28,27.50,# data time:9010,pm2.5:6.445,pm10:5.704,O2:0.000,NO2:0.028,SO2:0.000,NH3:7.346
14:49:28,0,0,0,0,0,2700,2200,1,0,0,0,515,0,0,0,0,0.0000000,0.0000000,0.0000000,0.0000000,8.00,38.4062767,-110.7921524,1359.8000488,0.0,298.2,1.3,0.0,0.0,856,130,0,0,860.26,10.28,27.51,# data time:9010,pm2.5:6.445,pm10:5.704,O2:0.000,NO2:0.028,SO2:0.000,NH3:7.346
14:49:29,0,0,0,0,0,2700,2200,1,0,0,0,514,0,0,0,0,0.0000000,0.0000000,0.0000000,0.0000000,8.00,38.4062767,-110.7921524,1359.8000488,0.0,324.6,1.3,0.0,0.0,857,128,0,0,860.19,10.27,27.51,# data time:9010,pm2.5:6.445,pm10:5.704,O2:0.000,NO2:0.028,SO2:0.000,NH3:7.346
14:49:30,0,0,0,0,0,2700,2200,1,0,0,0,514,0,0,0,0,0.0000000,0.0000000,0.0000000,0.0000000,8.00,38.4062767,-110.7921524,1359.8000488,0.0,334.4,1.3,0.0,0.0,856,126,0,0,860.15,10.24,27.51,# data time:9010,pm2.5:6.445,pm10:5.704,O2:0.000,NO2:0.028,SO2:0.000,NH3:7.346
14:49:31,0,0,0,0,0,2700,2200,1,0,0,0,514,0,0,0,0,0.0000000,0.0000000,0.0000000,0.0000000,8.00,38.4062767,-110.7921524,1359.8000488,0.0,110.4,1.3,0.0,0.0,856,129,0,0,860.21,10.25,27.51,# data time:9010,pm2.5:6.445,pm10:5.704,O2:0.000,NO2:0.028,SO2:0.000,NH3:7.346
14:49:32,0,0,0,0,0,2700,2200,1,0,0,0,513,0,0,0,0,0.0000000,0.0000000,0.0000000,0.0000000,8.00,38.4062767,-110.7921524,1359.8000488,0.1,89.1,1.3,0.0,0.0,856,133,0,0,860.19,10.24,27.51,# data time:9010,pm2.5:6.445,pm10:5.704,O2:0.000,NO2:0.028,SO2:0.000,NH3:7.346
14:49:33,0,0,0,0,0,2700,2200,1,0,0,0,514,0,0,0,0,0.0000000,0.0000000,0.0000000,0.0000000,8.00,38.4062767,-110.7921524,1359.8000488,0.0,315.6,1.3,0.0,0.0,857,128,0,0,860.16,10.25,27.51,# data time:9010,pm2.5:6.445,pm10:5.704,O2:0.000,NO2:0.028,SO2:0.000,NH3:7.346
14:49:34,0,0,0,0,0,2700,2200,1,0,0,0,515,0,0,0,0,0.0000000,0.0000000,0.0000000,0.0000000,8.00,38.4062767,-110.7921524,1359.8000488,0.0,21.1,1.3,0.0,0.0,856,132,0,0,860.16,10.28,27.51,# data time:9010,pm2.5:6.445,pm10:5.704,O2:0.000,NO2:0.028,SO2:0.000,NH3:7.346
14:49:35,0,0,0,0,0,2700,2200,1,0,0,0,514,0,0,0,0,0.0000000,0.0000000,0.0000000,0.0000000,8.00,38.4062767,-110.7921524,1359.8000488,0.0,337.1,1.3,0.0,0.0,856,128,0,0,860.18,10.27,27.51,# data time:9010,pm2.5:6.445,pm10:5.704,O2:0.000,NO2:0.028,SO2:0.000,NH3:7.346
14:49:36,0,0,0,0,0,2700,2200,1,0,0,0,514,0,0,0,0,0.0000000,0.0000000,0.0000000,0.0000000,8.00,38.4062767,-110.7921524,1359.8000488,0.0,349.2,1.3,0.0,0.0,856,127,0,0,860.18,10.28,27.51,# data time:9020,pm2.5:6.445,pm10:5.704,O2:0.000,NO2:0.046,SO2:0.000,NH3:7.346
14:49:37,0,0,0,0,0,2700,2200,1,0,0,0,514,0,0,0,0,0.0000000,0.0000000,0.0000000,0.0000000,8.00,38.4062767,-110.7921524,1359.6999512,0.1,310.6,1.3,0.0,0.0,856,126,0,0,860.13,10.30,27.51,# data time:9020,pm2.5:6.445,pm10:5.704,O2:0.000,NO2:0.046,SO2:0.000,NH3:7.346
14:49:39,0,0,0,0,0,2700,2200,1,0,0,0,514,0,0,0,0,0.0000000,0.0000000,0.0000000,0.0000000,8.00,38.4062767,-110.7921524,1359.6999512,0.0,300.5,1.3,0.0,0.0,856,129,0,0,860.17,10.25,27.51,# data time:9020,pm2.5:6.445,pm10:5.704,O2:0.000,NO2:0.046,SO2:0.000,NH3:7.346
14:49:40,0,0,0,0,0,2700,2200,1,0,0,0,514,0,0,0,0,0.0000000,0.0000000,0.0000000,0.0000000,8.00,38.4062767,-110.7921524,1359.6999512,0.0,324.0,1.3,0.0,0.0,857,129,0,0,860.10,10.28,27.43,# data time:9020,pm2.5:6.445,pm10:5.704,O2:0.000,NO2:0.046,SO2:0.000,NH3:7.346
14:49:41,0,0,0,0,0,2700,2200,1,0,0,0,514,0,0,0,0,0.0000000,0.0000000,0.0000000,0.0000000,8.00,38.4062767,-110.7921524,1359.6999512,0.0,324.0,1.3,0.0,0.0,856,129,0,0,860.11,10.27,27.41,# data time:9020,pm2.5:6.445,pm10:5.704,O2:0.000,NO2:0.046,SO2:0.000,NH3:7.346
14:49:42,0,0,0,0,0,2700,2200,1,0,0,0,514,0,0,0,0,0.0000000,0.0000000,0.0000000,0.0000000,8.00,38.4062767,-110.7921524,1359.6999512,0.0,324.0,1.3,0.0,0.0,856,128,0,0,860.06,10.28,27.47,# data time:9020,pm2.5:6.445,pm10:5.704,O2:0.000,NO2:0.046,SO2:0.000,NH3:7.346
14:49:43,0,0,0,0,0,2700,2200,1,0,0,0,514,0,0,0,0,0.0000000,0.0000000,0.0000000,0.0000000,8.00,38.4062767,-110.7921524,1359.6999512,0.0,324.0,1.3,0.0,0.0,856,126,0,0,860.21,10.28,27.42,# data time:9020,pm2.5:6.445,pm10:5.704,O2:0.000,NO2:0.046,SO2:0.000,NH3:7.346
14:49:44,0,0,0,0,0,2700,2200,1,0,0,0,514,0,0,0,0,0.0000000,0.0000000,0.0000000,0.0000000,8.00,38.4062767,-110.7921524,1359.6999512,0.1,336.1,1.3,0.0,0.0,856,129,0,0,860.23,10.27,27.47,# data time:9020,pm2.5:6.445,pm10:5.704,O2:0.000,NO2:0.046,SO2:0.000,NH3:7.346
14:49:45,0,0,0,0,0,2700,2200,1,0,0,0,514,0,0,0,0,0.0000000,0.0000000,0.0000000,0.0000000,8.00,38.4062767,-110.7921524,1359.6999512,0.0,350.8,1.3,0.0,0.0,857,130,0,0,860.20,10.25,27.51,# data time:9020,pm2.5:6.445,pm10:5.704,O2:0.000,NO2:0.046,SO2:0.000,NH3:7.346
14:49:46,0,0,0,0,0,2700,2200,1,0,0,0,514,0,0,0,0,0.0000000,0.0000000,0.0000000,0.0000000,8.00,38.4062767,-110.7921524,1359.5999756,0.1,346.5,1.3,0.0,0.0,856,128,0,0,860.15,10.28,27.51,# data time:9030,pm2.5:6.445,pm10:5.704,O2:0.000,NO2:0.028,SO2:0.000,NH3:7.346
14:49:47,0,0,0,0,0,2700,2200,1,0,0,0,514,0,0,0,0,0.0000000,0.0000000,0.0000000,0.0000000,8.00,38.4062767,-110.7921524,1359.5999756,0.0,344.4,1.3,0.0,0.0,856,129,0,0,860.20,10.27,27.51,# data time:9030,pm2.5:6.445,pm10:5.704,O2:0.000,NO2:0.028,SO2:0.000,NH3:7.346
14:49:48,0,0,0,0,0,2700,2200,1,0,0,0,514,0,0,0,0,0.0000000,0.0000000,0.0000000,0.0000000,8.00,38.4062767,-110.7921524,1359.5999756,0.0,311.8,1.3,0.0,0.0,856,129,0,0,860.20,10.27,27.51,# data time:9030,pm2.5:6.445,pm10:5.704,O2:0.000,NO2:0.028,SO2:0.000,NH3:7.346
14:49:49,0,0,0,0,0,2700,2200,1,0,0,0,514,0,0,0,0,0.0000000,0.0000000,0.0000000,0.0000000,8.00,38.4062767,-110.7921524,1359.5999756,0.0,13.6,1.3,0.0,0.0,856,128,0,0,860.13,10.27,27.51,# data time:9030,pm2.5:6.445,pm10:5.704,O2:0.000,NO2:0.028,SO2:0.000,NH3:7.346
14:49:50,0,0,0,0,0,2700,2200,1,0,0,0,513,0,0,0,0,0.0000000,0.0000000,0.0000000,0.0000000,8.00,38.4062767,-110.7921524,1359.5999756,0.0,7.2,1.3,0.0,0.0,856,132,0,0,860.17,10.25,27.51,# data time:9030,pm2.5:6.445,pm10:5.704,O2:0.000,NO2:0.028,SO2:0.000,NH3:7.346
14:49:51,0,0,0,0,0,2700,2200,1,0,0,0,514,0,0,0,0,0.0000000,0.0000000,0.0000000,0.0000000,8.00,38.4062767,-110.7921524,1359.5999756,0.1,338.9,1.3,0.0,0.0,856,131,0,0,860.12,10.27,27.50,# data time:9030,pm2.5:6.445,pm10:5.704,O2:0.000,NO2:0.028,SO2:0.000,NH3:7.346
14:49:52,0,0,0,0,0,2700,2200,1,0,0,0,515,0,0,0,0,0.0000000,0.0000000,0.0000000,0.0000000,8.00,38.4062767,-110.7921524,1359.5999756,0.0,346.2,1.3,0.0,0.0,856,132,0,0,860.10,10.27,27.51,# data time:9030,pm2.5:6.445,pm10:5.704,O2:0.000,NO2:0.028,SO2:0.000,NH3:7.346
14:49:53,0,0,0,0,0,2700,2200,1,0,0,0,514,0,0,0,0,0.0000000,0.0000000,0.0000000,0.0000000,8.00,38.4062767,-110.7921524,1359.5999756,0.0,6.3,1.3,0.0,0.0,856,131,0,0,860.14,10.27,27.51,# data time:9030,pm2.5:6.445,pm10:5.704,O2:0.000,NO2:0.028,SO2:0.000,NH3:7.346
14:49:54,0,0,0,0,0,2700,2200,1,0,0,0,514,0,0,0,0,0.0000000,0.0000000,0.0000000,0.0000000,8.00,38.4062767,-110.7921524,1359.5999756,0.1,339.6,1.3,0.0,0.0,856,127,0,0,860.34,10.27,27.52,# data time:9030,pm2.5:6.445,pm10:5.704,O2:0.000,NO2:0.028,SO2:0.000,NH3:7.346
14:49:55,0,0,0,0,0,2700,2200,1,0,0,0,514,0,0,0,0,0.0000000,0.0000000,0.0000000,0.0000000,8.00,38.4062767,-110.7921524,1359.5999756,0.0,341.8,1.3,0.0,0.0,856,128,0,0,860.34,10.30,27.52,# data time:9030,pm2.5:6.445,pm10:5.704,O2:0.000,NO2:0.028,SO2:0.000,NH3:7.346
14:49:56,0,0,0,0,0,2700,2200,1,0,0,0,514,0,0,0,0,0.0000000,0.0000000,0.0000000,0.0000000,8.00,38.4062767,-110.7921524,1359.5999756,0.0,337.3,1.3,0.0,0.0,856,127,0,0,860.22,10.25,27.51,# data time:9040,pm2.5:6.445,pm10:5.704,O2:0.000,NO2:0.046,SO2:0.000,NH3:7.572
14:49:57,0,0,0,0,0,2700,2200,1,0,0,0,514,0,0,0,0,0.0000000,0.0000000,0.0000000,0.0000000,8.00,38.4062767,-110.7921524,1359.5999756,0.1,23.4,1.3,0.0,0.0,856,128,0,0,860.20,10.27,27.52,# data time:9040,pm2.5:6.445,pm10:5.704,O2:0.000,NO2:0.046,SO2:0.000,NH3:7.572
14:49:58,0,0,0,0,0,2700,2200,1,0,0,0,515,0,0,0,0,0.0000000,0.0000000,0.0000000,0.0000000,8.00,38.4062767,-110.7921524,1359.5999756,0.0,54.2,1.3,0.0,0.0,856,130,0,0,860.22,10.25,27.51,# data time:9040,pm2.5:6.445,pm10:5.704,O2:0.000,NO2:0.046,SO2:0.000,NH3:7.572
14:49:59,0,0,0,0,0,2700,2200,1,0,0,0,514,0,0,0,0,0.0000000,0.0000000,0.0000000,0.0000000,8.00,38.4062767,-110.7921524,1359.5999756,0.0,354.8,1.3,0.0,0.0,857,128,0,0,860.16,10.27,27.52,# data time:9040,pm2.5:6.445,pm10:5.704,O2:0.000,NO2:0.046,SO2:0.000,NH3:7.572
14:50:01,0,0,0,0,0,2700,2200,1,0,0,0,514,0,0,0,0,0.0000000,0.0000000,0.0000000,0.0000000,8.00,38.4062767,-110.7921524,1359.5999756,0.0,334.8,1.3,0.0,0.0,856,130,0,0,860.14,10.30,27.52,# data time:9040,pm2.5:6.445,pm10:5.704,O2:0.000,NO2:0.046,SO2:0.000,NH3:7.572
14:50:02,0,0,0,0,0,2700,2200,1,0,0,0,513,0,0,0,0,0.0000000,0.0000000,0.0000000,0.0000000,8.00,38.4062767,-110.7921524,1359.5999756,0.0,6.7,1.3,0.0,0.0,856,130,0,0,860.12,10.30,27.43,# data time:9040,pm2.5:6.445,pm10:5.704,O2:0.000,NO2:0.046,SO2:0.000,NH3:7.572
14:50:03,0,0,0,0,0,2700,2200,1,0,0,0,514,0,0,0,0,0.0000000,0.0000000,0.0000000,0.0000000,8.00,38.4062767,-110.7921524,1359.5999756,0.0,6.7,1.3,0.0,0.0,856,131,0,0,860.04,10.27,27.42,# data time:9040,pm2.5:6.445,pm10:5.704,O2:0.000,NO2:0.046,SO2:0.000,NH3:7.572
14:50:04,0,0,0,0,0,2700,2200,1,0,0,0,514,0,0,0,0,0.0000000,0.0000000,0.0000000,0.0000000,8.00,38.4062767,-110.7921524,1359.5000000,0.0,6.7,1.3,0.0,0.0,857,131,0,0,860.12,10.27,27.47,# data time:9040,pm2.5:6.445,pm10:5.704,O2:0.000,NO2:0.046,SO2:0.000,NH3:7.572
14:50:05,0,0,0,0,0,2700,2200,1,0,0,0,515,0,0,0,0,0.0000000,0.0000000,0.0000000,0.0000000,8.00,38.4062767,-110.7921524,1359.5000000,0.0,34.5,1.3,0.0,0.0,856,128,0,0,860.21,10.32,27.48,# data time:9040,pm2.5:6.445,pm10:5.704,O2:0.000,NO2:0.046,SO2:0.000,NH3:7.572
14:50:06,0,0,0,0,0,2700,2200,1,0,0,0,515,0,0,0,0,0.0000000,0.0000000,0.0000000,0.0000000,8.00,38.4062767,-110.7921524,1359.5000000,0.0,34.5,1.3,0.0,0.0,856,131,0,0,860.14,10.27,27.42,# data time:9040,pm2.5:6.445,pm10:5.704,O2:0.000,NO2:0.046,SO2:0.000,NH3:7.572
14:50:07,0,0,0,0,0,2700,2200,1,0,0,0,514,0,0,0,0,0.0000000,0.0000000,0.0000000,0.0000000,8.00,38.4062767,-110.7921524,1359.5000000,0.0,55.1,1.3,0.0,0.0,856,123,0,0,860.11,10.27,27.52,# data time:9050,pm2.5:6.445,pm10:5.704,O2:0.000,NO2:0.000,SO
14:50:08,0,0,0,0,0,2700,2200,1,0,0,0,513,0,0,0,0,0.0000000,0.0000000,0.0000000,0.0000000,8.00,38.4062767,-110.7921524,1359.5000000,0.0,343.8,1.3,0.0,0.0,856,131,0,0,860.09,10.28,27.52,# data time:9050,pm2.5:6.445,pm10:5.704,O2:0.000,NO2:0.000,SO
14:50:09,0,0,0,0,0,2700,2200,1,0,0,0,513,0,0,0,0,0.0000000,0.0000000,0.0000000,0.0000000,8.00,38.4062767,-110.7921524,1359.5000000,0.0,305.9,1.3,0.0,0.0,856,128,0,0,860.21,10.28,27.51,# data time:9050,pm2.5:6.445,pm10:5.704,O2:0.000,NO2:0.000,SO
14:50:10,0,0,0,0,0,2700,2200,1,0,0,0,513,0,0,0,0,0.0000000,0.0000000,0.0000000,0.0000000,8.00,38.4062767,-110.7921524,1359.5000000,0.0,338.4,1.3,0.0,0.0,856,128,0,0,860.28,10.27,27.51,# data time:9050,pm2.5:6.445,pm10:5.704,O2:0.000,NO2:0.000,SO
14:50:11,0,0,0,0,0,2700,2200,1,0,0,0,514,0,0,0,0,0.0000000,0.0000000,0.0000000,0.0000000,8.00,38.4062767,-110.7921524,1359.5000000,0.0,150.0,1.3,0.0,0.0,857,129,0,0,860.23,10.27,27.52,# data time:9050,pm2.5:6.445,pm10:5.704,O2:0.000,NO2:0.000,SO
14:50:12,0,0,0,0,0,2700,2200,1,0,0,0,514,0,0,0,0,0.0000000,0.0000000,0.0000000,0.0000000,8.00,38.4062767,-110.7921524,1359.5000000,0.0,349.4,1.3,0.0,0.0,856,128,0,0,860.19,10.25,27.52,# data time:9050,pm2.5:6.445,pm10:5.704,O2:0.000,NO2:0.000,SO
14:50:13,0,0,0,0,0,2700,2200,1,0,0,0,514,0,0,0,0,0.0000000,0.0000000,0.0000000,0.0000000,8.00,38.4062767,-110.7921524,1359.5000000,0.0,191.5,1.3,0.0,0.0,856,130,0,0,860.18,10.27,27.52,# data time:9050,pm2.5:6.445,pm10:5.704,O2:0.000,NO2:0.000,SO
14:50:14,0,0,0,0,0,2700,2200,1,0,0,0,514,0,0,0,0,0.0000000,0.0000000,0.0000000,0.0000000,8.00,38.4062767,-110.7921524,1359.5000000,0.0,106.5,1.3,0.0,0.0,857,126,0,0,860.18,10.25,27.52,# data time:9050,pm2.5:6.445,pm10:5.704,O2:0.000,NO2:0.000,SO
14:50:15,0,0,0,0,0,2700,2200,1,0,0,0,514,0,0,0,0,0.0000000,0.0000000,0.0000000,0.0000000,8.00,38.4062767,-110.7921524,1359.5000000,0.0,86.9,1.3,0.0,0.0,856,128,0,0,860.20,10.25,27.52,# data time:9050,pm2.5:6.445,pm10:5.704,O2:0.000,NO2:0.000,SO
14:50:16,0,0,0,0,0,2700,2200,1,0,0,0,514,0,0,0,0,0.0000000,0.0000000,0.0000000,0.0000000,8.00,38.4062767,-110.7921524,1359.5000000,0.0,168.6,1.3,0.0,0.0,856,129,0,0,860.20,10.24,27.52,# data time:9060,pm2.5:5.640,pm10:4.991,O2:0.000,NO2:0.046,SO2:0.000,NH3:7.346
14:50:17,0,0,0,0,0,2700,2200,1,0,0,0,513,0,0,0,0,0.0000000,0.0000000,0.0000000,0.0000000,8.00,38.4062767,-110.7921524,1359.4000244,0.0,91.2,1.3,0.0,0.0,856,134,0,0,860.15,10.24,27.51,# data time:9060,pm2.5:5.640,pm10:4.991,O2:0.000,NO2:0.046,SO2:0.000,NH3:7.346
14:50:18,0,0,0,0,0,2700,2200,1,0,0,0,514,0,0,0,0,0.0000000,0.0000000,0.0000000,0.0000000,8.00,38.4062767,-110.7921524,1359.4000244,0.0,68.8,1.3,0.0,0.0,856,126,0,0,860.23,10.27,27.51,# data time:9060,pm2.5:5.640,pm10:4.991,O2:0.000,NO2:0.046,SO2:0.000,NH3:7.346
14:50:19,0,0,0,0,0,2700,2200,1,0,0,0,514,0,0,0,0,0.0000000,0.0000000,0.0000000,0.0000000,8.00,38.4062767,-110.7921524,1359.4000244,0.0,113.3,1.3,0.0,0.0,856,127,0,0,860.16,10.25,27.51,# data time:9060,pm2.5:5.640,pm10:4.991,O2:0.000,NO2:0.046,SO2:0.000,NH3:7.346
14:50:20,0,0,0,0,0,2700,2200,1,0,0,0,514,0,0,0,0,0.0000000,0.0000000,0.0000000,0.0000000,8.00,38.4062767,-110.7921524,1359.4000244,0.0,133.0,1.3,0.0,0.0,856,131,0,0,860.12,10.28,27.51,# data time:9060,pm2.5:5.640,pm10:4.991,O2:0.000,NO2:0.046,SO2:0.000,NH3:7.346
14:50:21,0,0,0,0,0,2700,2200,1,0,0,0,514,0,0,0,0,0.0000000,0.0000000,0.0000000,0.0000000,8.00,38.4062767,-110.7921524,1359.4000244,0.0,84.2,1.3,0.0,0.0,856,131,0,0,860.34,10.27,27.51,# data time:9060,pm2.5:5.640,pm10:4.991,O2:0.000,NO2:0.046,SO2:0.000,NH3:7.346
14:50:22,0,0,0,0,0,2700,2200,1,0,0,0,514,0,0,0,0,0.0000000,0.0000000,0.0000000,0.0000000,8.00,38.4062767,-110.7921524,1359.4000244,0.1,115.7,1.3,0.0,0.0,856,128,0,0,860.13,10.30,27.52,# data time:9060,pm2.5:5.640,pm10:4.991,O2:0.000,NO2:0.046,SO2:0.000,NH3:7.346
14:50:23,0,0,0,0,0,2700,2200,1,0,0,0,514,0,0,0,0,0.0000000,0.0000000,0.0000000,0.0000000,8.00,38.4062767,-110.7921524,1359.4000244,0.0,114.0,1.3,0.0,0.0,856,129,0,0,860.10,10.25,27.52,# data time:9060,pm2.5:5.640,pm10:4.991,O2:0.000,NO2:0.046,SO2:0.000,NH3:7.346
14:50:24,0,0,0,0,0,2700,2200,1,0,0,0,514,0,0,0,0,0.0000000,0.0000000,0.0000000,0.0000000,8.00,38.4062767,-110.7921524,1359.4000244,0.0,157.6,1.3,0.0,0.0,856,130,0,0,860.21,10.27,27.52,# data time:9060,pm2.5:5.640,pm10:4.991,O2:0.000,NO2:0.046,SO2:0.000,NH3:7.346
14:50:26,0,0,0,0,0,2700,2200,1,0,0,0,514,0,0,0,0,0.0000000,0.0000000,0.0000000,0.0000000,8.00,38.4062767,-110.7921524,1359.4000244,0.0,255.1,1.3,0.0,0.0,856,136,0,0,860.16,10.27,27.52,# data time:9060,pm2.5:5.640,pm10:4.991,O2:0.000,NO2:0.046,SO2:0.000,NH3:7.346
14:50:27,0,0,0,0,0,2700,2200,1,0,0,0,514,0,0,0,0,0.0000000,0.0000000,0.0000000,0.0000000,8.00,38.4062767,-110.7921524,1359.4000244,0.0,156.5,1.3,0.0,0.0,856,129,0,0,860.18,10.30,27.51,# data time:9070,pm2.5:6.445,pm10:5.704,O2:0.000,NO2:0.063,SO2:0.000,NH3:7.346
14:50:28,0,0,0,0,0,2700,2200,1,0,0,0,515,0,0,0,0,0.0000000,0.0000000,0.0000000,0.0000000,8.00,38.4062767,-110.7921524,1359.4000244,0.0,222.2,1.3,0.0,0.0,857,130,0,0,860.10,10.30,27.43,# data time:9070,pm2.5:6.445,pm10:5.704,O2:0.000,NO2:0.063,SO2:0.000,NH3:7.346
14:50:29,0,0,0,0,0,2700,2200,1,0,0,0,515,0,0,0,0,0.0000000,0.0000000,0.0000000,0.0000000,8.00,38.4062767,-110.7921524,1359.4000244,0.0,222.2,1.3,0.0,0.0,856,130,0,0,860.19,10.32,27.42,# data time:9070,pm2.5:6.445,pm10:5.704,O2:0.000,NO2:0.063,SO2:0.000,NH3:7.346
14:50:30,0,0,0,0,0,2700,2200,1,0,0,0,514,0,0,0,0,0.0000000,0.0000000,0.0000000,0.0000000,8.00,38.4062767,-110.7921524,1359.3000488,0.0,222.2,1.3,0.0,0.0,856,131,0,0,860.15,10.32,27.47,# data time:9070,pm2.5:6.445,pm10:5.704,O2:0.000,NO2:0.063,SO2:0.000,NH3:7.346
14:50:31,0,0,0,0,0,2700,2200,1,0,0,0,514,0,0,0,0,0.0000000,0.0000000,0.0000000,0.0000000,8.00,38.4062767,-110.7921524,1359.3000488,0.0,190.4,1.3,0.0,0.0,856,127,0,0,860.19,10.30,27.48,# data time:9070,pm2.5:6.445,pm10:5.704,O2:0.000,NO2:0.063,SO2:0.000,NH3:7.346
14:50:32,0,0,0,0,0,2700,2200,1,0,0,0,514,0,0,0,0,0.0000000,0.0000000,0.0000000,0.0000000,8.00,38.4062767,-110.7921524,1359.3000488,0.0,145.2,1.3,0.0,0.0,856,128,0,0,860.19,10.27,27.52,# data time:9070,pm2.5:6.445,pm10:5.704,O2:0.000,NO2:0.063,SO2:0.000,NH3:7.346
14:50:33,0,0,0,0,0,2700,2200,1,0,0,0,514,0,0,0,0,0.0000000,0.0000000,0.0000000,0.0000000,8.00,38.4062767,-110.7921524,1359.3000488,0.0,186.7,1.3,0.0,0.0,857,129,0,0,860.14,10.25,27.52,# data time:9070,pm2.5:6.445,pm10:5.704,O2:0.000,NO2:0.063,SO2:0.000,NH3:7.346
14:50:34,0,0,0,0,0,2700,2200,1,0,0,0,514,0,0,0,0,0.0000000,0.0000000,0.0000000,0.0000000,8.00,38.4062767,-110.7921524,1359.3000488,0.0,210.7,1.3,0.0,0.0,857,127,0,0,860.20,10.28,27.52,# data time:9070,pm2.5:6.445,pm10:5.704,O2:0.000,NO2:0.063,SO2:0.000,NH3:7.346
14:50:35,0,0,0,0,0,2700,2200,1,0,0,0,514,0,0,0,0,0.0000000,0.0000000,0.0000000,0.0000000,8.00,38.4062767,-110.7921524,1359.3000488,0.0,157.2,1.3,0.0,0.0,856,130,0,0,860.24,10.27,27.52,# data time:9070,pm2.5:6.445,pm10:5.704,O2:0.000,NO2:0.063,SO2:0.000,NH3:7.346
14:50:36,0,0,0,0,0,2700,2200,1,0,0,0,514,0,0,0,0,0.0000000,0.0000000,0.0000000,0.0000000,8.00,38.4062767,-110.7921524,1359.3000488,0.0,140.9,1.3,0.0,0.0,856,130,0,0,860.21,10.28,27.52,# data time:9080,pm2.5:6.445,pm10:5.704,O2:0.000,NO2:0.010,SO2:0.000,NH3:7.346
14:50:37,0,0,0,0,0,2700,2200,1,0,0,0,514,0,0,0,0,0.0000000,0.0000000,0.0000000,0.0000000,8.00,38.4062767,-110.7921524,1359.3000488,0.0,209.5,1.3,0.0,0.0,856,129,0,0,860.21,10.27,27.52,# data time:9080,pm2.5:6.445,pm10:5.704,O2:0.000,NO2:0.010,SO2:0.000,NH3:7.346
14:50:38,0,0,0,0,0,2700,2200,1,0,0,0,514,0,0,0,0,0.0000000,0.0000000,0.0000000,0.0000000,8.00,38.4062767,-110.7921524,1359.3000488,0.0,120.7,1.3,0.0,0.0,856,129,0,0,860.23,10.28,27.52,# data time:9080,pm2.5:6.445,pm10:5.704,O2:0.000,NO2:0.010,SO2:0.000,NH3:7.346
14:50:39,0,0,0,0,0,2700,2200,1,0,0,0,514,0,0,0,0,0.0000000,0.0000000,0.0000000,0.0000000,8.00,38.4062767,-110.7921524,1359.3000488,0.0,196.7,1.3,0.0,0.0,857,128,0,0,860.18,10.27,27.52,# data time:9080,pm2.5:6.445,pm10:5.704,O2:0.000,NO2:0.010,SO2:0.000,NH3:7.346
14:50:40,0,0,0,0,0,2700,2200,1,0,0,0,514,0,0,0,0,0.0000000,0.0000000,0.0000000,0.0000000,8.00,38.4062767,-110.7921524,1359.3000488,0.0,157.3,1.3,0.0,0.0,856,128,0,0,860.24,10.27,27.52,# data time:9080,pm2.5:6.445,pm10:5.704,O2:0.000,NO2:0.010,SO2:0.000,NH3:7.346
14:50:41,0,0,0,0,0,2700,2200,1,0,0,0,514,0,0,0,0,0.0000000,0.0000000,0.0000000,0.0000000,8.00,38.4062767,-110.7921524,1359.3000488,0.0,156.9,1.3,0.0,0.0,856,129,0,0,860.15,10.28,27.52,# data time:9080,pm2.5:6.445,pm10:5.704,O2:0.000,NO2:0.010,SO2:0.000,NH3:7.346
14:50:42,0,0,0,0,0,2700,2200,1,0,0,0,514,0,0,0,0,0.0000000,0.0000000,0.0000000,0.0000000,8.00,38.4062767,-110.7921524,1359.3000488,0.0,205.7,1.3,0.0,0.0,856,130,0,0,860.19,10.25,27.52,# data time:9080,pm2.5:6.445,pm10:5.704,O2:0.000,NO2:0.010,SO2:0.000,NH3:7.346
14:50:43,0,0,0,0,0,2700,2200,1,0,0,0,515,0,0,0,0,0.0000000,0.0000000,0.0000000,0.0000000,8.00,38.4062767,-110.7921524,1359.1999512,0.0,207.6,1.3,0.0,0.0,856,134,0,0,860.31,10.25,27.52,# data time:9080,pm2.5:6.445,pm10:5.704,O2:0.000,NO2:0.010,SO2:0.000,NH3:7.346
14:50:44,0,0,0,0,0,2700,2200,1,0,0,0,514,0,0,0,0,0.0000000,0.0000000,0.0000000,0.0000000,8.00,38.4062767,-110.7921524,1359.1999512,0.0,172.9,1.3,0.0,0.0,856,131,0,0,860.16,10.24,27.52,# data time:9080,pm2.5:6.445,pm10:5.704,O2:0.000,NO2:0.010,SO2:0.000,NH3:7.346
14:50:45,0,0,0,0,0,2700,2200,1,0,0,0,515,0,0,0,0,0.0000000,0.0000000,0.0000000,0.0000000,8.00,38.4062767,-110.7921524,1359.1999512,0.0,120.1,1.3,0.0,0.0,857,129,0,0,860.23,10.25,27.52,# data time:9080,pm2.5:6.445,pm10:5.704,O2:0.000,NO2:0.010,SO2:0.000,NH3:7.346
14:50:46,0,0,0,0,0,2700,2200,1,0,0,0,514,0,0,0,0,0.0000000,0.0000000,0.0000000,0.0000000,8.00,38.4062767,-110.7921524,1359.1999512,0.0,195.2,1.3,0.0,0.0,856,130,0,0,860.14,10.27,27.52,# data time:9090,pm2.5:6.445,pm10:5.704,O2:0.000,NO2:0.063,SO2:0.000,NH3:7.346
14:50:47,0,0,0,0,0,2700,2200,1,0,0,0,514,0,0,0,0,0.0000000,0.0000000,0.0000000,0.0000000,8.00,38.4062767,-110.7921524,1359.1999512,0.0,185.4,1.3,0.0,0.0,856,129,0,0,860.16,10.28,27.52,# data time:9090,pm2.5:6.445,pm10:5.704,O2:0.000,NO2:0.063,SO2:0.000,NH3:7.346
14:50:48,0,0,0,0,0,2700,2200,1,0,0,0,514,0,0,0,0,0.0000000,0.0000000,0.0000000,0.0000000,8.00,38.4062767,-110.7921524,1359.1999512,0.0,214.8,1.3,0.0,0.0,856,127,0,0,860.32,10.28,27.52,# data time:9090,pm2.5:6.445,pm10:5.704,O2:0.000,NO2:0.063,SO2:0.000,NH3:7.346
14:50:50,0,0,0,0,0,2700,2200,1,0,0,0,514,0,0,0,0,0.0000000,0.0000000,0.0000000,0.0000000,8.00,38.4062767,-110.7921524,1359.1999512,0.0,159.8,1.3,0.0,0.0,856,128,0,0,860.18,10.27,27.52,# data time:9090,pm2.5:6.445,pm10:5.704,O2:0.000,NO2:0.063,SO2:0.000,NH3:7.346
14:50:51,0,0,0,0,0,2700,2200,1,0,0,0,514,0,0,0,0,0.0000000,0.0000000,0.0000000,0.0000000,8.00,38.4062767,-110.7921524,1359.1999512,0.0,162.0,1.3,0.0,0.0,856,128,0,0,860.27,10.28,27.52,# data time:9090,pm2.5:6.445,pm10:5.704,O2:0.000,NO2:0.063,SO2:0.000,NH3:7.346
14:50:52,0,0,0,0,0,2700,2200,1,0,0,0,514,0,0,0,0,0.0000000,0.0000000,0.0000000,0.0000000,8.00,38.4062767,-110.7921524,1359.1999512,0.0,173.5,1.3,0.0,0.0,855,129,0,0,860.25,10.27,27.45,# data time:9090,pm2.5:6.445,pm10:5.704,O2:0.000,NO2:0.063,SO2:0.000,NH3:7.346
14:50:53,0,0,0,0,0,2700,2200,1,0,0,0,514,0,0,0,0,0.0000000,0.0000000,0.0000000,0.0000000,8.00,38.4062767,-110.7921524,1359.1999512,0.0,173.5,1.3,0.0,0.0,856,128,0,0,860.32,10.27,27.44,# data time:9090,pm2.5:6.445,pm10:5.704,O2:0.000,NO2:0.063,SO2:0.000,NH3:7.346
14:50:54,0,0,0,0,0,2700,2200,1,0,0,0,514,0,0,0,0,0.0000000,0.0000000,0.0000000,0.0000000,8.00,38.4062767,-110.7921524,1359.1999512,0.0,173.5,1.3,0.0,0.0,857,128,0,0,860.32,10.25,27.49,# data time:9090,pm2.5:6.445,pm10:5.704,O2:0.000,NO2:0.063,SO2:0.000,NH3:7.346
14:50:55,0,0,0,0,0,2700,2200,1,0,0,0,514,0,0,0,0,0.0000000,0.0000000,0.0000000,0.0000000,8.00,38.4062767,-110.7921524,1359.1999512,0.0,88.5,1.3,0.0,0.0,856,128,0,0,860.20,10.25,27.49,# data time:9090,pm2.5:6.445,pm10:5.704,O2:0.000,NO2:0.063,SO2:0.000,NH3:7.346
14:50:56,0,0,0,0,0,2700,2200,1,0,0,0,514,0,0,0,0,0.0000000,0.0000000,0.0000000,0.0000000,8.00,38.4062767,-110.7921524,1359.1999512,0.0,152.1,1.3,0.0,0.0,856,131,0,0,860.24,10.25,27.52,# data time:9100,pm2.5:6.445,pm10:5.704,O2:0.000,NO2:0.000,SO2:0.000,NH3:7.346
14:50:57,0,0,0,0,0,2700,2200,1,0,0,0,514,0,0,0,0,0.0000000,0.0000000,0.0000000,0.0000000,8.00,38.4062767,-110.7921524,1359.1999512,0.0,18.6,1.3,0.0,0.0,856,128,0,0,860.16,10.25,27.53,# data time:9100,pm2.5:6.445,pm10:5.704,O2:0.000,NO2:0.000,SO2:0.000,NH3:7.346
14:50:58,0,0,0,0,0,2700,2200,1,0,0,0,515,0,0,0,0,0.0000000,0.0000000,0.0000000,0.0000000,8.00,38.4062767,-110.7921524,1359.1999512,0.0,88.6,1.3,0.0,0.0,856,131,0,0,860.25,10.24,27.53,# data time:9100,pm2.5:6.445,pm10:5.704,O2:0.000,NO2:0.000,SO2:0.000,NH3:7.346
14:50:59,0,0,0,0,0,2700,2200,1,0,0,0,514,0,0,0,0,0.0000000,0.0000000,0.0000000,0.0000000,8.00,38.4062767,-110.7921524,1359.1999512,0.0,179.6,1.3,0.0,0.0,857,131,0,0,860.19,10.27,27.53,# data time:9100,pm2.5:6.445,pm10:5.704,O2:0.000,NO2:0.000,SO2:0.000,NH3:7.346
14:51:00,0,0,0,0,0,2700,2200,1,0,0,0,514,0,0,0,0,0.0000000,0.0000000,0.0000000,0.0000000,8.00,38.4062767,-110.7921524,1359.1999512,0.0,169.8,1.3,0.0,0.0,856,130,0,0,860.16,10.30,27.53,# data time:9100,pm2.5:6.445,pm10:5.704,O2:0.000,NO2:0.000,SO2:0.000,NH3:7.346
14:51:01,0,0,0,0,0,2700,2200,1,0,0,0,514,0,0,0,0,0.0000000,0.0000000,0.0000000,0.0000000,8.00,38.4062767,-110.7921524,1359.0999756,0.0,164.4,1.3,0.0,0.0,856,130,0,0,860.18,10.27,27.54,# data time:9100,pm2.5:6.445,pm10:5.704,O2:0.000,NO2:0.000,SO2:0.000,NH3:7.346
14:51:02,0,0,0,0,0,2700,2200,1,0,0,0,514,0,0,0,0,0.0000000,0.0000000,0.0000000,0.0000000,8.00,38.4062767,-110.7921524,1359.0999756,0.0,146.3,1.3,0.0,0.0,856,130,0,0,860.20,10.27,27.54,# data time:9100,pm2.5:6.445,pm10:5.704,O2:0.000,NO2:0.000,SO2:0.000,NH3:7.346
14:51:03,0,0,0,0,0,2700,2200,1,0,0,0,515,0,0,0,0,0.0000000,0.0000000,0.0000000,0.0000000,8.00,38.4062767,-110.7921524,1359.0999756,0.0,131.3,1.3,0.0,0.0,856,130,0,0,860.20,10.28,27.54,# data time:9100,pm2.5:6.445,pm10:5.704,O2:0.000,NO2:0.000,SO2:0.000,NH3:7.346
14:51:04,0,0,0,0,0,2700,2200,1,0,0,0,514,0,0,0,0,0.0000000,0.0000000,0.0000000,0.0000000,8.00,38.4062767,-110.7921524,1359.0999756,0.0,69.7,1.3,0.0,0.0,856,129,0,0,860.21,10.27,27.54,# data time:9100,pm2.5:6.445,pm10:5.704,O2:0.000,NO2:0.000,SO2:0.000,NH3:7.346
14:51:05,0,0,0,0,0,2700,2200,1,0,0,0,514,0,0,0,0,0.0000000,0.0000000,0.0000000,0.0000000,8.00,38.4062767,-110.7921524,1359.0999756,0.0,28.8,1.3,0.0,0.0,856,130,0,0,860.22,10.27,27.54,# data time:9100,pm2.5:6.445,pm10:5.704,O2:0.000,NO2:0.000,SO2:0.000,NH3:7.346
14:51:06,0,0,0,0,0,2700,2200,1,0,0,0,514,0,0,0,0,0.0000000,0.0000000,0.0000000,0.0000000,8.00,38.4062767,-110.7921524,1359.0999756,0.0,148.3,1.3,0.0,0.0,856,129,0,0,860.19,10.25,27.54,# data time:9110,pm2.5:6.445,pm10:5.704,O2:0.000,NO2:0.000,SO2:0.000,NH3:7.346
14:51:07,0,0,0,0,0,2700,2200,1,0,0,0,514,0,0,0,0,0.0000000,0.0000000,0.0000000,0.0000000,8.00,38.4062767,-110.7921524,1359.0999756,0.0,247.6,1.3,0.0,0.0,856,132,0,0,860.21,10.27,27.54,# data time:9110,pm2.5:6.445,pm10:5.704,O2:0.000,NO2:0.000,SO2:0.000,NH3:7.346
14:51:08,0,0,0,0,0,2700,2200,1,0,0,0,514,0,0,0,0,0.0000000,0.0000000,0.0000000,0.0000000,8.00,38.4062767,-110.7921524,1359.0999756,0.0,220.8,1.3,0.0,0.0,856,127,0,0,860.21,10.25,27.54,# data time:9110,pm2.5:6.445,pm10:5.704,O2:0.000,NO2:0.000,SO2:0.000,NH3:7.346
14:51:09,0,0,0,0,0,2700,2200,1,0,0,0,514,0,0,0,0,0.0000000,0.0000000,0.0000000,0.0000000,8.00,38.4062767,-110.7921524,1359.0999756,0.0,152.3,1.3,0.0,0.0,857,128,0,0,860.29,10.21,27.54,# data time:9110,pm2.5:6.445,pm10:5.704,O2:0.000,NO2:0.000,SO2:0.000,NH3:7.346
14:51:11,0,0,0,0,0,2700,2200,1,0,0,0,514,0,0,0,0,0.0000000,0.0000000,0.0000000,0.0000000,8.00,38.4062767,-110.7921524,1359.0999756,0.0,74.2,1.3,0.0,0.0,856,127,0,0,860.31,10.24,27.55,# data time:9110,pm2.5:6.445,pm10:5.704,O2:0.000,NO2:0.000,SO2:0.000,NH3:7.346
14:51:12,0,0,0,0,0,2700,2200,1,0,0,0,515,0,0,0,0,0.0000000,0.0000000,0.0000000,0.0000000,8.00,38.4062767,-110.7921524,1359.0999756,0.0,176.8,1.3,0.0,0.0,856,132,0,0,860.27,10.24,27.55,# data time:9110,pm2.5:6.445,pm10:5.704,O2:0.000,NO2:0.000,SO2:0.000,NH3:7.346
14:51:13,0,0,0,0,0,2700,2200,1,0,0,0,515,0,0,0,0,0.0000000,0.0000000,0.0000000,0.0000000,8.00,38.4062767,-110.7921524,1359.0999756,0.0,186.7,1.3,0.0,0.0,856,128,0,0,860.15,10.24,27.55,# data time:9110,pm2.5:6.445,pm10:5.704,O2:0.000,NO2:0.000,SO2:0.000,NH3:7.346
14:51:14,0,0,0,0,0,2700,2200,1,0,0,0,514,0,0,0,0,0.0000000,0.0000000,0.0000000,0.0000000,8.00,38.4062767,-110.7921524,1359.0999756,0.0,175.8,1.3,0.0,0.0,856,129,0,0,860.22,10.21,27.50,# data time:9110,pm2.5:6.445,pm10:5.704,O2:0.000,NO2:0.000,SO2:0.000,NH3:7.346
14:51:15,0,0,0,0,0,2700,2200,1,0,0,0,514,0,0,0,0,0.0000000,0.0000000,0.0000000,0.0000000,8.00,38.4062767,-110.7921524,1359.0999756,0.0,175.8,1.3,0.0,0.0,855,129,0,0,860.34,10.22,27.45,# data time:9110,pm2.5:6.445,pm10:5.704,O2:0.000,NO2:0.000,SO2:0.000,NH3:7.346
14:51:16,0,0,0,0,0,2700,2200,1,0,0,0,514,0,0,0,0,0.0000000,0.0000000,0.0000000,0.0000000,8.00,38.4062767,-110.7921524,1359.0999756,0.0,175.8,1.3,0.0,0.0,856,131,0,0,860.27,10.21,27.45,# data time:9110,pm2.5:6.445,pm10:5.704,O2:0.000,NO2:0.000,SO2:0.000,NH3:7.346
14:51:17,0,0,0,0,0,2700,2200,1,0,0,0,514,0,0,0,0,0.0000000,0.0000000,0.0000000,0.0000000,8.00,38.4062767,-110.7921524,1359.0999756,0.0,290.8,1.3,0.0,0.0,857,128,0,0,860.23,10.22,27.51,# data time:9120,pm2.5:6.445,pm10:5.704,O2:0.000,NO2:0.028,SO2:0.000,NH3:7.572
14:51:18,0,0,0,0,0,2700,2200,1,0,0,0,514,0,0,0,0,0.0000000,0.0000000,0.0000000,0.0000000,8.00,38.4062767,-110.7921524,1359.0999756,0.0,352.3,1.3,0.0,0.0,856,130,0,0,860.26,10.21,27.54,# data time:9120,pm2.5:6.445,pm10:5.704,O2:0.000,NO2:0.028,SO2:0.000,NH3:7.572
14:51:19,0,0,0,0,0,2700,2200,1,0,0,0,514,0,0,0,0,0.0000000,0.0000000,0.0000000,0.0000000,8.00,38.4062767,-110.7921524,1359.0000000,0.0,308.8,1.3,0.0,0.0,856,130,0,0,860.18,10.21,27.55,# data time:9120,pm2.5:6.445,pm10:5.704,O2:0.000,NO2:0.028,SO2:0.000,NH3:7.572
14:51:20,0,0,0,0,0,2700,2200,1,0,0,0,515,0,0,0,0,0.0000000,0.0000000,0.0000000,0.0000000,8.00,38.4062767,-110.7921524,1359.0000000,0.0,10.9,1.3,0.0,0.0,856,127,0,0,860.27,10.21,27.55,# data time:9120,pm2.5:6.445,pm10:5.704,O2:0.000,NO2:0.028,SO2:0.000,NH3:7.572
14:51:21,0,0,0,0,0,2700,2200,1,0,0,0,514,0,0,0,0,0.0000000,0.0000000,0.0000000,0.0000000,8.00,38.4062767,-110.7921524,1359.0000000,0.0,346.9,1.3,0.0,0.0,856,131,0,0,860.31,10.19,27.56,# data time:9120,pm2.5:6.445,pm10:5.704,O2:0.000,NO2:0.028,SO2:0.000,NH3:7.572
14:51:22,0,0,0,0,0,2700,2200,1,0,0,0,514,0,0,0,0,0.0000000,0.0000000,0.0000000,0.0000000,8.00,38.4062767,-110.7921524,1359.0000000,0.0,316.9,1.3,0.0,0.0,856,128,0,0,860.23,10.19,27.55,# data time:9120,pm2.5:6.445,pm10:5.704,O2:0.000,NO2:0.028,SO2:0.000,NH3:7.572
14:51:23,0,0,0,0,0,2700,2200,1,0,0,0,514,0,0,0,0,0.0000000,0.0000000,0.0000000,0.0000000,8.00,38.4062767,-110.7921524,1359.0000000,0.0,2.0,1.3,0.0,0.0,857,131,0,0,860.35,10.21,27.56,# data time:9120,pm2.5:6.445,pm10:5.704,O2:0.000,NO2:0.028,SO2:0.000,NH3:7.572
14:51:24,0,0,0,0,0,2700,2200,1,0,0,0,514,0,0,0,0,0.0000000,0.0000000,0.0000000,0.0000000,8.00,38.4062767,-110.7921524,1359.0000000,0.0,330.0,1.3,0.0,0.0,856,127,0,0,860.34,10.21,27.56,# data time:9120,pm2.5:6.445,pm10:5.704,O2:0.000,NO2:0.028,SO2:0.000,NH3:7.572
14:51:25,0,0,0,0,0,2700,2200,1,0,0,0,514,0,0,0,0,0.0000000,0.0000000,0.0000000,0.0000000,8.00,38.4062767,-110.7921524,1359.0000000,0.0,251.9,1.3,0.0,0.0,856,132,0,0,860.55,10.21,27.56,# data time:9120,pm2.5:6.445,pm10:5.704,O2:0.000,NO2:0.028,SO2:0.000,NH3:7.572
14:51:26,0,0,0,0,0,2700,2200,1,0,0,0,514,0,0,0,0,0.0000000,0.0000000,0.0000000,0.0000000,8.00,38.4062767,-110.7921524,1359.0000000,0.0,336.7,1.3,0.0,0.0,856,127,0,0,860.24,10.21,27.56,# data time:9130,pm2.5:6.445,pm10:5.704,O2:0.000,NO2:0.000,SO
14:51:27,0,0,0,0,0,2700,2200,1,0,0,0,514,0,0,0,0,0.0000000,0.0000000,0.0000000,0.0000000,8.00,38.4062767,-110.7921524,1359.0000000,0.0,258.3,1.3,0.0,0.0,856,129,0,0,860.22,10.19,27.56,# data time:9130,pm2.5:6.445,pm10:5.704,O2:0.000,NO2:0.000,SO
14:51:28,0,0,0,0,0,2700,2200,1,0,0,0,515,0,0,0,0,0.0000000,0.0000000,0.0000000,0.0000000,8.00,38.4062767,-110.7921524,1359.0000000,0.0,293.7,1.3,0.0,0.0,856,128,0,0,860.22,10.22,27.56,# data time:9130,pm2.5:6.445,pm10:5.704,O2:0.000,NO2:0.000,SO
14:51:29,0,0,0,0,0,2700,2200,1,0,0,0,514,0,0,0,0,0.0000000,0.0000000,0.0000000,0.0000000,8.00,38.4062767,-110.7921524,1359.0000000,0.0,312.2,1.3,0.0,0.0,856,130,0,0,860.32,10.21,27.57,# data time:9130,pm2.5:6.445,pm10:5.704,O2:0.000,NO2:0.000,SO
14:51:30,0,0,0,0,0,2700,2200,1,0,0,0,514,0,0,0,0,0.0000000,0.0000000,0.0000000,0.0000000,8.00,38.4062767,-110.7921524,1359.0000000,0.0,281.8,1.3,0.0,0.0,855,132,0,0,860.24,10.21,27.56,# data time:9130,pm2.5:6.445,pm10:5.704,O2:0.000,NO2:0.000,SO
14:51:31,0,0,0,0,0,2700,2200,1,0,0,0,514,0,0,0,0,0.0000000,0.0000000,0.0000000,0.0000000,8.00,38.4062767,-110.7921524,1359.0000000,0.0,273.2,1.3,0.0,0.0,856,128,0,0,860.27,10.21,27.57,# data time:9130,pm2.5:6.445,pm10:5.704,O2:0.000,NO2:0.000,SO
14:51:32,0,0,0,0,0,2700,2200,1,0,0,0,514,0,0,0,0,0.0000000,0.0000000,0.0000000,0.0000000,8.00,38.4062767,-110.7921524,1358.9000244,0.0,357.6,1.3,0.0,0.0,856,130,0,0,860.22,10.22,27.57,# data time:9130,pm2.5:6.445,pm10:5.704,O2:0.000,NO2:0.000,SO
14:51:33,0,0,0,0,0,2700,2200,1,0,0,0,515,0,0,0,0,0.0000000,0.0000000,0.0000000,0.0000000,8.00,38.4062767,-110.7921524,1358.9000244,0.0,265.2,1.3,0.0,0.0,856,128,0,0,860.21,10.21,27.57,# data time:9130,pm2.5:6.445,pm10:5.704,O2:0.000,NO2:0.000,SO
14:51:34,0,0,0,0,0,2700,2200,1,0,0,0,515,0,0,0,0,0.0000000,0.0000000,0.0000000,0.0000000,8.00,38.4062767,-110.7921524,1358.9000244,0.0,225.3,1.3,0.0,0.0,856,129,0,0,860.25,10.21,27.57,# data time:9130,pm2.5:6.445,pm10:5.704,O2:0.000,NO2:0.000,SO
14:51:35,0,0,0,0,0,2700,2200,1,0,0,0,514,0,0,0,0,0.0000000,0.0000000,0.0000000,0.0000000,8.00,38.4062767,-110.7921524,1358.9000244,0.0,171.6,1.3,0.0,0.0,856,128,0,0,860.30,10.19,27.57,# data time:9130,pm2.5:6.445,pm10:5.704,O2:0.000,NO2:0.000,SO
14:51:37,0,0,0,0,0,2700,2200,1,0,0,0,514,0,0,0,0,0.0000000,0.0000000,0.0000000,0.0000000,8.00,38.4062767,-110.7921524,1358.9000244,0.0,146.0,1.3,0.0,0.0,856,131,0,0,860.29,10.21,27.54,# data time:9140,pm2.5:6.445,pm10:5.704,O2:0.000,NO2:0.046,SO2:0.000,NH3:7.572
14:51:38,0,0,0,0,0,2700,2200,1,0,0,0,514,0,0,0,0,0.0000000,0.0000000,0.0000000,0.0000000,8.00,38.4062767,-110.7921524,1358.9000244,0.0,26.3,1.3,0.0,0.0,856,127,0,0,860.32,10.24,27.58,# data time:9140,pm2.5:6.445,pm10:5.704,O2:0.000,NO2:0.046,SO2:0.000,NH3:7.572
14:51:39,0,0,0,0,0,2700,2200,1,0,0,0,514,0,0,0,0,0.0000000,0.0000000,0.0000000,0.0000000,8.00,38.4062767,-110.7921524,1358.9000244,0.0,36.9,1.3,0.0,0.0,856,129,0,0,860.31,10.24,27.58,# data time:9140,pm2.5:6.445,pm10:5.704,O2:0.000,NO2:0.046,SO2:0.000,NH3:7.572
14:51:40,0,0,0,0,0,2700,2200,1,0,0,0,514,0,0,0,0,0.0000000,0.0000000,0.0000000,0.0000000,8.00,38.4062767,-110.7921524,1358.9000244,0.0,301.4,1.3,0.0,0.0,856,129,0,0,860.27,10.22,27.50,# data time:9140,pm2.5:6.445,pm10:5.704,O2:0.000,NO2:0.046,SO2:0.000,NH3:7.572
14:51:41,0,0,0,0,0,2700,2200,1,0,0,0,515,0,0,0,0,0.0000000,0.0000000,0.0000000,0.0000000,8.00,38.4062767,-110.7921524,1358.9000244,0.0,301.4,1.3,0.0,0.0,856,131,0,0,860.51,10.21,27.53,# data time:9140,pm2.5:6.445,pm10:5.704,O2:0.000,NO2:0.046,SO2:0.000,NH3:7.572
14:51:42,0,0,0,0,0,2700,2200,1,0,0,0,515,0,0,0,0,0.0000000,0.0000000,0.0000000,0.0000000,8.00,38.4062767,-110.7921524,1358.9000244,0.0,71.7,1.3,0.0,0.0,856,129,0,0,860.31,10.21,27.54,# data time:9140,pm2.5:6.445,pm10:5.704,O2:0.000,NO2:0.046,SO2:0.000,NH3:7.572
14:51:43,0,0,0,0,0,2700,2200,1,0,0,0,514,0,0,0,0,0.0000000,0.0000000,0.0000000,0.0000000,7.00,38.4062767,-110.7921524,1358.9000244,0.0,278.5,1.4,0.0,0.0,856,130,0,0,860.35,10.24,27.58,# data time:9140,pm2.5:6.445,pm10:5.704,O2:0.000,NO2:0.046,SO2:0.000,NH3:7.572
14:51:44,0,0,0,0,0,2700,2200,1,0,0,0,514,0,0,0,0,0.0000000,0.0000000,0.0000000,0.0000000,7.00,38.4062767,-110.7921524,1358.8000488,0.0,344.0,1.4,0.0,0.0,856,130,0,0,860.45,10.21,27.59,# data time:9140,pm2.5:6.445,pm10:5.704,O2:0.000,NO2:0.046,SO2:0.000,NH3:7.572
14:51:45,0,0,0,0,0,2700,2200,1,0,0,0,514,0,0,0,0,0.0000000,0.0000000,0.0000000,0.0000000,7.00,38.4062767,-110.7921524,1358.8000488,0.0,227.3,1.4,0.0,0.0,856,129,0,0,860.30,10.22,27.59,# data time:9140,pm2.5:6.445,pm10:5.704,O2:0.000,NO2:0.046,SO2:0.000,NH3:7.572
14:51:46,0,0,0,0,0,2700,2200,1,0,0,0,515,0,0,0,0,0.0000000,0.0000000,0.0000000,0.0000000,7.00,38.4062767,-110.7921524,1358.8000488,0.0,329.7,1.4,0.0,0.0,856,130,0,0,860.20,10.24,27.59,# data time:9150,pm2.5:5.640,pm10:4.991,O2:0.000,NO2:0.028,SO2:0.000,NH3:7.346
14:51:47,0,0,0,0,0,2700,2200,1,0,0,0,514,0,0,0,0,0.0000000,0.0000000,0.0000000,0.0000000,7.00,38.4062767,-110.7921524,1358.8000488,0.0,278.9,1.4,0.0,0.0,856,129,0,0,860.14,10.24,27.59,# data time:9150,pm2.5:5.640,pm10:4.991,O2:0.000,NO2:0.028,SO2:0.000,NH3:7.346
14:51:48,0,0,0,0,0,2700,2200,1,0,0,0,514,0,0,0,0,0.0000000,0.0000000,0.0000000,0.0000000,7.00,38.4062767,-110.7921524,1358.8000488,0.0,251.4,1.4,0.0,0.0,857,130,0,0,860.41,10.22,27.60,# data time:9150,pm2.5:5.640,pm10:4.991,O2:0.000,NO2:0.028,SO2:0.000,NH3:7.346
14:51:49,0,0,0,0,0,2700,2200,1,0,0,0,514,0,0,0,0,0.0000000,0.0000000,0.0000000,0.0000000,7.00,38.4062767,-110.7921524,1358.8000488,0.0,314.7,1.4,0.0,0.0,856,128,0,0,860.31,10.22,27.60,# data time:9150,pm2.5:5.640,pm10:4.991,O2:0.000,NO2:0.028,SO2:0.000,NH3:7.346
14:51:50,0,0,0,0,0,2700,2200,1,0,0,0,514,0,0,0,0,0.0000000,0.0000000,0.0000000,0.0000000,7.00,38.4062767,-110.7921524,1358.8000488,0.0,259.7,1.4,0.0,0.0,856,126,0,0,860.52,10.22,27.60,# data time:9150,pm2.5:5.640,pm10:4.991,O2:0.000,NO2:0.028,SO2:0.000,NH3:7.346
14:51:51,0,0,0,0,0,2700,2200,1,0,0,0,515,0,0,0,0,0.0000000,0.0000000,0.0000000,0.0000000,7.00,38.4062767,-110.7921524,1358.8000488,0.0,272.9,1.4,0.0,0.0,856,129,0,0,860.32,10.21,27.60,# data time:9150,pm2.5:5.640,pm10:4.991,O2:0.000,NO2:0.028,SO2:0.000,NH3:7.346
14:51:52,0,0,0,0,0,2700,2200,1,0,0,0,514,0,0,0,0,0.0000000,0.0000000,0.0000000,0.0000000,7.00,38.4062767,-110.7921524,1358.8000488,0.0,277.0,1.4,0.0,0.0,856,126,0,0,860.41,10.19,27.60,# data time:9150,pm2.5:5.640,pm10:4.991,O2:0.000,NO2:0.028,SO2:0.000,NH3:7.346
14:51:53,0,0,0,0,0,2700,2200,1,0,0,0,514,0,0,0,0,0.0000000,0.0000000,0.0000000,0.0000000,7.00,38.4062767,-110.7921524,1358.8000488,0.0,264.2,1.4,0.0,0.0,856,129,0,0,860.22,10.19,27.60,# data time:9150,pm2.5:5.640,pm10:4.991,O2:0.000,NO2:0.028,SO2:0.000,NH3:7.346
14:51:54,0,0,0,0,0,2700,2200,1,0,0,0,514,0,0,0,0,0.0000000,0.0000000,0.0000000,0.0000000,7.00,38.4062767,-110.7921524,1358.8000488,0.0,253.7,1.4,0.0,0.0,856,128,0,0,860.55,10.21,27.60,# data time:9150,pm2.5:5.640,pm10:4.991,O2:0.000,NO2:0.028,SO2:0.000,NH3:7.346
14:51:55,0,0,0,0,0,2700,2200,1,0,0,0,514,0,0,0,0,0.0000000,0.0000000,0.0000000,0.0000000,7.00,38.4062767,-110.7921524,1358.8000488,0.0,150.0,1.4,0.0,0.0,856,131,0,0,860.52,10.21,27.60,# data time:9150,pm2.5:5.640,pm10:4.991,O2:0.000,NO2:0.028,SO2:0.000,NH3:7.346
14:51:56,0,0,0,0,0,2700,2200,1,0,0,0,513,0,0,0,0,0.0000000,0.0000000,0.0000000,0.0000000,7.00,38.4062767,-110.7921524,1358.8000488,0.0,281.7,1.4,0.0,0.0,856,123,0,0,860.17,10.21,27.61,# data time:9160,pm2.5:6.445,pm10:5.704,O2:0.000,NO2:0.000,SO
14:51:57,0,0,0,0,0,2700,2200,1,0,0,0,515,0,0,0,0,0.0000000,0.0000000,0.0000000,0.0000000,7.00,38.4062767,-110.7921524,1358.6999512,0.0,233.4,1.4,0.0,0.0,856,129,0,0,860.23,10.19,27.61,# data time:9160,pm2.5:6.445,pm10:5.704,O2:0.000,NO2:0.000,SO
14:51:58,0,0,0,0,0,2700,2200,1,0,0,0,515,0,0,0,0,0.0000000,0.0000000,0.0000000,0.0000000,7.00,38.4062767,-110.7921524,1358.6999512,0.0,311.3,1.4,0.0,0.0,856,129,0,0,860.18,10.19,27.61,# data time:9160,pm2.5:6.445,pm10:5.704,O2:0.000,NO2:0.000,SO
14:51:59,0,0,0,0,0,2700,2200,1,0,0,0,514,0,0,0,0,0.0000000,0.0000000,0.0000000,0.0000000,7.00,38.4062767,-110.7921524,1358.6999512,0.0,257.2,1.4,0.0,0.0,856,129,0,0,860.43,10.18,27.61,# data time:9160,pm2.5:6.445,pm10:5.704,O2:0.000,NO2:0.000,SO
14:52:00,0,0,0,0,0,2700,2200,1,0,0,0,515,0,0,0,0,0.0000000,0.0000000,0.0000000,0.0000000,7.00,38.4062767,-110.7921524,1358.6999512,0.0,286.2,1.4,0.0,0.0,856,131,0,0,860.31,10.16,27.60,# data time:9160,pm2.5:6.445,pm10:5.704,O2:0.000,NO2:0.000,SO
14:52:01,0,0,0,0,0,2700,2200,1,0,0,0,514,0,0,0,0,0.0000000,0.0000000,0.0000000,0.0000000,7.00,38.4062767,-110.7921524,1358.6999512,0.0,270.0,1.4,0.0,0.0,856,128,0,0,860.20,10.16,27.61,# data time:9160,pm2.5:6.445,pm10:5.704,O2:0.000,NO2:0.000,SO
14:52:03,0,0,0,0,0,2700,2200,1,0,0,0,514,0,0,0,0,0.0000000,0.0000000,0.0000000,0.0000000,6.00,38.4062767,-110.7921524,1358.6999512,0.0,325.3,2.0,0.0,0.0,856,128,0,0,860.28,10.19,27.61,# data time:9160,pm2.5:6.445,pm10:5.704,O2:0.000,NO2:0.000,SO
14:52:04,0,0,0,0,0,2700,2200,1,0,0,0,514,0,0,0,0,0.0000000,0.0000000,0.0000000,0.0000000,6.00,38.4062767,-110.7921524,1358.6999512,0.0,284.8,2.0,0.0,0.0,856,133,0,0,860.18,10.19,27.52,# data time:9160,pm2.5:6.445,pm10:5.704,O2:0.000,NO2:0.000,SO
14:52:05,0,0,0,0,0,2700,2200,1,0,0,0,514,0,0,0,0,0.0000000,0.0000000,0.0000000,0.0000000,6.00,38.4062767,-110.7921524,1358.6999512,0.0,284.8,2.0,0.0,0.0,856,128,0,0,860.17,10.21,27.52,# data time:9160,pm2.5:6.445,pm10:5.704,O2:0.000,NO2:0.000,SO
14:52:06,0,0,0,0,0,2700,2200,1,0,0,0,514,0,0,0,0,0.0000000,0.0000000,0.0000000,0.0000000,7.00,38.4062767,-110.7921524,1358.6999512,0.0,284.8,1.4,0.0,0.0,856,131,0,0,860.17,10.16,27.57,# data time:9160,pm2.5:6.445,pm10:5.704,O2:0.000,NO2:0.000,SO
14:52:07,0,0,0,0,0,2700,2200,1,0,0,0,514,0,0,0,0,0.0000000,0.0000000,0.0000000,0.0000000,7.00,38.4062767,-110.7921524,1358.6999512,0.0,257.0,1.4,0.0,0.0,855,128,0,0,860.16,10.18,27.61,# data time:9170,pm2.5:6.445,pm10:5.704,O2:0.000,NO2:0.010,SO
14:52:08,0,0,0,0,0,2700,2200,1,0,0,0,514,0,0,0,0,0.0000000,0.0000000,0.0000000,0.0000000,7.00,38.4062767,-110.7921524,1358.6999512,0.0,299.8,1.4,0.0,0.0,856,130,0,0,860.21,10.19,27.61,# data time:9170,pm2.5:6.445,pm10:5.704,O2:0.000,NO2:0.010,SO
14:52:09,0,0,0,0,0,2700,2200,1,0,0,0,514,0,0,0,0,0.0000000,0.0000000,0.0000000,0.0000000,7.00,38.4062767,-110.7921524,1358.6999512,0.0,290.9,1.4,0.0,0.0,856,130,0,0,860.27,10.16,27.62,# data time:9170,pm2.5:6.445,pm10:5.704,O2:0.000,NO2:0.010,SO
14:52:10,0,0,0,0,0,2700,2200,1,0,0,0,514,0,0,0,0,0.0000000,0.0000000,0.0000000,0.0000000,7.00,38.4062767,-110.7921524,1358.6999512,0.0,225.1,1.4,0.0,0.0,856,120,0,0,860.44,10.19,27.61,# data time:9170,pm2.5:6.445,pm10:5.704,O2:0.000,NO2:0.010,SO
14:52:11,0,0,0,0,0,2700,2200,1,0,0,0,514,0,0,0,0,0.0000000,0.0000000,0.0000000,0.0000000,7.00,38.4062767,-110.7921524,1358.6999512,0.0,211.5,1.4,0.0,0.0,856,130,0,0,860.51,10.16,27.62,# data time:9170,pm2.5:6.445,pm10:5.704,O2:0.000,NO2:0.010,SO
14:52:12,0,0,0,0,0,2700,2200,1,0,0,0,513,0,0,0,0,0.0000000,0.0000000,0.0000000,0.0000000,7.00,38.4062767,-110.7921524,1358.5999756,0.0,232.4,1.4,0.0,0.0,856,128,0,0,860.57,10.16,27.61,# data time:9170,pm2.5:6.445,pm10:5.704,O2:0.000,NO2:0.010,SO
14:52:13,0,0,0,0,0,2700,2200,1,0,0,0,514,0,0,0,0,0.0000000,0.0000000,0.0000000,0.0000000,7.00,38.4062767,-110.7921524,1358.5999756,0.0,216.9,1.4,0.0,0.0,856,132,0,0,860.66,10.18,27.62,# data time:9170,pm2.5:6.445,pm10:5.704,O2:0.000,NO2:0.010,SO
14:52:14,0,0,0,0,0,2700,2200,1,0,0,0,514,0,0,0,0,0.0000000,0.0000000,0.0000000,0.0000000,7.00,38.4062767,-110.7921524,1358.5999756,0.0,196.5,1.4,0.0,0.0,856,129,0,0,860.64,10.15,27.61,# data time:9170,pm2.5:6.445,pm10:5.704,O2:0.000,NO2:0.010,SO
14:52:15,0,0,0,0,0,2700,2200,1,0,0,0,515,0,0,0,0,0.0000000,0.0000000,0.0000000,0.0000000,7.00,38.4062767,-110.7921524,1358.5999756,0.0,248.1,1.4,0.0,0.0,856,129,0,0,860.58,10.16,27.62,# data time:9170,pm2.5:6.445,pm10:5.704,O2:0.000,NO2:0.010,SO
14:52:16,0,0,0,0,0,2700,2200,1,0,0,0,514,0,0,0,0,0.0000000,0.0000000,0.0000000,0.0000000,7.00,38.4062767,-110.7921524,1358.5999756,0.0,190.1,1.4,0.0,0.0,856,130,0,0,860.38,10.15,27.58,# data time:9180,pm2.5:6.445,pm10:5.704,O2:0.000,NO2:0.028,SO2:0.000,NH3:7.346
14:52:17,0,0,0,0,0,2700,2200,1,0,0,0,514,0,0,0,0,0.0000000,0.0000000,0.0000000,0.0000000,7.00,38.4062767,-110.7921524,1358.5999756,0.0,196.7,1.4,0.0,0.0,856,129,0,0,860.36,10.16,27.62,# data time:9180,pm2.5:6.445,pm10:5.704,O2:0.000,NO2:0.028,SO2:0.000,NH3:7.346
14:52:18,0,0,0,0,0,2700,2200,1,0,0,0,514,0,0,0,0,0.0000000,0.0000000,0.0000000,0.0000000,7.00,38.4062767,-110.7921524,1358.5999756,0.0,230.2,1.4,0.0,0.0,856,131,0,0,860.35,10.15,27.62,# data time:9180,pm2.5:6.445,pm10:5.704,O2:0.000,NO2:0.028,SO2:0.000,NH3:7.346
14:52:19,0,0,0,0,0,2700,2200,1,0,0,0,514,0,0,0,0,0.0000000,0.0000000,0.0000000,0.0000000,7.00,38.4062767,-110.7921524,1358.5999756,0.0,311.3,1.4,0.0,0.0,856,127,0,0,860.43,10.15,27.62,# data time:9180,pm2.5:6.445,pm10:5.704,O2:0.000,NO2:0.028,SO2:0.000,NH3:7.346
14:52:20,0,0,0,0,0,2700,2200,1,0,0,0,514,0,0,0,0,0.0000000,0.0000000,0.0000000,0.0000000,7.00,38.4062767,-110.7921524,1358.5999756,0.0,143.0,1.4,0.0,0.0,856,127,0,0,860.40,10.15,27.62,# data time:9180,pm2.5:6.445,pm10:5.704,O2:0.000,NO2:0.028,SO2:0.000,NH3:7.346
14:52:21,0,0,0,0,0,2700,2200,1,0,0,0,515,0,0,0,0,0.0000000,0.0000000,0.0000000,0.0000000,7.00,38.4062767,-110.7921524,1358.5999756,0.0,197.3,1.4,0.0,0.0,856,128,0,0,860.42,10.13,27.62,# data time:9180,pm2.5:6.445,pm10:5.704,O2:0.000,NO2:0.028,SO2:0.000,NH3:7.346
14:52:22,0,0,0,0,0,2700,2200,1,0,0,0,515,0,0,0,0,0.0000000,0.0000000,0.0000000,0.0000000,7.00,38.4062767,-110.7921524,1358.5999756,0.0,217.3,1.4,0.0,0.0,856,129,0,0,860.42,10.12,27.62,# data time:9180,pm2.5:6.445,pm10:5.704,O2:0.000,NO2:0.028,SO2:0.000,NH3:7.346
14:52:23,0,0,0,0,0,2700,2200,1,0,0,0,514,0,0,0,0,0.0000000,0.0000000,0.0000000,0.0000000,7.00,38.4062767,-110.7921524,1358.5999756,0.0,183.8,1.4,0.0,0.0,856,128,0,0,860.36,10.16,27.63,# data time:9180,pm2.5:6.445,pm10:5.704,O2:0.000,NO2:0.028,SO2:0.000,NH3:7.346
14:52:24,0,0,0,0,0,2700,2200,1,0,0,0,515,0,0,0,0,0.0000000,0.0000000,0.0000000,0.0000000,7.00,38.4062767,-110.7921524,1358.5999756,0.0,217.0,1.4,0.0,0.0,855,129,0,0,860.30,10.10,27.63,# data time:9180,pm2.5:6.445,pm10:5.704,O2:0.000,NO2:0.028,SO2:0.000,NH3:7.346
14:52:25,0,0,0,0,0,2700,2200,1,0,0,0,514,0,0,0,0,0.0000000,0.0000000,0.0000000,0.0000000,7.00,38.4062767,-110.7921524,1358.5000000,0.0,245.2,1.4,0.0,0.0,856,132,0,0,860.26,10.15,27.63,# data time:9180,pm2.5:6.445,pm10:5.704,O2:0.000,NO2:0.028,SO2:0.000,NH3:7.346
14:52:27,0,0,0,0,0,2700,2200,1,0,0,0,514,0,0,0,0,0.0000000,0.0000000,0.0000000,0.0000000,7.00,38.4062767,-110.7921524,1358.5000000,0.0,245.2,1.4,0.0,0.0,856,127,0,0,860.07,10.16,27.58,# data time:9190,pm2.5:6.445,pm10:5.704,O2:0.000,NO2:0.028,SO2:00,NH3:7.346
14:52:28,0,0,0,0,0,2700,2200,1,0,0,0,514,0,0,0,0,0.0000000,0.0000000,0.0000000,0.0000000,7.00,38.4062767,-110.7921524,1358.5000000,0.0,206.8,1.4,0.0,0.0,856,130,0,0,860.05,10.16,27.53,# data time:9190,pm2.5:6.445,pm10:5.704,O2:0.000,NO2:0.028,SO2:00,NH3:7.346
14:52:29,0,0,0,0,0,2700,2200,1,0,0,0,514,0,0,0,0,0.0000000,0.0000000,0.0000000,0.0000000,7.00,38.4062767,-110.7921524,1358.5000000,0.0,206.8,1.4,0.0,0.0,856,130,0,0,860.06,10.15,27.53,# data time:9190,pm2.5:6.445,pm10:5.704,O2:0.000,NO2:0.028,SO2:00,NH3:7.346
14:52:30,0,0,0,0,0,2700,2200,1,0,0,0,514,0,0,0,0,0.0000000,0.0000000,0.0000000,0.0000000,7.00,38.4062767,-110.7921524,1358.5000000,0.0,206.8,1.4,0.0,0.0,856,128,0,0,860.10,10.15,27.58,# data time:9190,pm2.5:6.445,pm10:5.704,O2:0.000,NO2:0.028,SO2:00,NH3:7.346
14:52:31,0,0,0,0,0,2700,2200,1,0,0,0,514,0,0,0,0,0.0000000,0.0000000,0.0000000,0.0000000,7.00,38.4062767,-110.7921677,1358.5000000,0.0,241.8,1.4,0.0,0.0,856,129,0,0,860.22,10.13,27.59,# data time:9190,pm2.5:6.445,pm10:5.704,O2:0.000,NO2:0.028,SO2:00,NH3:7.346
14:52:32,0,0,0,0,0,2700,2200,1,0,0,0,514,0,0,0,0,0.0000000,0.0000000,0.0000000,0.0000000,7.00,38.4062767,-110.7921677,1358.5000000,0.0,235.8,1.4,0.0,0.0,856,130,0,0,860.14,10.12,27.58,# data time:9190,pm2.5:6.445,pm10:5.704,O2:0.000,NO2:0.028,SO2:00,NH3:7.346
14:52:33,0,0,0,0,0,2700,2200,1,0,0,0,514,0,0,0,0,0.0000000,0.0000000,0.0000000,0.0000000,7.00,38.4062767,-110.7921677,1358.5000000,0.0,250.1,1.4,0.0,0.0,856,128,0,0,860.16,10.16,27.62,# data time:9190,pm2.5:6.445,pm10:5.704,O2:0.000,NO2:0.028,SO2:00,NH3:7.346
14:52:34,0,0,0,0,0,2700,2200,1,0,0,0,513,0,0,0,0,0.0000000,0.0000000,0.0000000,0.0000000,7.00,38.4062767,-110.7921677,1358.5000000,0.0,269.2,1.4,0.0,0.0,856,128,0,0,860.14,10.13,27.63,# data time:9190,pm2.5:6.445,pm10:5.704,O2:0.000,NO2:0.028,SO2:00,NH3:7.346
14:52:35,0,0,0,0,0,2700,2200,1,0,0,0,514,0,0,0,0,0.0000000,0.0000000,0.0000000,0.0000000,7.00,38.4062767,-110.7921677,1358.5000000,0.0,355.9,1.4,0.0,0.0,856,129,0,0,860.12,10.09,27.63,# data time:9190,pm2.5:6.445,pm10:5.704,O2:0.000,NO2:0.028,SO2:00,NH3:7.346
14:52:36,0,0,0,0,0,2700,2200,1,0,0,0,514,0,0,0,0,0.0000000,0.0000000,0.0000000,0.0000000,7.00,38.4062767,-110.7921677,1358.5000000,0.0,230.7,1.4,0.0,0.0,856,132,0,0,860.14,10.12,27.63,# data time:9200,pm2.5:6.445,pm10:5.704,O2:0.000,NO2:0.028,SO
14:52:37,0,0,0,0,0,2700,2200,1,0,0,0,514,0,0,0,0,0.0000000,0.0000000,0.0000000,0.0000000,7.00,38.4062767,-110.7921677,1358.5000000,0.0,242.0,1.4,0.0,0.0,856,130,0,0,860.19,10.12,27.63,# data time:9200,pm2.5:6.445,pm10:5.704,O2:0.000,NO2:0.028,SO
14:52:38,0,0,0,0,0,2700,2200,1,0,0,0,514,0,0,0,0,0.0000000,0.0000000,0.0000000,0.0000000,7.00,38.4062767,-110.7921677,1358.5000000,0.0,279.6,1.4,0.0,0.0,856,129,0,0,860.17,10.09,27.63,# data time:9200,pm2.5:6.445,pm10:5.704,O2:0.000,NO2:0.028,SO
14:52:39,0,0,0,0,0,2700,2200,1,0,0,0,514,0,0,0,0,0.0000000,0.0000000,0.0000000,0.0000000,7.00,38.4062767,-110.7921677,1358.5000000,0.0,255.7,1.4,0.0,0.0,856,128,0,0,860.30,10.07,27.63,# data time:9200,pm2.5:6.445,pm10:5.704,O2:0.000,NO2:0.028,SO
14:52:40,0,0,0,0,0,2700,2200,1,0,0,0,514,0,0,0,0,0.0000000,0.0000000,0.0000000,0.0000000,7.00,38.4062767,-110.7921677,1358.5000000,0.0,216.9,1.4,0.0,0.0,855,130,0,0,860.25,10.09,27.63,# data time:9200,pm2.5:6.445,pm10:5.704,O2:0.000,NO2:0.028,SO
14:52:41,0,0,0,0,0,2700,2200,1,0,0,0,514,0,0,0,0,0.0000000,0.0000000,0.0000000,0.0000000,7.00,38.4062767,-110.7921677,1358.4000244,0.0,269.1,1.4,0.0,0.0,856,131,0,0,860.33,10.10,27.63,# data time:9200,pm2.5:6.445,pm10:5.704,O2:0.000,NO2:0.028,SO
14:52:42,0,0,0,0,0,2700,2200,1,0,0,0,514,0,0,0,0,0.0000000,0.0000000,0.0000000,0.0000000,7.00,38.4062767,-110.7921677,1358.4000244,0.0,299.9,1.4,0.0,0.0,856,129,0,0,860.29,10.10,27.63,# data time:9200,pm2.5:6.445,pm10:5.704,O2:0.000,NO2:0.028,SO
14:52:43,0,0,0,0,0,2700,2200,1,0,0,0,514,0,0,0,0,0.0000000,0.0000000,0.0000000,0.0000000,7.00,38.4062767,-110.7921677,1358.4000244,0.0,314.5,1.4,0.0,0.0,856,125,0,0,860.23,10.13,27.63,# data time:9200,pm2.5:6.445,pm10:5.704,O2:0.000,NO2:0.028,SO
14:52:44,0,0,0,0,0,2700,2200,1,0,0,0,514,0,0,0,0,0.0000000,0.0000000,0.0000000,0.0000000,7.00,38.4062767,-110.7921677,1358.4000244,0.0,294.9,1.4,0.0,0.0,856,130,0,0,860.48,10.13,27.63,# data time:9200,pm2.5:6.445,pm10:5.704,O2:0.000,NO2:0.028,SO
14:52:45,0,0,0,0,0,2700,2200,1,0,0,0,514,0,0,0,0,0.0000000,0.0000000,0.0000000,0.0000000,7.00,38.4062767,-110.7921677,1358.4000244,0.0,250.7,1.4,0.0,0.0,856,132,0,0,860.30,10.12,27.64,# data time:9200,pm2.5:6.445,pm10:5.704,O2:0.000,NO2:0.028,SO
14:52:46,0,0,0,0,0,2700,2200,1,0,0,0,514,0,0,0,0,0.0000000,0.0000000,0.0000000,0.0000000,7.00,38.4062767,-110.7921677,1358.4000244,0.0,303.1,1.4,0.0,0.0,856,130,0,0,860.49,10.12,27.63,# data time:9210,pm2.5:6.445,pm10:5.704,O2:0.000,NO2:0.010,SO
14:52:47,0,0,0,0,0,2700,2200,1,0,0,0,514,0,0,0,0,0.0000000,0.0000000,0.0000000,0.0000000,7.00,38.4062767,-110.7921677,1358.4000244,0.1,325.9,1.4,0.0,0.0,856,130,0,0,860.26,10.13,27.63,# data time:9210,pm2.5:6.445,pm10:5.704,O2:0.000,NO2:0.010,SO
14:52:48,0,0,0,0,0,2700,2200,1,0,0,0,514,0,0,0,0,0.0000000,0.0000000,0.0000000,0.0000000,7.00,38.4062767,-110.7921677,1358.4000244,0.0,311.9,1.4,0.0,0.0,856,129,0,0,860.43,10.15,27.63,# data time:9210,pm2.5:6.445,pm10:5.704,O2:0.000,NO2:0.010,SO
14:52:49,0,0,0,0,0,2700,2200,1,0,0,0,514,0,0,0,0,0.0000000,0.0000000,0.0000000,0.0000000,7.00,38.4062767,-110.7921677,1358.4000244,0.1,327.4,1.4,0.0,0.0,856,128,0,0,860.23,10.12,27.63,# data time:9210,pm2.5:6.445,pm10:5.704,O2:0.000,NO2:0.010,SO
14:52:50,0,0,0,0,0,2700,2200,1,0,0,0,513,0,0,0,0,0.0000000,0.0000000,0.0000000,0.0000000,7.00,38.4062767,-110.7921677,1358.4000244,0.0,340.7,1.4,0.0,0.0,856,128,0,0,860.25,10.12,27.63,# data time:9210,pm2.5:6.445,pm10:5.704,O2:0.000,NO2:0.010,SO
14:52:52,0,0,0,0,0,2700,2200,1,0,0,0,515,0,0,0,0,0.0000000,0.0000000,0.0000000,0.0000000,7.00,38.4062767,-110.7921677,1358.4000244,0.0,276.2,1.4,0.0,0.0,856,128,0,0,860.24,10.13,27.63,# data time:9210,pm2.5:6.445,pm10:5.704,O2:0.000,NO2:0.010,SO
14:52:53,0,0,0,0,0,2700,2200,1,0,0,0,514,0,0,0,0,0.0000000,0.0000000,0.0000000,0.0000000,7.00,38.4062767,-110.7921677,1358.4000244,0.0,301.6,1.4,0.0,0.0,856,132,0,0,860.24,10.10,27.53,# data time:9210,pm2.5:6.445,pm10:5.704,O2:0.000,NO2:0.010,SO
14:52:54,0,0,0,0,0,2700,2200,1,0,0,0,514,0,0,0,0,0.0000000,0.0000000,0.0000000,0.0000000,7.00,38.4062767,-110.7921677,1358.4000244,0.0,301.6,1.4,0.0,0.0,856,128,0,0,860.21,10.10,27.52,# data time:9210,pm2.5:6.445,pm10:5.704,O2:0.000,NO2:0.010,SO
14:52:55,0,0,0,0,0,2700,2200,1,0,0,0,514,0,0,0,0,0.0000000,0.0000000,0.0000000,0.0000000,7.00,38.4062767,-110.7921677,1358.4000244,0.1,326.4,1.4,0.0,0.0,857,128,0,0,860.19,10.12,27.62,# data time:9210,pm2.5:6.445,pm10:5.704,O2:0.000,NO2:0.010,SO
14:52:56,0,0,0,0,0,2700,2200,1,0,0,0,514,0,0,0,0,0.0000000,0.0000000,0.0000000,0.0000000,7.00,38.4062767,-110.7921677,1358.4000244,0.1,326.4,1.4,0.0,0.0,856,130,0,0,860.27,10.12,27.59,# data time:9220,pm2.5:6.445,pm10:5.704,O2:0.000,NO2:0.028,SO2:0.000,NH3:7.346
14:52:57,0,0,0,0,0,2700,2200,1,0,0,0,514,0,0,0,0,0.0000000,0.0000000,0.0000000,0.0000000,7.00,38.4062767,-110.7921677,1358.4000244,0.0,330.8,1.4,0.0,0.0,856,131,0,0,860.38,10.12,27.58,# data time:9220,pm2.5:6.445,pm10:5.704,O2:0.000,NO2:0.028,SO2:0.000,NH3:7.346
14:52:58,0,0,0,0,0,2700,2200,1,0,0,0,514,0,0,0,0,0.0000000,0.0000000,0.0000000,0.0000000,7.00,38.4062767,-110.7921677,1358.4000244,0.1,327.9,1.4,0.0,0.0,856,130,0,0,860.47,10.12,27.63,# data time:9220,pm2.5:6.445,pm10:5.704,O2:0.000,NO2:0.028,SO2:0.000,NH3:7.346
14:52:59,0,0,0,0,0,2700,2200,1,0,0,0,513,0,0,0,0,0.0000000,0.0000000,0.0000000,0.0000000,7.00,38.4062767,-110.7921677,1358.4000244,0.1,310.1,1.4,0.0,0.0,856,126,0,0,860.36,10.12,27.63,# data time:9220,pm2.5:6.445,pm10:5.704,O2:0.000,NO2:0.028,SO2:0.000,NH3:7.346
14:53:00,0,0,0,0,0,2700,2200,1,0,0,0,514,0,0,0,0,0.0000000,0.0000000,0.0000000,0.0000000,7.00,38.4062767,-110.7921677,1358.4000244,0.0,264.9,1.4,0.0,0.0,856,133,0,0,860.43,10.12,27.63,# data time:9220,pm2.5:6.445,pm10:5.704,O2:0.000,NO2:0.028,SO2:0.000,NH3:7.346
14:53:01,0,0,0,0,0,2700,2200,1,0,0,0,514,0,0,0,0,0.0000000,0.0000000,0.0000000,0.0000000,7.00,38.4062767,-110.7921677,1358.4000244,0.0,345.7,1.4,0.0,0.0,856,129,0,0,860.64,10.12,27.64,# data time:9220,pm2.5:6.445,pm10:5.704,O2:0.000,NO2:0.028,SO2:0.000,NH3:7.346
14:53:02,0,0,0,0,0,2700,2200,1,0,0,0,514,0,0,0,0,0.0000000,0.0000000,0.0000000,0.0000000,7.00,38.4062767,-110.7921677,1358.4000244,0.0,109.9,1.4,0.0,0.0,855,129,0,0,860.68,10.13,27.63,# data time:9220,pm2.5:6.445,pm10:5.704,O2:0.000,NO2:0.028,SO2:0.000,NH3:7.346
14:53:03,0,0,0,0,0,2700,2200,1,0,0,0,514,0,0,0,0,0.0000000,0.0000000,0.0000000,0.0000000,7.00,38.4062767,-110.7921677,1358.4000244,0.0,333.0,1.4,0.0,0.0,856,129,0,0,860.64,10.15,27.64,# data time:9220,pm2.5:6.445,pm10:5.704,O2:0.000,NO2:0.028,SO2:0.000,NH3:7.346
14:53:04,0,0,0,0,0,2700,2200,1,0,0,0,514,0,0,0,0,0.0000000,0.0000000,0.0000000,0.0000000,7.00,38.4062767,-110.7921677,1358.4000244,0.0,342.6,1.4,0.0,0.0,856,132,0,0,860.71,10.13,27.64,# data time:9220,pm2.5:6.445,pm10:5.704,O2:0.000,NO2:0.028,SO2:0.000,NH3:7.346
14:53:05,0,0,0,0,0,2700,2200,1,0,0,0,514,0,0,0,0,0.0000000,0.0000000,0.0000000,0.0000000,7.00,38.4062767,-110.7921677,1358.4000244,0.1,5.6,1.4,0.0,0.0,856,130,0,0,860.57,10.10,27.64,# data time:9220,pm2.5:6.445,pm10:5.704,O2:0.000,NO2:0.028,SO2:0.000,NH3:7.346
14:53:06,0,0,0,0,0,2700,2200,1,0,0,0,515,0,0,0,0,0.0000000,0.0000000,0.0000000,0.0000000,7.00,38.4062767,-110.7921677,1358.4000244,0.0,67.1,1.4,0.0,0.0,856,126,0,0,860.63,10.10,27.59,# data time:9230,pm2.5:6.445,pm10:5.704,O2:0.000,NO2:0.010,SO2:0.000,NH3:7.346
14:53:07,0,0,0,0,0,2700,2200,1,0,0,0,514,0,0,0,0,0.0000000,0.0000000,0.0000000,0.0000000,7.00,38.4062767,-110.7921677,1358.4000244,0.0,183.4,1.4,0.0,0.0,856,129,0,0,860.45,10.10,27.62,# data time:9230,pm2.5:6.445,pm10:5.704,O2:0.000,NO2:0.010,SO2:0.000,NH3:7.346
14:53:08,0,0,0,0,0,2700,2200,1,0,0,0,514,0,0,0,0,0.0000000,0.0000000,0.0000000,0.0000000,7.00,38.4062767,-110.7921677,1358.4000244,0.0,68.8,1.4,0.0,0.0,856,128,0,0,860.43,10.09,27.62,# data time:9230,pm2.5:6.445,pm10:5.704,O2:0.000,NO2:0.010,SO2:0.000,NH3:7.346
14:53:09,0,0,0,0,0,2700,2200,1,0,0,0,514,0,0,0,0,0.0000000,0.0000000,0.0000000,0.0000000,7.00,38.4062767,-110.7921677,1358.4000244,0.0,73.6,1.4,0.0,0.0,855,128,0,0,860.45,10.10,27.63,# data time:9230,pm2.5:6.445,pm10:5.704,O2:0.000,NO2:0.010,SO2:0.000,NH3:7.346
14:53:10,0,0,0,0,0,2700,2200,1,0,0,0,514,0,0,0,0,0.0000000,0.0000000,0.0000000,0.0000000,7.00,38.4062767,-110.7921677,1358.4000244,0.0,17.2,1.4,0.0,0.0,856,128,0,0,860.53,10.13,27.64,# data time:9230,pm2.5:6.445,pm10:5.704,O2:0.000,NO2:0.010,SO2:0.000,NH3:7.346
14:53:11,0,0,0,0,0,2700,2200,1,0,0,0,514,0,0,0,0,0.0000000,0.0000000,0.0000000,0.0000000,7.00,38.4062767,-110.7921677,1358.3000488,0.0,90.4,1.4,0.0,0.0,856,128,0,0,860.84,10.09,27.63,# data time:9230,pm2.5:6.445,pm10:5.704,O2:0.000,NO2:0.010,SO2:0.000,NH3:7.346
14:53:12,0,0,0,0,0,2700,2200,1,0,0,0,514,0,0,0,0,0.0000000,0.0000000,0.0000000,0.0000000,7.00,38.4062767,-110.7921677,1358.3000488,0.0,125.6,1.4,0.0,0.0,856,129,0,0,860.70,10.09,27.64,# data time:9230,pm2.5:6.445,pm10:5.704,O2:0.000,NO2:0.010,SO2:0.000,NH3:7.346
14:53:14,0,0,0,0,0,2700,2200,1,0,0,0,513,0,0,0,0,0.0000000,0.0000000,0.0000000,0.0000000,7.00,38.4062767,-110.7921677,1358.3000488,0.0,85.8,1.4,0.0,0.0,856,132,0,0,860.50,10.09,27.63,# data time:9230,pm2.5:6.445,pm10:5.704,O2:0.000,NO2:0.010,SO2:0.000,NH3:7.346
14:53:15,0,0,0,0,0,2700,2200,1,0,0,0,514,0,0,0,0,0.0000000,0.0000000,0.0000000,0.0000000,7.00,38.4062767,-110.7921677,1358.3000488,0.0,30.5,1.4,0.0,0.0,856,129,0,0,860.45,10.10,27.63,# data time:9230,pm2.5:6.445,pm10:5.704,O2:0.000,NO2:0.010,SO2:0.000,NH3:7.346
14:53:16,0,0,0,0,0,2700,2200,1,0,0,0,514,0,0,0,0,0.0000000,0.0000000,0.0000000,0.0000000,7.00,38.4062767,-110.7921677,1358.3000488,0.0,33.3,1.4,0.0,0.0,856,129,0,0,860.46,10.12,27.53,# data time:9230,pm2.5:6.445,pm10:5.704,O2:0.000,NO2:0.010,SO2:0.000,NH3:7.346
14:53:17,0,0,0,0,0,2700,2200,1,0,0,0,514,0,0,0,0,0.0000000,0.0000000,0.0000000,0.0000000,7.00,38.4062767,-110.7921677,1358.3000488,0.0,33.3,1.4,0.0,0.0,856,124,0,0,860.28,10.10,27.53,# data time:9240,pm2.5:6.445,pm10:5.704,O2:0.000,NO2:0.010,SO2:0.000,NH3:7.346
14:53:18,0,0,0,0,0,2700,2200,1,0,0,0,515,0,0,0,0,0.0000000,0.0000000,0.0000000,0.0000000,7.00,38.4062767,-110.7921677,1358.3000488,0.0,33.3,1.4,0.0,0.0,856,132,0,0,860.33,10.10,27.58,# data time:9240,pm2.5:6.445,pm10:5.704,O2:0.000,NO2:0.010,SO2:0.000,NH3:7.346
14:53:19,0,0,0,0,0,2700,2200,1,0,0,0,514,0,0,0,0,0.0000000,0.0000000,0.0000000,0.0000000,7.00,38.4062767,-110.7921677,1358.3000488,0.0,33.3,1.4,0.0,0.0,856,129,0,0,860.34,10.10,27.52,# data time:9240,pm2.5:6.445,pm10:5.704,O2:0.000,NO2:0.010,SO2:0.000,NH3:7.346
14:53:20,0,0,0,0,0,2700,2200,1,0,0,0,514,0,0,0,0,0.0000000,0.0000000,0.0000000,0.0000000,7.00,38.4062767,-110.7921677,1358.3000488,0.0,20.5,1.4,0.0,0.0,856,132,0,0,860.34,10.10,27.62,# data time:9240,pm2.5:6.445,pm10:5.704,O2:0.000,NO2:0.010,SO2:0.000,NH3:7.346
14:53:21,0,0,0,0,0,2700,2200,1,0,0,0,515,0,0,0,0,0.0000000,0.0000000,0.0000000,0.0000000,7.00,38.4062767,-110.7921677,1358.3000488,0.0,47.7,1.4,0.0,0.0,856,130,0,0,860.25,10.12,27.62,# data time:9240,pm2.5:6.445,pm10:5.704,O2:0.000,NO2:0.010,SO2:0.000,NH3:7.346
14:53:22,0,0,0,0,0,2700,2200,1,0,0,0,515,0,0,0,0,0.0000000,0.0000000,0.0000000,0.0000000,7.00,38.4062767,-110.7921677,1358.1999512,0.0,22.5,1.4,0.0,0.0,856,129,0,0,860.37,10.10,27.62,# data time:9240,pm2.5:6.445,pm10:5.704,O2:0.000,NO2:0.010,SO2:0.000,NH3:7.346
