Time, Motor A Speed, Motor A Dir, Motor B Speed, Motor B Dir, Servo Rail Current Sensor, Servo Pos - Arm L, Servo Pos - Arm R, Servo Pos - End, Servo Pos - Hopper, Servo Pos - Lid, Servo Pos - Extra, Servo Current, LED - Front L, LED - Front R, LED - Back L, LED - Back R, IMU Pitch, IMU Roll, IMU Yaw, Compass Heading, GPS Sats, GPS Latitude, GPS Longitude, GPS Altitude, GPS Speed, GPS Angle, GPS HDOP, GPS VDOP, GPS PDOP, Battery, Wind, Comm Xbee Latency, Comm Arduino Latency, Pressure, Humidity, Temperature, uRADMonitor
13:32:00,0,0,0,0,0,0,0,0,0,0,0,515,0,0,0,0,0.0000000,0.0000000,0.0000000,0.0000000,8.00,38.4062462,-110.7918701,1368.0999756,0.0,338.5,1.0,0.0,0.0,913,209,0,0,854.04,35.58,38.83,0
13:32:01,0,0,0,0,0,0,0,0,0,0,0,515,0,0,0,0,0.0000000,0.0000000,0.0000000,0.0000000,8.00,38.4062462,-110.7918701,1368.0999756,0.0,355.9,1.0,0.0,0.0,912,197,0,0,853.96,35.63,38.46,0
13:32:02,0,0,0,0,0,0,0,0,0,0,0,515,0,0,0,0,0.0000000,0.0000000,0.0000000,0.0000000,8.00,38.4062462,-110.7918701,1368.0999756,0.0,345.2,1.0,0.0,0.0,913,204,0,0,853.98,35.69,38.72,0
13:32:03,0,0,0,0,0,0,0,0,0,0,0,515,0,0,0,0,0.0000000,0.0000000,0.0000000,0.0000000,8.00,38.4062462,-110.7918701,1368.0999756,0.0,351.7,1.0,0.0,0.0,913,193,0,0,853.98,35.77,38.69,0
13:32:04,0,0,0,0,0,0,0,0,0,0,0,515,0,0,0,0,0.0000000,0.0000000,0.0000000,0.0000000,8.00,38.4062462,-110.7918701,1368.0999756,0.0,83.7,1.0,0.0,0.0,913,181,0,0,854.02,35.77,38.80,0
13:32:05,0,0,0,0,0,0,0,0,0,0,0,515,0,0,0,0,0.0000000,0.0000000,0.0000000,0.0000000,8.00,38.4062462,-110.7918701,1368.0999756,0.0,155.8,1.0,0.0,0.0,913,189,0,0,854.01,35.77,38.72,0
13:32:06,0,0,0,0,0,0,0,0,0,0,0,515,0,0,0,0,0.0000000,0.0000000,0.0000000,0.0000000,8.00,38.4062462,-110.7918701,1368.0999756,0.0,177.3,1.0,0.0,0.0,912,193,0,0,853.91,35.78,38.48,0
13:32:07,0,0,0,0,0,0,0,0,0,0,0,515,0,0,0,0,0.0000000,0.0000000,0.0000000,0.0000000,8.00,38.4062462,-110.7918701,1368.0999756,0.0,171.8,1.0,0.0,0.0,912,203,0,0,853.97,35.74,38.78,0
13:32:08,0,0,0,0,0,0,0,0,0,0,0,515,0,0,0,0,0.0000000,0.0000000,0.0000000,0.0000000,8.00,38.4062462,-110.7918701,1368.0999756,0.0,168.4,1.0,0.0,0.0,912,186,0,0,853.98,35.69,38.87,0
13:32:09,0,0,0,0,0,0,0,0,0,0,0,515,0,0,0,0,0.0000000,0.0000000,0.0000000,0.0000000,8.00,38.4062462,-110.7918701,1368.0999756,0.0,160.6,1.0,0.0,0.0,913,177,0,0,854.06,35.83,38.86,0
13:32:10,0,0,0,0,0,0,0,0,0,0,0,515,0,0,0,0,0.0000000,0.0000000,0.0000000,0.0000000,8.00,38.4062462,-110.7918701,1368.0999756,0.0,288.3,1.0,0.0,0.0,912,169,0,0,854.01,35.83,39.05,0
13:32:11,0,0,0,0,0,0,0,0,0,0,0,515,0,0,0,0,0.0000000,0.0000000,0.0000000,0.0000000,8.00,38.4062462,-110.7918701,1368.0999756,0.0,11.5,1.0,0.0,0.0,912,158,0,0,853.99,35.83,39.29,0
13:32:12,0,0,0,0,0,0,0,0,0,0,0,515,0,0,0,0,0.0000000,0.0000000,0.0000000,0.0000000,8.00,38.4062462,-110.7918701,1368.0999756,0.0,353.6,1.0,0.0,0.0,913,155,0,0,854.02,35.84,39.38,0
13:32:13,0,0,0,0,0,0,0,0,0,0,0,515,0,0,0,0,0.0000000,0.0000000,0.0000000,0.0000000,8.00,38.4062462,-110.7918701,1368.0999756,0.0,343.1,1.0,0.0,0.0,912,171,0,0,854.22,35.80,39.14,0
13:32:14,0,0,0,0,0,0,0,0,0,0,0,515,0,0,0,0,0.0000000,0.0000000,0.0000000,0.0000000,8.00,38.4062462,-110.7918701,1368.0999756,0.0,345.6,1.0,0.0,0.0,912,165,0,0,854.03,35.83,39.26,0
13:32:15,0,0,0,0,0,0,0,0,0,0,0,515,0,0,0,0,0.0000000,0.0000000,0.0000000,0.0000000,8.00,38.4062462,-110.7918701,1368.0999756,0.0,353.3,1.0,0.0,0.0,912,160,0,0,854.09,35.75,39.33,0
13:32:16,0,0,0,0,0,0,0,0,0,0,0,516,0,0,0,0,0.0000000,0.0000000,0.0000000,0.0000000,8.00,38.4062462,-110.7918701,1368.0999756,0.0,208.3,1.0,0.0,0.0,912,168,0,0,854.07,35.77,39.22,0
13:32:17,0,0,0,0,0,0,0,0,0,0,0,515,0,0,0,0,0.0000000,0.0000000,0.0000000,0.0000000,8.00,38.4062462,-110.7918701,1368.0999756,0.0,167.1,1.0,0.0,0.0,912,176,0,0,854.01,35.75,39.11,0
13:32:18,0,0,0,0,0,0,0,0,0,0,0,515,0,0,0,0,0.0000000,0.0000000,0.0000000,0.0000000,8.00,38.4062462,-110.7918701,1368.0999756,0.0,159.5,1.0,0.0,0.0,912,198,0,0,854.26,35.86,38.85,0
13:32:19,0,0,0,0,0,0,0,0,0,0,0,515,0,0,0,0,0.0000000,0.0000000,0.0000000,0.0000000,8.00,38.4062462,-110.7918701,1368.0999756,0.0,173.1,1.0,0.0,0.0,912,192,0,0,853.98,35.93,38.50,0
13:32:20,0,0,0,0,0,0,0,0,0,0,0,515,0,0,0,0,0.0000000,0.0000000,0.0000000,0.0000000,8.00,38.4062462,-110.7918701,1368.0999756,0.0,172.1,1.0,0.0,0.0,913,180,0,0,854.06,36.04,38.57,0
13:32:21,0,0,0,0,0,0,0,0,0,0,0,515,0,0,0,0,0.0000000,0.0000000,0.0000000,0.0000000,8.00,38.4062462,-110.7918701,1368.0999756,0.0,149.2,1.0,0.0,0.0,912,174,0,0,853.97,36.00,38.91,0
13:32:22,0,0,0,0,0,0,0,0,0,0,0,515,0,0,0,0,0.0000000,0.0000000,0.0000000,0.0000000,8.00,38.4062462,-110.7918701,1368.0999756,0.0,176.2,1.0,0.0,0.0,912,205,0,0,854.13,35.86,39.11,0
13:32:23,0,0,0,0,0,0,0,0,0,0,0,515,0,0,0,0,0.0000000,0.0000000,0.0000000,0.0000000,8.00,38.4062462,-110.7918701,1368.0999756,0.0,325.9,1.0,0.0,0.0,912,193,0,0,854.04,35.78,39.04,0
13:32:24,0,0,0,0,0,0,0,0,0,0,0,515,0,0,0,0,0.0000000,0.0000000,0.0000000,0.0000000,8.00,38.4062462,-110.7918701,1368.0999756,0.0,331.8,1.0,0.0,0.0,912,193,0,0,853.96,35.63,39.24,0
13:32:25,0,0,0,0,0,0,0,0,0,0,0,515,0,0,0,0,0.0000000,0.0000000,0.0000000,0.0000000,8.00,38.4062462,-110.7918701,1368.0999756,0.0,343.1,1.0,0.0,0.0,912,196,0,0,854.06,35.69,39.29,0
13:32:26,0,0,0,0,0,0,0,0,0,0,0,515,0,0,0,0,0.0000000,0.0000000,0.0000000,0.0000000,8.00,38.4062462,-110.7918701,1368.0999756,0.0,307.4,1.0,0.0,0.0,912,179,0,0,854.02,35.77,39.24,0
13:32:27,0,0,0,0,0,0,0,0,0,0,0,516,0,0,0,0,0.0000000,0.0000000,0.0000000,0.0000000,8.00,38.4062462,-110.7918701,1368.0000000,0.0,307.5,1.0,0.0,0.0,913,176,0,0,854.00,35.72,39.26,0
13:32:28,0,0,0,0,0,0,0,0,0,0,0,515,0,0,0,0,0.0000000,0.0000000,0.0000000,0.0000000,8.00,38.4062462,-110.7918701,1367.8000488,0.0,286.1,1.0,0.0,0.0,912,189,0,0,853.89,35.60,39.32,0
13:32:29,0,0,0,0,0,0,0,0,0,0,0,515,0,0,0,0,0.0000000,0.0000000,0.0000000,0.0000000,8.00,38.4062462,-110.7918701,1367.6999512,0.0,181.1,1.0,0.0,0.0,912,188,0,0,853.97,35.69,39.39,0
13:32:30,0,0,0,0,0,0,0,0,0,0,0,516,0,0,0,0,0.0000000,0.0000000,0.0000000,0.0000000,8.00,38.4062462,-110.7918701,1367.5999756,0.0,198.7,1.0,0.0,0.0,912,190,0,0,853.81,35.03,39.45,0
13:32:31,0,0,0,0,0,0,0,0,0,0,0,514,0,0,0,0,0.0000000,0.0000000,0.0000000,0.0000000,8.00,38.4062462,-110.7918701,1367.5999756,0.0,320.0,1.0,0.0,0.0,912,200,0,0,853.92,34.27,39.33,0
13:32:32,0,0,0,0,0,0,0,0,0,0,0,515,0,0,0,0,0.0000000,0.0000000,0.0000000,0.0000000,8.00,38.4062462,-110.7918701,1367.5999756,0.0,198.4,1.0,0.0,0.0,912,196,0,0,853.94,34.29,39.41,0
13:32:33,0,0,0,0,0,0,0,0,0,0,0,515,0,0,0,0,0.0000000,0.0000000,0.0000000,0.0000000,8.00,38.4062462,-110.7918701,1367.5999756,0.0,228.1,1.0,0.0,0.0,912,192,0,0,853.96,34.23,39.22,0
13:32:34,0,0,0,0,0,0,0,0,0,0,0,515,0,0,0,0,0.0000000,0.0000000,0.0000000,0.0000000,8.00,38.4062462,-110.7918701,1367.5999756,0.0,56.4,1.0,0.0,0.0,912,213,0,0,854.02,34.15,39.29,0
13:32:35,0,0,0,0,0,0,0,0,0,0,0,515,0,0,0,0,0.0000000,0.0000000,0.0000000,0.0000000,8.00,38.4062462,-110.7918701,1367.5999756,0.0,323.8,1.0,0.0,0.0,912,195,0,0,853.79,34.27,39.38,0
13:32:36,0,0,0,0,0,0,0,0,0,0,0,515,0,0,0,0,0.0000000,0.0000000,0.0000000,0.0000000,8.00,38.4062462,-110.7918701,1367.5999756,0.0,328.6,1.0,0.0,0.0,912,192,0,0,853.95,34.30,39.51,0
13:32:37,0,0,0,0,0,0,0,0,0,0,0,515,0,0,0,0,0.0000000,0.0000000,0.0000000,0.0000000,8.00,38.4062462,-110.7918701,1367.5999756,0.0,18.9,1.0,0.0,0.0,912,183,0,0,853.87,34.32,39.62,0
13:32:38,0,0,0,0,0,0,0,0,0,0,0,515,0,0,0,0,0.0000000,0.0000000,0.0000000,0.0000000,8.00,38.4062462,-110.7918701,1367.5999756,0.0,59.2,1.0,0.0,0.0,912,169,0,0,853.95,34.32,39.76,0
13:32:39,0,0,0,0,0,0,0,0,0,0,0,515,0,0,0,0,0.0000000,0.0000000,0.0000000,0.0000000,8.00,38.4062462,-110.7918701,1367.5999756,0.0,167.6,1.0,0.0,0.0,912,178,0,0,853.87,34.20,39.90,0
13:32:40,0,0,0,0,0,0,0,0,0,0,0,515,0,0,0,0,0.0000000,0.0000000,0.0000000,0.0000000,8.00,38.4062462,-110.7918701,1367.5999756,0.0,217.7,1.0,0.0,0.0,912,180,0,0,853.89,34.23,40.04,0
13:32:41,0,0,0,0,0,0,0,0,0,0,0,515,0,0,0,0,0.0000000,0.0000000,0.0000000,0.0000000,8.00,38.4062462,-110.7918701,1367.5999756,0.0,237.3,1.0,0.0,0.0,912,179,0,0,854.01,34.20,40.12,0
13:32:42,0,0,0,0,0,0,0,0,0,0,0,515,0,0,0,0,0.0000000,0.0000000,0.0000000,0.0000000,8.00,38.4062462,-110.7918701,1367.5999756,0.0,144.6,1.0,0.0,0.0,912,187,0,0,853.98,34.24,40.04,0
13:32:43,0,0,0,0,0,0,0,0,0,0,0,515,0,0,0,0,0.0000000,0.0000000,0.0000000,0.0000000,8.00,38.4062462,-110.7918701,1367.5999756,0.0,208.5,1.0,0.0,0.0,912,176,0,0,853.85,34.27,40.07,0
13:32:44,0,0,0,0,0,0,0,0,0,0,0,515,0,0,0,0,0.0000000,0.0000000,0.0000000,0.0000000,8.00,38.4062462,-110.7918701,1367.5999756,0.0,166.7,1.0,0.0,0.0,913,169,0,0,853.93,34.21,40.14,0
13:32:45,0,0,0,0,0,0,0,0,0,0,0,516,0,0,0,0,0.0000000,0.0000000,0.0000000,0.0000000,8.00,38.4062462,-110.7918701,1367.5999756,0.0,75.2,1.0,0.0,0.0,912,165,0,0,853.97,34.21,40.27,0
13:32:46,0,0,0,0,0,0,0,0,0,0,0,515,0,0,0,0,0.0000000,0.0000000,0.0000000,0.0000000,8.00,38.4062462,-110.7918701,1367.5999756,0.0,40.4,1.0,0.0,0.0,912,167,0,0,853.94,34.26,40.39,0
13:32:47,0,0,0,0,0,0,0,0,0,0,0,516,0,0,0,0,0.0000000,0.0000000,0.0000000,0.0000000,8.00,38.4062462,-110.7918701,1367.5999756,0.0,49.5,1.0,0.0,0.0,912,160,0,0,853.97,34.36,40.34,0
13:32:48,0,0,0,0,0,0,0,0,0,0,0,514,0,0,0,0,0.0000000,0.0000000,0.0000000,0.0000000,8.00,38.4062462,-110.7918701,1367.5999756,0.0,33.9,1.0,0.0,0.0,912,162,0,0,853.85,34.16,40.41,0
13:32:49,0,0,0,0,0,0,0,0,0,0,0,515,0,0,0,0,0.0000000,0.0000000,0.0000000,0.0000000,8.00,38.4062462,-110.7918701,1367.5999756,0.0,8.7,1.0,0.0,0.0,912,167,0,0,853.91,34.26,40.57,0
13:32:50,0,0,0,0,0,0,0,0,0,0,0,515,0,0,0,0,0.0000000,0.0000000,0.0000000,0.0000000,8.00,38.4062462,-110.7918701,1367.5999756,0.0,82.1,1.0,0.0,0.0,912,172,0,0,853.81,34.18,40.68,0
13:32:51,0,0,0,0,0,0,0,0,0,0,0,515,0,0,0,0,0.0000000,0.0000000,0.0000000,0.0000000,8.00,38.4062462,-110.7918701,1367.5999756,0.0,211.4,1.0,0.0,0.0,913,189,0,0,853.82,34.18,40.73,0
13:32:52,0,0,0,0,0,0,0,0,0,0,0,516,0,0,0,0,0.0000000,0.0000000,0.0000000,0.0000000,8.00,38.4062424,-110.7918701,1367.5999756,0.0,251.3,1.0,0.0,0.0,912,190,0,0,853.83,34.10,40.71,0
13:32:53,0,0,0,0,0,0,0,0,0,0,0,515,0,0,0,0,0.0000000,0.0000000,0.0000000,0.0000000,8.00,38.4062424,-110.7918701,1367.5999756,0.0,151.1,1.0,0.0,0.0,912,189,0,0,853.82,34.12,40.55,0
13:32:54,0,0,0,0,0,0,0,0,0,0,0,516,0,0,0,0,0.0000000,0.0000000,0.0000000,0.0000000,8.00,38.4062424,-110.7918701,1367.5999756,0.0,260.1,1.0,0.0,0.0,912,192,0,0,853.81,34.32,40.62,0
13:32:55,0,0,0,0,0,0,0,0,0,0,0,515,0,0,0,0,0.0000000,0.0000000,0.0000000,0.0000000,8.00,38.4062424,-110.7918701,1367.5999756,0.0,156.2,1.0,0.0,0.0,912,187,0,0,853.92,34.32,40.66,0
13:32:56,0,0,0,0,0,0,0,0,0,0,0,515,0,0,0,0,0.0000000,0.0000000,0.0000000,0.0000000,8.00,38.4062424,-110.7918701,1367.5999756,0.0,199.2,1.0,0.0,0.0,912,176,0,0,853.90,34.35,40.56,0
13:32:57,0,0,0,0,0,0,0,0,0,0,0,515,0,0,0,0,0.0000000,0.0000000,0.0000000,0.0000000,8.00,38.4062424,-110.7918701,1367.5999756,0.0,67.7,1.0,0.0,0.0,912,179,0,0,853.90,34.33,40.50,0
13:32:58,0,0,0,0,0,0,0,0,0,0,0,515,0,0,0,0,0.0000000,0.0000000,0.0000000,0.0000000,8.00,38.4062424,-110.7918701,1367.5999756,0.0,359.8,1.0,0.0,0.0,912,169,0,0,853.80,34.53,40.33,0
13:32:59,0,0,0,0,0,0,0,0,0,0,0,515,0,0,0,0,0.0000000,0.0000000,0.0000000,0.0000000,8.00,38.4062424,-110.7918701,1367.5999756,0.0,85.0,1.0,0.0,0.0,912,175,0,0,853.82,34.39,40.35,0
13:33:00,0,0,0,0,0,0,0,0,0,0,0,515,0,0,0,0,0.0000000,0.0000000,0.0000000,0.0000000,8.00,38.4062424,-110.7918701,1367.5999756,0.0,79.4,1.0,0.0,0.0,913,185,0,0,853.87,34.42,40.19,0
13:33:01,0,0,0,0,0,0,0,0,0,0,0,516,0,0,0,0,0.0000000,0.0000000,0.0000000,0.0000000,8.00,38.4062424,-110.7918701,1367.5999756,0.0,49.7,1.0,0.0,0.0,912,191,0,0,853.77,34.38,40.07,0
13:33:02,0,0,0,0,0,0,0,0,0,0,0,515,0,0,0,0,0.0000000,0.0000000,0.0000000,0.0000000,8.00,38.4062424,-110.7918701,1367.5999756,0.0,347.7,1.0,0.0,0.0,912,183,0,0,853.97,34.49,40.24,0
13:33:03,0,0,0,0,0,0,0,0,0,0,0,514,0,0,0,0,0.0000000,0.0000000,0.0000000,0.0000000,8.00,38.4062424,-110.7918701,1367.5999756,0.0,147.3,1.0,0.0,0.0,912,175,0,0,853.87,34.55,40.32,0
13:33:04,0,0,0,0,0,0,0,0,0,0,0,515,0,0,0,0,0.0000000,0.0000000,0.0000000,0.0000000,8.00,38.4062424,-110.7918701,1367.5999756,0.0,39.5,1.0,0.0,0.0,912,168,0,0,853.96,34.52,40.47,0
13:33:05,0,0,0,0,0,0,0,0,0,0,0,515,0,0,0,0,0.0000000,0.0000000,0.0000000,0.0000000,8.00,38.4062424,-110.7918701,1367.5999756,0.0,95.3,1.0,0.0,0.0,912,167,0,0,853.92,34.49,40.39,0
13:33:06,0,0,0,0,0,0,0,0,0,0,0,515,0,0,0,0,0.0000000,0.0000000,0.0000000,0.0000000,8.00,38.4062424,-110.7918701,1367.5999756,0.0,96.6,1.0,0.0,0.0,912,173,0,0,853.95,34.65,40.53,0
13:33:07,0,0,0,0,0,0,0,0,0,0,0,515,0,0,0,0,0.0000000,0.0000000,0.0000000,0.0000000,8.00,38.4062424,-110.7918701,1367.5999756,0.0,94.1,1.0,0.0,0.0,911,171,0,0,853.91,34.58,40.48,0
13:33:08,0,0,0,0,0,0,0,0,0,0,0,515,0,0,0,0,0.0000000,0.0000000,0.0000000,0.0000000,8.00,38.4062424,-110.7918701,1367.5999756,0.0,92.4,1.0,0.0,0.0,912,162,0,0,853.95,34.62,40.59,0
13:33:09,0,0,0,0,0,0,0,0,0,0,0,515,0,0,0,0,0.0000000,0.0000000,0.0000000,0.0000000,8.00,38.4062424,-110.7918701,1367.5999756,0.0,16.4,1.0,0.0,0.0,912,173,0,0,853.91,34.67,40.16,0
13:33:10,0,0,0,0,0,0,0,0,0,0,0,515,0,0,0,0,0.0000000,0.0000000,0.0000000,0.0000000,8.00,38.4062424,-110.7918701,1367.5999756,0.0,285.3,1.0,0.0,0.0,912,181,0,0,853.80,34.62,40.11,0
13:33:11,0,0,0,0,0,0,0,0,0,0,0,514,0,0,0,0,0.0000000,0.0000000,0.0000000,0.0000000,8.00,38.4062424,-110.7918701,1367.5999756,0.0,261.4,1.0,0.0,0.0,912,204,0,0,853.91,34.58,40.11,0
13:33:12,0,0,0,0,0,0,0,0,0,0,0,515,0,0,0,0,0.0000000,0.0000000,0.0000000,0.0000000,8.00,38.4062424,-110.7918701,1367.5999756,0.0,225.5,1.0,0.0,0.0,912,197,0,0,853.93,34.68,40.34,0
13:33:13,0,0,0,0,0,0,0,0,0,0,0,516,0,0,0,0,0.0000000,0.0000000,0.0000000,0.0000000,8.00,38.4062424,-110.7918701,1367.5999756,0.0,209.5,1.0,0.0,0.0,912,187,0,0,853.82,34.62,40.38,0
13:33:14,0,0,0,0,0,0,0,0,0,0,0,516,0,0,0,0,0.0000000,0.0000000,0.0000000,0.0000000,8.00,38.4062424,-110.7918701,1367.5999756,0.0,259.1,1.0,0.0,0.0,912,193,0,0,853.91,34.64,40.62,0
13:33:15,0,0,0,0,0,0,0,0,0,0,0,515,0,0,0,0,0.0000000,0.0000000,0.0000000,0.0000000,8.00,38.4062424,-110.7918701,1367.5999756,0.0,196.5,1.0,0.0,0.0,912,196,0,0,854.04,34.67,40.71,0
13:33:16,0,0,0,0,0,0,0,0,0,0,0,515,0,0,0,0,0.0000000,0.0000000,0.0000000,0.0000000,8.00,38.4062424,-110.7918701,1367.5999756,0.0,87.6,1.0,0.0,0.0,912,179,0,0,853.99,34.61,40.61,0
13:33:17,0,0,0,0,0,0,0,0,0,0,0,515,0,0,0,0,0.0000000,0.0000000,0.0000000,0.0000000,8.00,38.4062424,-110.7918701,1367.5999756,0.0,239.8,1.0,0.0,0.0,912,174,0,0,853.94,34.65,40.79,0
13:33:18,0,0,0,0,0,0,0,0,0,0,0,515,0,0,0,0,0.0000000,0.0000000,0.0000000,0.0000000,8.00,38.4062424,-110.7918701,1367.5999756,0.0,46.8,1.0,0.0,0.0,912,171,0,0,854.05,34.70,40.72,0
13:33:19,0,0,0,0,0,0,0,0,0,0,0,514,0,0,0,0,0.0000000,0.0000000,0.0000000,0.0000000,8.00,38.4062424,-110.7918701,1367.5999756,0.0,37.4,1.0,0.0,0.0,912,168,0,0,854.18,34.71,40.41,0
13:33:20,0,0,0,0,0,0,0,0,0,0,0,514,0,0,0,0,0.0000000,0.0000000,0.0000000,0.0000000,8.00,38.4062424,-110.7918701,1367.5999756,0.0,49.7,1.0,0.0,0.0,912,170,0,0,853.91,34.94,40.14,0
13:33:21,0,0,0,0,0,0,0,0,0,0,0,516,0,0,0,0,0.0000000,0.0000000,0.0000000,0.0000000,8.00,38.4062424,-110.7918701,1367.5999756,0.0,24.7,1.0,0.0,0.0,912,161,0,0,853.90,34.82,40.39,0
13:33:22,0,0,0,0,0,0,0,0,0,0,0,515,0,0,0,0,0.0000000,0.0000000,0.0000000,0.0000000,8.00,38.4062424,-110.7918701,1367.5999756,0.0,192.3,1.0,0.0,0.0,912,170,0,0,853.92,34.85,40.52,0
13:33:23,0,0,0,0,0,0,0,0,0,0,0,515,0,0,0,0,0.0000000,0.0000000,0.0000000,0.0000000,8.00,38.4062424,-110.7918701,1367.5999756,0.0,176.4,1.0,0.0,0.0,912,163,0,0,853.84,34.85,40.56,0
13:33:24,0,0,0,0,0,0,0,0,0,0,0,515,0,0,0,0,0.0000000,0.0000000,0.0000000,0.0000000,8.00,38.4062424,-110.7918701,1367.5999756,0.0,106.5,1.0,0.0,0.0,912,159,0,0,853.88,34.96,40.63,0
13:33:25,0,0,0,0,0,0,0,0,0,0,0,514,0,0,0,0,0.0000000,0.0000000,0.0000000,0.0000000,8.00,38.4062424,-110.7918701,1367.5999756,0.0,186.7,1.0,0.0,0.0,912,159,0,0,853.93,34.96,40.58,0
13:33:26,0,0,0,0,0,0,0,0,0,0,0,514,0,0,0,0,0.0000000,0.0000000,0.0000000,0.0000000,8.00,38.4062424,-110.7918701,1367.5999756,0.0,170.7,1.0,0.0,0.0,912,155,0,0,853.88,34.96,40.44,0
13:33:27,0,0,0,0,0,0,0,0,0,0,0,515,0,0,0,0,0.0000000,0.0000000,0.0000000,0.0000000,8.00,38.4062424,-110.7918701,1367.5999756,0.0,202.8,1.0,0.0,0.0,912,161,0,0,853.88,34.96,40.66,0
13:33:28,0,0,0,0,0,0,0,0,0,0,0,515,0,0,0,0,0.0000000,0.0000000,0.0000000,0.0000000,8.00,38.4062424,-110.7918701,1367.5999756,0.0,355.5,1.0,0.0,0.0,912,183,0,0,853.91,35.03,40.84,0
13:33:30,0,0,0,0,0,0,0,0,0,0,0,515,0,0,0,0,0.0000000,0.0000000,0.0000000,0.0000000,8.00,38.4062424,-110.7918701,1367.5999756,0.0,343.4,1.0,0.0,0.0,912,172,0,0,853.85,34.88,41.07,0
13:33:31,0,0,0,0,0,0,0,0,0,0,0,515,0,0,0,0,0.0000000,0.0000000,0.0000000,0.0000000,8.00,38.4062424,-110.7918701,1367.5999756,0.0,339.4,1.0,0.0,0.0,912,175,0,0,853.95,34.78,40.97,0
13:33:32,0,0,0,0,0,0,0,0,0,0,0,516,0,0,0,0,0.0000000,0.0000000,0.0000000,0.0000000,8.00,38.4062424,-110.7918701,1367.5999756,0.0,5.3,1.0,0.0,0.0,912,178,0,0,855.39,4.85,41.07,0
13:33:33,0,0,0,0,0,0,0,0,0,0,0,516,0,0,0,0,0.0000000,0.0000000,0.0000000,0.0000000,8.00,38.4062424,-110.7918701,1367.5999756,0.0,105.9,1.0,0.0,0.0,912,177,0,0,855.20,4.97,40.88,0
13:33:34,0,0,0,0,0,0,0,0,0,0,0,515,0,0,0,0,0.0000000,0.0000000,0.0000000,0.0000000,8.00,38.4062424,-110.7918701,1367.5999756,0.0,87.6,1.0,0.0,0.0,912,188,0,0,855.41,5.04,40.62,0
13:33:35,0,0,0,0,0,0,0,0,0,0,0,515,0,0,0,0,0.0000000,0.0000000,0.0000000,0.0000000,8.00,38.4062424,-110.7918701,1367.5999756,0.0,109.2,1.0,0.0,0.0,912,178,0,0,855.46,5.11,40.46,0
13:33:36,0,0,0,0,0,0,0,0,0,0,0,515,0,0,0,0,0.0000000,0.0000000,0.0000000,0.0000000,8.00,38.4062424,-110.7918701,1367.5999756,0.0,138.9,1.0,0.0,0.0,912,166,0,0,855.49,5.23,40.39,0
13:33:37,0,0,0,0,0,0,0,0,0,0,0,515,0,0,0,0,0.0000000,0.0000000,0.0000000,0.0000000,8.00,38.4062424,-110.7918701,1367.5999756,0.0,168.7,1.0,0.0,0.0,911,168,0,0,855.52,5.34,40.27,0
13:33:38,0,0,0,0,0,0,0,0,0,0,0,515,0,0,0,0,0.0000000,0.0000000,0.0000000,0.0000000,8.00,38.4062424,-110.7918701,1367.5999756,0.0,76.5,1.0,0.0,0.0,912,162,0,0,855.48,5.49,40.00,0
13:33:39,0,0,0,0,0,0,0,0,0,0,0,515,0,0,0,0,0.0000000,0.0000000,0.0000000,0.0000000,8.00,38.4062424,-110.7918701,1367.5999756,0.0,137.8,1.0,0.0,0.0,912,160,0,0,853.99,33.77,39.77,0
13:33:40,0,0,0,0,0,0,0,0,0,0,0,515,0,0,0,0,0.0000000,0.0000000,0.0000000,0.0000000,8.00,38.4062424,-110.7918701,1367.5999756,0.0,246.5,1.0,0.0,0.0,912,160,0,0,854.01,33.30,40.01,0
13:33:41,0,0,0,0,0,0,0,0,0,0,0,515,0,0,0,0,0.0000000,0.0000000,0.0000000,0.0000000,8.00,38.4062424,-110.7918701,1367.5999756,0.0,206.6,1.0,0.0,0.0,912,164,0,0,853.98,33.94,40.26,0
13:33:42,0,0,0,0,0,0,0,0,0,0,0,515,0,0,0,0,0.0000000,0.0000000,0.0000000,0.0000000,8.00,38.4062424,-110.7918701,1367.5999756,0.0,320.3,1.0,0.0,0.0,912,153,0,0,854.02,35.39,40.17,0
13:33:43,0,0,0,0,0,0,0,0,0,0,0,515,0,0,0,0,0.0000000,0.0000000,0.0000000,0.0000000,8.00,38.4062424,-110.7918701,1367.5999756,0.0,14.3,1.0,0.0,0.0,912,162,0,0,853.87,35.20,40.10,0
13:33:44,0,0,0,0,0,0,0,0,0,0,0,514,0,0,0,0,0.0000000,0.0000000,0.0000000,0.0000000,8.00,38.4062424,-110.7918701,1367.5999756,0.0,345.0,1.0,0.0,0.0,912,167,0,0,854.03,33.30,40.21,0
13:33:45,0,0,0,0,0,0,0,0,0,0,0,515,0,0,0,0,0.0000000,0.0000000,0.0000000,0.0000000,8.00,38.4062424,-110.7918701,1367.5999756,0.0,41.4,1.0,0.0,0.0,912,167,0,0,854.15,30.95,40.38,0
13:33:46,0,0,0,0,0,0,0,0,0,0,0,515,0,0,0,0,0.0000000,0.0000000,0.0000000,0.0000000,8.00,38.4062424,-110.7918701,1367.5999756,0.0,74.7,1.0,0.0,0.0,912,171,0,0,854.32,28.40,40.09,0
13:33:47,0,0,0,0,0,0,0,0,0,0,0,515,0,0,0,0,0.0000000,0.0000000,0.0000000,0.0000000,8.00,38.4062424,-110.7918701,1367.5999756,0.0,157.7,1.0,0.0,0.0,912,171,0,0,854.42,26.72,39.94,0
13:33:48,0,0,0,0,0,0,0,0,0,0,0,515,0,0,0,0,0.0000000,0.0000000,0.0000000,0.0000000,8.00,38.4062424,-110.7918701,1367.5999756,0.0,194.8,1.0,0.0,0.0,912,173,0,0,854.53,24.06,40.21,0
13:33:49,0,0,0,0,0,0,0,0,0,0,0,515,0,0,0,0,0.0000000,0.0000000,0.0000000,0.0000000,8.00,38.4062424,-110.7918701,1367.5999756,0.0,161.5,1.0,0.0,0.0,912,169,0,0,854.87,18.30,40.45,0
13:33:50,0,0,0,0,0,0,0,0,0,0,0,515,0,0,0,0,0.0000000,0.0000000,0.0000000,0.0000000,8.00,38.4062424,-110.7918701,1367.5999756,0.0,151.5,1.0,0.0,0.0,912,164,0,0,855.16,13.90,40.58,0
13:33:51,0,0,0,0,0,0,0,0,0,0,0,515,0,0,0,0,0.0000000,0.0000000,0.0000000,0.0000000,8.00,38.4062424,-110.7918701,1367.5999756,0.0,168.7,1.0,0.0,0.0,912,182,0,0,855.31,12.97,40.55,0
13:33:52,0,0,0,0,0,0,0,0,0,0,0,515,0,0,0,0,0.0000000,0.0000000,0.0000000,0.0000000,8.00,38.4062424,-110.7918701,1367.5999756,0.0,239.7,1.0,0.0,0.0,912,180,0,0,855.27,13.72,40.36,0
13:33:53,0,0,0,0,0,0,0,0,0,0,0,515,0,0,0,0,0.0000000,0.0000000,0.0000000,0.0000000,8.00,38.4062424,-110.7918701,1367.5999756,0.0,341.7,1.0,0.0,0.0,912,172,0,0,855.12,15.95,40.05,0
13:33:54,0,0,0,0,0,0,0,0,0,0,0,514,0,0,0,0,0.0000000,0.0000000,0.0000000,0.0000000,8.00,38.4062424,-110.7918701,1367.5999756,0.0,34.5,1.0,0.0,0.0,911,173,0,0,854.73,20.22,39.48,0
13:33:55,0,0,0,0,0,0,0,0,0,0,0,514,0,0,0,0,0.0000000,0.0000000,0.0000000,0.0000000,8.00,38.4062424,-110.7918701,1367.5999756,0.0,24.9,1.0,0.0,0.0,912,190,0,0,854.56,24.67,39.52,0
13:33:56,0,0,0,0,0,0,0,0,0,0,0,515,0,0,0,0,0.0000000,0.0000000,0.0000000,0.0000000,8.00,38.4062424,-110.7918701,1367.5999756,0.0,203.0,1.0,0.0,0.0,911,183,0,0,854.58,24.83,39.68,0
13:33:57,0,0,0,0,0,0,0,0,0,0,0,518,0,0,0,0,0.0000000,0.0000000,0.0000000,0.0000000,8.00,38.4062424,-110.7918701,1367.5999756,0.0,352.4,1.0,0.0,0.0,912,180,0,0,854.63,22.81,39.64,0
13:33:58,0,0,0,0,0,0,0,0,0,0,0,513,0,0,0,0,0.0000000,0.0000000,0.0000000,0.0000000,8.00,38.4062424,-110.7918701,1367.5999756,0.0,50.9,1.0,0.0,0.0,911,167,0,0,854.64,20.28,39.63,0
13:33:59,0,0,0,0,0,0,0,0,0,0,0,514,0,0,0,0,0.0000000,0.0000000,0.0000000,0.0000000,8.00,38.4062424,-110.7918701,1367.5999756,0.0,185.1,1.0,0.0,0.0,912,197,0,0,854.85,17.38,39.59,0
13:34:00,0,0,0,0,0,0,0,0,0,0,0,517,0,0,0,0,0.0000000,0.0000000,0.0000000,0.0000000,8.00,38.4062424,-110.7918701,1367.5999756,0.0,160.4,1.0,0.0,0.0,913,185,0,0,854.98,16.10,39.53,0
13:34:01,0,0,0,0,0,0,0,0,0,0,0,512,0,0,0,0,0.0000000,0.0000000,0.0000000,0.0000000,8.00,38.4062424,-110.7918701,1367.5999756,0.0,143.3,1.0,0.0,0.0,911,201,0,0,855.09,16.42,38.77,0
13:34:02,0,0,0,0,0,0,0,0,0,0,0,511,0,0,0,0,0.0000000,0.0000000,0.0000000,0.0000000,8.00,38.4062424,-110.7918701,1367.5999756,0.0,199.0,1.0,0.0,0.0,912,180,0,0,854.97,16.69,38.73,0
13:34:03,0,0,0,0,0,0,0,0,0,0,0,517,0,0,0,0,0.0000000,0.0000000,0.0000000,0.0000000,8.00,38.4062424,-110.7918701,1367.5999756,0.0,199.0,1.0,0.0,0.0,913,169,0,0,854.82,18.08,38.89,0
13:34:04,0,0,0,0,0,0,0,0,0,0,0,518,0,0,0,0,0.0000000,0.0000000,0.0000000,0.0000000,8.00,38.4062424,-110.7918701,1367.5999756,0.0,234.2,1.0,0.0,0.0,912,182,0,0,854.70,20.45,38.50,0
13:34:05,0,0,0,0,0,0,0,0,0,0,0,515,0,0,0,0,0.0000000,0.0000000,0.0000000,0.0000000,8.00,38.4062424,-110.7918701,1367.5999756,0.0,284.0,1.0,0.0,0.0,912,179,0,0,854.55,24.87,38.29,0
13:34:06,0,0,0,0,0,0,0,0,0,0,0,514,0,0,0,0,0.0000000,0.0000000,0.0000000,0.0000000,8.00,38.4062424,-110.7918701,1367.5999756,0.0,299.8,1.0,0.0,0.0,912,173,0,0,854.21,30.33,38.45,0
13:34:07,0,0,0,0,0,0,0,0,0,0,0,516,0,0,0,0,0.0000000,0.0000000,0.0000000,0.0000000,8.00,38.4062424,-110.7918701,1367.5999756,0.0,273.0,1.0,0.0,0.0,912,162,0,0,854.03,33.55,38.38,0
13:34:08,0,0,0,0,0,0,0,0,0,0,0,516,0,0,0,0,0.0000000,0.0000000,0.0000000,0.0000000,8.00,38.4062424,-110.7918701,1367.5999756,0.0,341.7,1.0,0.0,0.0,912,163,0,0,853.89,34.56,38.38,0
13:34:09,0,0,0,0,0,0,0,0,0,0,0,514,0,0,0,0,0.0000000,0.0000000,0.0000000,0.0000000,8.00,38.4062424,-110.7918701,1367.5999756,0.0,24.5,1.0,0.0,0.0,911,157,0,0,853.87,34.47,38.68,0
13:34:10,0,0,0,0,0,0,0,0,0,0,0,516,0,0,0,0,0.0000000,0.0000000,0.0000000,0.0000000,8.00,38.4062424,-110.7918701,1367.5999756,0.0,132.6,1.0,0.0,0.0,912,169,0,0,853.69,34.56,38.68,0
13:34:11,0,0,0,0,0,0,0,0,0,0,0,515,0,0,0,0,0.0000000,0.0000000,0.0000000,0.0000000,8.00,38.4062424,-110.7918701,1367.5999756,0.0,121.9,1.0,0.0,0.0,912,203,0,0,853.83,35.11,38.87,0
13:34:12,0,0,0,0,0,0,0,0,0,0,0,515,0,0,0,0,0.0000000,0.0000000,0.0000000,0.0000000,8.00,38.4062424,-110.7918701,1367.5999756,0.0,117.8,1.0,0.0,0.0,912,187,0,0,853.82,35.16,39.18,0
13:34:13,0,0,0,0,0,0,0,0,0,0,0,515,0,0,0,0,0.0000000,0.0000000,0.0000000,0.0000000,8.00,38.4062424,-110.7918701,1367.5999756,0.0,128.7,1.0,0.0,0.0,912,169,0,0,853.90,35.10,39.25,0
13:34:14,0,0,0,0,0,0,0,0,0,0,0,515,0,0,0,0,0.0000000,0.0000000,0.0000000,0.0000000,8.00,38.4062424,-110.7918701,1367.5999756,0.0,208.7,1.0,0.0,0.0,912,164,0,0,853.81,34.90,39.18,0
13:34:15,0,0,0,0,0,0,0,0,0,0,0,514,0,0,0,0,0.0000000,0.0000000,0.0000000,0.0000000,8.00,38.4062424,-110.7918701,1367.5999756,0.0,132.5,1.0,0.0,0.0,912,162,0,0,853.85,35.14,39.13,0
13:34:16,0,0,0,0,0,0,0,0,0,0,0,515,0,0,0,0,0.0000000,0.0000000,0.0000000,0.0000000,8.00,38.4062424,-110.7918701,1367.5999756,0.0,288.8,1.0,0.0,0.0,912,159,0,0,853.85,35.25,39.07,0
13:34:17,0,0,0,0,0,0,0,0,0,0,0,515,0,0,0,0,0.0000000,0.0000000,0.0000000,0.0000000,8.00,38.4062424,-110.7918701,1367.5999756,0.0,180.6,1.0,0.0,0.0,911,154,0,0,853.85,35.29,39.23,0
13:34:18,0,0,0,0,0,0,0,0,0,0,0,515,0,0,0,0,0.0000000,0.0000000,0.0000000,0.0000000,8.00,38.4062424,-110.7918701,1367.5999756,0.0,308.3,1.0,0.0,0.0,912,151,0,0,853.91,34.39,39.23,0
13:34:19,0,0,0,0,0,0,0,0,0,0,0,516,0,0,0,0,0.0000000,0.0000000,0.0000000,0.0000000,8.00,38.4062424,-110.7918701,1367.5999756,0.0,282.6,1.0,0.0,0.0,912,161,0,0,853.95,32.01,39.22,0
13:34:20,0,0,0,0,0,0,0,0,0,0,0,516,0,0,0,0,0.0000000,0.0000000,0.0000000,0.0000000,8.00,38.4062424,-110.7918701,1367.5999756,0.0,309.8,1.0,0.0,0.0,912,168,0,0,854.13,30.05,39.36,0
13:34:21,0,0,0,0,0,0,0,0,0,0,0,515,0,0,0,0,0.0000000,0.0000000,0.0000000,0.0000000,8.00,38.4062424,-110.7918701,1367.5999756,0.0,16.1,1.0,0.0,0.0,912,165,0,0,854.02,31.28,39.44,0
13:34:22,0,0,0,0,0,0,0,0,0,0,0,515,0,0,0,0,0.0000000,0.0000000,0.0000000,0.0000000,8.00,38.4062424,-110.7918701,1367.5999756,0.0,138.1,1.0,0.0,0.0,912,184,0,0,853.98,33.69,39.53,0
13:34:23,0,0,0,0,0,0,0,0,0,0,0,515,0,0,0,0,0.0000000,0.0000000,0.0000000,0.0000000,8.00,38.4062424,-110.7918701,1367.5999756,0.0,123.6,1.0,0.0,0.0,912,180,0,0,853.98,35.69,39.63,0
13:34:24,0,0,0,0,0,0,0,0,0,0,0,514,0,0,0,0,0.0000000,0.0000000,0.0000000,0.0000000,8.00,38.4062424,-110.7918701,1367.5999756,0.0,125.7,1.0,0.0,0.0,912,167,0,0,853.85,36.39,39.79,0
13:34:25,0,0,0,0,0,0,0,0,0,0,0,515,0,0,0,0,0.0000000,0.0000000,0.0000000,0.0000000,8.00,38.4062424,-110.7918701,1367.5999756,0.0,125.1,1.0,0.0,0.0,912,158,0,0,853.82,36.55,39.93,0
13:34:26,0,0,0,0,0,0,0,0,0,0,0,516,0,0,0,0,0.0000000,0.0000000,0.0000000,0.0000000,8.00,38.4062424,-110.7918701,1367.5999756,0.0,134.1,1.0,0.0,0.0,912,157,0,0,853.81,36.51,39.92,0
13:34:27,0,0,0,0,0,0,0,0,0,0,0,514,0,0,0,0,0.0000000,0.0000000,0.0000000,0.0000000,8.00,38.4062424,-110.7918701,1367.5000000,0.0,212.4,1.0,0.0,0.0,912,155,0,0,853.87,36.42,39.92,0
13:34:28,0,0,0,0,0,0,0,0,0,0,0,515,0,0,0,0,0.0000000,0.0000000,0.0000000,0.0000000,8.00,38.4062424,-110.7918701,1367.5999756,0.0,292.6,1.0,0.0,0.0,912,166,0,0,853.82,36.32,39.71,0
13:34:29,0,0,0,0,0,0,0,0,0,0,0,515,0,0,0,0,0.0000000,0.0000000,0.0000000,0.0000000,8.00,38.4062424,-110.7918701,1367.5999756,0.0,325.0,1.0,0.0,0.0,912,173,0,0,853.82,36.44,39.76,0
13:34:30,0,0,0,0,0,0,0,0,0,0,0,515,0,0,0,0,0.0000000,0.0000000,0.0000000,0.0000000,8.00,38.4062424,-110.7918701,1367.5999756,0.0,302.0,1.0,0.0,0.0,912,180,0,0,853.85,36.48,39.81,0
13:34:31,0,0,0,0,0,0,0,0,0,0,0,515,0,0,0,0,0.0000000,0.0000000,0.0000000,0.0000000,8.00,38.4062424,-110.7918701,1367.5999756,0.0,325.0,1.0,0.0,0.0,912,177,0,0,853.85,36.44,39.89,0
13:34:32,0,0,0,0,0,0,0,0,0,0,0,515,0,0,0,0,0.0000000,0.0000000,0.0000000,0.0000000,8.00,38.4062424,-110.7918701,1367.5999756,0.0,319.1,1.0,0.0,0.0,912,172,0,0,853.87,36.50,39.73,0
13:34:33,0,0,0,0,0,0,0,0,0,0,0,514,0,0,0,0,0.0000000,0.0000000,0.0000000,0.0000000,8.00,38.4062424,-110.7918701,1367.5999756,0.0,347.4,1.0,0.0,0.0,913,165,0,0,853.87,36.44,39.83,0
13:34:34,0,0,0,0,0,0,0,0,0,0,0,515,0,0,0,0,0.0000000,0.0000000,0.0000000,0.0000000,8.00,38.4062424,-110.7918701,1367.5000000,0.0,123.0,1.0,0.0,0.0,912,160,0,0,853.91,36.33,39.87,0
13:34:35,0,0,0,0,0,0,0,0,0,0,0,515,0,0,0,0,0.0000000,0.0000000,0.0000000,0.0000000,8.00,38.4062424,-110.7918701,1367.5000000,0.0,123.5,1.0,0.0,0.0,912,167,0,0,853.90,36.29,39.57,0
13:34:36,0,0,0,0,0,0,0,0,0,0,0,516,0,0,0,0,0.0000000,0.0000000,0.0000000,0.0000000,8.00,38.4062424,-110.7918701,1367.5000000,0.0,136.4,1.0,0.0,0.0,912,181,0,0,853.81,36.24,39.90,0
13:34:37,0,0,0,0,0,0,0,0,0,0,0,515,0,0,0,0,0.0000000,0.0000000,0.0000000,0.0000000,8.00,38.4062424,-110.7918701,1367.5000000,0.0,115.4,1.0,0.0,0.0,911,173,0,0,853.92,36.15,39.98,0
13:34:38,0,0,0,0,0,0,0,0,0,0,0,515,0,0,0,0,0.0000000,0.0000000,0.0000000,0.0000000,8.00,38.4062424,-110.7918701,1367.5000000,0.0,134.6,1.0,0.0,0.0,912,164,0,0,853.92,35.93,40.00,0
13:34:39,0,0,0,0,0,0,0,0,0,0,0,515,0,0,0,0,0.0000000,0.0000000,0.0000000,0.0000000,8.00,38.4062424,-110.7918701,1367.5000000,0.0,158.0,1.0,0.0,0.0,912,160,0,0,853.94,36.00,40.17,0
13:34:40,0,0,0,0,0,0,0,0,0,0,0,514,0,0,0,0,0.0000000,0.0000000,0.0000000,0.0000000,8.00,38.4062424,-110.7918701,1367.5000000,0.0,275.2,1.0,0.0,0.0,911,155,0,0,853.92,36.01,40.44,0
13:34:41,0,0,0,0,0,0,0,0,0,0,0,515,0,0,0,0,0.0000000,0.0000000,0.0000000,0.0000000,8.00,38.4062424,-110.7918701,1367.5000000,0.0,297.5,1.0,0.0,0.0,912,155,0,0,853.90,36.03,40.67,0
13:34:42,0,0,0,0,0,0,0,0,0,0,0,516,0,0,0,0,0.0000000,0.0000000,0.0000000,0.0000000,8.00,38.4062424,-110.7918701,1367.5000000,0.0,299.9,1.0,0.0,0.0,912,160,0,0,854.01,35.90,40.76,0
13:34:43,0,0,0,0,0,0,0,0,0,0,0,515,0,0,0,0,0.0000000,0.0000000,0.0000000,0.0000000,8.00,38.4062424,-110.7918701,1367.5000000,0.0,279.8,1.0,0.0,0.0,912,157,0,0,853.91,35.57,40.80,0
13:34:44,0,0,0,0,0,0,0,0,0,0,0,516,0,0,0,0,0.0000000,0.0000000,0.0000000,0.0000000,8.00,38.4062424,-110.7918701,1367.5000000,0.0,276.5,1.0,0.0,0.0,912,152,0,0,853.95,34.94,40.77,0
13:34:45,0,0,0,0,0,0,0,0,0,0,0,514,0,0,0,0,0.0000000,0.0000000,0.0000000,0.0000000,8.00,38.4062424,-110.7918701,1367.5000000,0.0,341.5,1.0,0.0,0.0,911,158,0,0,854.11,35.17,40.72,0
13:34:46,0,0,0,0,0,0,0,0,0,0,0,515,0,0,0,0,0.0000000,0.0000000,0.0000000,0.0000000,8.00,38.4062424,-110.7918701,1367.5000000,0.0,97.0,1.0,0.0,0.0,912,160,0,0,853.92,35.19,40.78,0
13:34:47,0,0,0,0,0,0,0,0,0,0,0,515,0,0,0,0,0.0000000,0.0000000,0.0000000,0.0000000,8.00,38.4062424,-110.7918701,1367.5000000,0.0,100.9,1.0,0.0,0.0,912,172,0,0,853.89,34.20,40.83,0
13:34:48,0,0,0,0,0,0,0,0,0,0,0,515,0,0,0,0,0.0000000,0.0000000,0.0000000,0.0000000,8.00,38.4062424,-110.7918701,1367.5000000,0.0,126.0,1.0,0.0,0.0,912,201,0,0,853.88,32.97,40.92,0
13:34:49,0,0,0,0,0,0,0,0,0,0,0,516,0,0,0,0,0.0000000,0.0000000,0.0000000,0.0000000,8.00,38.4062424,-110.7918701,1367.5000000,0.1,266.1,1.0,0.0,0.0,911,202,0,0,853.85,34.23,40.87,0
13:34:50,0,0,0,0,0,0,0,0,0,0,0,516,0,0,0,0,0.0000000,0.0000000,0.0000000,0.0000000,8.00,38.4062424,-110.7918701,1367.5000000,0.0,329.3,1.0,0.0,0.0,911,196,0,0,853.76,34.16,41.00,0
13:34:51,0,0,0,0,0,0,0,0,0,0,0,515,0,0,0,0,0.0000000,0.0000000,0.0000000,0.0000000,8.00,38.4062424,-110.7918701,1367.5000000,0.0,342.6,1.0,0.0,0.0,912,207,0,0,853.70,33.94,40.98,0
13:34:52,0,0,0,0,0,0,0,0,0,0,0,515,0,0,0,0,0.0000000,0.0000000,0.0000000,0.0000000,8.00,38.4062424,-110.7918701,1367.5000000,0.0,214.6,1.0,0.0,0.0,912,204,0,0,854.08,33.30,40.89,0
13:34:53,0,0,0,0,0,0,0,0,0,0,0,515,0,0,0,0,0.0000000,0.0000000,0.0000000,0.0000000,8.00,38.4062424,-110.7918701,1367.5000000,0.0,206.3,1.0,0.0,0.0,912,187,0,0,854.05,33.83,40.60,0
13:34:54,0,0,0,0,0,0,0,0,0,0,0,515,0,0,0,0,0.0000000,0.0000000,0.0000000,0.0000000,8.00,38.4062424,-110.7918701,1367.5000000,0.0,203.3,1.0,0.0,0.0,912,180,0,0,853.88,34.42,40.39,0
13:34:55,0,0,0,0,0,0,0,0,0,0,0,515,0,0,0,0,0.0000000,0.0000000,0.0000000,0.0000000,8.00,38.4062424,-110.7918701,1367.5000000,0.0,214.2,1.0,0.0,0.0,912,184,0,0,853.95,34.44,40.33,0
13:34:56,0,0,0,0,0,0,0,0,0,0,0,515,0,0,0,0,0.0000000,0.0000000,0.0000000,0.0000000,8.00,38.4062424,-110.7918701,1367.5000000,0.0,187.0,1.0,0.0,0.0,912,181,0,0,853.81,34.67,40.30,0
13:34:57,0,0,0,0,0,0,0,0,0,0,0,515,0,0,0,0,0.0000000,0.0000000,0.0000000,0.0000000,8.00,38.4062424,-110.7918701,1367.5000000,0.0,338.1,1.0,0.0,0.0,911,173,0,0,853.85,33.86,40.45,0
13:34:58,0,0,0,0,0,0,0,0,0,0,0,515,0,0,0,0,0.0000000,0.0000000,0.0000000,0.0000000,8.00,38.4062424,-110.7918701,1367.5000000,0.0,43.5,1.0,0.0,0.0,912,182,0,0,853.92,33.10,40.07,0
13:34:59,0,0,0,0,0,0,0,0,0,0,0,515,0,0,0,0,0.0000000,0.0000000,0.0000000,0.0000000,8.00,38.4062424,-110.7918701,1367.5000000,0.0,57.7,1.0,0.0,0.0,912,179,0,0,853.94,32.96,40.10,0
13:35:00,0,0,0,0,0,0,0,0,0,0,0,515,0,0,0,0,0.0000000,0.0000000,0.0000000,0.0000000,8.00,38.4062424,-110.7918701,1367.5000000,0.0,106.1,1.0,0.0,0.0,911,187,0,0,853.87,33.68,39.93,0
13:35:01,0,0,0,0,0,0,0,0,0,0,0,516,0,0,0,0,0.0000000,0.0000000,0.0000000,0.0000000,8.00,38.4062424,-110.7918701,1367.5000000,0.0,93.4,1.0,0.0,0.0,912,177,0,0,853.81,34.39,39.84,0
13:35:02,0,0,0,0,0,0,0,0,0,0,0,514,0,0,0,0,0.0000000,0.0000000,0.0000000,0.0000000,8.00,38.4062424,-110.7918701,1367.5000000,0.0,204.0,1.0,0.0,0.0,911,174,0,0,853.87,34.47,39.77,0
13:35:04,0,0,0,0,0,0,0,0,0,0,0,515,0,0,0,0,0.0000000,0.0000000,0.0000000,0.0000000,8.00,38.4062424,-110.7918701,1367.5000000,0.0,180.9,1.0,0.0,0.0,911,177,0,0,853.83,34.27,39.97,0
13:35:05,0,0,0,0,0,0,0,0,0,0,0,515,0,0,0,0,0.0000000,0.0000000,0.0000000,0.0000000,8.00,38.4062424,-110.7918701,1367.5000000,0.0,317.9,1.0,0.0,0.0,912,168,0,0,853.81,34.21,40.10,0
13:35:06,0,0,0,0,0,0,0,0,0,0,0,515,0,0,0,0,0.0000000,0.0000000,0.0000000,0.0000000,8.00,38.4062424,-110.7918701,1367.5000000,0.0,259.0,1.0,0.0,0.0,912,175,0,0,853.69,34.18,40.44,0
13:35:07,0,0,0,0,0,0,0,0,0,0,0,515,0,0,0,0,0.0000000,0.0000000,0.0000000,0.0000000,8.00,38.4062424,-110.7918701,1367.5000000,0.0,340.9,1.0,0.0,0.0,912,179,0,0,853.82,34.21,40.58,0
13:35:08,0,0,0,0,0,0,0,0,0,0,0,515,0,0,0,0,0.0000000,0.0000000,0.0000000,0.0000000,8.00,38.4062424,-110.7918701,1367.5000000,0.0,306.3,1.0,0.0,0.0,911,172,0,0,853.78,34.01,40.66,0
13:35:09,0,0,0,0,0,0,0,0,0,0,0,515,0,0,0,0,0.0000000,0.0000000,0.0000000,0.0000000,8.00,38.4062424,-110.7918701,1367.5000000,0.0,333.7,1.0,0.0,0.0,911,191,0,0,853.76,33.43,40.74,0
13:35:10,0,0,0,0,0,0,0,0,0,0,0,515,0,0,0,0,0.0000000,0.0000000,0.0000000,0.0000000,8.00,38.4062424,-110.7918701,1367.5000000,0.0,88.8,1.0,0.0,0.0,911,201,0,0,853.74,33.46,40.75,0
13:35:11,0,0,0,0,0,0,0,0,0,0,0,515,0,0,0,0,0.0000000,0.0000000,0.0000000,0.0000000,8.00,38.4062424,-110.7918701,1367.5000000,0.0,130.3,1.0,0.0,0.0,911,200,0,0,853.79,33.80,40.72,0
13:35:12,0,0,0,0,0,0,0,0,0,0,0,515,0,0,0,0,0.0000000,0.0000000,0.0000000,0.0000000,8.00,38.4062424,-110.7918701,1367.5000000,0.0,138.0,1.0,0.0,0.0,911,186,0,0,853.81,34.81,40.77,0
13:35:13,0,0,0,0,0,0,0,0,0,0,0,515,0,0,0,0,0.0000000,0.0000000,0.0000000,0.0000000,8.00,38.4062424,-110.7918701,1367.5000000,0.0,137.7,1.0,0.0,0.0,912,176,0,0,853.78,35.02,40.87,0
13:35:14,0,0,0,0,0,0,0,0,0,0,0,515,0,0,0,0,0.0000000,0.0000000,0.0000000,0.0000000,8.00,38.4062424,-110.7918701,1367.5000000,0.0,135.3,1.0,0.0,0.0,911,173,0,0,853.89,34.55,41.05,0
13:35:15,0,0,0,0,0,0,0,0,0,0,0,515,0,0,0,0,0.0000000,0.0000000,0.0000000,0.0000000,8.00,38.4062424,-110.7918701,1367.5000000,0.0,126.3,1.0,0.0,0.0,911,190,0,0,853.87,33.75,41.08,0
13:35:16,0,0,0,0,0,0,0,0,0,0,0,514,0,0,0,0,0.0000000,0.0000000,0.0000000,0.0000000,8.00,38.4062424,-110.7918701,1367.5000000,0.0,173.3,1.0,0.0,0.0,911,194,0,0,853.93,33.71,41.09,0
13:35:17,0,0,0,0,0,0,0,0,0,0,0,516,0,0,0,0,0.0000000,0.0000000,0.0000000,0.0000000,8.00,38.4062424,-110.7918701,1367.5000000,0.0,319.7,1.0,0.0,0.0,911,182,0,0,853.94,32.44,41.10,0
13:35:18,0,0,0,0,0,0,0,0,0,0,0,515,0,0,0,0,0.0000000,0.0000000,0.0000000,0.0000000,8.00,38.4062424,-110.7918701,1367.5000000,0.0,308.8,1.0,0.0,0.0,912,180,0,0,854.22,27.65,41.21,0
13:35:19,0,0,0,0,0,0,0,0,0,0,0,515,0,0,0,0,0.0000000,0.0000000,0.0000000,0.0000000,9.00,38.4062424,-110.7918701,1367.5000000,0.0,270.7,0.9,0.0,0.0,911,191,0,0,855.00,14.10,40.62,0
13:35:20,0,0,0,0,0,0,0,0,0,0,0,515,0,0,0,0,0.0000000,0.0000000,0.0000000,0.0000000,9.00,38.4062424,-110.7918701,1367.5000000,0.0,301.7,0.9,0.0,0.0,912,217,0,0,855.20,12.22,40.01,0
13:35:21,0,0,0,0,0,0,0,0,0,0,0,515,0,0,0,0,0.0000000,0.0000000,0.0000000,0.0000000,9.00,38.4062424,-110.7918701,1367.5000000,0.0,328.6,0.9,0.0,0.0,912,213,0,0,855.34,10.33,39.94,0
13:35:22,0,0,0,0,0,0,0,0,0,0,0,515,0,0,0,0,0.0000000,0.0000000,0.0000000,0.0000000,9.00,38.4062424,-110.7918701,1367.5000000,0.0,112.6,0.9,0.0,0.0,912,197,0,0,855.53,9.11,39.91,0
13:35:23,0,0,0,0,0,0,0,0,0,0,0,515,0,0,0,0,0.0000000,0.0000000,0.0000000,0.0000000,9.00,38.4062424,-110.7918701,1367.5000000,0.0,5.6,0.9,0.0,0.0,912,199,0,0,855.37,10.06,39.66,0
13:35:24,0,0,0,0,0,0,0,0,0,0,0,515,0,0,0,0,0.0000000,0.0000000,0.0000000,0.0000000,9.00,38.4062424,-110.7918701,1367.5000000,0.0,0.0,0.9,0.0,0.0,911,203,0,0,854.92,13.05,39.55,0
13:35:25,0,0,0,0,0,0,0,0,0,0,0,515,0,0,0,0,0.0000000,0.0000000,0.0000000,0.0000000,9.00,38.4062424,-110.7918701,1367.5000000,0.0,35.0,0.9,0.0,0.0,912,234,0,0,854.80,18.13,39.33,0
13:35:26,0,0,0,0,0,0,0,0,0,0,0,515,0,0,0,0,0.0000000,0.0000000,0.0000000,0.0000000,9.00,38.4062424,-110.7918701,1367.5000000,0.0,1.5,0.9,0.0,0.0,912,206,0,0,854.28,25.67,39.14,0
13:35:27,0,0,0,0,0,0,0,0,0,0,0,515,0,0,0,0,0.0000000,0.0000000,0.0000000,0.0000000,9.00,38.4062424,-110.7918701,1367.5000000,0.0,148.8,0.9,0.0,0.0,911,197,0,0,854.02,31.57,39.12,0
13:35:28,0,0,0,0,0,0,0,0,0,0,0,515,0,0,0,0,0.0000000,0.0000000,0.0000000,0.0000000,9.00,38.4062424,-110.7918701,1367.5000000,0.0,156.4,0.9,0.0,0.0,912,189,0,0,853.80,33.80,39.11,0
13:35:29,0,0,0,0,0,0,0,0,0,0,0,515,0,0,0,0,0.0000000,0.0000000,0.0000000,0.0000000,9.00,38.4062424,-110.7918701,1367.5000000,0.0,161.1,0.9,0.0,0.0,912,192,0,0,854.01,34.16,38.96,0
13:35:30,0,0,0,0,0,0,0,0,0,0,0,515,0,0,0,0,0.0000000,0.0000000,0.0000000,0.0000000,9.00,38.4062424,-110.7918701,1367.5000000,0.0,164.1,0.9,0.0,0.0,911,188,0,0,853.73,34.67,38.78,0
13:35:31,0,0,0,0,0,0,0,0,0,0,0,515,0,0,0,0,0.0000000,0.0000000,0.0000000,0.0000000,9.00,38.4062424,-110.7918701,1367.5000000,0.0,162.9,0.9,0.0,0.0,912,185,0,0,853.66,34.53,38.86,0
13:35:32,0,0,0,0,0,0,0,0,0,0,0,514,0,0,0,0,0.0000000,0.0000000,0.0000000,0.0000000,9.00,38.4062424,-110.7918701,1367.5000000,0.0,198.7,0.9,0.0,0.0,911,180,0,0,853.62,34.71,38.99,0
13:35:33,0,0,0,0,0,0,0,0,0,0,0,515,0,0,0,0,0.0000000,0.0000000,0.0000000,0.0000000,9.00,38.4062424,-110.7918701,1367.5000000,0.0,336.6,0.9,0.0,0.0,912,172,0,0,853.65,34.55,39.20,0
13:35:34,0,0,0,0,0,0,0,0,0,0,0,515,0,0,0,0,0.0000000,0.0000000,0.0000000,0.0000000,9.00,38.4062424,-110.7918701,1367.5000000,0.0,340.5,0.9,0.0,0.0,911,169,0,0,853.62,34.45,39.28,0
13:35:35,0,0,0,0,0,0,0,0,0,0,0,515,0,0,0,0,0.0000000,0.0000000,0.0000000,0.0000000,9.00,38.4062424,-110.7918701,1367.5000000,0.0,94.5,0.9,0.0,0.0,912,206,0,0,853.66,34.42,38.86,0
13:35:36,0,0,0,0,0,0,0,0,0,0,0,515,0,0,0,0,0.0000000,0.0000000,0.0000000,0.0000000,9.00,38.4062424,-110.7918701,1367.5000000,0.0,349.6,0.9,0.0,0.0,911,222,0,0,853.88,34.56,38.45,0
13:35:37,0,0,0,0,0,0,0,0,0,0,0,515,0,0,0,0,0.0000000,0.0000000,0.0000000,0.0000000,9.00,38.4062424,-110.7918701,1367.5000000,0.0,4.4,0.9,0.0,0.0,911,207,0,0,853.66,34.47,38.63,0
13:35:38,0,0,0,0,0,0,0,0,0,0,0,515,0,0,0,0,0.0000000,0.0000000,0.0000000,0.0000000,9.00,38.4062424,-110.7918701,1367.5000000,0.0,342.6,0.9,0.0,0.0,911,210,0,0,853.86,34.42,38.96,0
13:35:39,0,0,0,0,0,0,0,0,0,0,0,515,0,0,0,0,0.0000000,0.0000000,0.0000000,0.0000000,9.00,38.4062424,-110.7918701,1367.5000000,0.0,342.6,0.9,0.0,0.0,911,193,0,0,853.84,34.44,39.02,0
13:35:40,0,0,0,0,0,0,0,0,0,0,0,515,0,0,0,0,0.0000000,0.0000000,0.0000000,0.0000000,9.00,38.4062424,-110.7918701,1367.5000000,0.0,156.5,0.9,0.0,0.0,911,179,0,0,853.78,34.33,38.95,0
13:35:41,0,0,0,0,0,0,0,0,0,0,0,515,0,0,0,0,0.0000000,0.0000000,0.0000000,0.0000000,9.00,38.4062424,-110.7918701,1367.5000000,0.0,174.6,0.9,0.0,0.0,912,180,0,0,853.76,34.35,39.07,0
13:35:42,0,0,0,0,0,0,0,0,0,0,0,515,0,0,0,0,0.0000000,0.0000000,0.0000000,0.0000000,9.00,38.4062424,-110.7918701,1367.5000000,0.0,158.5,0.9,0.0,0.0,912,181,0,0,853.31,33.36,39.41,0
13:35:43,0,0,0,0,0,0,0,0,0,0,0,515,0,0,0,0,0.0000000,0.0000000,0.0000000,0.0000000,9.00,38.4062424,-110.7918701,1367.5000000,0.0,8.7,0.9,0.0,0.0,911,217,0,0,853.79,29.18,39.30,0
13:35:44,0,0,0,0,0,0,0,0,0,0,0,515,0,0,0,0,0.0000000,0.0000000,0.0000000,0.0000000,9.00,38.4062424,-110.7918701,1367.5000000,0.0,240.7,0.9,0.0,0.0,912,197,0,0,855.90,4.78,39.21,0
13:35:45,0,0,0,0,0,0,0,0,0,0,0,514,0,0,0,0,0.0000000,0.0000000,0.0000000,0.0000000,9.00,38.4062424,-110.7918701,1367.5000000,0.0,240.7,0.9,0.0,0.0,911,184,0,0,855.88,5.30,38.76,0
13:35:46,0,0,0,0,0,0,0,0,0,0,0,515,0,0,0,0,0.0000000,0.0000000,0.0000000,0.0000000,9.00,38.4062424,-110.7918701,1367.5000000,0.0,106.7,0.9,0.0,0.0,911,175,0,0,855.66,5.91,38.25,0
13:35:47,0,0,0,0,0,0,0,0,0,0,0,515,0,0,0,0,0.0000000,0.0000000,0.0000000,0.0000000,9.00,38.4062424,-110.7918701,1367.5000000,0.0,12.4,0.9,0.0,0.0,911,170,0,0,853.84,30.72,38.38,0
13:35:48,0,0,0,0,0,0,0,0,0,0,0,514,0,0,0,0,0.0000000,0.0000000,0.0000000,0.0000000,9.00,38.4062424,-110.7918701,1367.5000000,0.0,25.9,0.9,0.0,0.0,911,203,0,0,855.85,5.54,38.64,0
13:35:49,0,0,0,0,0,0,0,0,0,0,0,514,0,0,0,0,0.0000000,0.0000000,0.0000000,0.0000000,9.00,38.4062424,-110.7918701,1367.5000000,0.0,102.3,0.9,0.0,0.0,911,199,0,0,855.68,5.89,38.51,0
13:35:50,0,0,0,0,0,0,0,0,0,0,0,515,0,0,0,0,0.0000000,0.0000000,0.0000000,0.0000000,9.00,38.4062424,-110.7918701,1367.5000000,0.0,5.2,0.9,0.0,0.0,911,200,0,0,854.03,30.78,37.90,0
13:35:51,0,0,0,0,0,0,0,0,0,0,0,515,0,0,0,0,0.0000000,0.0000000,0.0000000,0.0000000,9.00,38.4062424,-110.7918701,1367.5000000,0.0,160.7,0.9,0.0,0.0,911,188,0,0,854.84,26.99,37.90,0
13:35:52,0,0,0,0,0,0,0,0,0,0,0,515,0,0,0,0,0.0000000,0.0000000,0.0000000,0.0000000,9.00,38.4062424,-110.7918701,1367.5000000,0.0,309.3,0.9,0.0,0.0,911,181,0,0,855.63,5.91,37.97,0
13:35:53,0,0,0,0,0,0,0,0,0,0,0,512,0,0,0,0,0.0000000,0.0000000,0.0000000,0.0000000,9.00,38.4062424,-110.7918701,1367.5000000,0.0,297.9,0.9,0.0,0.0,913,184,0,0,855.58,5.92,38.00,0
13:35:54,0,0,0,0,0,0,0,0,0,0,0,516,0,0,0,0,0.0000000,0.0000000,0.0000000,0.0000000,9.00,38.4062424,-110.7918701,1367.5000000,0.0,291.2,0.9,0.0,0.0,912,178,0,0,855.69,6.00,37.93,0
13:35:55,0,0,0,0,0,0,0,0,0,0,0,515,0,0,0,0,0.0000000,0.0000000,0.0000000,0.0000000,8.00,38.4062424,-110.7918701,1367.5000000,0.0,304.6,1.2,0.0,0.0,911,182,0,0,855.19,26.43,37.48,0
13:35:56,0,0,0,0,0,0,0,0,0,0,0,515,0,0,0,0,0.0000000,0.0000000,0.0000000,0.0000000,9.00,38.4062424,-110.7918701,1367.5000000,0.0,312.9,0.9,0.0,0.0,912,171,0,0,854.48,29.77,37.40,0
13:35:57,0,0,0,0,0,0,0,0,0,0,0,516,0,0,0,0,0.0000000,0.0000000,0.0000000,0.0000000,9.00,38.4062424,-110.7918701,1367.5000000,0.0,342.0,0.9,0.0,0.0,912,167,0,0,853.81,31.16,37.24,0
13:35:58,0,0,0,0,0,0,0,0,0,0,0,515,0,0,0,0,0.0000000,0.0000000,0.0000000,0.0000000,9.00,38.4062424,-110.7918701,1367.5000000,0.0,114.7,0.9,0.0,0.0,912,169,0,0,853.90,31.11,37.23,0
13:35:59,0,0,0,0,0,0,0,0,0,0,0,515,0,0,0,0,0.0000000,0.0000000,0.0000000,0.0000000,9.00,38.4062424,-110.7918701,1367.5000000,0.0,86.8,0.9,0.0,0.0,912,163,0,0,853.77,6.12,37.39,0
13:36:00,0,0,0,0,0,0,0,0,0,0,0,515,0,0,0,0,0.0000000,0.0000000,0.0000000,0.0000000,9.00,38.4062424,-110.7918701,1367.5000000,0.0,143.8,0.9,0.0,0.0,911,158,0,0,853.61,31.36,37.48,0
13:36:01,0,0,0,0,0,0,0,0,0,0,0,515,0,0,0,0,0.0000000,0.0000000,0.0000000,0.0000000,9.00,38.4062424,-110.7918701,1367.5000000,0.0,34.3,0.9,0.0,0.0,911,168,0,0,853.74,31.28,37.46,0
13:36:02,0,0,0,0,0,0,0,0,0,0,0,515,0,0,0,0,0.0000000,0.0000000,0.0000000,0.0000000,9.00,38.4062424,-110.7918701,1367.5000000,0.0,58.0,0.9,0.0,0.0,910,165,0,0,853.78,31.27,37.45,0
13:36:03,0,0,0,0,0,0,0,0,0,0,0,515,0,0,0,0,0.0000000,0.0000000,0.0000000,0.0000000,9.00,38.4062424,-110.7918701,1367.5000000,0.0,139.5,0.9,0.0,0.0,911,162,0,0,853.78,31.10,37.54,0
13:36:04,0,0,0,0,0,0,0,0,0,0,0,515,0,0,0,0,0.0000000,0.0000000,0.0000000,0.0000000,9.00,38.4062424,-110.7918701,1367.5000000,0.0,296.6,0.9,0.0,0.0,912,172,0,0,853.81,31.11,37.57,0
13:36:05,0,0,0,0,0,0,0,0,0,0,0,515,0,0,0,0,0.0000000,0.0000000,0.0000000,0.0000000,9.00,38.4062424,-110.7918701,1367.5000000,0.0,288.5,0.9,0.0,0.0,912,198,0,0,853.80,31.04,37.48,0
13:36:06,0,0,0,0,0,0,0,0,0,0,0,515,0,0,0,0,0.0000000,0.0000000,0.0000000,0.0000000,9.00,38.4062424,-110.7918701,1367.5000000,0.0,317.2,0.9,0.0,0.0,911,190,0,0,853.76,31.08,37.59,0
13:36:07,0,0,0,0,0,0,0,0,0,0,0,516,0,0,0,0,0.0000000,0.0000000,0.0000000,0.0000000,9.00,38.4062424,-110.7918701,1367.5000000,0.0,305.4,0.9,0.0,0.0,911,177,0,0,853.93,31.08,37.80,0
13:36:08,0,0,0,0,0,0,0,0,0,0,0,516,0,0,0,0,0.0000000,0.0000000,0.0000000,0.0000000,9.00,38.4062424,-110.7918701,1367.5000000,0.0,298.5,0.9,0.0,0.0,911,201,0,0,853.77,31.34,37.92,0
13:36:09,0,0,0,0,0,0,0,0,0,0,0,516,0,0,0,0,0.0000000,0.0000000,0.0000000,0.0000000,9.00,38.4062424,-110.7918701,1367.5000000,0.0,330.1,0.9,0.0,0.0,911,199,0,0,853.86,31.51,37.61,0
13:36:10,0,0,0,0,0,0,0,0,0,0,0,514,0,0,0,0,0.0000000,0.0000000,0.0000000,0.0000000,9.00,38.4062424,-110.7918701,1367.5000000,0.0,116.2,0.9,0.0,0.0,911,191,0,0,853.82,32.09,37.71,0
13:36:11,0,0,0,0,0,0,0,0,0,0,0,515,0,0,0,0,0.0000000,0.0000000,0.0000000,0.0000000,9.00,38.4062424,-110.7918701,1367.5000000,0.0,129.5,0.9,0.0,0.0,911,190,0,0,855.76,5.75,37.63,0
13:36:12,0,0,0,0,0,0,0,0,0,0,0,515,0,0,0,0,0.0000000,0.0000000,0.0000000,0.0000000,9.00,38.4062424,-110.7918701,1367.5000000,0.0,122.0,0.9,0.0,0.0,911,193,0,0,855.83,5.10,37.27,0
13:36:13,0,0,0,0,0,0,0,0,0,0,0,515,0,0,0,0,0.0000000,0.0000000,0.0000000,0.0000000,9.00,38.4062424,-110.7918701,1367.5000000,0.0,158.4,0.9,0.0,0.0,911,204,0,0,856.16,3.30,36.83,0
13:36:14,0,0,0,0,0,0,0,0,0,0,0,515,0,0,0,0,0.0000000,0.0000000,0.0000000,0.0000000,8.00,38.4062424,-110.7918701,1367.5000000,0.0,98.9,1.2,0.0,0.0,911,192,0,0,854.83,54.55,36.54,0
13:36:15,0,0,0,0,0,0,0,0,0,0,0,515,0,0,0,0,0.0000000,0.0000000,0.0000000,0.0000000,9.00,38.4062424,-110.7918701,1367.5000000,0.0,217.6,0.9,0.0,0.0,911,215,0,0,858.41,52.70,36.58,0
13:36:16,0,0,0,0,0,0,0,0,0,0,0,515,0,0,0,0,0.0000000,0.0000000,0.0000000,0.0000000,9.00,38.4062424,-110.7918701,1367.5000000,0.0,250.5,0.9,0.0,0.0,911,190,0,0,859.53,49.79,36.63,0
13:36:17,0,0,0,0,0,0,0,0,0,0,0,515,0,0,0,0,0.0000000,0.0000000,0.0000000,0.0000000,9.00,38.4062424,-110.7918701,1367.5000000,0.0,307.7,0.9,0.0,0.0,911,179,0,0,858.76,48.98,36.69,0
13:36:18,0,0,0,0,0,0,0,0,0,0,0,515,0,0,0,0,0.0000000,0.0000000,0.0000000,0.0000000,9.00,38.4062424,-110.7918701,1367.5000000,0.1,278.9,0.9,0.0,0.0,911,174,0,0,859.10,49.35,36.79,0
13:36:19,0,0,0,0,0,0,0,0,0,0,0,515,0,0,0,0,0.0000000,0.0000000,0.0000000,0.0000000,9.00,38.4062424,-110.7918701,1367.5000000,0.1,275.6,0.9,0.0,0.0,911,165,0,0,859.20,48.11,36.80,0
13:36:20,0,0,0,0,0,0,0,0,0,0,0,515,0,0,0,0,0.0000000,0.0000000,0.0000000,0.0000000,9.00,38.4062424,-110.7918701,1367.5000000,0.1,287.7,0.9,0.0,0.0,911,176,0,0,859.00,46.23,36.98,0
13:36:21,0,0,0,0,0,0,0,0,0,0,0,514,0,0,0,0,0.0000000,0.0000000,0.0000000,0.0000000,9.00,38.4062424,-110.7918701,1367.5000000,0.1,275.0,0.9,0.0,0.0,911,174,0,0,859.05,50.39,37.07,0
13:36:22,0,0,0,0,0,0,0,0,0,0,0,515,0,0,0,0,0.0000000,0.0000000,0.0000000,0.0000000,9.00,38.4062424,-110.7918701,1367.5000000,0.2,295.4,0.9,0.0,0.0,911,163,0,0,858.55,45.76,36.94,0
13:36:23,0,0,0,0,0,0,0,0,0,0,0,515,0,0,0,0,0.0000000,0.0000000,0.0000000,0.0000000,9.00,38.4062424,-110.7918701,1367.5000000,0.5,294.1,0.9,0.0,0.0,911,160,0,0,859.29,48.00,36.87,0
13:36:24,0,0,0,0,0,0,0,0,0,0,0,513,0,0,0,0,0.0000000,0.0000000,0.0000000,0.0000000,9.00,38.4062424,-110.7918701,1367.5000000,0.8,276.5,0.9,0.0,0.0,909,153,0,0,857.91,39.44,36.91,0
13:36:25,0,0,0,0,0,0,0,0,0,0,0,515,0,0,0,0,0.0000000,0.0000000,0.0000000,0.0000000,9.00,38.4062462,-110.7918854,1367.4000244,1.3,281.4,0.9,0.0,0.0,911,147,0,0,856.84,19.00,37.11,0
13:36:26,0,0,0,0,0,0,0,0,0,0,0,515,0,0,0,0,0.0000000,0.0000000,0.0000000,0.0000000,9.00,38.4062462,-110.7919006,1367.3000488,1.3,279.4,0.9,0.0,0.0,911,139,0,0,859.83,29.01,36.93,0
13:36:27,0,0,0,0,0,0,0,0,0,0,0,515,0,0,0,0,0.0000000,0.0000000,0.0000000,0.0000000,9.00,38.4062462,-110.7919083,1367.3000488,0.9,265.5,0.9,0.0,0.0,911,145,0,0,857.74,51.25,37.07,0
13:36:28,0,0,0,0,0,0,0,0,0,0,0,515,0,0,0,0,0.0000000,0.0000000,0.0000000,0.0000000,9.00,38.4062386,-110.7919083,1367.3000488,1.0,241.4,0.9,0.0,0.0,911,167,0,0,856.01,24.77,37.15,0
13:36:29,0,0,0,0,0,0,0,0,0,0,0,515,0,0,0,0,0.0000000,0.0000000,0.0000000,0.0000000,9.00,38.4062386,-110.7919388,1367.0999756,1.0,252.4,0.9,0.0,0.0,911,178,0,0,856.25,5.25,37.00,0
13:36:30,0,0,0,0,0,0,0,0,0,0,0,514,0,0,0,0,0.0000000,0.0000000,0.0000000,0.0000000,9.00,38.4062347,-110.7919464,1367.0000000,1.2,239.7,0.9,0.0,0.0,911,167,0,0,855.95,42.19,36.99,0
13:36:31,0,0,0,0,0,0,0,0,0,0,0,515,0,0,0,0,0.0000000,0.0000000,0.0000000,0.0000000,9.00,38.4062309,-110.7919464,1367.0000000,1.4,239.0,0.9,0.0,0.0,912,158,0,0,856.33,6.78,37.03,0
13:36:32,0,0,0,0,0,0,0,0,0,0,0,514,0,0,0,0,0.0000000,0.0000000,0.0000000,0.0000000,9.00,38.4062233,-110.7919617,1367.0000000,1.3,238.1,0.9,0.0,0.0,911,157,0,0,856.13,3.94,37.27,0
13:36:33,0,0,0,0,0,0,0,0,0,0,0,515,0,0,0,0,0.0000000,0.0000000,0.0000000,0.0000000,9.00,38.4062233,-110.7919846,1366.9000244,1.7,243.8,0.9,0.0,0.0,911,160,0,0,855.74,4.24,37.17,0
13:36:34,0,0,0,0,0,0,0,0,0,0,0,515,0,0,0,0,0.0000000,0.0000000,0.0000000,0.0000000,9.00,38.4062195,-110.7919998,1366.9000244,1.9,250.5,0.9,0.0,0.0,911,173,0,0,855.51,4.72,36.99,0
13:36:35,0,0,0,0,0,0,0,0,0,0,0,515,0,0,0,0,0.0000000,0.0000000,0.0000000,0.0000000,9.00,38.4062195,-110.7920151,1366.8000488,2.0,254.0,0.9,0.0,0.0,911,169,0,0,855.58,4.96,36.71,0
13:36:37,0,0,0,0,0,0,0,0,0,0,0,514,0,0,0,0,0.0000000,0.0000000,0.0000000,0.0000000,9.00,38.4062195,-110.7920227,1366.8000488,1.9,261.2,0.9,0.0,0.0,911,162,0,0,855.61,4.99,36.63,0
13:36:38,0,0,0,0,0,0,0,0,0,0,0,515,0,0,0,0,0.0000000,0.0000000,0.0000000,0.0000000,8.00,38.4062195,-110.7920380,1366.6999512,2.0,270.9,1.0,0.0,0.0,910,169,0,0,855.70,4.84,36.25,0
13:36:39,0,0,0,0,0,0,0,0,0,0,0,515,0,0,0,0,0.0000000,0.0000000,0.0000000,0.0000000,9.00,38.4062195,-110.7920532,1366.6999512,2.1,279.6,0.9,0.0,0.0,911,184,0,0,855.62,4.76,35.88,0
13:36:40,0,0,0,0,0,0,0,0,0,0,0,516,0,0,0,0,0.0000000,0.0000000,0.0000000,0.0000000,9.00,38.4062195,-110.7920609,1366.6999512,1.7,274.0,0.9,0.0,0.0,911,203,0,0,855.51,4.91,35.61,0
13:36:41,0,0,0,0,0,0,0,0,0,0,0,514,0,0,0,0,0.0000000,0.0000000,0.0000000,0.0000000,9.00,38.4062233,-110.7920761,1366.6999512,2.0,277.1,0.9,0.0,0.0,911,227,0,0,855.34,4.85,35.41,0
13:36:42,0,0,0,0,0,0,0,0,0,0,0,515,0,0,0,0,0.0000000,0.0000000,0.0000000,0.0000000,9.00,38.4062233,-110.7920914,1366.6999512,1.8,268.6,0.9,0.0,0.0,911,231,0,0,855.52,5.43,35.18,0
13:36:43,0,0,0,0,0,0,0,0,0,0,0,515,0,0,0,0,0.0000000,0.0000000,0.0000000,0.0000000,9.00,38.4062195,-110.7920990,1366.5999756,1.7,266.8,0.9,0.0,0.0,911,216,0,0,855.40,5.10,35.23,0
13:36:44,0,0,0,0,0,0,0,0,0,0,0,515,0,0,0,0,0.0000000,0.0000000,0.0000000,0.0000000,9.00,38.4062195,-110.7921143,1366.6999512,1.7,267.8,0.9,0.0,0.0,911,212,0,0,855.73,5.25,35.24,0
13:36:45,0,0,0,0,0,0,0,0,0,0,0,515,0,0,0,0,0.0000000,0.0000000,0.0000000,0.0000000,9.00,38.4062195,-110.7921295,1366.8000488,1.4,281.0,0.9,0.0,0.0,911,197,0,0,855.78,4.20,35.21,0
13:36:46,0,0,0,0,0,0,0,0,0,0,0,516,0,0,0,0,0.0000000,0.0000000,0.0000000,0.0000000,9.00,38.4062195,-110.7921371,1366.9000244,0.6,313.5,0.9,0.0,0.0,911,178,0,0,855.73,4.24,35.25,0
13:36:47,0,0,0,0,0,0,0,0,0,0,0,515,0,0,0,0,0.0000000,0.0000000,0.0000000,0.0000000,9.00,38.4062195,-110.7921371,1366.9000244,0.4,346.3,0.9,0.0,0.0,911,179,0,0,855.76,4.23,35.01,0
13:36:48,0,0,0,0,0,0,0,0,0,0,0,515,0,0,0,0,0.0000000,0.0000000,0.0000000,0.0000000,9.00,38.4062195,-110.7921371,1367.0000000,0.1,338.6,0.9,0.0,0.0,911,181,0,0,855.69,4.47,34.78,0
13:36:49,0,0,0,0,0,0,0,0,0,0,0,514,0,0,0,0,0.0000000,0.0000000,0.0000000,0.0000000,9.00,38.4062195,-110.7921371,1367.0000000,0.1,9.4,0.9,0.0,0.0,911,185,0,0,855.66,5.23,34.49,0
13:36:50,0,0,0,0,0,0,0,0,0,0,0,515,0,0,0,0,0.0000000,0.0000000,0.0000000,0.0000000,9.00,38.4062195,-110.7921524,1367.0999756,0.3,217.3,0.9,0.0,0.0,911,216,0,0,855.99,5.13,34.49,0
13:36:51,0,0,0,0,0,0,0,0,0,0,0,516,0,0,0,0,0.0000000,0.0000000,0.0000000,0.0000000,9.00,38.4062195,-110.7921524,1367.0000000,0.1,347.7,0.9,0.0,0.0,911,195,0,0,855.88,5.13,34.33,0
13:36:52,0,0,0,0,0,0,0,0,0,0,0,515,0,0,0,0,0.0000000,0.0000000,0.0000000,0.0000000,9.00,38.4062195,-110.7921524,1367.0000000,0.1,30.2,0.9,0.0,0.0,911,189,0,0,855.64,5.91,34.09,0
13:36:53,0,0,0,0,0,0,0,0,0,0,0,515,0,0,0,0,0.0000000,0.0000000,0.0000000,0.0000000,9.00,38.4062195,-110.7921524,1367.0000000,0.2,16.4,0.9,0.0,0.0,911,190,0,0,855.63,5.95,34.36,0
13:36:54,0,0,0,0,0,0,0,0,0,0,0,515,0,0,0,0,0.0000000,0.0000000,0.0000000,0.0000000,8.00,38.4062195,-110.7921524,1367.0000000,0.0,348.9,1.0,0.0,0.0,911,186,0,0,855.76,5.86,34.54,0
13:36:55,0,0,0,0,0,0,0,0,0,0,0,515,0,0,0,0,0.0000000,0.0000000,0.0000000,0.0000000,9.00,38.4062195,-110.7921524,1366.9000244,0.0,342.5,0.9,0.0,0.0,911,187,0,0,855.92,5.75,34.72,0
13:36:56,0,0,0,0,0,0,0,0,0,0,0,516,0,0,0,0,0.0000000,0.0000000,0.0000000,0.0000000,9.00,38.4062195,-110.7921524,1366.9000244,0.2,255.3,0.9,0.0,0.0,910,180,0,0,855.75,5.78,34.67,0
13:36:57,0,0,0,0,0,0,0,0,0,0,0,515,0,0,0,0,0.0000000,0.0000000,0.0000000,0.0000000,9.00,38.4062195,-110.7921524,1366.9000244,0.1,8.6,0.9,0.0,0.0,911,175,0,0,855.73,5.75,34.77,0
13:36:58,0,0,0,0,0,0,0,0,0,0,0,516,0,0,0,0,0.0000000,0.0000000,0.0000000,0.0000000,9.00,38.4062195,-110.7921524,1366.9000244,0.0,25.4,0.9,0.0,0.0,911,171,0,0,855.88,5.69,34.98,0
13:36:59,0,0,0,0,0,0,0,0,0,0,0,515,0,0,0,0,0.0000000,0.0000000,0.0000000,0.0000000,9.00,38.4062195,-110.7921524,1366.9000244,0.0,51.7,0.9,0.0,0.0,911,181,0,0,855.78,5.59,35.10,0
13:37:00,0,0,0,0,0,0,0,0,0,0,0,515,0,0,0,0,0.0000000,0.0000000,0.0000000,0.0000000,8.00,38.4062195,-110.7921524,1366.9000244,0.0,106.1,1.0,0.0,0.0,911,171,0,0,855.83,5.60,35.03,0
13:37:01,0,0,0,0,0,0,0,0,0,0,0,516,0,0,0,0,0.0000000,0.0000000,0.0000000,0.0000000,8.00,38.4062195,-110.7921524,1366.9000244,0.0,52.4,1.0,0.0,0.0,911,169,0,0,855.79,5.57,35.19,0
13:37:02,0,0,0,0,0,0,0,0,0,0,0,515,0,0,0,0,0.0000000,0.0000000,0.0000000,0.0000000,8.00,38.4062195,-110.7921524,1366.9000244,0.0,344.0,1.0,0.0,0.0,911,161,0,0,855.77,5.51,35.43,0
13:37:03,0,0,0,0,0,0,0,0,0,0,0,514,0,0,0,0,0.0000000,0.0000000,0.0000000,0.0000000,8.00,38.4062195,-110.7921524,1366.9000244,0.0,9.7,1.0,0.0,0.0,911,159,0,0,855.82,5.40,35.66,0
13:37:04,0,0,0,0,0,0,0,0,0,0,0,514,0,0,0,0,0.0000000,0.0000000,0.0000000,0.0000000,8.00,38.4062195,-110.7921524,1366.9000244,0.0,343.8,1.0,0.0,0.0,911,154,0,0,855.85,5.34,35.91,0
13:37:05,0,0,0,0,0,0,0,0,0,0,0,515,0,0,0,0,0.0000000,0.0000000,0.0000000,0.0000000,8.00,38.4062195,-110.7921524,1366.9000244,0.0,328.2,1.0,0.0,0.0,911,154,0,0,855.79,5.30,35.99,0
13:37:06,0,0,0,0,0,0,0,0,0,0,0,515,0,0,0,0,0.0000000,0.0000000,0.0000000,0.0000000,8.00,38.4062195,-110.7921524,1366.9000244,0.0,334.2,1.0,0.0,0.0,911,148,0,0,855.82,5.26,36.16,0
13:37:07,0,0,0,0,0,0,0,0,0,0,0,514,0,0,0,0,0.0000000,0.0000000,0.0000000,0.0000000,8.00,38.4062195,-110.7921524,1366.9000244,0.0,117.4,1.0,0.0,0.0,911,147,0,0,855.83,5.22,36.28,0
13:37:08,0,0,0,0,0,0,0,0,0,0,0,515,0,0,0,0,0.0000000,0.0000000,0.0000000,0.0000000,8.00,38.4062195,-110.7921524,1366.9000244,0.0,341.5,1.0,0.0,0.0,911,146,0,0,855.80,5.11,36.54,0
13:37:09,0,0,0,0,0,0,0,0,0,0,0,515,0,0,0,0,0.0000000,0.0000000,0.0000000,0.0000000,8.00,38.4062195,-110.7921524,1366.9000244,0.0,348.4,1.0,0.0,0.0,910,152,0,0,855.78,5.01,36.71,0
13:37:10,0,0,0,0,0,0,0,0,0,0,0,515,0,0,0,0,0.0000000,0.0000000,0.0000000,0.0000000,8.00,38.4062195,-110.7921524,1366.9000244,0.1,296.7,1.0,0.0,0.0,911,157,0,0,855.73,4.96,36.46,0
13:37:11,0,0,0,0,0,0,0,0,0,0,0,515,0,0,0,0,0.0000000,0.0000000,0.0000000,0.0000000,8.00,38.4062195,-110.7921524,1366.8000488,0.0,301.8,1.0,0.0,0.0,911,160,0,0,855.74,4.97,36.48,0
13:37:12,0,0,0,0,0,0,0,0,0,0,0,515,0,0,0,0,0.0000000,0.0000000,0.0000000,0.0000000,8.00,38.4062195,-110.7921524,1366.8000488,0.0,335.9,1.0,0.0,0.0,911,152,0,0,855.71,4.96,36.51,0
13:37:13,0,0,0,0,0,0,0,0,0,0,0,515,0,0,0,0,0.0000000,0.0000000,0.0000000,0.0000000,8.00,38.4062195,-110.7921524,1366.8000488,0.0,341.9,1.0,0.0,0.0,911,154,0,0,855.80,4.97,36.49,0
13:37:14,0,0,0,0,0,0,0,0,0,0,0,515,0,0,0,0,0.0000000,0.0000000,0.0000000,0.0000000,8.00,38.4062195,-110.7921524,1366.8000488,0.0,335.5,1.0,0.0,0.0,911,145,0,0,855.72,4.96,36.70,0
13:37:15,0,0,0,0,0,0,0,0,0,0,0,516,0,0,0,0,0.0000000,0.0000000,0.0000000,0.0000000,8.00,38.4062195,-110.7921524,1366.8000488,0.0,336.3,1.0,0.0,0.0,910,152,0,0,855.81,4.94,36.91,0
13:37:16,0,0,0,0,0,0,0,0,0,0,0,515,0,0,0,0,0.0000000,0.0000000,0.0000000,0.0000000,8.00,38.4062195,-110.7921524,1366.8000488,0.0,194.6,1.0,0.0,0.0,910,168,0,0,855.83,4.88,37.00,0
13:37:17,0,0,0,0,0,0,0,0,0,0,0,515,0,0,0,0,0.0000000,0.0000000,0.0000000,0.0000000,8.00,38.4062195,-110.7921524,1366.8000488,0.0,282.8,1.0,0.0,0.0,911,188,0,0,855.80,4.90,36.97,0
13:37:18,0,0,0,0,0,0,0,0,0,0,0,515,0,0,0,0,0.0000000,0.0000000,0.0000000,0.0000000,8.00,38.4062195,-110.7921524,1366.8000488,0.0,303.6,1.0,0.0,0.0,910,180,0,0,855.72,4.85,37.03,0
13:37:19,0,0,0,0,0,0,0,0,0,0,0,515,0,0,0,0,0.0000000,0.0000000,0.0000000,0.0000000,8.00,38.4062195,-110.7921524,1366.8000488,0.0,296.9,1.0,0.0,0.0,910,176,0,0,855.64,4.82,37.19,0
13:37:20,0,0,0,0,0,0,0,0,0,0,0,515,0,0,0,0,0.0000000,0.0000000,0.0000000,0.0000000,8.00,38.4062195,-110.7921524,1366.8000488,0.0,121.2,1.0,0.0,0.0,910,179,0,0,855.75,4.79,37.25,0
13:37:21,0,0,0,0,0,0,0,0,0,0,0,514,0,0,0,0,0.0000000,0.0000000,0.0000000,0.0000000,8.00,38.4062195,-110.7921524,1366.8000488,0.0,239.9,1.0,0.0,0.0,910,174,0,0,855.77,4.85,36.92,0
13:37:22,0,0,0,0,0,0,0,0,0,0,0,515,0,0,0,0,0.0000000,0.0000000,0.0000000,0.0000000,8.00,38.4062195,-110.7921524,1366.8000488,0.0,99.0,1.0,0.0,0.0,911,168,0,0,855.70,4.88,36.94,0
13:37:23,0,0,0,0,0,0,0,0,0,0,0,515,0,0,0,0,0.0000000,0.0000000,0.0000000,0.0000000,8.00,38.4062195,-110.7921524,1366.8000488,0.0,0.9,1.0,0.0,0.0,911,183,0,0,855.65,4.87,37.03,0
13:37:24,0,0,0,0,0,0,0,0,0,0,0,515,0,0,0,0,0.0000000,0.0000000,0.0000000,0.0000000,9.00,38.4062195,-110.7921524,1366.8000488,0.0,248.3,0.9,0.0,0.0,911,185,0,0,855.82,4.88,37.21,0
13:37:25,0,0,0,0,0,0,0,0,0,0,0,515,0,0,0,0,0.0000000,0.0000000,0.0000000,0.0000000,9.00,38.4062195,-110.7921524,1366.8000488,0.0,116.7,0.9,0.0,0.0,911,182,0,0,855.82,4.79,37.31,0
13:37:26,0,0,0,0,0,0,0,0,0,0,0,515,0,0,0,0,0.0000000,0.0000000,0.0000000,0.0000000,9.00,38.4062195,-110.7921524,1366.8000488,0.0,301.2,0.9,0.0,0.0,911,189,0,0,855.78,4.78,37.38,0
13:37:27,0,0,0,0,0,0,0,0,0,0,0,515,0,0,0,0,0.0000000,0.0000000,0.0000000,0.0000000,9.00,38.4062195,-110.7921524,1366.8000488,0.0,256.0,0.9,0.0,0.0,911,182,0,0,855.78,4.79,37.28,0
13:37:28,0,0,0,0,0,0,0,0,0,0,0,514,0,0,0,0,0.0000000,0.0000000,0.0000000,0.0000000,9.00,38.4062195,-110.7921524,1366.8000488,0.0,291.1,0.9,0.0,0.0,910,175,0,0,855.81,4.78,37.17,0
13:37:29,0,0,0,0,0,0,0,0,0,0,0,516,0,0,0,0,0.0000000,0.0000000,0.0000000,0.0000000,9.00,38.4062195,-110.7921524,1366.8000488,0.0,45.7,0.9,0.0,0.0,911,164,0,0,855.85,4.79,37.19,0
13:37:30,0,0,0,0,0,0,0,0,0,0,0,515,0,0,0,0,0.0000000,0.0000000,0.0000000,0.0000000,9.00,38.4062195,-110.7921524,1366.8000488,0.0,56.0,0.9,0.0,0.0,911,163,0,0,855.77,4.75,37.19,0
13:37:31,0,0,0,0,0,0,0,0,0,0,0,515,0,0,0,0,0.0000000,0.0000000,0.0000000,0.0000000,9.00,38.4062195,-110.7921524,1366.8000488,0.0,318.6,0.9,0.0,0.0,911,189,0,0,855.87,4.76,37.30,0
