Time, Motor A Speed, Motor A Dir, Motor B Speed, Motor B Dir, Servo Rail Current Sensor, Servo Pos - Arm L, Servo Pos - Arm R, Servo Pos - End, Servo Pos - Hopper, Servo Pos - Lid, Servo Pos - Extra, Servo Current, LED - Front L, LED - Front R, LED - Back L, LED - Back R, IMU Pitch, IMU Roll, IMU Yaw, Compass Heading, GPS Sats, GPS Latitude, GPS Longitude, GPS Altitude, GPS Speed, GPS Angle, GPS HDOP, GPS VDOP, GPS PDOP, Battery, Wind, Comm Xbee Latency, Comm Arduino Latency, Pressure, Humidity, Temperature, uRADMonitor
13:47:00,0,0,0,0,0,0,0,0,0,0,0,515,0,0,0,0,0.0000000,0.0000000,0.0000000,0.0000000,10.00,38.4062920,-110.7923584,1333.6999512,0.0,350.0,0.8,0.0,0.0,907,128,0,0,855.99,7.16,29.41,0
13:47:01,0,0,0,0,0,0,0,0,0,0,0,515,0,0,0,0,0.0000000,0.0000000,0.0000000,0.0000000,10.00,38.4062920,-110.7923584,1333.6999512,0.0,70.3,0.8,0.0,0.0,907,127,0,0,855.84,7.16,29.40,0
13:47:02,0,0,0,0,0,0,0,0,0,0,0,515,0,0,0,0,0.0000000,0.0000000,0.0000000,0.0000000,10.00,38.4062920,-110.7923584,1333.6999512,0.0,51.1,0.8,0.0,0.0,908,124,0,0,855.69,7.14,29.40,0
13:47:03,0,0,0,0,0,0,0,0,0,0,0,515,0,0,0,0,0.0000000,0.0000000,0.0000000,0.0000000,10.00,38.4062920,-110.7923584,1333.6999512,0.0,240.1,0.8,0.0,0.0,907,130,0,0,855.62,7.16,29.40,0
13:47:04,0,0,0,0,0,0,0,0,0,0,0,515,0,0,0,0,0.0000000,0.0000000,0.0000000,0.0000000,10.00,38.4062920,-110.7923584,1333.6999512,0.0,109.9,0.8,0.0,0.0,908,129,0,0,855.68,7.14,29.39,0
13:47:05,0,0,0,0,0,0,0,0,0,0,0,514,0,0,0,0,0.0000000,0.0000000,0.0000000,0.0000000,10.00,38.4062920,-110.7923584,1333.6999512,0.0,120.3,0.8,0.0,0.0,907,127,0,0,855.65,7.16,29.39,0
13:47:06,0,0,0,0,0,0,0,0,0,0,0,515,0,0,0,0,0.0000000,0.0000000,0.0000000,0.0000000,10.00,38.4062920,-110.7923584,1333.6999512,0.1,102.0,0.8,0.0,0.0,907,129,0,0,855.72,7.14,29.39,0
13:47:07,0,0,0,0,0,0,0,0,0,0,0,515,0,0,0,0,0.0000000,0.0000000,0.0000000,0.0000000,10.00,38.4062920,-110.7923584,1333.6999512,0.0,86.1,0.8,0.0,0.0,907,129,0,0,855.86,7.16,29.39,0
13:47:08,0,0,0,0,0,0,0,0,0,0,0,515,0,0,0,0,0.0000000,0.0000000,0.0000000,0.0000000,10.00,38.4062920,-110.7923584,1333.6999512,0.0,95.4,0.8,0.0,0.0,908,129,0,0,855.61,7.17,29.39,0
13:47:09,0,0,0,0,0,0,0,0,0,0,0,516,0,0,0,0,0.0000000,0.0000000,0.0000000,0.0000000,10.00,38.4062920,-110.7923584,1333.6999512,0.0,86.3,0.8,0.0,0.0,907,127,0,0,855.81,7.19,29.38,0
13:47:10,0,0,0,0,0,0,0,0,0,0,0,515,0,0,0,0,0.0000000,0.0000000,0.0000000,0.0000000,10.00,38.4062920,-110.7923584,1333.6999512,0.0,129.6,0.8,0.0,0.0,908,129,0,0,855.93,7.17,29.38,0
13:47:11,0,0,0,0,0,0,0,0,0,0,0,515,0,0,0,0,0.0000000,0.0000000,0.0000000,0.0000000,10.00,38.4062920,-110.7923584,1333.8000488,0.0,223.5,0.8,0.0,0.0,908,129,0,0,855.77,7.19,29.38,0
13:47:12,0,0,0,0,0,0,0,0,0,0,0,514,0,0,0,0,0.0000000,0.0000000,0.0000000,0.0000000,10.00,38.4062920,-110.7923584,1333.8000488,0.0,160.8,0.8,0.0,0.0,907,128,0,0,855.78,7.19,29.38,0
13:47:13,0,0,0,0,0,0,0,0,0,0,0,514,0,0,0,0,0.0000000,0.0000000,0.0000000,0.0000000,10.00,38.4062920,-110.7923584,1333.8000488,0.0,180.4,0.8,0.0,0.0,907,127,0,0,855.88,7.14,29.39,0
13:47:14,0,0,0,0,0,0,0,0,0,0,0,515,0,0,0,0,0.0000000,0.0000000,0.0000000,0.0000000,10.00,38.4062920,-110.7923584,1333.8000488,0.0,186.8,0.8,0.0,0.0,907,127,0,0,855.51,7.11,29.40,0
13:47:15,0,0,0,0,0,0,0,0,0,0,0,515,0,0,0,0,0.0000000,0.0000000,0.0000000,0.0000000,10.00,38.4062920,-110.7923584,1333.8000488,0.0,209.0,0.8,0.0,0.0,907,129,0,0,855.54,7.08,29.41,0
13:47:16,0,0,0,0,0,0,0,0,0,0,0,516,0,0,0,0,0.0000000,0.0000000,0.0000000,0.0000000,10.00,38.4062920,-110.7923584,1333.8000488,0.0,338.6,0.8,0.0,0.0,907,131,0,0,855.65,7.10,29.40,0
13:47:17,0,0,0,0,0,0,0,0,0,0,0,514,0,0,0,0,0.0000000,0.0000000,0.0000000,0.0000000,10.00,38.4062920,-110.7923584,1333.8000488,0.0,352.8,0.8,0.0,0.0,907,128,0,0,855.67,7.10,29.41,0
13:47:18,0,0,0,0,0,0,0,0,0,0,0,515,0,0,0,0,0.0000000,0.0000000,0.0000000,0.0000000,10.00,38.4062920,-110.7923584,1333.8000488,0.0,66.4,0.8,0.0,0.0,907,129,0,0,855.76,7.11,29.39,0
13:47:19,0,0,0,0,0,0,0,0,0,0,0,516,0,0,0,0,0.0000000,0.0000000,0.0000000,0.0000000,10.00,38.4062920,-110.7923584,1333.8000488,0.0,13.8,0.8,0.0,0.0,907,131,0,0,855.93,7.13,29.39,0
13:47:20,0,0,0,0,0,0,0,0,0,0,0,515,0,0,0,0,0.0000000,0.0000000,0.0000000,0.0000000,10.00,38.4062920,-110.7923584,1333.8000488,0.0,336.5,0.8,0.0,0.0,907,128,0,0,855.85,7.11,29.39,0
13:47:21,0,0,0,0,0,0,0,0,0,0,0,514,0,0,0,0,0.0000000,0.0000000,0.0000000,0.0000000,10.00,38.4062920,-110.7923584,1333.8000488,0.0,352.6,0.8,0.0,0.0,907,131,0,0,856.08,7.16,29.39,0
13:47:22,0,0,0,0,0,0,0,0,0,0,0,515,0,0,0,0,0.0000000,0.0000000,0.0000000,0.0000000,10.00,38.4062920,-110.7923584,1333.8000488,0.0,330.5,0.8,0.0,0.0,907,129,0,0,856.01,7.16,29.38,0
13:47:23,0,0,0,0,0,0,0,0,0,0,0,515,0,0,0,0,0.0000000,0.0000000,0.0000000,0.0000000,10.00,38.4062920,-110.7923584,1333.8000488,0.0,313.1,0.8,0.0,0.0,907,128,0,0,855.93,7.16,29.37,0
13:47:24,0,0,0,0,0,0,0,0,0,0,0,515,0,0,0,0,0.0000000,0.0000000,0.0000000,0.0000000,10.00,38.4062920,-110.7923584,1333.8000488,0.0,218.2,0.8,0.0,0.0,907,126,0,0,855.84,7.16,29.37,0
13:47:25,0,0,0,0,0,0,0,0,0,0,0,515,0,0,0,0,0.0000000,0.0000000,0.0000000,0.0000000,10.00,38.4062920,-110.7923584,1333.8000488,0.0,24.3,0.8,0.0,0.0,907,127,0,0,855.88,7.19,29.37,0
13:47:26,0,0,0,0,0,0,0,0,0,0,0,515,0,0,0,0,0.0000000,0.0000000,0.0000000,0.0000000,10.00,38.4062920,-110.7923584,1333.9000244,0.0,199.0,0.8,0.0,0.0,907,128,0,0,855.79,7.19,29.37,0
13:47:27,0,0,0,0,0,0,0,0,0,0,0,515,0,0,0,0,0.0000000,0.0000000,0.0000000,0.0000000,10.00,38.4062920,-110.7923584,1333.9000244,0.0,334.7,0.8,0.0,0.0,907,128,0,0,855.73,7.14,29.29,0
13:47:28,0,0,0,0,0,0,0,0,0,0,0,514,0,0,0,0,0.0000000,0.0000000,0.0000000,0.0000000,10.00,38.4062920,-110.7923584,1333.9000244,0.0,40.2,0.8,0.0,0.0,906,130,0,0,855.65,7.13,29.29,0
13:47:29,0,0,0,0,0,0,0,0,0,0,0,515,0,0,0,0,0.0000000,0.0000000,0.0000000,0.0000000,10.00,38.4062920,-110.7923584,1333.9000244,0.0,109.2,0.8,0.0,0.0,907,127,0,0,855.72,7.14,29.28,0
13:47:30,0,0,0,0,0,0,0,0,0,0,0,515,0,0,0,0,0.0000000,0.0000000,0.0000000,0.0000000,10.00,38.4062920,-110.7923584,1333.9000244,0.0,120.6,0.8,0.0,0.0,908,128,0,0,855.77,7.16,29.32,0
13:47:31,0,0,0,0,0,0,0,0,0,0,0,515,0,0,0,0,0.0000000,0.0000000,0.0000000,0.0000000,10.00,38.4062920,-110.7923584,1333.9000244,0.0,34.8,0.8,0.0,0.0,907,128,0,0,855.68,7.19,29.31,0
13:47:32,0,0,0,0,0,0,0,0,0,0,0,515,0,0,0,0,0.0000000,0.0000000,0.0000000,0.0000000,10.00,38.4062920,-110.7923584,1333.9000244,0.0,20.8,0.8,0.0,0.0,907,129,0,0,855.74,7.19,29.35,0
13:47:33,0,0,0,0,0,0,0,0,0,0,0,516,0,0,0,0,0.0000000,0.0000000,0.0000000,0.0000000,10.00,38.4062920,-110.7923584,1333.9000244,0.0,313.0,0.8,0.0,0.0,907,128,0,0,855.72,7.19,29.35,0
13:47:34,0,0,0,0,0,0,0,0,0,0,0,514,0,0,0,0,0.0000000,0.0000000,0.0000000,0.0000000,10.00,38.4062920,-110.7923584,1333.9000244,0.0,30.6,0.8,0.0,0.0,907,128,0,0,855.70,7.16,29.34,0
13:47:35,0,0,0,0,0,0,0,0,0,0,0,514,0,0,0,0,0.0000000,0.0000000,0.0000000,0.0000000,10.00,38.4062958,-110.7923584,1334.0000000,0.0,32.7,0.8,0.0,0.0,907,127,0,0,855.61,7.17,29.34,0
13:47:36,0,0,0,0,0,0,0,0,0,0,0,515,0,0,0,0,0.0000000,0.0000000,0.0000000,0.0000000,10.00,38.4062958,-110.7923584,1334.0000000,0.0,3.8,0.8,0.0,0.0,907,125,0,0,855.61,7.17,29.33,0
13:47:37,0,0,0,0,0,0,0,0,0,0,0,515,0,0,0,0,0.0000000,0.0000000,0.0000000,0.0000000,10.00,38.4062958,-110.7923584,1334.0000000,0.0,187.1,0.8,0.0,0.0,907,130,0,0,855.58,7.19,29.33,0
13:47:38,0,0,0,0,0,0,0,0,0,0,0,515,0,0,0,0,0.0000000,0.0000000,0.0000000,0.0000000,10.00,38.4062958,-110.7923584,1334.5000000,0.0,57.2,0.8,0.0,0.0,907,128,0,0,855.56,7.20,29.32,0
13:47:39,0,0,0,0,0,0,0,0,0,0,0,515,0,0,0,0,0.0000000,0.0000000,0.0000000,0.0000000,10.00,38.4062958,-110.7923584,1335.0000000,0.0,335.8,0.8,0.0,0.0,907,128,0,0,855.61,7.20,29.31,0
13:47:40,0,0,0,0,0,0,0,0,0,0,0,515,0,0,0,0,0.0000000,0.0000000,0.0000000,0.0000000,10.00,38.4062996,-110.7923431,1335.3000488,0.0,15.3,0.8,0.0,0.0,907,126,0,0,855.46,7.19,29.31,0
13:47:41,0,0,0,0,0,0,0,0,0,0,0,515,0,0,0,0,0.0000000,0.0000000,0.0000000,0.0000000,10.00,38.4062996,-110.7923431,1335.8000488,0.0,21.0,0.8,0.0,0.0,907,122,0,0,855.51,7.19,29.29,0
13:47:42,0,0,0,0,0,0,0,0,0,0,0,515,0,0,0,0,0.0000000,0.0000000,0.0000000,0.0000000,10.00,38.4063034,-110.7923431,1336.1999512,0.0,31.6,0.8,0.0,0.0,907,127,0,0,855.46,7.23,29.30,0
13:47:43,0,0,0,0,0,0,0,0,0,0,0,515,0,0,0,0,0.0000000,0.0000000,0.0000000,0.0000000,10.00,38.4063034,-110.7923431,1336.6999512,0.0,275.2,0.8,0.0,0.0,907,127,0,0,855.52,7.23,29.30,0
13:47:44,0,0,0,0,0,0,0,0,0,0,0,515,0,0,0,0,0.0000000,0.0000000,0.0000000,0.0000000,10.00,38.4063034,-110.7923431,1337.1999512,0.0,0.6,0.8,0.0,0.0,907,123,0,0,855.58,7.22,29.31,0
13:47:45,0,0,0,0,0,0,0,0,0,0,0,515,0,0,0,0,0.0000000,0.0000000,0.0000000,0.0000000,10.00,38.4063072,-110.7923431,1337.5999756,0.0,25.5,0.8,0.0,0.0,907,128,0,0,855.53,7.23,29.31,0
13:47:46,0,0,0,0,0,0,0,0,0,0,0,515,0,0,0,0,0.0000000,0.0000000,0.0000000,0.0000000,10.00,38.4063072,-110.7923431,1338.0999756,0.0,176.9,0.8,0.0,0.0,907,128,0,0,855.62,7.22,29.30,0
13:47:47,0,0,0,0,0,0,0,0,0,0,0,515,0,0,0,0,0.0000000,0.0000000,0.0000000,0.0000000,10.00,38.4063110,-110.7923431,1338.5000000,0.0,339.4,0.8,0.0,0.0,907,130,0,0,855.65,7.20,29.29,0
13:47:48,0,0,0,0,0,0,0,0,0,0,0,515,0,0,0,0,0.0000000,0.0000000,0.0000000,0.0000000,10.00,38.4063110,-110.7923431,1339.0000000,0.0,8.3,0.8,0.0,0.0,907,124,0,0,855.58,7.23,29.28,0
13:47:49,0,0,0,0,0,0,0,0,0,0,0,515,0,0,0,0,0.0000000,0.0000000,0.0000000,0.0000000,10.00,38.4063148,-110.7923431,1339.5000000,0.0,291.8,0.8,0.0,0.0,907,126,0,0,855.61,7.23,29.27,0
13:47:50,0,0,0,0,0,0,0,0,0,0,0,515,0,0,0,0,0.0000000,0.0000000,0.0000000,0.0000000,10.00,38.4063148,-110.7923431,1339.9000244,0.0,24.3,0.8,0.0,0.0,906,126,0,0,855.58,7.26,29.26,0
13:47:51,0,0,0,0,0,0,0,0,0,0,0,515,0,0,0,0,0.0000000,0.0000000,0.0000000,0.0000000,10.00,38.4063187,-110.7923431,1340.4000244,0.0,292.8,0.8,0.0,0.0,907,130,0,0,855.59,7.26,29.26,0
13:47:52,0,0,0,0,0,0,0,0,0,0,0,515,0,0,0,0,0.0000000,0.0000000,0.0000000,0.0000000,10.00,38.4063187,-110.7923431,1340.9000244,0.0,77.9,0.8,0.0,0.0,907,128,0,0,855.63,7.26,29.25,0
13:47:53,0,0,0,0,0,0,0,0,0,0,0,515,0,0,0,0,0.0000000,0.0000000,0.0000000,0.0000000,9.00,38.4063187,-110.7923431,1341.4000244,0.0,2.7,0.8,0.0,0.0,907,127,0,0,855.55,7.28,29.25,0
13:47:54,0,0,0,0,0,0,0,0,0,0,0,516,0,0,0,0,0.0000000,0.0000000,0.0000000,0.0000000,10.00,38.4063187,-110.7923431,1341.8000488,0.0,359.8,0.8,0.0,0.0,907,126,0,0,855.60,7.31,29.25,0
13:47:55,0,0,0,0,0,0,0,0,0,0,0,515,0,0,0,0,0.0000000,0.0000000,0.0000000,0.0000000,10.00,38.4063225,-110.7923431,1342.3000488,0.0,22.7,0.8,0.0,0.0,906,127,0,0,855.66,7.28,29.25,0
13:47:56,0,0,0,0,0,0,0,0,0,0,0,515,0,0,0,0,0.0000000,0.0000000,0.0000000,0.0000000,10.00,38.4063225,-110.7923431,1342.9000244,0.0,298.1,0.8,0.0,0.0,907,129,0,0,855.57,7.23,29.25,0
13:47:57,0,0,0,0,0,0,0,0,0,0,0,516,0,0,0,0,0.0000000,0.0000000,0.0000000,0.0000000,10.00,38.4063225,-110.7923431,1343.4000244,0.0,354.0,0.8,0.0,0.0,907,128,0,0,855.65,7.28,29.25,0
13:47:58,0,0,0,0,0,0,0,0,0,0,0,515,0,0,0,0,0.0000000,0.0000000,0.0000000,0.0000000,10.00,38.4063225,-110.7923431,1343.4000244,0.0,340.1,0.8,0.0,0.0,906,129,0,0,855.78,7.26,29.25,0
13:47:59,0,0,0,0,0,0,0,0,0,0,0,515,0,0,0,0,0.0000000,0.0000000,0.0000000,0.0000000,10.00,38.4063225,-110.7923431,1343.4000244,0.0,216.0,0.8,0.0,0.0,908,130,0,0,855.64,7.29,29.24,0
13:48:00,0,0,0,0,0,0,0,0,0,0,0,515,0,0,0,0,0.0000000,0.0000000,0.0000000,0.0000000,10.00,38.4063225,-110.7923431,1343.4000244,0.0,272.5,0.8,0.0,0.0,907,128,0,0,855.62,7.26,29.23,0
13:48:01,0,0,0,0,0,0,0,0,0,0,0,515,0,0,0,0,0.0000000,0.0000000,0.0000000,0.0000000,10.00,38.4063225,-110.7923431,1343.4000244,0.0,314.3,0.8,0.0,0.0,907,126,0,0,855.58,7.28,29.22,0
13:48:02,0,0,0,0,0,0,0,0,0,0,0,515,0,0,0,0,0.0000000,0.0000000,0.0000000,0.0000000,10.00,38.4063225,-110.7923431,1343.4000244,0.0,281.3,0.8,0.0,0.0,907,126,0,0,855.59,7.29,29.22,0
13:48:03,0,0,0,0,0,0,0,0,0,0,0,515,0,0,0,0,0.0000000,0.0000000,0.0000000,0.0000000,10.00,38.4063225,-110.7923584,1344.0000000,0.0,250.2,0.8,0.0,0.0,907,129,0,0,855.52,7.29,29.22,0
13:48:04,0,0,0,0,0,0,0,0,0,0,0,516,0,0,0,0,0.0000000,0.0000000,0.0000000,0.0000000,10.00,38.4063225,-110.7923584,1344.5999756,0.0,338.3,0.8,0.0,0.0,907,127,0,0,855.60,7.31,29.22,0
13:48:05,0,0,0,0,0,0,0,0,0,0,0,514,0,0,0,0,0.0000000,0.0000000,0.0000000,0.0000000,10.00,38.4063225,-110.7923584,1345.0999756,0.0,72.8,0.8,0.0,0.0,908,128,0,0,855.53,7.29,29.22,0
13:48:06,0,0,0,0,0,0,0,0,0,0,0,514,0,0,0,0,0.0000000,0.0000000,0.0000000,0.0000000,10.00,38.4063263,-110.7923584,1345.8000488,0.0,306.7,0.8,0.0,0.0,907,127,0,0,855.50,7.31,29.22,0
13:48:07,0,0,0,0,0,0,0,0,0,0,0,515,0,0,0,0,0.0000000,0.0000000,0.0000000,0.0000000,10.00,38.4063263,-110.7923584,1345.8000488,0.0,293.7,0.8,0.0,0.0,907,129,0,0,855.75,7.28,29.21,0
13:48:08,0,0,0,0,0,0,0,0,0,0,0,515,0,0,0,0,0.0000000,0.0000000,0.0000000,0.0000000,10.00,38.4063263,-110.7923584,1345.8000488,0.0,251.2,0.8,0.0,0.0,907,129,0,0,855.72,7.32,29.21,0
13:48:09,0,0,0,0,0,0,0,0,0,0,0,514,0,0,0,0,0.0000000,0.0000000,0.0000000,0.0000000,10.00,38.4063263,-110.7923584,1345.8000488,0.0,318.0,0.8,0.0,0.0,907,128,0,0,855.78,7.31,29.21,0
13:48:10,0,0,0,0,0,0,0,0,0,0,0,515,0,0,0,0,0.0000000,0.0000000,0.0000000,0.0000000,10.00,38.4063263,-110.7923584,1345.8000488,0.0,320.0,0.8,0.0,0.0,907,129,0,0,855.84,7.29,29.21,0
13:48:11,0,0,0,0,0,0,0,0,0,0,0,514,0,0,0,0,0.0000000,0.0000000,0.0000000,0.0000000,10.00,38.4063263,-110.7923584,1345.8000488,0.0,286.9,0.8,0.0,0.0,907,131,0,0,855.95,7.31,29.20,0
13:48:12,0,0,0,0,0,0,0,0,0,0,0,515,0,0,0,0,0.0000000,0.0000000,0.0000000,0.0000000,10.00,38.4063263,-110.7923584,1345.8000488,0.0,270.5,0.8,0.0,0.0,907,131,0,0,855.78,7.32,29.20,0
13:48:13,0,0,0,0,0,0,0,0,0,0,0,515,0,0,0,0,0.0000000,0.0000000,0.0000000,0.0000000,10.00,38.4063263,-110.7923584,1345.9000244,0.0,318.1,0.8,0.0,0.0,907,126,0,0,855.68,7.32,29.20,0
13:48:14,0,0,0,0,0,0,0,0,0,0,0,514,0,0,0,0,0.0000000,0.0000000,0.0000000,0.0000000,9.00,38.4063263,-110.7923584,1345.9000244,0.0,285.8,0.8,0.0,0.0,907,129,0,0,855.83,7.31,29.19,0
13:48:15,0,0,0,0,0,0,0,0,0,0,0,515,0,0,0,0,0.0000000,0.0000000,0.0000000,0.0000000,10.00,38.4063263,-110.7923584,1345.9000244,0.0,346.3,0.8,0.0,0.0,907,127,0,0,855.80,7.31,29.19,0
13:48:16,0,0,0,0,0,0,0,0,0,0,0,515,0,0,0,0,0.0000000,0.0000000,0.0000000,0.0000000,9.00,38.4063263,-110.7923584,1345.9000244,0.0,335.0,0.8,0.0,0.0,907,129,0,0,855.72,7.28,29.21,0
13:48:17,0,0,0,0,0,0,0,0,0,0,0,516,0,0,0,0,0.0000000,0.0000000,0.0000000,0.0000000,9.00,38.4063263,-110.7923584,1345.9000244,0.0,7.9,0.8,0.0,0.0,907,133,0,0,855.83,7.26,29.21,0
13:48:18,0,0,0,0,0,0,0,0,0,0,0,515,0,0,0,0,0.0000000,0.0000000,0.0000000,0.0000000,9.00,38.4063263,-110.7923584,1345.9000244,0.0,345.9,0.8,0.0,0.0,907,125,0,0,855.73,7.26,29.22,0
13:48:19,0,0,0,0,0,0,0,0,0,0,0,515,0,0,0,0,0.0000000,0.0000000,0.0000000,0.0000000,9.00,38.4063263,-110.7923584,1345.9000244,0.0,4.0,0.8,0.0,0.0,907,128,0,0,855.80,7.25,29.23,0
13:48:20,0,0,0,0,0,0,0,0,0,0,0,516,0,0,0,0,0.0000000,0.0000000,0.0000000,0.0000000,9.00,38.4063263,-110.7923584,1345.9000244,0.0,321.5,0.8,0.0,0.0,907,127,0,0,856.10,7.25,29.22,0
13:48:21,0,0,0,0,0,0,0,0,0,0,0,515,0,0,0,0,0.0000000,0.0000000,0.0000000,0.0000000,9.00,38.4063263,-110.7923584,1346.0000000,0.0,324.2,0.8,0.0,0.0,907,128,0,0,856.02,7.25,29.22,0
13:48:22,0,0,0,0,0,0,0,0,0,0,0,514,0,0,0,0,0.0000000,0.0000000,0.0000000,0.0000000,9.00,38.4063263,-110.7923584,1346.0000000,0.0,307.6,0.8,0.0,0.0,907,127,0,0,855.91,7.25,29.21,0
13:48:24,0,0,0,0,0,0,0,0,0,0,0,515,0,0,0,0,0.0000000,0.0000000,0.0000000,0.0000000,9.00,38.4063263,-110.7923584,1346.0000000,0.0,8.6,0.8,0.0,0.0,907,128,0,0,856.17,7.28,29.22,0
13:48:25,0,0,0,0,0,0,0,0,0,0,0,515,0,0,0,0,0.0000000,0.0000000,0.0000000,0.0000000,9.00,38.4063263,-110.7923584,1346.0000000,0.0,292.7,0.8,0.0,0.0,907,130,0,0,856.15,7.28,29.21,0
13:48:26,0,0,0,0,0,0,0,0,0,0,0,515,0,0,0,0,0.0000000,0.0000000,0.0000000,0.0000000,9.00,38.4063263,-110.7923584,1346.0000000,0.0,343.4,0.8,0.0,0.0,907,125,0,0,855.98,7.31,29.20,0
13:48:27,0,0,0,0,0,0,0,0,0,0,0,515,0,0,0,0,0.0000000,0.0000000,0.0000000,0.0000000,9.00,38.4063263,-110.7923584,1346.0000000,0.0,351.4,0.8,0.0,0.0,907,128,0,0,856.08,7.31,29.20,0
13:48:28,0,0,0,0,0,0,0,0,0,0,0,515,0,0,0,0,0.0000000,0.0000000,0.0000000,0.0000000,10.00,38.4063263,-110.7923584,1346.0000000,0.0,319.3,0.8,0.0,0.0,907,126,0,0,855.87,7.31,29.18,0
13:48:29,0,0,0,0,0,0,0,0,0,0,0,515,0,0,0,0,0.0000000,0.0000000,0.0000000,0.0000000,10.00,38.4063263,-110.7923584,1346.0000000,0.0,24.7,0.8,0.0,0.0,906,125,0,0,856.02,7.29,29.18,0
13:48:30,0,0,0,0,0,0,0,0,0,0,0,516,0,0,0,0,0.0000000,0.0000000,0.0000000,0.0000000,10.00,38.4063263,-110.7923584,1346.0999756,0.0,5.8,0.8,0.0,0.0,907,128,0,0,855.93,7.29,29.19,0
13:48:31,0,0,0,0,0,0,0,0,0,0,0,515,0,0,0,0,0.0000000,0.0000000,0.0000000,0.0000000,10.00,38.4063263,-110.7923584,1346.0999756,0.0,341.3,0.8,0.0,0.0,907,128,0,0,855.74,7.28,29.19,0
13:48:32,0,0,0,0,0,0,0,0,0,0,0,515,0,0,0,0,0.0000000,0.0000000,0.0000000,0.0000000,10.00,38.4063263,-110.7923584,1346.0999756,0.0,240.8,0.8,0.0,0.0,908,127,0,0,855.54,7.29,29.19,0
13:48:33,0,0,0,0,0,0,0,0,0,0,0,515,0,0,0,0,0.0000000,0.0000000,0.0000000,0.0000000,10.00,38.4063263,-110.7923584,1346.5999756,0.0,21.2,0.8,0.0,0.0,907,126,0,0,855.52,7.29,29.18,0
13:48:34,0,0,0,0,0,0,0,0,0,0,0,515,0,0,0,0,0.0000000,0.0000000,0.0000000,0.0000000,10.00,38.4063301,-110.7923584,1347.1999512,0.0,294.9,0.8,0.0,0.0,907,129,0,0,855.59,7.31,29.17,0
13:48:35,0,0,0,0,0,0,0,0,0,0,0,514,0,0,0,0,0.0000000,0.0000000,0.0000000,0.0000000,10.00,38.4063301,-110.7923584,1347.8000488,0.0,230.8,0.8,0.0,0.0,907,130,0,0,855.57,7.32,29.16,0
13:48:36,0,0,0,0,0,0,0,0,0,0,0,515,0,0,0,0,0.0000000,0.0000000,0.0000000,0.0000000,10.00,38.4063301,-110.7923737,1348.5000000,0.1,282.8,0.8,0.0,0.0,906,124,0,0,855.66,7.29,29.17,0
13:48:37,0,0,0,0,0,0,0,0,0,0,0,515,0,0,0,0,0.0000000,0.0000000,0.0000000,0.0000000,10.00,38.4063339,-110.7923737,1348.9000244,0.0,19.8,0.8,0.0,0.0,907,130,0,0,855.64,7.31,29.18,0
13:48:38,0,0,0,0,0,0,0,0,0,0,0,515,0,0,0,0,0.0000000,0.0000000,0.0000000,0.0000000,10.00,38.4063339,-110.7923737,1349.3000488,0.0,329.1,0.8,0.0,0.0,907,126,0,0,855.88,7.29,29.17,0
13:48:39,0,0,0,0,0,0,0,0,0,0,0,515,0,0,0,0,0.0000000,0.0000000,0.0000000,0.0000000,10.00,38.4063339,-110.7923584,1349.5999756,0.0,126.5,0.8,0.0,0.0,907,128,0,0,855.86,7.32,29.17,0
13:48:40,0,0,0,0,0,0,0,0,0,0,0,514,0,0,0,0,0.0000000,0.0000000,0.0000000,0.0000000,10.00,38.4063339,-110.7923584,1349.8000488,0.0,63.1,0.8,0.0,0.0,907,126,0,0,855.76,7.36,29.17,0
13:48:41,0,0,0,0,0,0,0,0,0,0,0,515,0,0,0,0,0.0000000,0.0000000,0.0000000,0.0000000,10.00,38.4063339,-110.7923431,1350.0000000,0.0,114.7,0.8,0.0,0.0,906,130,0,0,855.79,7.32,29.17,0
13:48:42,0,0,0,0,0,0,0,0,0,0,0,515,0,0,0,0,0.0000000,0.0000000,0.0000000,0.0000000,10.00,38.4063377,-110.7923431,1350.4000244,0.0,105.2,0.8,0.0,0.0,907,128,0,0,855.98,7.36,29.17,0
13:48:43,0,0,0,0,0,0,0,0,0,0,0,515,0,0,0,0,0.0000000,0.0000000,0.0000000,0.0000000,10.00,38.4063377,-110.7923431,1350.5999756,0.0,40.7,0.8,0.0,0.0,907,130,0,0,855.78,7.37,29.16,0
13:48:44,0,0,0,0,0,0,0,0,0,0,0,514,0,0,0,0,0.0000000,0.0000000,0.0000000,0.0000000,10.00,38.4063377,-110.7923431,1350.8000488,0.0,48.5,0.8,0.0,0.0,907,123,0,0,855.68,7.36,29.15,0
13:48:45,0,0,0,0,0,0,0,0,0,0,0,516,0,0,0,0,0.0000000,0.0000000,0.0000000,0.0000000,10.00,38.4063377,-110.7923431,1351.4000244,0.0,33.1,0.8,0.0,0.0,907,123,0,0,855.77,7.37,29.16,0
13:48:46,0,0,0,0,0,0,0,0,0,0,0,515,0,0,0,0,0.0000000,0.0000000,0.0000000,0.0000000,10.00,38.4063377,-110.7923431,1352.0000000,0.0,20.3,0.8,0.0,0.0,906,128,0,0,855.74,7.34,29.17,0
13:48:47,0,0,0,0,0,0,0,0,0,0,0,515,0,0,0,0,0.0000000,0.0000000,0.0000000,0.0000000,10.00,38.4063377,-110.7923431,1352.8000488,0.0,104.6,0.8,0.0,0.0,907,128,0,0,855.82,7.34,29.17,0
13:48:48,0,0,0,0,0,0,0,0,0,0,0,515,0,0,0,0,0.0000000,0.0000000,0.0000000,0.0000000,10.00,38.4063377,-110.7923431,1352.8000488,0.0,90.2,0.8,0.0,0.0,907,126,0,0,855.71,7.31,29.17,0
13:48:49,0,0,0,0,0,0,0,0,0,0,0,515,0,0,0,0,0.0000000,0.0000000,0.0000000,0.0000000,10.00,38.4063377,-110.7923431,1352.8000488,0.0,105.3,0.8,0.0,0.0,907,130,0,0,855.81,7.29,29.18,0
13:48:50,0,0,0,0,0,0,0,0,0,0,0,516,0,0,0,0,0.0000000,0.0000000,0.0000000,0.0000000,10.00,38.4063377,-110.7923431,1352.8000488,0.0,100.6,0.8,0.0,0.0,907,128,0,0,855.79,7.26,29.19,0
13:48:51,0,0,0,0,0,0,0,0,0,0,0,516,0,0,0,0,0.0000000,0.0000000,0.0000000,0.0000000,9.00,38.4063377,-110.7923431,1352.8000488,0.0,286.6,0.9,0.0,0.0,907,127,0,0,855.80,7.26,29.19,0
13:48:52,0,0,0,0,0,0,0,0,0,0,0,515,0,0,0,0,0.0000000,0.0000000,0.0000000,0.0000000,9.00,38.4063377,-110.7923431,1352.8000488,0.0,359.2,0.9,0.0,0.0,907,128,0,0,855.72,7.29,29.09,0
13:48:53,0,0,0,0,0,0,0,0,0,0,0,514,0,0,0,0,0.0000000,0.0000000,0.0000000,0.0000000,9.00,38.4063377,-110.7923431,1352.8000488,0.0,354.7,0.9,0.0,0.0,906,128,0,0,855.96,7.32,29.09,0
13:48:54,0,0,0,0,0,0,0,0,0,0,0,514,0,0,0,0,0.0000000,0.0000000,0.0000000,0.0000000,9.00,38.4063377,-110.7923431,1353.4000244,0.0,99.1,0.9,0.0,0.0,907,127,0,0,855.80,7.32,29.09,0
13:48:55,0,0,0,0,0,0,0,0,0,0,0,515,0,0,0,0,0.0000000,0.0000000,0.0000000,0.0000000,9.00,38.4063377,-110.7923431,1354.0999756,0.0,57.0,0.9,0.0,0.0,907,129,0,0,855.76,7.31,29.07,0
13:48:56,0,0,0,0,0,0,0,0,0,0,0,515,0,0,0,0,0.0000000,0.0000000,0.0000000,0.0000000,9.00,38.4063416,-110.7923431,1354.8000488,0.0,17.5,0.9,0.0,0.0,907,128,0,0,855.68,7.31,29.08,0
13:48:57,0,0,0,0,0,0,0,0,0,0,0,515,0,0,0,0,0.0000000,0.0000000,0.0000000,0.0000000,9.00,38.4063416,-110.7923431,1355.4000244,0.0,16.6,0.9,0.0,0.0,907,129,0,0,855.66,7.28,29.08,0
13:48:58,0,0,0,0,0,0,0,0,0,0,0,515,0,0,0,0,0.0000000,0.0000000,0.0000000,0.0000000,9.00,38.4063416,-110.7923431,1356.1999512,0.0,88.0,0.9,0.0,0.0,907,128,0,0,855.67,7.28,29.08,0
13:48:59,0,0,0,0,0,0,0,0,0,0,0,515,0,0,0,0,0.0000000,0.0000000,0.0000000,0.0000000,9.00,38.4063416,-110.7923431,1357.5999756,0.0,320.6,0.9,0.0,0.0,907,128,0,0,855.68,7.29,29.14,0
13:49:00,0,0,0,0,0,0,0,0,0,0,0,515,0,0,0,0,0.0000000,0.0000000,0.0000000,0.0000000,9.00,38.4063416,-110.7923431,1358.4000244,0.0,296.2,0.9,0.0,0.0,907,128,0,0,855.86,7.28,29.14,0
13:49:01,0,0,0,0,0,0,0,0,0,0,0,515,0,0,0,0,0.0000000,0.0000000,0.0000000,0.0000000,9.00,38.4063377,-110.7923431,1358.9000244,0.0,296.2,0.9,0.0,0.0,907,120,0,0,855.77,7.28,29.14,0
13:49:02,0,0,0,0,0,0,0,0,0,0,0,515,0,0,0,0,0.0000000,0.0000000,0.0000000,0.0000000,9.00,38.4063377,-110.7923431,1359.8000488,0.0,253.9,0.9,0.0,0.0,907,126,0,0,855.79,7.25,29.15,0
13:49:03,0,0,0,0,0,0,0,0,0,0,0,515,0,0,0,0,0.0000000,0.0000000,0.0000000,0.0000000,9.00,38.4063377,-110.7923431,1360.5000000,0.0,288.0,0.9,0.0,0.0,907,127,0,0,855.79,7.22,29.16,0
13:49:04,0,0,0,0,0,0,0,0,0,0,0,515,0,0,0,0,0.0000000,0.0000000,0.0000000,0.0000000,9.00,38.4063377,-110.7923431,1361.3000488,0.0,340.0,0.9,0.0,0.0,906,127,0,0,855.84,7.20,29.16,0
13:49:05,0,0,0,0,0,0,0,0,0,0,0,515,0,0,0,0,0.0000000,0.0000000,0.0000000,0.0000000,10.00,38.4063377,-110.7923431,1362.1999512,0.0,279.0,0.8,0.0,0.0,907,126,0,0,855.67,7.23,29.16,0
13:49:06,0,0,0,0,0,0,0,0,0,0,0,515,0,0,0,0,0.0000000,0.0000000,0.0000000,0.0000000,10.00,38.4063377,-110.7923584,1362.8000488,0.0,357.0,0.8,0.0,0.0,906,128,0,0,855.67,7.20,29.21,0
13:49:07,0,0,0,0,0,0,0,0,0,0,0,515,0,0,0,0,0.0000000,0.0000000,0.0000000,0.0000000,10.00,38.4063377,-110.7923584,1363.4000244,0.0,242.8,0.8,0.0,0.0,907,127,0,0,855.67,7.22,29.21,0
13:49:08,0,0,0,0,0,0,0,0,0,0,0,515,0,0,0,0,0.0000000,0.0000000,0.0000000,0.0000000,10.00,38.4063377,-110.7923584,1364.0999756,0.0,1.8,0.8,0.0,0.0,906,131,0,0,855.77,7.25,29.21,0
13:49:09,0,0,0,0,0,0,0,0,0,0,0,515,0,0,0,0,0.0000000,0.0000000,0.0000000,0.0000000,10.00,38.4063377,-110.7923584,1364.9000244,0.0,302.0,0.8,0.0,0.0,907,129,0,0,855.73,7.23,29.21,0
13:49:10,0,0,0,0,0,0,0,0,0,0,0,515,0,0,0,0,0.0000000,0.0000000,0.0000000,0.0000000,10.00,38.4063377,-110.7923584,1365.5999756,0.0,293.2,0.8,0.0,0.0,907,126,0,0,855.90,7.26,29.21,0
13:49:11,0,0,0,0,0,0,0,0,0,0,0,515,0,0,0,0,0.0000000,0.0000000,0.0000000,0.0000000,10.00,38.4063377,-110.7923584,1366.0999756,0.0,97.7,0.8,0.0,0.0,907,130,0,0,855.71,7.23,29.22,0
13:49:12,0,0,0,0,0,0,0,0,0,0,0,515,0,0,0,0,0.0000000,0.0000000,0.0000000,0.0000000,10.00,38.4063339,-110.7923584,1366.8000488,0.0,41.1,0.8,0.0,0.0,906,123,0,0,855.79,7.29,29.20,0
13:49:13,0,0,0,0,0,0,0,0,0,0,0,515,0,0,0,0,0.0000000,0.0000000,0.0000000,0.0000000,10.00,38.4063339,-110.7923584,1367.3000488,0.0,65.0,0.8,0.0,0.0,906,131,0,0,855.79,7.29,29.19,0
13:49:14,0,0,0,0,0,0,0,0,0,0,0,516,0,0,0,0,0.0000000,0.0000000,0.0000000,0.0000000,10.00,38.4063339,-110.7923584,1368.0000000,0.0,304.0,0.8,0.0,0.0,906,126,0,0,855.81,7.31,29.19,0
13:49:15,0,0,0,0,0,0,0,0,0,0,0,515,0,0,0,0,0.0000000,0.0000000,0.0000000,0.0000000,10.00,38.4063339,-110.7923584,1368.5999756,0.0,218.8,0.8,0.0,0.0,906,128,0,0,855.79,7.29,29.20,0
13:49:16,0,0,0,0,0,0,0,0,0,0,0,515,0,0,0,0,0.0000000,0.0000000,0.0000000,0.0000000,10.00,38.4063339,-110.7923584,1368.8000488,0.0,55.1,0.8,0.0,0.0,906,124,0,0,855.67,7.29,29.21,0
13:49:17,0,0,0,0,0,0,0,0,0,0,0,514,0,0,0,0,0.0000000,0.0000000,0.0000000,0.0000000,10.00,38.4063339,-110.7923584,1369.1999512,0.0,317.9,0.8,0.0,0.0,906,125,0,0,855.80,7.29,29.21,0
13:49:18,0,0,0,0,0,0,0,0,0,0,0,515,0,0,0,0,0.0000000,0.0000000,0.0000000,0.0000000,10.00,38.4063339,-110.7923584,1369.6999512,0.0,264.7,0.8,0.0,0.0,906,127,0,0,855.73,7.28,29.21,0
13:49:19,0,0,0,0,0,0,0,0,0,0,0,514,0,0,0,0,0.0000000,0.0000000,0.0000000,0.0000000,10.00,38.4063339,-110.7923584,1370.0000000,0.0,9.4,0.8,0.0,0.0,907,127,0,0,855.80,7.28,29.20,0
13:49:20,0,0,0,0,0,0,0,0,0,0,0,515,0,0,0,0,0.0000000,0.0000000,0.0000000,0.0000000,10.00,38.4063339,-110.7923584,1370.4000244,0.0,17.5,0.8,0.0,0.0,907,126,0,0,855.86,7.31,29.18,0
13:49:21,0,0,0,0,0,0,0,0,0,0,0,515,0,0,0,0,0.0000000,0.0000000,0.0000000,0.0000000,10.00,38.4063377,-110.7923584,1370.5999756,0.0,51.6,0.8,0.0,0.0,907,127,0,0,855.77,7.31,29.17,0
13:49:22,0,0,0,0,0,0,0,0,0,0,0,515,0,0,0,0,0.0000000,0.0000000,0.0000000,0.0000000,10.00,38.4063339,-110.7923584,1371.0999756,0.0,222.8,0.8,0.0,0.0,907,127,0,0,855.64,7.34,29.18,0
13:49:23,0,0,0,0,0,0,0,0,0,0,0,514,0,0,0,0,0.0000000,0.0000000,0.0000000,0.0000000,10.00,38.4063339,-110.7923584,1371.4000244,0.0,100.0,0.8,0.0,0.0,907,130,0,0,855.53,7.31,29.19,0
13:49:24,0,0,0,0,0,0,0,0,0,0,0,515,0,0,0,0,0.0000000,0.0000000,0.0000000,0.0000000,10.00,38.4063301,-110.7923584,1371.5999756,0.0,208.2,0.8,0.0,0.0,906,128,0,0,855.45,7.29,29.19,0
13:49:25,0,0,0,0,0,0,0,0,0,0,0,515,0,0,0,0,0.0000000,0.0000000,0.0000000,0.0000000,10.00,38.4063301,-110.7923584,1372.0000000,0.0,104.9,0.8,0.0,0.0,907,129,0,0,855.52,7.31,29.18,0
13:49:26,0,0,0,0,0,0,0,0,0,0,0,515,0,0,0,0,0.0000000,0.0000000,0.0000000,0.0000000,10.00,38.4063263,-110.7923431,1372.3000488,0.0,110.6,0.8,0.0,0.0,907,128,0,0,855.58,7.29,29.18,0
13:49:27,0,0,0,0,0,0,0,0,0,0,0,515,0,0,0,0,0.0000000,0.0000000,0.0000000,0.0000000,10.00,38.4063263,-110.7923431,1372.8000488,0.0,106.0,0.8,0.0,0.0,906,129,0,0,855.63,7.31,29.17,0
13:49:28,0,0,0,0,0,0,0,0,0,0,0,514,0,0,0,0,0.0000000,0.0000000,0.0000000,0.0000000,10.00,38.4063225,-110.7923431,1373.3000488,0.0,88.9,0.8,0.0,0.0,906,128,0,0,855.78,7.32,29.18,0
13:49:29,0,0,0,0,0,0,0,0,0,0,0,515,0,0,0,0,0.0000000,0.0000000,0.0000000,0.0000000,10.00,38.4063225,-110.7923431,1373.6999512,0.0,135.8,0.8,0.0,0.0,906,129,0,0,855.81,7.29,29.19,0
13:49:30,0,0,0,0,0,0,0,0,0,0,0,515,0,0,0,0,0.0000000,0.0000000,0.0000000,0.0000000,10.00,38.4063187,-110.7923431,1374.1999512,0.0,146.6,0.8,0.0,0.0,906,130,0,0,855.79,7.29,29.18,0
13:49:31,0,0,0,0,0,0,0,0,0,0,0,515,0,0,0,0,0.0000000,0.0000000,0.0000000,0.0000000,10.00,38.4063187,-110.7923355,1374.6999512,0.0,95.5,0.8,0.0,0.0,907,127,0,0,855.79,7.32,29.18,0
13:49:32,0,0,0,0,0,0,0,0,0,0,0,515,0,0,0,0,0.0000000,0.0000000,0.0000000,0.0000000,10.00,38.4063148,-110.7923355,1375.1999512,0.0,98.4,0.8,0.0,0.0,906,127,0,0,855.75,7.29,29.18,0
13:49:33,0,0,0,0,0,0,0,0,0,0,0,515,0,0,0,0,0.0000000,0.0000000,0.0000000,0.0000000,10.00,38.4063148,-110.7923355,1375.5999756,0.0,126.1,0.8,0.0,0.0,906,128,0,0,855.75,7.29,29.17,0
13:49:34,0,0,0,0,0,0,0,0,0,0,0,515,0,0,0,0,0.0000000,0.0000000,0.0000000,0.0000000,10.00,38.4063148,-110.7923355,1376.0999756,0.0,120.8,0.8,0.0,0.0,906,128,0,0,855.77,7.29,29.18,0
13:49:35,0,0,0,0,0,0,0,0,0,0,0,514,0,0,0,0,0.0000000,0.0000000,0.0000000,0.0000000,10.00,38.4063110,-110.7923203,1376.5999756,0.0,67.4,0.8,0.0,0.0,907,127,0,0,855.77,7.32,29.18,0
13:49:36,0,0,0,0,0,0,0,0,0,0,0,515,0,0,0,0,0.0000000,0.0000000,0.0000000,0.0000000,10.00,38.4063110,-110.7923203,1377.0999756,0.0,112.8,0.8,0.0,0.0,906,127,0,0,855.72,7.36,29.17,0
13:49:37,0,0,0,0,0,0,0,0,0,0,0,514,0,0,0,0,0.0000000,0.0000000,0.0000000,0.0000000,10.00,38.4063072,-110.7923203,1377.5999756,0.0,109.3,0.8,0.0,0.0,906,130,0,0,855.63,7.34,29.17,0
13:49:38,0,0,0,0,0,0,0,0,0,0,0,515,0,0,0,0,0.0000000,0.0000000,0.0000000,0.0000000,10.00,38.4063034,-110.7923203,1378.0999756,0.0,131.8,0.8,0.0,0.0,906,125,0,0,855.62,7.31,29.18,0
13:49:39,0,0,0,0,0,0,0,0,0,0,0,514,0,0,0,0,0.0000000,0.0000000,0.0000000,0.0000000,10.00,38.4063034,-110.7923203,1378.5000000,0.0,194.9,0.8,0.0,0.0,907,128,0,0,855.69,7.32,29.17,0
13:49:40,0,0,0,0,0,0,0,0,0,0,0,515,0,0,0,0,0.0000000,0.0000000,0.0000000,0.0000000,10.00,38.4063034,-110.7923203,1378.8000488,0.0,108.1,0.8,0.0,0.0,906,128,0,0,855.69,7.34,29.17,0
13:49:41,0,0,0,0,0,0,0,0,0,0,0,515,0,0,0,0,0.0000000,0.0000000,0.0000000,0.0000000,10.00,38.4062996,-110.7923050,1379.3000488,0.0,120.0,0.8,0.0,0.0,906,130,0,0,855.79,7.32,29.17,0
13:49:42,0,0,0,0,0,0,0,0,0,0,0,515,0,0,0,0,0.0000000,0.0000000,0.0000000,0.0000000,10.00,38.4062996,-110.7923050,1379.5999756,0.0,72.7,0.8,0.0,0.0,907,126,0,0,855.89,7.36,29.17,0
13:49:43,0,0,0,0,0,0,0,0,0,0,0,515,0,0,0,0,0.0000000,0.0000000,0.0000000,0.0000000,10.00,38.4062996,-110.7923050,1379.9000244,0.0,52.2,0.8,0.0,0.0,906,126,0,0,855.72,7.31,29.17,0
13:49:44,0,0,0,0,0,0,0,0,0,0,0,515,0,0,0,0,0.0000000,0.0000000,0.0000000,0.0000000,10.00,38.4062996,-110.7923050,1380.3000488,0.0,73.0,0.8,0.0,0.0,906,128,0,0,855.69,7.36,29.17,0
13:49:45,0,0,0,0,0,0,0,0,0,0,0,515,0,0,0,0,0.0000000,0.0000000,0.0000000,0.0000000,10.00,38.4062996,-110.7922974,1380.4000244,0.0,97.6,0.8,0.0,0.0,906,127,0,0,855.68,7.32,29.17,0
13:49:46,0,0,0,0,0,0,0,0,0,0,0,515,0,0,0,0,0.0000000,0.0000000,0.0000000,0.0000000,10.00,38.4062996,-110.7922974,1380.5999756,0.0,135.5,0.8,0.0,0.0,907,128,0,0,855.64,7.34,29.16,0
13:49:47,0,0,0,0,0,0,0,0,0,0,0,515,0,0,0,0,0.0000000,0.0000000,0.0000000,0.0000000,10.00,38.4062996,-110.7922974,1380.8000488,0.0,35.9,0.8,0.0,0.0,906,129,0,0,855.95,7.36,29.17,0
13:49:48,0,0,0,0,0,0,0,0,0,0,0,514,0,0,0,0,0.0000000,0.0000000,0.0000000,0.0000000,10.00,38.4063034,-110.7922821,1380.9000244,0.0,74.5,0.8,0.0,0.0,906,128,0,0,855.94,7.36,29.17,0
13:49:49,0,0,0,0,0,0,0,0,0,0,0,514,0,0,0,0,0.0000000,0.0000000,0.0000000,0.0000000,10.00,38.4063034,-110.7922821,1381.0999756,0.0,97.9,0.8,0.0,0.0,906,126,0,0,855.77,7.29,29.18,0
13:49:50,0,0,0,0,0,0,0,0,0,0,0,515,0,0,0,0,0.0000000,0.0000000,0.0000000,0.0000000,10.00,38.4063034,-110.7922821,1381.5000000,0.0,81.1,0.8,0.0,0.0,906,127,0,0,855.86,7.28,29.19,0
13:49:51,0,0,0,0,0,0,0,0,0,0,0,516,0,0,0,0,0.0000000,0.0000000,0.0000000,0.0000000,10.00,38.4063034,-110.7922821,1381.6999512,0.0,73.2,0.8,0.0,0.0,906,125,0,0,855.95,7.26,29.19,0
13:49:52,0,0,0,0,0,0,0,0,0,0,0,514,0,0,0,0,0.0000000,0.0000000,0.0000000,0.0000000,10.00,38.4063034,-110.7922668,1381.9000244,0.0,56.7,0.8,0.0,0.0,906,129,0,0,855.81,7.29,29.19,0
13:49:53,0,0,0,0,0,0,0,0,0,0,0,515,0,0,0,0,0.0000000,0.0000000,0.0000000,0.0000000,10.00,38.4063034,-110.7922668,1382.0999756,0.0,104.1,0.8,0.0,0.0,906,126,0,0,855.87,7.34,29.17,0
13:49:54,0,0,0,0,0,0,0,0,0,0,0,515,0,0,0,0,0.0000000,0.0000000,0.0000000,0.0000000,10.00,38.4063034,-110.7922668,1382.3000488,0.0,76.0,0.8,0.0,0.0,907,126,0,0,855.70,7.36,29.17,0
13:49:55,0,0,0,0,0,0,0,0,0,0,0,515,0,0,0,0,0.0000000,0.0000000,0.0000000,0.0000000,10.00,38.4063034,-110.7922668,1382.5000000,0.0,74.6,0.8,0.0,0.0,907,125,0,0,855.59,7.36,29.16,0
13:49:56,0,0,0,0,0,0,0,0,0,0,0,516,0,0,0,0,0.0000000,0.0000000,0.0000000,0.0000000,10.00,38.4063034,-110.7922592,1382.8000488,0.0,71.2,0.8,0.0,0.0,907,126,0,0,855.64,7.34,29.16,0
13:49:58,0,0,0,0,0,0,0,0,0,0,0,514,0,0,0,0,0.0000000,0.0000000,0.0000000,0.0000000,10.00,38.4063034,-110.7922592,1383.3000488,0.0,31.7,0.8,0.0,0.0,907,126,0,0,855.64,7.36,29.16,0
13:49:59,0,0,0,0,0,0,0,0,0,0,0,514,0,0,0,0,0.0000000,0.0000000,0.0000000,0.0000000,10.00,38.4063034,-110.7922592,1383.6999512,0.0,341.5,0.8,0.0,0.0,906,126,0,0,855.66,7.36,29.17,0
13:50:00,0,0,0,0,0,0,0,0,0,0,0,515,0,0,0,0,0.0000000,0.0000000,0.0000000,0.0000000,10.00,38.4063034,-110.7922592,1383.6999512,0.0,234.6,0.8,0.0,0.0,906,125,0,0,855.52,7.37,29.17,0
13:50:01,0,0,0,0,0,0,0,0,0,0,0,515,0,0,0,0,0.0000000,0.0000000,0.0000000,0.0000000,10.00,38.4063034,-110.7922592,1384.0000000,0.0,74.2,0.8,0.0,0.0,907,129,0,0,855.64,7.37,29.16,0
13:50:02,0,0,0,0,0,0,0,0,0,0,0,515,0,0,0,0,0.0000000,0.0000000,0.0000000,0.0000000,10.00,38.4063034,-110.7922592,1384.1999512,0.0,55.0,0.8,0.0,0.0,906,128,0,0,855.59,7.37,29.15,0
13:50:03,0,0,0,0,0,0,0,0,0,0,0,515,0,0,0,0,0.0000000,0.0000000,0.0000000,0.0000000,10.00,38.4063034,-110.7922440,1384.1999512,0.0,115.8,0.8,0.0,0.0,907,130,0,0,855.62,7.39,29.14,0
13:50:04,0,0,0,0,0,0,0,0,0,0,0,515,0,0,0,0,0.0000000,0.0000000,0.0000000,0.0000000,10.00,38.4063034,-110.7922440,1384.5000000,0.0,88.8,0.8,0.0,0.0,907,126,0,0,855.63,7.37,29.15,0
13:50:05,0,0,0,0,0,0,0,0,0,0,0,515,0,0,0,0,0.0000000,0.0000000,0.0000000,0.0000000,10.00,38.4063034,-110.7922440,1384.5999756,0.0,94.6,0.8,0.0,0.0,906,128,0,0,855.66,7.37,29.15,0
13:50:06,0,0,0,0,0,0,0,0,0,0,0,514,0,0,0,0,0.0000000,0.0000000,0.0000000,0.0000000,10.00,38.4063034,-110.7922440,1384.5999756,0.0,124.6,0.8,0.0,0.0,906,127,0,0,855.57,7.39,29.15,0
13:50:07,0,0,0,0,0,0,0,0,0,0,0,515,0,0,0,0,0.0000000,0.0000000,0.0000000,0.0000000,10.00,38.4063034,-110.7922440,1384.5999756,0.0,132.9,0.8,0.0,0.0,906,127,0,0,855.66,7.39,29.16,0
13:50:08,0,0,0,0,0,0,0,0,0,0,0,515,0,0,0,0,0.0000000,0.0000000,0.0000000,0.0000000,10.00,38.4063034,-110.7922440,1384.5999756,0.0,79.5,0.8,0.0,0.0,906,125,0,0,855.63,7.34,29.17,0
13:50:09,0,0,0,0,0,0,0,0,0,0,0,515,0,0,0,0,0.0000000,0.0000000,0.0000000,0.0000000,10.00,38.4063034,-110.7922440,1384.5999756,0.0,118.7,0.8,0.0,0.0,906,130,0,0,855.71,7.34,29.17,0
13:50:10,0,0,0,0,0,0,0,0,0,0,0,515,0,0,0,0,0.0000000,0.0000000,0.0000000,0.0000000,10.00,38.4063034,-110.7922440,1384.5999756,0.0,151.0,0.8,0.0,0.0,906,128,0,0,855.66,7.31,29.17,0
13:50:11,0,0,0,0,0,0,0,0,0,0,0,515,0,0,0,0,0.0000000,0.0000000,0.0000000,0.0000000,10.00,38.4063034,-110.7922440,1384.5999756,0.0,243.2,0.8,0.0,0.0,906,127,0,0,855.77,7.28,29.18,0
13:50:12,0,0,0,0,0,0,0,0,0,0,0,515,0,0,0,0,0.0000000,0.0000000,0.0000000,0.0000000,10.00,38.4063034,-110.7922440,1384.6999512,0.0,5.5,0.8,0.0,0.0,905,128,0,0,855.60,7.29,29.18,0
13:50:13,0,0,0,0,0,0,0,0,0,0,0,515,0,0,0,0,0.0000000,0.0000000,0.0000000,0.0000000,10.00,38.4063034,-110.7922440,1384.6999512,0.0,186.8,0.8,0.0,0.0,907,127,0,0,855.81,7.32,29.18,0
13:50:14,0,0,0,0,0,0,0,0,0,0,0,514,0,0,0,0,0.0000000,0.0000000,0.0000000,0.0000000,10.00,38.4063034,-110.7922440,1384.6999512,0.0,202.4,0.8,0.0,0.0,907,131,0,0,855.62,7.32,29.18,0
13:50:15,0,0,0,0,0,0,0,0,0,0,0,515,0,0,0,0,0.0000000,0.0000000,0.0000000,0.0000000,10.00,38.4063034,-110.7922440,1384.6999512,0.0,135.8,0.8,0.0,0.0,907,126,0,0,855.56,7.34,29.17,0
13:50:16,0,0,0,0,0,0,0,0,0,0,0,515,0,0,0,0,0.0000000,0.0000000,0.0000000,0.0000000,10.00,38.4063034,-110.7922440,1384.6999512,0.0,172.6,0.8,0.0,0.0,907,127,0,0,855.52,7.32,29.17,0
13:50:17,0,0,0,0,0,0,0,0,0,0,0,515,0,0,0,0,0.0000000,0.0000000,0.0000000,0.0000000,10.00,38.4063034,-110.7922440,1384.6999512,0.0,86.2,0.8,0.0,0.0,906,128,0,0,855.55,7.32,29.16,0
13:50:18,0,0,0,0,0,0,0,0,0,0,0,515,0,0,0,0,0.0000000,0.0000000,0.0000000,0.0000000,10.00,38.4063034,-110.7922440,1384.6999512,0.0,160.9,0.8,0.0,0.0,907,129,0,0,855.56,7.36,29.16,0
13:50:19,0,0,0,0,0,0,0,0,0,0,0,514,0,0,0,0,0.0000000,0.0000000,0.0000000,0.0000000,10.00,38.4063034,-110.7922440,1384.6999512,0.0,173.0,0.8,0.0,0.0,906,128,0,0,855.55,7.34,29.17,0
13:50:20,0,0,0,0,0,0,0,0,0,0,0,515,0,0,0,0,0.0000000,0.0000000,0.0000000,0.0000000,10.00,38.4063034,-110.7922440,1384.6999512,0.0,138.4,0.8,0.0,0.0,907,127,0,0,855.55,7.37,29.17,0
13:50:21,0,0,0,0,0,0,0,0,0,0,0,515,0,0,0,0,0.0000000,0.0000000,0.0000000,0.0000000,10.00,38.4063034,-110.7922440,1384.6999512,0.0,123.7,0.8,0.0,0.0,906,129,0,0,855.50,7.37,29.17,0
13:50:22,0,0,0,0,0,0,0,0,0,0,0,514,0,0,0,0,0.0000000,0.0000000,0.0000000,0.0000000,10.00,38.4063034,-110.7922440,1384.6999512,0.0,217.7,0.8,0.0,0.0,906,130,0,0,855.53,7.36,29.17,0
13:50:23,0,0,0,0,0,0,0,0,0,0,0,515,0,0,0,0,0.0000000,0.0000000,0.0000000,0.0000000,10.00,38.4063034,-110.7922440,1384.6999512,0.0,140.3,0.8,0.0,0.0,906,126,0,0,855.49,7.39,29.17,0
13:50:24,0,0,0,0,0,0,0,0,0,0,0,515,0,0,0,0,0.0000000,0.0000000,0.0000000,0.0000000,10.00,38.4063034,-110.7922440,1384.6999512,0.0,233.6,0.8,0.0,0.0,906,131,0,0,855.51,7.39,29.16,0
13:50:25,0,0,0,0,0,0,0,0,0,0,0,514,0,0,0,0,0.0000000,0.0000000,0.0000000,0.0000000,10.00,38.4063034,-110.7922440,1384.6999512,0.0,55.1,0.8,0.0,0.0,906,129,0,0,855.58,7.36,29.17,0
13:50:26,0,0,0,0,0,0,0,0,0,0,0,515,0,0,0,0,0.0000000,0.0000000,0.0000000,0.0000000,10.00,38.4063034,-110.7922440,1384.6999512,0.0,149.5,0.8,0.0,0.0,906,127,0,0,855.63,7.37,29.17,0
13:50:27,0,0,0,0,0,0,0,0,0,0,0,515,0,0,0,0,0.0000000,0.0000000,0.0000000,0.0000000,10.00,38.4063034,-110.7922440,1384.6999512,0.0,25.1,0.8,0.0,0.0,906,128,0,0,855.62,7.37,29.17,0
13:50:28,0,0,0,0,0,0,0,0,0,0,0,515,0,0,0,0,0.0000000,0.0000000,0.0000000,0.0000000,10.00,38.4063034,-110.7922440,1384.6999512,0.0,80.3,0.8,0.0,0.0,906,128,0,0,855.64,7.37,29.16,0
13:50:29,0,0,0,0,0,0,0,0,0,0,0,515,0,0,0,0,0.0000000,0.0000000,0.0000000,0.0000000,10.00,38.4063034,-110.7922440,1384.6999512,0.0,74.1,0.8,0.0,0.0,906,125,0,0,855.50,7.39,29.06,0
13:50:30,0,0,0,0,0,0,0,0,0,0,0,515,0,0,0,0,0.0000000,0.0000000,0.0000000,0.0000000,10.00,38.4063034,-110.7922440,1384.6999512,0.0,12.4,0.8,0.0,0.0,906,128,0,0,855.59,7.39,29.05,0
13:50:31,0,0,0,0,0,0,0,0,0,0,0,516,0,0,0,0,0.0000000,0.0000000,0.0000000,0.0000000,10.00,38.4063034,-110.7922440,1384.6999512,0.0,221.5,0.8,0.0,0.0,906,128,0,0,855.55,7.39,29.05,0
13:50:32,0,0,0,0,0,0,0,0,0,0,0,515,0,0,0,0,0.0000000,0.0000000,0.0000000,0.0000000,10.00,38.4063034,-110.7922440,1384.6999512,0.0,196.4,0.8,0.0,0.0,907,127,0,0,855.58,7.37,29.06,0
13:50:33,0,0,0,0,0,0,0,0,0,0,0,515,0,0,0,0,0.0000000,0.0000000,0.0000000,0.0000000,10.00,38.4063034,-110.7922440,1384.6999512,0.0,226.5,0.8,0.0,0.0,906,125,0,0,855.60,7.39,29.11,0
13:50:34,0,0,0,0,0,0,0,0,0,0,0,514,0,0,0,0,0.0000000,0.0000000,0.0000000,0.0000000,10.00,38.4063034,-110.7922440,1384.6999512,0.0,89.3,0.8,0.0,0.0,906,127,0,0,855.61,7.37,29.12,0
13:50:35,0,0,0,0,0,0,0,0,0,0,0,515,0,0,0,0,0.0000000,0.0000000,0.0000000,0.0000000,10.00,38.4063034,-110.7922440,1384.6999512,0.0,165.5,0.8,0.0,0.0,906,127,0,0,855.60,7.37,29.15,0
13:50:36,0,0,0,0,0,0,0,0,0,0,0,514,0,0,0,0,0.0000000,0.0000000,0.0000000,0.0000000,10.00,38.4063034,-110.7922440,1384.6999512,0.0,221.1,0.8,0.0,0.0,906,128,0,0,855.63,7.34,29.16,0
13:50:37,0,0,0,0,0,0,0,0,0,0,0,515,0,0,0,0,0.0000000,0.0000000,0.0000000,0.0000000,10.00,38.4063034,-110.7922440,1384.6999512,0.0,184.1,0.8,0.0,0.0,906,124,0,0,855.62,7.36,29.17,0
13:50:38,0,0,0,0,0,0,0,0,0,0,0,515,0,0,0,0,0.0000000,0.0000000,0.0000000,0.0000000,10.00,38.4063034,-110.7922440,1384.6999512,0.0,330.9,0.8,0.0,0.0,906,126,0,0,855.67,7.32,29.17,0
13:50:39,0,0,0,0,0,0,0,0,0,0,0,515,0,0,0,0,0.0000000,0.0000000,0.0000000,0.0000000,10.00,38.4063034,-110.7922440,1384.6999512,0.0,272.0,0.8,0.0,0.0,906,126,0,0,855.63,7.32,29.17,0
13:50:40,0,0,0,0,0,0,0,0,0,0,0,515,0,0,0,0,0.0000000,0.0000000,0.0000000,0.0000000,10.00,38.4063034,-110.7922440,1384.6999512,0.0,336.6,0.8,0.0,0.0,906,126,0,0,855.63,7.32,29.18,0
13:50:41,0,0,0,0,0,0,0,0,0,0,0,515,0,0,0,0,0.0000000,0.0000000,0.0000000,0.0000000,10.00,38.4063034,-110.7922440,1384.6999512,0.0,156.7,0.8,0.0,0.0,906,129,0,0,855.57,7.36,29.17,0
13:50:42,0,0,0,0,0,0,0,0,0,0,0,515,0,0,0,0,0.0000000,0.0000000,0.0000000,0.0000000,10.00,38.4063034,-110.7922440,1384.6999512,0.0,212.8,0.8,0.0,0.0,906,127,0,0,855.56,7.36,29.17,0
13:50:43,0,0,0,0,0,0,0,0,0,0,0,515,0,0,0,0,0.0000000,0.0000000,0.0000000,0.0000000,10.00,38.4063034,-110.7922440,1384.6999512,0.0,74.4,0.8,0.0,0.0,907,126,0,0,855.56,7.36,29.15,0
13:50:44,0,0,0,0,0,0,0,0,0,0,0,515,0,0,0,0,0.0000000,0.0000000,0.0000000,0.0000000,10.00,38.4063034,-110.7922440,1384.6999512,0.0,52.5,0.8,0.0,0.0,906,128,0,0,855.58,7.37,29.14,0
13:50:45,0,0,0,0,0,0,0,0,0,0,0,515,0,0,0,0,0.0000000,0.0000000,0.0000000,0.0000000,10.00,38.4063034,-110.7922440,1384.6999512,0.0,144.1,0.8,0.0,0.0,906,128,0,0,855.67,7.39,29.14,0
13:50:46,0,0,0,0,0,0,0,0,0,0,0,515,0,0,0,0,0.0000000,0.0000000,0.0000000,0.0000000,10.00,38.4063034,-110.7922440,1384.6999512,0.0,157.0,0.8,0.0,0.0,906,130,0,0,855.56,7.40,29.14,0
13:50:47,0,0,0,0,0,0,0,0,0,0,0,515,0,0,0,0,0.0000000,0.0000000,0.0000000,0.0000000,10.00,38.4063034,-110.7922440,1384.6999512,0.0,127.9,0.8,0.0,0.0,906,126,0,0,855.63,7.40,29.14,0
13:50:48,0,0,0,0,0,0,0,0,0,0,0,515,0,0,0,0,0.0000000,0.0000000,0.0000000,0.0000000,10.00,38.4063034,-110.7922287,1384.6999512,0.0,65.3,0.8,0.0,0.0,906,128,0,0,855.60,7.39,29.14,0
13:50:49,0,0,0,0,0,0,0,0,0,0,0,514,0,0,0,0,0.0000000,0.0000000,0.0000000,0.0000000,10.00,38.4063034,-110.7922287,1384.6999512,0.0,118.9,0.8,0.0,0.0,906,127,0,0,855.62,7.42,29.13,0
13:50:50,0,0,0,0,0,0,0,0,0,0,0,514,0,0,0,0,0.0000000,0.0000000,0.0000000,0.0000000,10.00,38.4063034,-110.7922287,1384.6999512,0.0,273.8,0.8,0.0,0.0,906,125,0,0,855.65,7.37,29.13,0
13:50:51,0,0,0,0,0,0,0,0,0,0,0,514,0,0,0,0,0.0000000,0.0000000,0.0000000,0.0000000,10.00,38.4063034,-110.7922287,1384.5999756,0.0,254.0,0.8,0.0,0.0,906,129,0,0,855.61,7.40,29.13,0
13:50:52,0,0,0,0,0,0,0,0,0,0,0,515,0,0,0,0,0.0000000,0.0000000,0.0000000,0.0000000,10.00,38.4062996,-110.7922287,1384.5999756,0.0,135.6,0.8,0.0,0.0,906,124,0,0,855.55,7.39,29.13,0
13:50:53,0,0,0,0,0,0,0,0,0,0,0,515,0,0,0,0,0.0000000,0.0000000,0.0000000,0.0000000,10.00,38.4062996,-110.7922287,1384.6999512,0.0,63.8,0.8,0.0,0.0,906,127,0,0,855.50,7.40,29.13,0
13:50:54,0,0,0,0,0,0,0,0,0,0,0,515,0,0,0,0,0.0000000,0.0000000,0.0000000,0.0000000,10.00,38.4062996,-110.7922287,1384.8000488,0.0,133.0,0.8,0.0,0.0,906,129,0,0,855.54,7.40,29.13,0
13:50:55,0,0,0,0,0,0,0,0,0,0,0,515,0,0,0,0,0.0000000,0.0000000,0.0000000,0.0000000,10.00,38.4062996,-110.7922287,1384.8000488,0.0,129.6,0.8,0.0,0.0,906,127,0,0,855.51,7.40,29.12,0
13:50:56,0,0,0,0,0,0,0,0,0,0,0,515,0,0,0,0,0.0000000,0.0000000,0.0000000,0.0000000,10.00,38.4062958,-110.7922287,1384.9000244,0.0,195.3,0.8,0.0,0.0,906,128,0,0,855.51,7.39,29.13,0
13:50:57,0,0,0,0,0,0,0,0,0,0,0,515,0,0,0,0,0.0000000,0.0000000,0.0000000,0.0000000,10.00,38.4062958,-110.7922287,1384.9000244,0.0,214.7,0.8,0.0,0.0,906,130,0,0,855.54,7.42,29.13,0
13:50:58,0,0,0,0,0,0,0,0,0,0,0,514,0,0,0,0,0.0000000,0.0000000,0.0000000,0.0000000,10.00,38.4062920,-110.7922287,1384.9000244,0.0,201.2,0.8,0.0,0.0,906,130,0,0,855.67,7.37,29.13,0
13:50:59,0,0,0,0,0,0,0,0,0,0,0,515,0,0,0,0,0.0000000,0.0000000,0.0000000,0.0000000,10.00,38.4062881,-110.7922287,1384.9000244,0.0,215.1,0.8,0.0,0.0,906,126,0,0,855.78,7.36,29.14,0
13:51:00,0,0,0,0,0,0,0,0,0,0,0,514,0,0,0,0,0.0000000,0.0000000,0.0000000,0.0000000,10.00,38.4062881,-110.7922287,1385.0000000,0.0,310.7,0.8,0.0,0.0,906,127,0,0,855.86,7.37,29.14,0
13:51:01,0,0,0,0,0,0,0,0,0,0,0,515,0,0,0,0,0.0000000,0.0000000,0.0000000,0.0000000,10.00,38.4062881,-110.7922287,1385.1999512,0.0,242.4,0.8,0.0,0.0,906,126,0,0,855.81,7.39,29.14,0
13:51:02,0,0,0,0,0,0,0,0,0,0,0,515,0,0,0,0,0.0000000,0.0000000,0.0000000,0.0000000,10.00,38.4062843,-110.7922287,1385.3000488,0.0,179.3,0.8,0.0,0.0,906,131,0,0,855.78,7.39,29.14,0
13:51:03,0,0,0,0,0,0,0,0,0,0,0,515,0,0,0,0,0.0000000,0.0000000,0.0000000,0.0000000,10.00,38.4062767,-110.7922440,1385.5000000,0.0,216.0,0.8,0.0,0.0,906,126,0,0,855.94,7.42,29.14,0
13:51:04,0,0,0,0,0,0,0,0,0,0,0,516,0,0,0,0,0.0000000,0.0000000,0.0000000,0.0000000,10.00,38.4062767,-110.7922440,1385.6999512,0.0,212.9,0.8,0.0,0.0,906,128,0,0,855.80,7.40,29.13,0
13:51:05,0,0,0,0,0,0,0,0,0,0,0,516,0,0,0,0,0.0000000,0.0000000,0.0000000,0.0000000,10.00,38.4062767,-110.7922440,1386.0000000,0.0,233.0,0.8,0.0,0.0,906,127,0,0,855.88,7.40,29.13,0
13:51:06,0,0,0,0,0,0,0,0,0,0,0,515,0,0,0,0,0.0000000,0.0000000,0.0000000,0.0000000,10.00,38.4062767,-110.7922440,1386.0000000,0.0,188.6,0.8,0.0,0.0,906,126,0,0,855.92,7.39,29.14,0
13:51:07,0,0,0,0,0,0,0,0,0,0,0,515,0,0,0,0,0.0000000,0.0000000,0.0000000,0.0000000,10.00,38.4062767,-110.7922440,1386.0000000,0.0,202.9,0.8,0.0,0.0,906,127,0,0,855.93,7.37,29.14,0
13:51:08,0,0,0,0,0,0,0,0,0,0,0,515,0,0,0,0,0.0000000,0.0000000,0.0000000,0.0000000,10.00,38.4062767,-110.7922440,1386.0000000,0.0,180.9,0.8,0.0,0.0,906,127,0,0,855.86,7.39,29.14,0
13:51:09,0,0,0,0,0,0,0,0,0,0,0,515,0,0,0,0,0.0000000,0.0000000,0.0000000,0.0000000,10.00,38.4062767,-110.7922440,1386.0000000,0.0,169.7,0.8,0.0,0.0,906,128,0,0,855.81,7.39,29.13,0
13:51:10,0,0,0,0,0,0,0,0,0,0,0,515,0,0,0,0,0.0000000,0.0000000,0.0000000,0.0000000,10.00,38.4062767,-110.7922440,1386.0000000,0.0,185.2,0.8,0.0,0.0,906,128,0,0,855.98,7.42,29.13,0
13:51:11,0,0,0,0,0,0,0,0,0,0,0,515,0,0,0,0,0.0000000,0.0000000,0.0000000,0.0000000,10.00,38.4062767,-110.7922440,1386.0000000,0.0,141.6,0.8,0.0,0.0,906,127,0,0,855.95,7.37,29.14,0
13:51:12,0,0,0,0,0,0,0,0,0,0,0,516,0,0,0,0,0.0000000,0.0000000,0.0000000,0.0000000,10.00,38.4062767,-110.7922440,1386.0000000,0.0,192.4,0.8,0.0,0.0,906,129,0,0,855.90,7.42,29.13,0
13:51:13,0,0,0,0,0,0,0,0,0,0,0,514,0,0,0,0,0.0000000,0.0000000,0.0000000,0.0000000,10.00,38.4062767,-110.7922440,1386.0000000,0.0,209.7,0.8,0.0,0.0,906,127,0,0,855.96,7.43,29.12,0
13:51:14,0,0,0,0,0,0,0,0,0,0,0,516,0,0,0,0,0.0000000,0.0000000,0.0000000,0.0000000,10.00,38.4062767,-110.7922440,1386.0000000,0.0,162.1,0.8,0.0,0.0,906,127,0,0,855.96,7.42,29.12,0
13:51:15,0,0,0,0,0,0,0,0,0,0,0,515,0,0,0,0,0.0000000,0.0000000,0.0000000,0.0000000,10.00,38.4062767,-110.7922440,1386.0000000,0.1,188.8,0.8,0.0,0.0,906,130,0,0,855.79,7.45,29.13,0
13:51:16,0,0,0,0,0,0,0,0,0,0,0,515,0,0,0,0,0.0000000,0.0000000,0.0000000,0.0000000,10.00,38.4062767,-110.7922440,1386.0000000,0.0,204.2,0.8,0.0,0.0,906,127,0,0,855.98,7.43,29.13,0
13:51:17,0,0,0,0,0,0,0,0,0,0,0,515,0,0,0,0,0.0000000,0.0000000,0.0000000,0.0000000,10.00,38.4062767,-110.7922440,1386.0000000,0.0,199.4,0.8,0.0,0.0,906,126,0,0,855.78,7.42,29.13,0
13:51:18,0,0,0,0,0,0,0,0,0,0,0,514,0,0,0,0,0.0000000,0.0000000,0.0000000,0.0000000,10.00,38.4062691,-110.7922440,1385.8000488,0.1,235.3,0.8,0.0,0.0,906,133,0,0,855.90,7.43,29.13,0
13:51:19,0,0,0,0,0,0,0,0,0,0,0,515,0,0,0,0,0.0000000,0.0000000,0.0000000,0.0000000,10.00,38.4062653,-110.7922592,1385.8000488,0.0,213.4,0.8,0.0,0.0,906,127,0,0,855.88,7.43,29.12,0
13:51:20,0,0,0,0,0,0,0,0,0,0,0,515,0,0,0,0,0.0000000,0.0000000,0.0000000,0.0000000,10.00,38.4062576,-110.7922592,1385.8000488,0.0,210.5,0.8,0.0,0.0,905,127,0,0,855.87,7.46,29.12,0
13:51:22,0,0,0,0,0,0,0,0,0,0,0,515,0,0,0,0,0.0000000,0.0000000,0.0000000,0.0000000,10.00,38.4062576,-110.7922592,1385.6999512,0.0,241.1,0.8,0.0,0.0,906,127,0,0,855.83,7.45,29.12,0
13:51:23,0,0,0,0,0,0,0,0,0,0,0,515,0,0,0,0,0.0000000,0.0000000,0.0000000,0.0000000,10.00,38.4062576,-110.7922592,1385.6999512,0.0,198.9,0.8,0.0,0.0,906,126,0,0,855.73,7.46,29.12,0
13:51:24,0,0,0,0,0,0,0,0,0,0,0,515,0,0,0,0,0.0000000,0.0000000,0.0000000,0.0000000,10.00,38.4062576,-110.7922592,1385.6999512,0.0,217.0,0.8,0.0,0.0,906,126,0,0,855.88,7.48,29.11,0
13:51:25,0,0,0,0,0,0,0,0,0,0,0,515,0,0,0,0,0.0000000,0.0000000,0.0000000,0.0000000,10.00,38.4062576,-110.7922592,1385.6999512,0.0,192.6,0.8,0.0,0.0,906,128,0,0,855.81,7.46,29.11,0
13:51:26,0,0,0,0,0,0,0,0,0,0,0,515,0,0,0,0,0.0000000,0.0000000,0.0000000,0.0000000,10.00,38.4062576,-110.7922592,1385.6999512,0.0,232.5,0.8,0.0,0.0,905,128,0,0,855.91,7.48,29.10,0
13:51:27,0,0,0,0,0,0,0,0,0,0,0,515,0,0,0,0,0.0000000,0.0000000,0.0000000,0.0000000,10.00,38.4062576,-110.7922592,1385.6999512,0.0,241.1,0.8,0.0,0.0,906,129,0,0,855.75,7.52,29.09,0
13:51:28,0,0,0,0,0,0,0,0,0,0,0,515,0,0,0,0,0.0000000,0.0000000,0.0000000,0.0000000,10.00,38.4062576,-110.7922592,1385.6999512,0.0,231.9,0.8,0.0,0.0,906,131,0,0,855.73,7.54,29.08,0
13:51:29,0,0,0,0,0,0,0,0,0,0,0,515,0,0,0,0,0.0000000,0.0000000,0.0000000,0.0000000,10.00,38.4062576,-110.7922592,1385.6999512,0.0,222.8,0.8,0.0,0.0,906,128,0,0,855.69,7.48,29.08,0
13:51:30,0,0,0,0,0,0,0,0,0,0,0,515,0,0,0,0,0.0000000,0.0000000,0.0000000,0.0000000,10.00,38.4062576,-110.7922592,1385.6999512,0.0,234.5,0.8,0.0,0.0,906,132,0,0,855.82,7.51,29.08,0
13:51:31,0,0,0,0,0,0,0,0,0,0,0,514,0,0,0,0,0.0000000,0.0000000,0.0000000,0.0000000,10.00,38.4062576,-110.7922592,1385.6999512,0.1,241.6,0.8,0.0,0.0,906,130,0,0,855.82,7.52,29.08,0
13:51:32,0,0,0,0,0,0,0,0,0,0,0,515,0,0,0,0,0.0000000,0.0000000,0.0000000,0.0000000,10.00,38.4062576,-110.7922592,1385.6999512,0.0,227.6,0.8,0.0,0.0,906,131,0,0,855.86,7.51,29.09,0
13:51:33,0,0,0,0,0,0,0,0,0,0,0,515,0,0,0,0,0.0000000,0.0000000,0.0000000,0.0000000,10.00,38.4062576,-110.7922592,1385.6999512,0.0,208.8,0.8,0.0,0.0,906,127,0,0,855.69,7.49,29.08,0
13:51:34,0,0,0,0,0,0,0,0,0,0,0,515,0,0,0,0,0.0000000,0.0000000,0.0000000,0.0000000,10.00,38.4062576,-110.7922592,1385.6999512,0.0,192.5,0.8,0.0,0.0,906,129,0,0,855.90,7.52,29.07,0
13:51:35,0,0,0,0,0,0,0,0,0,0,0,515,0,0,0,0,0.0000000,0.0000000,0.0000000,0.0000000,10.00,38.4062576,-110.7922592,1385.6999512,0.0,183.3,0.8,0.0,0.0,906,127,0,0,855.84,7.51,29.07,0
13:51:36,0,0,0,0,0,0,0,0,0,0,0,515,0,0,0,0,0.0000000,0.0000000,0.0000000,0.0000000,10.00,38.4062576,-110.7922592,1385.6999512,0.0,204.9,0.8,0.0,0.0,906,126,0,0,855.97,7.55,29.07,0
13:51:37,0,0,0,0,0,0,0,0,0,0,0,515,0,0,0,0,0.0000000,0.0000000,0.0000000,0.0000000,10.00,38.4062576,-110.7922592,1385.6999512,0.0,191.1,0.8,0.0,0.0,906,128,0,0,855.83,7.55,29.06,0
13:51:38,0,0,0,0,0,0,0,0,0,0,0,515,0,0,0,0,0.0000000,0.0000000,0.0000000,0.0000000,10.00,38.4062576,-110.7922592,1385.6999512,0.0,163.5,0.8,0.0,0.0,906,128,0,0,855.93,7.57,29.06,0
13:51:39,0,0,0,0,0,0,0,0,0,0,0,515,0,0,0,0,0.0000000,0.0000000,0.0000000,0.0000000,10.00,38.4062576,-110.7922592,1385.6999512,0.0,204.8,0.8,0.0,0.0,906,129,0,0,855.97,7.55,29.06,0
13:51:40,0,0,0,0,0,0,0,0,0,0,0,515,0,0,0,0,0.0000000,0.0000000,0.0000000,0.0000000,10.00,38.4062576,-110.7922592,1385.6999512,0.0,220.9,0.8,0.0,0.0,906,123,0,0,855.90,7.55,29.06,0
13:51:41,0,0,0,0,0,0,0,0,0,0,0,515,0,0,0,0,0.0000000,0.0000000,0.0000000,0.0000000,10.00,38.4062576,-110.7922592,1385.6999512,0.0,201.6,0.8,0.0,0.0,906,127,0,0,856.07,7.55,29.05,0
13:51:42,0,0,0,0,0,0,0,0,0,0,0,515,0,0,0,0,0.0000000,0.0000000,0.0000000,0.0000000,10.00,38.4062576,-110.7922668,1385.6999512,0.0,234.6,0.8,0.0,0.0,907,129,0,0,856.09,7.60,29.04,0
13:51:43,0,0,0,0,0,0,0,0,0,0,0,515,0,0,0,0,0.0000000,0.0000000,0.0000000,0.0000000,10.00,38.4062576,-110.7922668,1385.6999512,0.0,190.5,0.8,0.0,0.0,905,128,0,0,856.16,7.60,29.04,0
13:51:44,0,0,0,0,0,0,0,0,0,0,0,514,0,0,0,0,0.0000000,0.0000000,0.0000000,0.0000000,10.00,38.4062576,-110.7922668,1385.6999512,0.0,185.9,0.8,0.0,0.0,907,126,0,0,856.15,7.58,29.05,0
13:51:45,0,0,0,0,0,0,0,0,0,0,0,515,0,0,0,0,0.0000000,0.0000000,0.0000000,0.0000000,10.00,38.4062576,-110.7922668,1385.6999512,0.0,214.3,0.8,0.0,0.0,906,130,0,0,856.02,7.58,29.05,0
13:51:46,0,0,0,0,0,0,0,0,0,0,0,515,0,0,0,0,0.0000000,0.0000000,0.0000000,0.0000000,10.00,38.4062576,-110.7922668,1385.6999512,0.0,184.8,0.8,0.0,0.0,906,128,0,0,855.95,7.58,29.06,0
13:51:47,0,0,0,0,0,0,0,0,0,0,0,515,0,0,0,0,0.0000000,0.0000000,0.0000000,0.0000000,10.00,38.4062576,-110.7922668,1385.5999756,0.0,215.2,0.8,0.0,0.0,906,127,0,0,855.93,7.60,29.05,0
13:51:48,0,0,0,0,0,0,0,0,0,0,0,515,0,0,0,0,0.0000000,0.0000000,0.0000000,0.0000000,10.00,38.4062576,-110.7922668,1385.5999756,0.0,208.0,0.8,0.0,0.0,906,130,0,0,855.96,7.58,29.05,0
13:51:49,0,0,0,0,0,0,0,0,0,0,0,515,0,0,0,0,0.0000000,0.0000000,0.0000000,0.0000000,10.00,38.4062538,-110.7922668,1385.5999756,0.0,187.2,0.8,0.0,0.0,906,130,0,0,855.97,7.58,29.05,0
13:51:50,0,0,0,0,0,0,0,0,0,0,0,515,0,0,0,0,0.0000000,0.0000000,0.0000000,0.0000000,10.00,38.4062538,-110.7922668,1385.5999756,0.0,234.2,0.8,0.0,0.0,906,130,0,0,855.97,7.58,29.04,0
13:51:51,0,0,0,0,0,0,0,0,0,0,0,516,0,0,0,0,0.0000000,0.0000000,0.0000000,0.0000000,10.00,38.4062538,-110.7922668,1385.5999756,0.0,236.1,0.8,0.0,0.0,906,127,0,0,855.97,7.61,29.04,0
13:51:52,0,0,0,0,0,0,0,0,0,0,0,514,0,0,0,0,0.0000000,0.0000000,0.0000000,0.0000000,10.00,38.4062538,-110.7922668,1385.5999756,0.0,218.8,0.8,0.0,0.0,906,126,0,0,855.90,7.65,29.03,0
13:51:53,0,0,0,0,0,0,0,0,0,0,0,515,0,0,0,0,0.0000000,0.0000000,0.0000000,0.0000000,10.00,38.4062538,-110.7922668,1385.5999756,0.0,171.1,0.8,0.0,0.0,907,127,0,0,855.92,7.65,29.03,0
13:51:54,0,0,0,0,0,0,0,0,0,0,0,515,0,0,0,0,0.0000000,0.0000000,0.0000000,0.0000000,10.00,38.4062538,-110.7922668,1385.5999756,0.0,157.8,0.8,0.0,0.0,905,126,0,0,855.94,7.66,29.03,0
13:51:55,0,0,0,0,0,0,0,0,0,0,0,515,0,0,0,0,0.0000000,0.0000000,0.0000000,0.0000000,10.00,38.4062538,-110.7922668,1385.5999756,0.0,191.3,0.8,0.0,0.0,906,126,0,0,855.86,7.63,29.03,0
13:51:56,0,0,0,0,0,0,0,0,0,0,0,515,0,0,0,0,0.0000000,0.0000000,0.0000000,0.0000000,10.00,38.4062538,-110.7922668,1385.5999756,0.0,184.6,0.8,0.0,0.0,906,125,0,0,855.83,7.65,29.03,0
13:51:57,0,0,0,0,0,0,0,0,0,0,0,516,0,0,0,0,0.0000000,0.0000000,0.0000000,0.0000000,10.00,38.4062538,-110.7922668,1385.5999756,0.0,222.9,0.8,0.0,0.0,906,128,0,0,855.71,7.66,28.92,0
13:51:58,0,0,0,0,0,0,0,0,0,0,0,514,0,0,0,0,0.0000000,0.0000000,0.0000000,0.0000000,10.00,38.4062538,-110.7922668,1385.5999756,0.0,148.9,0.8,0.0,0.0,906,126,0,0,855.76,7.69,28.91,0
13:51:59,0,0,0,0,0,0,0,0,0,0,0,515,0,0,0,0,0.0000000,0.0000000,0.0000000,0.0000000,10.00,38.4062538,-110.7922668,1385.5999756,0.0,285.1,0.8,0.0,0.0,906,128,0,0,855.72,7.68,28.91,0
13:52:00,0,0,0,0,0,0,0,0,0,0,0,516,0,0,0,0,0.0000000,0.0000000,0.0000000,0.0000000,10.00,38.4062538,-110.7922668,1385.5999756,0.0,156.9,0.8,0.0,0.0,906,127,0,0,855.76,7.69,28.95,0
13:52:01,0,0,0,0,0,0,0,0,0,0,0,514,0,0,0,0,0.0000000,0.0000000,0.0000000,0.0000000,10.00,38.4062538,-110.7922668,1385.5999756,0.0,55.0,0.8,0.0,0.0,906,128,0,0,855.72,7.71,28.98,0
13:52:02,0,0,0,0,0,0,0,0,0,0,0,515,0,0,0,0,0.0000000,0.0000000,0.0000000,0.0000000,10.00,38.4062538,-110.7922668,1385.5999756,0.0,48.8,0.8,0.0,0.0,906,130,0,0,855.76,7.71,28.97,0
13:52:03,0,0,0,0,0,0,0,0,0,0,0,515,0,0,0,0,0.0000000,0.0000000,0.0000000,0.0000000,10.00,38.4062538,-110.7922668,1385.5999756,0.0,126.2,0.8,0.0,0.0,906,130,0,0,855.75,7.71,28.97,0
13:52:04,0,0,0,0,0,0,0,0,0,0,0,515,0,0,0,0,0.0000000,0.0000000,0.0000000,0.0000000,10.00,38.4062538,-110.7922668,1385.5999756,0.0,7.7,0.8,0.0,0.0,906,127,0,0,855.69,7.71,28.98,0
13:52:05,0,0,0,0,0,0,0,0,0,0,0,515,0,0,0,0,0.0000000,0.0000000,0.0000000,0.0000000,10.00,38.4062538,-110.7922668,1385.5999756,0.0,142.3,0.8,0.0,0.0,906,126,0,0,855.70,7.69,28.99,0
13:52:06,0,0,0,0,0,0,0,0,0,0,0,515,0,0,0,0,0.0000000,0.0000000,0.0000000,0.0000000,10.00,38.4062538,-110.7922668,1385.5999756,0.0,30.9,0.8,0.0,0.0,906,128,0,0,855.69,7.66,28.99,0
13:52:07,0,0,0,0,0,0,0,0,0,0,0,515,0,0,0,0,0.0000000,0.0000000,0.0000000,0.0000000,10.00,38.4062538,-110.7922668,1385.5999756,0.0,35.6,0.8,0.0,0.0,906,130,0,0,855.75,7.68,28.99,0
13:52:08,0,0,0,0,0,0,0,0,0,0,0,515,0,0,0,0,0.0000000,0.0000000,0.0000000,0.0000000,10.00,38.4062538,-110.7922668,1385.5999756,0.0,257.7,0.8,0.0,0.0,906,129,0,0,855.82,7.68,28.98,0
13:52:09,0,0,0,0,0,0,0,0,0,0,0,515,0,0,0,0,0.0000000,0.0000000,0.0000000,0.0000000,10.00,38.4062538,-110.7922668,1385.5999756,0.0,134.5,0.8,0.0,0.0,906,125,0,0,855.69,7.68,28.97,0
13:52:10,0,0,0,0,0,0,0,0,0,0,0,515,0,0,0,0,0.0000000,0.0000000,0.0000000,0.0000000,10.00,38.4062538,-110.7922668,1385.5999756,0.0,327.3,0.8,0.0,0.0,906,121,0,0,855.59,7.69,28.98,0
13:52:11,0,0,0,0,0,0,0,0,0,0,0,514,0,0,0,0,0.0000000,0.0000000,0.0000000,0.0000000,10.00,38.4062538,-110.7922668,1385.5999756,0.0,356.6,0.8,0.0,0.0,906,127,0,0,855.58,7.71,28.97,0
13:52:12,0,0,0,0,0,0,0,0,0,0,0,516,0,0,0,0,0.0000000,0.0000000,0.0000000,0.0000000,10.00,38.4062538,-110.7922668,1385.5000000,0.0,282.2,0.8,0.0,0.0,905,125,0,0,855.63,7.69,28.96,0
13:52:13,0,0,0,0,0,0,0,0,0,0,0,515,0,0,0,0,0.0000000,0.0000000,0.0000000,0.0000000,10.00,38.4062538,-110.7922668,1385.5000000,0.0,46.3,0.8,0.0,0.0,906,125,0,0,855.66,7.69,28.97,0
13:52:14,0,0,0,0,0,0,0,0,0,0,0,514,0,0,0,0,0.0000000,0.0000000,0.0000000,0.0000000,10.00,38.4062538,-110.7922668,1385.5000000,0.0,62.7,0.8,0.0,0.0,906,127,0,0,855.59,7.69,28.97,0
13:52:15,0,0,0,0,0,0,0,0,0,0,0,515,0,0,0,0,0.0000000,0.0000000,0.0000000,0.0000000,10.00,38.4062538,-110.7922668,1385.5000000,0.0,190.6,0.8,0.0,0.0,906,127,0,0,855.49,7.66,28.97,0
13:52:16,0,0,0,0,0,0,0,0,0,0,0,515,0,0,0,0,0.0000000,0.0000000,0.0000000,0.0000000,10.00,38.4062538,-110.7922668,1385.5000000,0.0,242.8,0.8,0.0,0.0,906,129,0,0,855.63,7.68,28.96,0
13:52:17,0,0,0,0,0,0,0,0,0,0,0,514,0,0,0,0,0.0000000,0.0000000,0.0000000,0.0000000,10.00,38.4062538,-110.7922668,1385.5000000,0.0,222.7,0.8,0.0,0.0,906,127,0,0,855.61,7.68,28.95,0
13:52:18,0,0,0,0,0,0,0,0,0,0,0,515,0,0,0,0,0.0000000,0.0000000,0.0000000,0.0000000,10.00,38.4062538,-110.7922668,1385.5000000,0.0,256.0,0.8,0.0,0.0,906,128,0,0,855.64,7.68,28.95,0
13:52:19,0,0,0,0,0,0,0,0,0,0,0,515,0,0,0,0,0.0000000,0.0000000,0.0000000,0.0000000,10.00,38.4062538,-110.7922668,1385.5000000,0.0,18.6,0.8,0.0,0.0,906,126,0,0,855.59,7.66,28.95,0
13:52:20,0,0,0,0,0,0,0,0,0,0,0,515,0,0,0,0,0.0000000,0.0000000,0.0000000,0.0000000,10.00,38.4062538,-110.7922668,1385.5000000,0.0,256.9,0.8,0.0,0.0,906,128,0,0,855.54,7.69,28.95,0
13:52:21,0,0,0,0,0,0,0,0,0,0,0,515,0,0,0,0,0.0000000,0.0000000,0.0000000,0.0000000,10.00,38.4062538,-110.7922668,1385.5000000,0.0,214.1,0.8,0.0,0.0,906,127,0,0,855.64,7.68,28.96,0
13:52:22,0,0,0,0,0,0,0,0,0,0,0,515,0,0,0,0,0.0000000,0.0000000,0.0000000,0.0000000,10.00,38.4062538,-110.7922668,1385.5000000,0.0,290.0,0.8,0.0,0.0,906,127,0,0,855.55,7.68,28.96,0
13:52:23,0,0,0,0,0,0,0,0,0,0,0,515,0,0,0,0,0.0000000,0.0000000,0.0000000,0.0000000,10.00,38.4062538,-110.7922668,1385.5000000,0.0,283.8,0.8,0.0,0.0,906,130,0,0,855.50,7.66,28.94,0
13:52:24,0,0,0,0,0,0,0,0,0,0,0,515,0,0,0,0,0.0000000,0.0000000,0.0000000,0.0000000,10.00,38.4062538,-110.7922668,1385.5000000,0.0,287.8,0.8,0.0,0.0,906,129,0,0,855.61,7.69,28.94,0
13:52:25,0,0,0,0,0,0,0,0,0,0,0,516,0,0,0,0,0.0000000,0.0000000,0.0000000,0.0000000,10.00,38.4062538,-110.7922668,1385.5000000,0.0,294.6,0.8,0.0,0.0,906,125,0,0,855.63,7.69,28.94,0
13:52:26,0,0,0,0,0,0,0,0,0,0,0,515,0,0,0,0,0.0000000,0.0000000,0.0000000,0.0000000,10.00,38.4062538,-110.7922668,1385.5000000,0.0,288.6,0.8,0.0,0.0,906,127,0,0,855.62,7.71,28.93,0
13:52:27,0,0,0,0,0,0,0,0,0,0,0,515,0,0,0,0,0.0000000,0.0000000,0.0000000,0.0000000,10.00,38.4062538,-110.7922668,1385.5000000,0.0,301.7,0.8,0.0,0.0,906,125,0,0,855.63,7.71,28.92,0
13:52:28,0,0,0,0,0,0,0,0,0,0,0,515,0,0,0,0,0.0000000,0.0000000,0.0000000,0.0000000,10.00,38.4062538,-110.7922668,1385.5000000,0.0,271.1,0.8,0.0,0.0,906,126,0,0,855.64,7.69,28.92,0
13:52:29,0,0,0,0,0,0,0,0,0,0,0,515,0,0,0,0,0.0000000,0.0000000,0.0000000,0.0000000,10.00,38.4062538,-110.7922668,1385.5000000,0.0,208.5,0.8,0.0,0.0,906,124,0,0,855.72,7.71,28.93,0
13:52:30,0,0,0,0,0,0,0,0,0,0,0,515,0,0,0,0,0.0000000,0.0000000,0.0000000,0.0000000,10.00,38.4062538,-110.7922668,1385.5000000,0.0,260.1,0.8,0.0,0.0,906,127,0,0,855.85,7.69,28.93,0
13:52:31,0,0,0,0,0,0,0,0,0,0,0,514,0,0,0,0,0.0000000,0.0000000,0.0000000,0.0000000,10.00,38.4062576,-110.7922668,1385.5000000,0.0,294.1,0.8,0.0,0.0,906,128,0,0,855.79,7.71,28.93,0
