Time, Motor A Speed, Motor A Dir, Motor B Speed, Motor B Dir, Servo Rail Current Sensor, Servo Pos - Arm L, Servo Pos - Arm R, Servo Pos - End, Servo Pos - Hopper, Servo Pos - Lid, Servo Pos - Extra, Servo Current, LED - Front L, LED - Front R, LED - Back L, LED - Back R, IMU Pitch, IMU Roll, IMU Yaw, Compass Heading, GPS Sats, GPS Latitude, GPS Longitude, GPS Altitude, GPS Speed, GPS Angle, GPS HDOP, GPS VDOP, GPS PDOP, Battery, Wind, Comm Xbee Latency, Comm Arduino Latency, Pressure, Humidity, Temperature, uRADMonitor
13:01:59,0,0,0,0,0,0,0,0,0,0,0,0,0,0,0,0,0.0000000,0.0000000,0.0000000,0.0000000,0.00,0.0000000,0.0000000,0.0000000,0.0,0.0,0.0,0.0,0.0,0,0,0,0,0.00,0.00,0.00,0
13:02:00,0,0,0,0,0,0,0,0,0,0,0,515,0,0,0,0,0.0000000,0.0000000,0.0000000,0.0000000,0.00,0.0000000,0.0000000,0.0000000,0.0,0.0,0.0,0.0,0.0,929,136,0,0,856.02,8.24,30.41,0
13:02:01,0,0,0,0,0,0,0,0,0,0,0,515,0,0,0,0,0.0000000,0.0000000,0.0000000,0.0000000,0.00,0.0000000,0.0000000,0.0000000,0.0,0.0,0.0,0.0,0.0,929,137,0,0,855.98,8.30,30.35,0
13:02:02,0,0,0,0,0,0,0,0,0,0,0,515,0,0,0,0,0.0000000,0.0000000,0.0000000,0.0000000,0.00,0.0000000,0.0000000,0.0000000,0.0,0.0,0.0,0.0,0.0,928,135,0,0,856.09,8.38,30.26,0
13:02:03,0,0,0,0,0,0,0,0,0,0,0,515,0,0,0,0,0.0000000,0.0000000,0.0000000,0.0000000,0.00,0.0000000,0.0000000,0.0000000,0.0,0.0,0.0,0.0,0.0,928,139,0,0,856.04,8.39,30.20,0
13:02:04,0,0,0,0,0,0,0,0,0,0,0,515,0,0,0,0,0.0000000,0.0000000,0.0000000,0.0000000,0.00,0.0000000,0.0000000,0.0000000,0.0,0.0,0.0,0.0,0.0,928,139,0,0,856.06,8.45,30.08,0
13:02:05,0,0,0,0,0,0,0,0,0,0,0,515,0,0,0,0,0.0000000,0.0000000,0.0000000,0.0000000,0.00,0.0000000,0.0000000,0.0000000,0.0,0.0,0.0,0.0,0.0,928,142,0,0,857.02,9.72,29.89,0
13:02:06,0,0,0,0,0,0,0,0,0,0,0,514,0,0,0,0,0.0000000,0.0000000,0.0000000,0.0000000,0.00,0.0000000,0.0000000,0.0000000,0.0,0.0,0.0,0.0,0.0,928,141,0,0,859.45,10.83,29.88,0
13:02:07,0,0,0,0,0,0,0,0,0,0,0,515,0,0,0,0,0.0000000,0.0000000,0.0000000,0.0000000,0.00,0.0000000,0.0000000,0.0000000,0.0,0.0,0.0,0.0,0.0,928,143,0,0,858.37,58.15,29.88,0
13:02:08,0,0,0,0,0,0,0,0,0,0,0,513,0,0,0,0,0.0000000,0.0000000,0.0000000,0.0000000,0.00,0.0000000,0.0000000,0.0000000,0.0,0.0,0.0,0.0,0.0,928,141,0,0,858.31,61.34,30.02,0
13:02:09,0,0,0,0,0,0,0,0,0,0,0,514,0,0,0,0,0.0000000,0.0000000,0.0000000,0.0000000,0.00,0.0000000,0.0000000,0.0000000,0.0,0.0,0.0,0.0,0.0,928,143,0,0,858.21,59.24,30.21,0
13:02:10,0,0,0,0,0,0,0,0,0,0,0,514,0,0,0,0,0.0000000,0.0000000,0.0000000,0.0000000,0.00,0.0000000,0.0000000,0.0000000,0.0,0.0,0.0,0.0,0.0,928,137,0,0,858.07,59.16,30.33,0
13:02:11,0,0,0,0,0,0,0,0,0,0,0,514,0,0,0,0,0.0000000,0.0000000,0.0000000,0.0000000,0.00,0.0000000,0.0000000,0.0000000,0.0,0.0,0.0,0.0,0.0,928,139,0,0,858.25,58.96,30.45,0
13:02:12,0,0,0,0,0,0,0,0,0,0,0,514,0,0,0,0,0.0000000,0.0000000,0.0000000,0.0000000,0.00,0.0000000,0.0000000,0.0000000,0.0,0.0,0.0,0.0,0.0,928,148,0,0,858.17,59.07,30.55,0
13:02:13,0,0,0,0,0,0,0,0,0,0,0,514,0,0,0,0,0.0000000,0.0000000,0.0000000,0.0000000,0.00,0.0000000,0.0000000,0.0000000,0.0,0.0,0.0,0.0,0.0,923,143,0,0,858.02,58.96,30.72,0
13:02:14,0,0,0,0,0,0,0,0,0,0,0,514,0,0,0,0,0.0000000,0.0000000,0.0000000,0.0000000,0.00,0.0000000,0.0000000,0.0000000,0.0,0.0,0.0,0.0,0.0,929,147,0,0,858.07,58.85,30.84,0
13:02:15,0,0,0,0,0,0,0,0,0,0,0,514,0,0,0,0,0.0000000,0.0000000,0.0000000,0.0000000,0.00,0.0000000,0.0000000,0.0000000,0.0,0.0,0.0,0.0,0.0,928,146,0,0,858.04,58.72,30.98,0
13:02:16,0,0,0,0,0,0,0,0,0,0,0,514,0,0,0,0,0.0000000,0.0000000,0.0000000,0.0000000,0.00,0.0000000,0.0000000,0.0000000,0.0,0.0,0.0,0.0,0.0,928,144,0,0,858.05,58.66,31.05,0
13:02:17,0,0,0,0,0,0,0,0,0,0,0,514,0,0,0,0,0.0000000,0.0000000,0.0000000,0.0000000,0.00,0.0000000,0.0000000,0.0000000,0.0,0.0,0.0,0.0,0.0,928,141,0,0,858.16,58.52,31.17,0
13:02:18,0,0,0,0,0,0,0,0,0,0,0,514,0,0,0,0,0.0000000,0.0000000,0.0000000,0.0000000,0.00,0.0000000,0.0000000,0.0000000,0.0,0.0,0.0,0.0,0.0,928,140,0,0,858.18,58.44,31.31,0
13:02:19,0,0,0,0,0,0,0,0,0,0,0,513,0,0,0,0,0.0000000,0.0000000,0.0000000,0.0000000,0.00,0.0000000,0.0000000,0.0000000,0.0,0.0,0.0,0.0,0.0,928,141,0,0,858.16,58.53,31.51,0
13:02:20,0,0,0,0,0,0,0,0,0,0,0,514,0,0,0,0,0.0000000,0.0000000,0.0000000,0.0000000,0.00,0.0000000,0.0000000,0.0000000,0.0,0.0,0.0,0.0,0.0,928,140,0,0,858.23,58.41,31.61,0
13:02:21,0,0,0,0,0,0,0,0,0,0,0,514,0,0,0,0,0.0000000,0.0000000,0.0000000,0.0000000,0.00,0.0000000,0.0000000,0.0000000,0.0,0.0,0.0,0.0,0.0,928,138,0,0,858.21,58.37,31.78,0
13:02:22,0,0,0,0,0,0,0,0,0,0,0,513,0,0,0,0,0.0000000,0.0000000,0.0000000,0.0000000,0.00,0.0000000,0.0000000,0.0000000,0.0,0.0,0.0,0.0,0.0,928,139,0,0,858.31,58.17,31.91,0
13:02:23,0,0,0,0,0,0,0,0,0,0,0,515,0,0,0,0,0.0000000,0.0000000,0.0000000,0.0000000,0.00,0.0000000,0.0000000,0.0000000,0.0,0.0,0.0,0.0,0.0,928,144,0,0,858.30,58.06,31.85,0
13:02:24,0,0,0,0,0,0,0,0,0,0,0,514,0,0,0,0,0.0000000,0.0000000,0.0000000,0.0000000,0.00,0.0000000,0.0000000,0.0000000,0.0,0.0,0.0,0.0,0.0,928,140,0,0,858.21,58.26,31.80,0
13:02:25,0,0,0,0,0,0,0,0,0,0,0,512,0,0,0,0,0.0000000,0.0000000,0.0000000,0.0000000,0.00,0.0000000,0.0000000,0.0000000,0.0,0.0,0.0,0.0,0.0,928,153,0,0,858.22,57.95,31.86,0
13:02:26,0,0,0,0,0,0,0,0,0,0,0,514,0,0,0,0,0.0000000,0.0000000,0.0000000,0.0000000,0.00,0.0000000,0.0000000,0.0000000,0.0,0.0,0.0,0.0,0.0,927,158,0,0,858.23,58.08,31.75,0
13:02:27,0,0,0,0,0,0,0,0,0,0,0,507,0,0,0,0,0.0000000,0.0000000,0.0000000,0.0000000,0.00,0.0000000,0.0000000,0.0000000,0.0,0.0,0.0,0.0,0.0,928,161,0,0,858.14,58.08,31.67,0
13:02:28,0,0,0,0,0,0,0,0,0,0,0,516,0,0,0,0,0.0000000,0.0000000,0.0000000,0.0000000,0.00,0.0000000,0.0000000,0.0000000,0.0,0.0,0.0,0.0,0.0,932,149,0,0,858.05,58.29,31.73,0
13:02:29,0,0,0,0,0,0,0,0,0,0,0,510,0,0,0,0,0.0000000,0.0000000,0.0000000,0.0000000,4.00,0.0000000,0.0000000,0.0000000,0.0,0.0,0.0,0.0,0.0,929,154,0,0,858.16,58.06,31.89,0
13:02:30,0,0,0,0,0,0,0,0,0,0,0,505,0,0,0,0,0.0000000,0.0000000,0.0000000,0.0000000,4.00,38.4062843,-110.7921295,1342.5999756,0.5,352.9,1.9,0.0,0.0,928,161,0,0,858.16,57.98,32.04,0
13:02:31,0,0,0,0,0,0,0,0,0,0,0,505,0,0,0,0,0.0000000,0.0000000,0.0000000,0.0000000,4.00,38.4062843,-110.7921295,1342.5999756,0.5,352.9,1.9,0.0,0.0,928,161,0,0,858.16,57.98,32.04,0
13:02:32,0,0,0,0,0,0,0,0,0,0,0,513,0,0,0,0,0.0000000,0.0000000,0.0000000,0.0000000,4.00,38.4062729,-110.7921295,1339.9000244,0.1,17.7,1.9,0.0,0.0,931,144,0,0,858.17,58.01,32.21,0
13:02:33,0,0,0,0,0,0,0,0,0,0,0,514,0,0,0,0,0.0000000,0.0000000,0.0000000,0.0000000,4.00,38.4062767,-110.7921371,1339.9000244,0.2,304.4,1.9,0.0,0.0,928,143,0,0,858.13,57.97,32.31,0
13:02:34,0,0,0,0,0,0,0,0,0,0,0,514,0,0,0,0,0.0000000,0.0000000,0.0000000,0.0000000,4.00,38.4062767,-110.7921371,1340.6999512,0.2,333.1,1.9,0.0,0.0,928,140,0,0,858.15,57.83,32.42,0
13:02:35,0,0,0,0,0,0,0,0,0,0,0,514,0,0,0,0,0.0000000,0.0000000,0.0000000,0.0000000,4.00,38.4062805,-110.7921371,1340.1999512,0.2,280.6,1.9,0.0,0.0,928,139,0,0,858.30,57.65,32.61,0
13:02:36,0,0,0,0,0,0,0,0,0,0,0,514,0,0,0,0,0.0000000,0.0000000,0.0000000,0.0000000,4.00,38.4062843,-110.7921371,1340.0000000,0.2,292.3,1.9,0.0,0.0,928,139,0,0,858.09,57.72,32.62,0
13:02:37,0,0,0,0,0,0,0,0,0,0,0,514,0,0,0,0,0.0000000,0.0000000,0.0000000,0.0000000,4.00,38.4062843,-110.7921371,1340.0999756,0.2,222.1,1.9,0.0,0.0,928,153,0,0,858.17,57.56,32.48,0
13:02:38,0,0,0,0,0,0,0,0,0,0,0,514,0,0,0,0,0.0000000,0.0000000,0.0000000,0.0000000,4.00,38.4062881,-110.7921371,1340.1999512,0.1,73.8,1.9,0.0,0.0,928,156,0,0,858.04,57.69,32.49,0
13:02:39,0,0,0,0,0,0,0,0,0,0,0,514,0,0,0,0,0.0000000,0.0000000,0.0000000,0.0000000,4.00,38.4062881,-110.7921371,1340.6999512,0.1,120.4,1.9,0.0,0.0,928,159,0,0,858.12,57.68,32.48,0
13:02:40,0,0,0,0,0,0,0,0,0,0,0,514,0,0,0,0,0.0000000,0.0000000,0.0000000,0.0000000,4.00,38.4062881,-110.7921371,1340.9000244,0.1,145.3,1.9,0.0,0.0,928,156,0,0,858.02,57.53,32.50,0
13:02:41,0,0,0,0,0,0,0,0,0,0,0,514,0,0,0,0,0.0000000,0.0000000,0.0000000,0.0000000,4.00,38.4062843,-110.7921371,1341.1999512,0.3,115.1,1.9,0.0,0.0,928,152,0,0,858.15,57.63,32.67,0
13:02:42,0,0,0,0,0,0,0,0,0,0,0,515,0,0,0,0,0.0000000,0.0000000,0.0000000,0.0000000,4.00,38.4062843,-110.7921371,1341.9000244,0.3,176.0,1.9,0.0,0.0,928,153,0,0,858.34,57.71,32.71,0
13:02:43,0,0,0,0,0,0,0,0,0,0,0,514,0,0,0,0,0.0000000,0.0000000,0.0000000,0.0000000,4.00,38.4062843,-110.7921371,1342.3000488,0.3,187.1,1.9,0.0,0.0,928,142,0,0,858.27,57.56,32.76,0
13:02:44,0,0,0,0,0,0,0,0,0,0,0,514,0,0,0,0,0.0000000,0.0000000,0.0000000,0.0000000,4.00,38.4062843,-110.7921371,1342.1999512,0.2,221.5,1.9,0.0,0.0,928,146,0,0,858.22,57.43,32.82,0
13:02:45,0,0,0,0,0,0,0,0,0,0,0,514,0,0,0,0,0.0000000,0.0000000,0.0000000,0.0000000,4.00,38.4062843,-110.7921371,1342.5000000,0.4,221.5,1.9,0.0,0.0,928,146,0,0,858.30,57.54,32.90,0
13:02:46,0,0,0,0,0,0,0,0,0,0,0,514,0,0,0,0,0.0000000,0.0000000,0.0000000,0.0000000,4.00,38.4062843,-110.7921371,1342.6999512,0.1,162.4,1.9,0.0,0.0,927,139,0,0,858.19,57.42,32.99,0
13:02:47,0,0,0,0,0,0,0,0,0,0,0,514,0,0,0,0,0.0000000,0.0000000,0.0000000,0.0000000,4.00,38.4062881,-110.7921371,1343.0999756,0.2,62.3,1.9,0.0,0.0,928,138,0,0,858.13,57.39,33.05,0
13:02:48,0,0,0,0,0,0,0,0,0,0,0,514,0,0,0,0,0.0000000,0.0000000,0.0000000,0.0000000,4.00,38.4062881,-110.7921371,1343.8000488,0.0,119.7,1.9,0.0,0.0,928,146,0,0,858.15,57.27,33.03,0
13:02:49,0,0,0,0,0,0,0,0,0,0,0,514,0,0,0,0,0.0000000,0.0000000,0.0000000,0.0000000,4.00,38.4062881,-110.7921371,1344.3000488,0.1,148.5,1.9,0.0,0.0,927,147,0,0,858.28,57.30,32.97,0
13:02:50,0,0,0,0,0,0,0,0,0,0,0,514,0,0,0,0,0.0000000,0.0000000,0.0000000,0.0000000,4.00,38.4062881,-110.7921295,1344.5000000,0.2,139.9,1.9,0.0,0.0,928,146,0,0,858.14,57.51,33.04,0
13:02:51,0,0,0,0,0,0,0,0,0,0,0,514,0,0,0,0,0.0000000,0.0000000,0.0000000,0.0000000,4.00,38.4062881,-110.7921295,1344.9000244,0.2,167.9,1.9,0.0,0.0,927,151,0,0,858.12,57.57,33.05,0
13:02:52,0,0,0,0,0,0,0,0,0,0,0,514,0,0,0,0,0.0000000,0.0000000,0.0000000,0.0000000,4.00,38.4062881,-110.7921295,1345.3000488,0.1,155.9,1.9,0.0,0.0,928,152,0,0,858.20,57.47,33.01,0
13:02:53,0,0,0,0,0,0,0,0,0,0,0,514,0,0,0,0,0.0000000,0.0000000,0.0000000,0.0000000,4.00,38.4062881,-110.7921295,1345.5000000,0.1,169.8,1.9,0.0,0.0,927,152,0,0,858.28,57.39,32.95,0
13:02:54,0,0,0,0,0,0,0,0,0,0,0,514,0,0,0,0,0.0000000,0.0000000,0.0000000,0.0000000,4.00,38.4062881,-110.7921295,1345.5999756,0.0,103.1,1.9,0.0,0.0,928,149,0,0,858.29,57.65,32.94,0
13:02:55,0,0,0,0,0,0,0,0,0,0,0,514,0,0,0,0,0.0000000,0.0000000,0.0000000,0.0000000,4.00,38.4062881,-110.7921295,1345.6999512,0.0,251.0,1.9,0.0,0.0,928,148,0,0,858.12,57.53,33.01,0
13:02:56,0,0,0,0,0,0,0,0,0,0,0,514,0,0,0,0,0.0000000,0.0000000,0.0000000,0.0000000,4.00,38.4062881,-110.7921295,1345.6999512,0.0,248.5,1.9,0.0,0.0,928,150,0,0,858.24,57.56,33.02,0
13:02:57,0,0,0,0,0,0,0,0,0,0,0,514,0,0,0,0,0.0000000,0.0000000,0.0000000,0.0000000,4.00,38.4062920,-110.7921295,1345.8000488,0.0,97.4,1.9,0.0,0.0,928,151,0,0,858.19,57.54,33.02,0
13:02:58,0,0,0,0,0,0,0,0,0,0,0,514,0,0,0,0,0.0000000,0.0000000,0.0000000,0.0000000,4.00,38.4062920,-110.7921295,1345.9000244,0.0,332.0,1.9,0.0,0.0,927,152,0,0,858.29,57.51,33.25,0
13:02:59,0,0,0,0,0,0,0,0,0,0,0,514,0,0,0,0,0.0000000,0.0000000,0.0000000,0.0000000,4.00,38.4062920,-110.7921295,1345.8000488,0.0,193.9,1.9,0.0,0.0,928,146,0,0,858.24,57.62,33.28,0
13:03:00,0,0,0,0,0,0,0,0,0,0,0,514,0,0,0,0,0.0000000,0.0000000,0.0000000,0.0000000,5.00,38.4063110,-110.7921295,1353.1999512,0.0,297.0,1.5,0.0,0.0,928,144,0,0,858.17,57.47,33.44,0
13:03:01,0,0,0,0,0,0,0,0,0,0,0,514,0,0,0,0,0.0000000,0.0000000,0.0000000,0.0000000,5.00,38.4063225,-110.7921295,1357.3000488,0.0,198.1,1.5,0.0,0.0,928,145,0,0,858.29,57.33,33.57,0
13:03:02,0,0,0,0,0,0,0,0,0,0,0,514,0,0,0,0,0.0000000,0.0000000,0.0000000,0.0000000,5.00,38.4063301,-110.7921295,1359.9000244,0.0,284.2,1.5,0.0,0.0,928,141,0,0,858.32,57.33,33.73,0
13:03:03,0,0,0,0,0,0,0,0,0,0,0,515,0,0,0,0,0.0000000,0.0000000,0.0000000,0.0000000,5.00,38.4063339,-110.7921295,1361.9000244,0.0,339.5,1.5,0.0,0.0,928,143,0,0,858.28,57.28,33.88,0
13:03:04,0,0,0,0,0,0,0,0,0,0,0,514,0,0,0,0,0.0000000,0.0000000,0.0000000,0.0000000,5.00,38.4063377,-110.7921295,1363.5999756,0.0,151.4,1.5,0.0,0.0,927,138,0,0,858.25,57.22,33.99,0
13:03:05,0,0,0,0,0,0,0,0,0,0,0,514,0,0,0,0,0.0000000,0.0000000,0.0000000,0.0000000,5.00,38.4063416,-110.7921295,1364.5999756,0.0,349.7,1.5,0.0,0.0,928,137,0,0,858.31,57.14,34.06,0
13:03:06,0,0,0,0,0,0,0,0,0,0,0,515,0,0,0,0,0.0000000,0.0000000,0.0000000,0.0000000,5.00,38.4063416,-110.7921295,1365.3000488,0.0,178.9,1.6,0.0,0.0,928,136,0,0,858.28,57.30,34.15,0
13:03:07,0,0,0,0,0,0,0,0,0,0,0,515,0,0,0,0,0.0000000,0.0000000,0.0000000,0.0000000,5.00,38.4063454,-110.7921295,1366.0000000,0.0,339.1,1.5,0.0,0.0,927,138,0,0,858.29,57.19,34.18,0
13:03:08,0,0,0,0,0,0,0,0,0,0,0,514,0,0,0,0,0.0000000,0.0000000,0.0000000,0.0000000,5.00,38.4063492,-110.7921295,1366.5000000,0.0,344.2,1.5,0.0,0.0,928,142,0,0,858.30,57.07,34.28,0
13:03:09,0,0,0,0,0,0,0,0,0,0,0,514,0,0,0,0,0.0000000,0.0000000,0.0000000,0.0000000,5.00,38.4063492,-110.7921143,1366.8000488,0.0,156.2,1.5,0.0,0.0,927,149,0,0,858.30,56.95,34.30,0
13:03:10,0,0,0,0,0,0,0,0,0,0,0,514,0,0,0,0,0.0000000,0.0000000,0.0000000,0.0000000,5.00,38.4063492,-110.7921143,1367.1999512,0.0,33.0,1.5,0.0,0.0,929,144,0,0,858.34,56.98,34.39,0
13:03:11,0,0,0,0,0,0,0,0,0,0,0,514,0,0,0,0,0.0000000,0.0000000,0.0000000,0.0000000,5.00,38.4063530,-110.7921143,1367.4000244,0.0,232.6,1.5,0.0,0.0,928,140,0,0,858.34,56.95,34.37,0
13:03:12,0,0,0,0,0,0,0,0,0,0,0,515,0,0,0,0,0.0000000,0.0000000,0.0000000,0.0000000,5.00,38.4063530,-110.7921143,1367.5999756,0.0,92.2,1.5,0.0,0.0,928,142,0,0,858.20,57.08,34.44,0
13:03:13,0,0,0,0,0,0,0,0,0,0,0,514,0,0,0,0,0.0000000,0.0000000,0.0000000,0.0000000,5.00,38.4063530,-110.7921143,1367.6999512,0.0,312.1,1.6,0.0,0.0,928,139,0,0,858.27,56.98,34.44,0
13:03:14,0,0,0,0,0,0,0,0,0,0,0,514,0,0,0,0,0.0000000,0.0000000,0.0000000,0.0000000,5.00,38.4063530,-110.7921143,1367.8000488,0.0,112.7,1.6,0.0,0.0,927,147,0,0,858.24,56.82,34.38,0
13:03:15,0,0,0,0,0,0,0,0,0,0,0,514,0,0,0,0,0.0000000,0.0000000,0.0000000,0.0000000,5.00,38.4063530,-110.7921143,1367.8000488,0.0,226.3,1.6,0.0,0.0,928,147,0,0,858.25,56.92,34.34,0
13:03:16,0,0,0,0,0,0,0,0,0,0,0,514,0,0,0,0,0.0000000,0.0000000,0.0000000,0.0000000,5.00,38.4063530,-110.7921143,1367.9000244,0.0,298.5,1.6,0.0,0.0,928,158,0,0,858.18,57.01,34.33,0
13:03:17,0,0,0,0,0,0,0,0,0,0,0,514,0,0,0,0,0.0000000,0.0000000,0.0000000,0.0000000,5.00,38.4063530,-110.7921143,1367.9000244,0.0,37.7,1.6,0.0,0.0,927,155,0,0,858.07,56.82,34.20,0
13:03:18,0,0,0,0,0,0,0,0,0,0,0,513,0,0,0,0,0.0000000,0.0000000,0.0000000,0.0000000,5.00,38.4063530,-110.7921143,1367.9000244,0.0,198.9,1.6,0.0,0.0,927,154,0,0,858.19,56.99,34.18,0
13:03:19,0,0,0,0,0,0,0,0,0,0,0,514,0,0,0,0,0.0000000,0.0000000,0.0000000,0.0000000,5.00,38.4063530,-110.7921143,1367.9000244,0.0,328.3,1.6,0.0,0.0,928,152,0,0,858.32,57.05,34.19,0
13:03:20,0,0,0,0,0,0,0,0,0,0,0,514,0,0,0,0,0.0000000,0.0000000,0.0000000,0.0000000,5.00,38.4063530,-110.7921143,1367.9000244,0.0,126.9,1.6,0.0,0.0,928,156,0,0,858.18,56.95,34.11,0
13:03:21,0,0,0,0,0,0,0,0,0,0,0,514,0,0,0,0,0.0000000,0.0000000,0.0000000,0.0000000,5.00,38.4063530,-110.7921143,1367.9000244,0.0,175.1,1.6,0.0,0.0,928,159,0,0,858.16,56.96,33.95,0
13:03:22,0,0,0,0,0,0,0,0,0,0,0,514,0,0,0,0,0.0000000,0.0000000,0.0000000,0.0000000,5.00,38.4063530,-110.7921143,1367.9000244,0.0,117.2,1.6,0.0,0.0,927,154,0,0,858.07,56.99,33.84,0
13:03:23,0,0,0,0,0,0,0,0,0,0,0,514,0,0,0,0,0.0000000,0.0000000,0.0000000,0.0000000,5.00,38.4063530,-110.7921143,1367.9000244,0.0,281.3,1.6,0.0,0.0,928,149,0,0,858.15,57.01,33.74,0
13:03:25,0,0,0,0,0,0,0,0,0,0,0,514,0,0,0,0,0.0000000,0.0000000,0.0000000,0.0000000,5.00,38.4063530,-110.7921143,1367.9000244,0.0,138.2,1.6,0.0,0.0,928,154,0,0,858.25,57.05,33.67,0
13:03:26,0,0,0,0,0,0,0,0,0,0,0,515,0,0,0,0,0.0000000,0.0000000,0.0000000,0.0000000,5.00,38.4063530,-110.7921143,1367.9000244,0.0,260.3,1.6,0.0,0.0,928,151,0,0,858.13,57.19,33.70,0
13:03:27,0,0,0,0,0,0,0,0,0,0,0,514,0,0,0,0,0.0000000,0.0000000,0.0000000,0.0000000,5.00,38.4063530,-110.7921143,1367.9000244,0.0,345.2,1.6,0.0,0.0,928,154,0,0,858.25,57.05,33.65,0
13:03:28,0,0,0,0,0,0,0,0,0,0,0,514,0,0,0,0,0.0000000,0.0000000,0.0000000,0.0000000,5.00,38.4063530,-110.7921143,1367.9000244,0.0,259.1,1.6,0.0,0.0,928,144,0,0,858.23,57.05,33.78,0
13:03:29,0,0,0,0,0,0,0,0,0,0,0,514,0,0,0,0,0.0000000,0.0000000,0.0000000,0.0000000,5.00,38.4063530,-110.7921143,1367.9000244,0.0,278.1,1.6,0.0,0.0,927,154,0,0,858.32,57.11,33.85,0
13:03:30,0,0,0,0,0,0,0,0,0,0,0,514,0,0,0,0,0.0000000,0.0000000,0.0000000,0.0000000,5.00,38.4063530,-110.7921143,1367.9000244,0.0,181.2,1.6,0.0,0.0,928,153,0,0,858.24,57.07,34.04,0
13:03:31,0,0,0,0,0,0,0,0,0,0,0,514,0,0,0,0,0.0000000,0.0000000,0.0000000,0.0000000,5.00,38.4063530,-110.7921143,1367.9000244,0.0,254.1,1.6,0.0,0.0,927,154,0,0,858.18,56.93,34.05,0
13:03:32,0,0,0,0,0,0,0,0,0,0,0,505,0,0,0,0,0.0000000,0.0000000,0.0000000,0.0000000,5.00,38.4063530,-110.7921143,1367.9000244,0.0,327.1,1.6,0.0,0.0,926,135,0,0,858.14,56.82,34.06,0
13:03:33,0,0,0,0,0,0,0,0,0,0,0,515,0,0,0,0,0.0000000,0.0000000,0.0000000,0.0000000,5.00,38.4063530,-110.7921143,1367.9000244,0.0,136.1,1.6,0.0,0.0,927,145,0,0,858.18,57.05,33.97,0
13:03:34,0,0,0,0,0,0,0,0,0,0,0,514,0,0,0,0,0.0000000,0.0000000,0.0000000,0.0000000,5.00,38.4063530,-110.7921143,1367.9000244,0.0,241.9,1.6,0.0,0.0,927,146,0,0,858.27,56.90,34.02,0
13:03:35,0,0,0,0,0,0,0,0,0,0,0,514,0,0,0,0,0.0000000,0.0000000,0.0000000,0.0000000,5.00,38.4063530,-110.7921143,1367.9000244,0.0,61.8,1.6,0.0,0.0,926,146,0,0,858.26,56.84,34.07,0
13:03:36,0,0,0,0,0,0,0,0,0,0,0,514,0,0,0,0,0.0000000,0.0000000,0.0000000,0.0000000,5.00,38.4063530,-110.7921143,1367.9000244,0.0,325.5,1.6,0.0,0.0,927,147,0,0,858.29,56.92,34.11,0
13:03:37,0,0,0,0,0,0,0,0,0,0,0,514,0,0,0,0,0.0000000,0.0000000,0.0000000,0.0000000,5.00,38.4063530,-110.7921143,1367.9000244,0.0,225.5,1.6,0.0,0.0,927,142,0,0,858.20,56.89,34.07,0
13:03:38,0,0,0,0,0,0,0,0,0,0,0,514,0,0,0,0,0.0000000,0.0000000,0.0000000,0.0000000,5.00,38.4063530,-110.7921143,1367.9000244,0.0,167.0,1.6,0.0,0.0,927,151,0,0,858.22,56.89,34.02,0
13:03:39,0,0,0,0,0,0,0,0,0,0,0,514,0,0,0,0,0.0000000,0.0000000,0.0000000,0.0000000,5.00,38.4063530,-110.7921143,1367.9000244,0.0,301.8,1.6,0.0,0.0,928,143,0,0,858.20,56.87,33.99,0
13:03:40,0,0,0,0,0,0,0,0,0,0,0,508,0,0,0,0,0.0000000,0.0000000,0.0000000,0.0000000,5.00,38.4063530,-110.7921143,1367.9000244,0.0,73.7,1.6,0.0,0.0,929,155,0,0,858.31,56.87,34.03,0
13:03:41,0,0,0,0,0,0,0,0,0,0,0,512,0,0,0,0,0.0000000,0.0000000,0.0000000,0.0000000,5.00,38.4063530,-110.7921143,1367.9000244,0.0,147.0,1.6,0.0,0.0,925,150,0,0,858.36,56.73,34.03,0
13:03:42,0,0,0,0,0,0,0,0,0,0,0,515,0,0,0,0,0.0000000,0.0000000,0.0000000,0.0000000,5.00,38.4063530,-110.7921143,1367.9000244,0.0,28.1,1.6,0.0,0.0,926,147,0,0,858.23,56.85,34.22,0
13:03:43,0,0,0,0,0,0,0,0,0,0,0,514,0,0,0,0,0.0000000,0.0000000,0.0000000,0.0000000,5.00,38.4063530,-110.7921143,1367.9000244,0.0,355.8,1.6,0.0,0.0,927,157,0,0,858.25,56.70,34.25,0
13:03:44,0,0,0,0,0,0,0,0,0,0,0,514,0,0,0,0,0.0000000,0.0000000,0.0000000,0.0000000,5.00,38.4063530,-110.7921143,1367.9000244,0.0,351.8,1.6,0.0,0.0,927,154,0,0,858.28,56.60,34.23,0
13:03:45,0,0,0,0,0,0,0,0,0,0,0,515,0,0,0,0,0.0000000,0.0000000,0.0000000,0.0000000,5.00,38.4063530,-110.7921143,1367.9000244,0.0,151.1,1.6,0.0,0.0,927,150,0,0,858.18,56.47,34.24,0
13:03:46,0,0,0,0,0,0,0,0,0,0,0,514,0,0,0,0,0.0000000,0.0000000,0.0000000,0.0000000,5.00,38.4063530,-110.7921143,1367.9000244,0.0,57.5,1.6,0.0,0.0,927,149,0,0,858.16,56.55,34.28,0
13:03:47,0,0,0,0,0,0,0,0,0,0,0,513,0,0,0,0,0.0000000,0.0000000,0.0000000,0.0000000,5.00,38.4063530,-110.7921143,1367.9000244,0.0,301.6,1.6,0.0,0.0,927,152,0,0,858.16,56.41,34.28,0
13:03:48,0,0,0,0,0,0,0,0,0,0,0,515,0,0,0,0,0.0000000,0.0000000,0.0000000,0.0000000,5.00,38.4063530,-110.7921143,1367.9000244,0.0,294.4,1.6,0.0,0.0,927,156,0,0,858.19,56.37,34.32,0
13:03:49,0,0,0,0,0,0,0,0,0,0,0,514,0,0,0,0,0.0000000,0.0000000,0.0000000,0.0000000,5.00,38.4063530,-110.7921143,1367.9000244,0.1,69.7,1.6,0.0,0.0,928,157,0,0,858.20,56.29,34.36,0
13:03:50,0,0,0,0,0,0,0,0,0,0,0,515,0,0,0,0,0.0000000,0.0000000,0.0000000,0.0000000,5.00,38.4063530,-110.7921143,1367.9000244,0.0,85.7,1.6,0.0,0.0,928,157,0,0,858.14,56.26,34.34,0
13:03:51,0,0,0,0,0,0,0,0,0,0,0,513,0,0,0,0,0.0000000,0.0000000,0.0000000,0.0000000,5.00,38.4063530,-110.7921143,1367.9000244,0.1,120.2,1.6,0.0,0.0,927,154,0,0,858.09,56.34,34.46,0
13:03:52,0,0,0,0,0,0,0,0,0,0,0,515,0,0,0,0,0.0000000,0.0000000,0.0000000,0.0000000,5.00,38.4063530,-110.7921143,1367.9000244,0.0,43.7,1.6,0.0,0.0,927,157,0,0,858.14,56.31,34.43,0
13:03:53,0,0,0,0,0,0,0,0,0,0,0,514,0,0,0,0,0.0000000,0.0000000,0.0000000,0.0000000,5.00,38.4063530,-110.7921143,1367.9000244,0.0,274.2,1.6,0.0,0.0,927,150,0,0,858.16,56.26,34.40,0
13:03:54,0,0,0,0,0,0,0,0,0,0,0,514,0,0,0,0,0.0000000,0.0000000,0.0000000,0.0000000,5.00,38.4063530,-110.7921143,1367.9000244,0.0,265.3,1.6,0.0,0.0,927,156,0,0,858.25,56.27,34.53,0
13:03:55,0,0,0,0,0,0,0,0,0,0,0,514,0,0,0,0,0.0000000,0.0000000,0.0000000,0.0000000,5.00,38.4063530,-110.7921143,1367.9000244,0.0,252.9,1.6,0.0,0.0,927,149,0,0,858.20,56.26,34.57,0
13:03:56,0,0,0,0,0,0,0,0,0,0,0,514,0,0,0,0,0.0000000,0.0000000,0.0000000,0.0000000,5.00,38.4063530,-110.7921143,1367.9000244,0.0,240.0,1.6,0.0,0.0,927,155,0,0,858.15,56.12,34.48,0
13:03:57,0,0,0,0,0,0,0,0,0,0,0,514,0,0,0,0,0.0000000,0.0000000,0.0000000,0.0000000,5.00,38.4063530,-110.7921143,1367.9000244,0.0,177.8,1.6,0.0,0.0,927,149,0,0,858.29,56.29,34.46,0
13:03:58,0,0,0,0,0,0,0,0,0,0,0,514,0,0,0,0,0.0000000,0.0000000,0.0000000,0.0000000,5.00,38.4063530,-110.7921143,1367.9000244,0.0,303.3,1.6,0.0,0.0,927,152,0,0,858.23,56.05,34.53,0
13:03:59,0,0,0,0,0,0,0,0,0,0,0,514,0,0,0,0,0.0000000,0.0000000,0.0000000,0.0000000,5.00,38.4063530,-110.7921143,1367.9000244,0.0,56.4,1.6,0.0,0.0,927,150,0,0,858.21,56.02,34.51,0
13:04:00,0,0,0,0,0,0,0,0,0,0,0,515,0,0,0,0,0.0000000,0.0000000,0.0000000,0.0000000,5.00,38.4063530,-110.7921143,1367.9000244,0.0,276.1,1.6,0.0,0.0,927,155,0,0,858.30,56.18,34.52,0
13:04:01,0,0,0,0,0,0,0,0,0,0,0,513,0,0,0,0,0.0000000,0.0000000,0.0000000,0.0000000,5.00,38.4063530,-110.7921143,1367.9000244,0.0,67.7,1.6,0.0,0.0,927,167,0,0,858.36,56.21,34.61,0
13:04:02,0,0,0,0,0,0,0,0,0,0,0,514,0,0,0,0,0.0000000,0.0000000,0.0000000,0.0000000,5.00,38.4063530,-110.7921143,1367.9000244,0.0,190.9,1.6,0.0,0.0,927,162,0,0,858.24,56.18,34.68,0
13:04:03,0,0,0,0,0,0,0,0,0,0,0,514,0,0,0,0,0.0000000,0.0000000,0.0000000,0.0000000,5.00,38.4063530,-110.7921143,1367.9000244,0.1,163.1,1.6,0.0,0.0,927,155,0,0,858.31,56.12,34.85,0
13:04:04,0,0,0,0,0,0,0,0,0,0,0,515,0,0,0,0,0.0000000,0.0000000,0.0000000,0.0000000,5.00,38.4063530,-110.7921143,1367.9000244,0.0,240.1,1.6,0.0,0.0,927,151,0,0,858.29,56.20,34.72,0
13:04:05,0,0,0,0,0,0,0,0,0,0,0,514,0,0,0,0,0.0000000,0.0000000,0.0000000,0.0000000,5.00,38.4063530,-110.7921143,1367.9000244,0.0,7.1,1.6,0.0,0.0,927,152,0,0,858.27,55.95,34.79,0
13:04:06,0,0,0,0,0,0,0,0,0,0,0,514,0,0,0,0,0.0000000,0.0000000,0.0000000,0.0000000,5.00,38.4063530,-110.7921143,1367.9000244,0.0,347.5,1.6,0.0,0.0,927,151,0,0,858.23,56.00,34.93,0
13:04:07,0,0,0,0,0,0,0,0,0,0,0,514,0,0,0,0,0.0000000,0.0000000,0.0000000,0.0000000,5.00,38.4063530,-110.7921143,1367.9000244,0.0,24.8,1.6,0.0,0.0,927,150,0,0,858.28,56.03,34.94,0
13:04:08,0,0,0,0,0,0,0,0,0,0,0,514,0,0,0,0,0.0000000,0.0000000,0.0000000,0.0000000,5.00,38.4063530,-110.7921143,1367.9000244,0.0,315.3,1.6,0.0,0.0,927,147,0,0,858.26,55.88,34.94,0
13:04:09,0,0,0,0,0,0,0,0,0,0,0,514,0,0,0,0,0.0000000,0.0000000,0.0000000,0.0000000,5.00,38.4063530,-110.7921143,1367.9000244,0.0,107.1,1.6,0.0,0.0,927,143,0,0,858.29,55.76,34.99,0
13:04:10,0,0,0,0,0,0,0,0,0,0,0,514,0,0,0,0,0.0000000,0.0000000,0.0000000,0.0000000,5.00,38.4063530,-110.7921143,1367.9000244,0.0,359.3,1.6,0.0,0.0,927,147,0,0,858.27,55.92,35.10,0
13:04:11,0,0,0,0,0,0,0,0,0,0,0,514,0,0,0,0,0.0000000,0.0000000,0.0000000,0.0000000,5.00,38.4063530,-110.7921143,1367.9000244,0.0,346.4,1.6,0.0,0.0,927,145,0,0,858.26,55.82,35.21,0
13:04:12,0,0,0,0,0,0,0,0,0,0,0,514,0,0,0,0,0.0000000,0.0000000,0.0000000,0.0000000,5.00,38.4063530,-110.7921143,1367.9000244,0.0,210.4,1.6,0.0,0.0,927,140,0,0,858.27,55.77,35.29,0
13:04:13,0,0,0,0,0,0,0,0,0,0,0,514,0,0,0,0,0.0000000,0.0000000,0.0000000,0.0000000,5.00,38.4063530,-110.7921143,1367.9000244,0.0,114.5,1.6,0.0,0.0,927,140,0,0,858.25,55.73,35.34,0
13:04:14,0,0,0,0,0,0,0,0,0,0,0,514,0,0,0,0,0.0000000,0.0000000,0.0000000,0.0000000,5.00,38.4063530,-110.7921143,1367.9000244,0.0,121.6,1.6,0.0,0.0,927,140,0,0,858.27,55.83,35.51,0
13:04:15,0,0,0,0,0,0,0,0,0,0,0,514,0,0,0,0,0.0000000,0.0000000,0.0000000,0.0000000,5.00,38.4063530,-110.7921143,1367.9000244,0.0,260.3,1.6,0.0,0.0,927,145,0,0,858.31,55.85,35.47,0
13:04:16,0,0,0,0,0,0,0,0,0,0,0,515,0,0,0,0,0.0000000,0.0000000,0.0000000,0.0000000,5.00,38.4063530,-110.7921143,1367.9000244,0.0,160.6,1.6,0.0,0.0,927,143,0,0,858.34,55.70,35.46,0
13:04:17,0,0,0,0,0,0,0,0,0,0,0,514,0,0,0,0,0.0000000,0.0000000,0.0000000,0.0000000,5.00,38.4063530,-110.7921143,1367.9000244,0.0,289.0,1.6,0.0,0.0,927,143,0,0,858.29,55.76,35.57,0
13:04:18,0,0,0,0,0,0,0,0,0,0,0,515,0,0,0,0,0.0000000,0.0000000,0.0000000,0.0000000,5.00,38.4063530,-110.7921143,1367.9000244,0.0,133.4,1.6,0.0,0.0,928,142,0,0,858.25,55.50,35.55,0
13:04:19,0,0,0,0,0,0,0,0,0,0,0,514,0,0,0,0,0.0000000,0.0000000,0.0000000,0.0000000,5.00,38.4063530,-110.7921143,1367.9000244,0.0,236.0,1.6,0.0,0.0,927,150,0,0,858.30,55.74,35.50,0
13:04:20,0,0,0,0,0,0,0,0,0,0,0,515,0,0,0,0,0.0000000,0.0000000,0.0000000,0.0000000,5.00,38.4063530,-110.7921143,1367.9000244,0.0,150.9,1.6,0.0,0.0,927,147,0,0,858.20,55.57,35.58,0
13:04:21,0,0,0,0,0,0,0,0,0,0,0,515,0,0,0,0,0.0000000,0.0000000,0.0000000,0.0000000,5.00,38.4063530,-110.7921143,1367.8000488,0.0,123.3,1.6,0.0,0.0,927,150,0,0,858.23,55.57,35.60,0
13:04:22,0,0,0,0,0,0,0,0,0,0,0,515,0,0,0,0,0.0000000,0.0000000,0.0000000,0.0000000,5.00,38.4063530,-110.7921143,1367.8000488,0.0,94.9,1.6,0.0,0.0,927,149,0,0,858.21,55.70,35.58,0
13:04:23,0,0,0,0,0,0,0,0,0,0,0,514,0,0,0,0,0.0000000,0.0000000,0.0000000,0.0000000,5.00,38.4063530,-110.7921143,1367.8000488,0.0,185.0,1.6,0.0,0.0,927,144,0,0,858.24,55.51,35.71,0
13:04:24,0,0,0,0,0,0,0,0,0,0,0,514,0,0,0,0,0.0000000,0.0000000,0.0000000,0.0000000,5.00,38.4063530,-110.7921143,1367.8000488,0.0,246.1,1.6,0.0,0.0,927,143,0,0,858.24,55.48,35.73,0
13:04:25,0,0,0,0,0,0,0,0,0,0,0,514,0,0,0,0,0.0000000,0.0000000,0.0000000,0.0000000,5.00,38.4063530,-110.7921143,1367.8000488,0.0,226.4,1.6,0.0,0.0,927,142,0,0,858.20,55.41,35.77,0
13:04:26,0,0,0,0,0,0,0,0,0,0,0,514,0,0,0,0,0.0000000,0.0000000,0.0000000,0.0000000,5.00,38.4063530,-110.7921143,1367.8000488,0.0,105.8,1.6,0.0,0.0,927,139,0,0,858.30,55.48,35.89,0
13:04:27,0,0,0,0,0,0,0,0,0,0,0,514,0,0,0,0,0.0000000,0.0000000,0.0000000,0.0000000,5.00,38.4063530,-110.7921143,1367.8000488,0.0,221.7,1.6,0.0,0.0,927,138,0,0,858.29,55.53,35.92,0
13:04:28,0,0,0,0,0,0,0,0,0,0,0,514,0,0,0,0,0.0000000,0.0000000,0.0000000,0.0000000,5.00,38.4063530,-110.7921143,1367.8000488,0.1,161.4,1.6,0.0,0.0,926,139,0,0,858.29,55.34,35.82,0
13:04:29,0,0,0,0,0,0,0,0,0,0,0,514,0,0,0,0,0.0000000,0.0000000,0.0000000,0.0000000,5.00,38.4063530,-110.7921143,1367.8000488,0.0,219.9,1.6,0.0,0.0,926,145,0,0,858.28,55.62,35.95,0
13:04:30,0,0,0,0,0,0,0,0,0,0,0,514,0,0,0,0,0.0000000,0.0000000,0.0000000,0.0000000,5.00,38.4063530,-110.7921143,1367.8000488,0.0,215.2,1.6,0.0,0.0,927,137,0,0,858.22,55.45,36.03,0
13:04:31,0,0,0,0,0,0,0,0,0,0,0,514,0,0,0,0,0.0000000,0.0000000,0.0000000,0.0000000,5.00,38.4063530,-110.7921143,1367.8000488,0.1,237.3,1.6,0.0,0.0,927,139,0,0,858.25,55.60,35.85,0
13:04:32,0,0,0,0,0,0,0,0,0,0,0,514,0,0,0,0,0.0000000,0.0000000,0.0000000,0.0000000,5.00,38.4063530,-110.7921143,1367.8000488,0.0,201.1,1.6,0.0,0.0,926,142,0,0,858.21,55.47,35.95,0
13:04:33,0,0,0,0,0,0,0,0,0,0,0,514,0,0,0,0,0.0000000,0.0000000,0.0000000,0.0000000,5.00,38.4063530,-110.7921143,1367.8000488,0.0,143.6,1.6,0.0,0.0,926,143,0,0,858.20,55.51,35.97,0
13:04:34,0,0,0,0,0,0,0,0,0,0,0,515,0,0,0,0,0.0000000,0.0000000,0.0000000,0.0000000,5.00,38.4063530,-110.7921143,1367.8000488,0.0,212.2,1.6,0.0,0.0,927,142,0,0,858.24,55.39,36.07,0
13:04:35,0,0,0,0,0,0,0,0,0,0,0,514,0,0,0,0,0.0000000,0.0000000,0.0000000,0.0000000,5.00,38.4063530,-110.7921143,1367.8000488,0.0,245.9,1.6,0.0,0.0,927,143,0,0,858.27,55.44,36.12,0
13:04:36,0,0,0,0,0,0,0,0,0,0,0,514,0,0,0,0,0.0000000,0.0000000,0.0000000,0.0000000,5.00,38.4063530,-110.7921143,1367.8000488,0.1,202.1,1.6,0.0,0.0,927,138,0,0,858.26,55.44,36.17,0
13:04:37,0,0,0,0,0,0,0,0,0,0,0,514,0,0,0,0,0.0000000,0.0000000,0.0000000,0.0000000,5.00,38.4063530,-110.7921143,1367.8000488,0.0,158.3,1.6,0.0,0.0,927,143,0,0,858.20,55.27,36.18,0
13:04:38,0,0,0,0,0,0,0,0,0,0,0,514,0,0,0,0,0.0000000,0.0000000,0.0000000,0.0000000,5.00,38.4063530,-110.7921143,1367.8000488,0.0,158.4,1.6,0.0,0.0,927,143,0,0,858.10,55.47,36.29,0
13:04:39,0,0,0,0,0,0,0,0,0,0,0,514,0,0,0,0,0.0000000,0.0000000,0.0000000,0.0000000,5.00,38.4063530,-110.7921143,1367.8000488,0.1,219.8,1.6,0.0,0.0,927,139,0,0,858.19,55.25,36.32,0
13:04:40,0,0,0,0,0,0,0,0,0,0,0,515,0,0,0,0,0.0000000,0.0000000,0.0000000,0.0000000,5.00,38.4063530,-110.7921143,1367.8000488,0.0,190.4,1.6,0.0,0.0,926,140,0,0,858.23,55.25,36.15,0
13:04:41,0,0,0,0,0,0,0,0,0,0,0,514,0,0,0,0,0.0000000,0.0000000,0.0000000,0.0000000,5.00,38.4063530,-110.7921143,1367.8000488,0.0,0.0,1.6,0.0,0.0,927,137,0,0,858.27,55.50,36.19,0
13:04:42,0,0,0,0,0,0,0,0,0,0,0,515,0,0,0,0,0.0000000,0.0000000,0.0000000,0.0000000,5.00,38.4063530,-110.7921143,1367.8000488,0.0,79.3,1.6,0.0,0.0,926,136,0,0,858.29,55.30,36.33,0
13:04:43,0,0,0,0,0,0,0,0,0,0,0,514,0,0,0,0,0.0000000,0.0000000,0.0000000,0.0000000,5.00,38.4063530,-110.7921143,1367.8000488,0.0,136.1,1.6,0.0,0.0,926,131,0,0,858.26,55.16,36.40,0
13:04:44,0,0,0,0,0,0,0,0,0,0,0,515,0,0,0,0,0.0000000,0.0000000,0.0000000,0.0000000,5.00,38.4063530,-110.7921143,1367.8000488,0.0,111.7,1.6,0.0,0.0,926,137,0,0,858.25,55.36,36.19,0
13:04:45,0,0,0,0,0,0,0,0,0,0,0,514,0,0,0,0,0.0000000,0.0000000,0.0000000,0.0000000,5.00,38.4063530,-110.7921143,1367.8000488,0.0,177.8,1.6,0.0,0.0,926,135,0,0,858.27,55.24,36.07,0
13:04:46,0,0,0,0,0,0,0,0,0,0,0,515,0,0,0,0,0.0000000,0.0000000,0.0000000,0.0000000,5.00,38.4063530,-110.7921143,1367.8000488,0.0,190.7,1.6,0.0,0.0,926,138,0,0,858.20,55.53,35.96,0
13:04:47,0,0,0,0,0,0,0,0,0,0,0,514,0,0,0,0,0.0000000,0.0000000,0.0000000,0.0000000,5.00,38.4063530,-110.7921143,1367.8000488,0.0,274.9,1.6,0.0,0.0,927,135,0,0,858.27,55.27,36.09,0
13:04:48,0,0,0,0,0,0,0,0,0,0,0,514,0,0,0,0,0.0000000,0.0000000,0.0000000,0.0000000,5.00,38.4063530,-110.7921143,1367.8000488,0.1,238.9,1.6,0.0,0.0,926,131,0,0,858.25,55.28,36.00,0
13:04:49,0,0,0,0,0,0,0,0,0,0,0,515,0,0,0,0,0.0000000,0.0000000,0.0000000,0.0000000,5.00,38.4063530,-110.7921143,1367.8000488,0.0,227.0,1.6,0.0,0.0,927,136,0,0,858.19,55.44,36.01,0
13:04:50,0,0,0,0,0,0,0,0,0,0,0,514,0,0,0,0,0.0000000,0.0000000,0.0000000,0.0000000,5.00,38.4063530,-110.7921143,1367.8000488,0.0,282.1,1.6,0.0,0.0,927,139,0,0,858.21,55.36,36.22,0
13:04:51,0,0,0,0,0,0,0,0,0,0,0,514,0,0,0,0,0.0000000,0.0000000,0.0000000,0.0000000,5.00,38.4063530,-110.7921143,1367.8000488,0.0,208.2,1.6,0.0,0.0,926,136,0,0,858.16,55.34,36.18,0
13:04:52,0,0,0,0,0,0,0,0,0,0,0,514,0,0,0,0,0.0000000,0.0000000,0.0000000,0.0000000,5.00,38.4063530,-110.7921143,1367.8000488,0.1,182.4,1.6,0.0,0.0,927,142,0,0,858.26,55.47,36.07,0
13:04:53,0,0,0,0,0,0,0,0,0,0,0,514,0,0,0,0,0.0000000,0.0000000,0.0000000,0.0000000,5.00,38.4063530,-110.7921143,1367.8000488,0.0,45.8,1.6,0.0,0.0,926,143,0,0,858.17,55.31,36.13,0
13:04:54,0,0,0,0,0,0,0,0,0,0,0,514,0,0,0,0,0.0000000,0.0000000,0.0000000,0.0000000,5.00,38.4063530,-110.7921143,1367.8000488,0.0,164.7,1.6,0.0,0.0,927,144,0,0,858.18,55.25,36.35,0
13:04:55,0,0,0,0,0,0,0,0,0,0,0,514,0,0,0,0,0.0000000,0.0000000,0.0000000,0.0000000,5.00,38.4063530,-110.7921143,1367.8000488,0.0,323.4,1.6,0.0,0.0,927,141,0,0,858.23,55.21,36.39,0
13:04:56,0,0,0,0,0,0,0,0,0,0,0,514,0,0,0,0,0.0000000,0.0000000,0.0000000,0.0000000,5.00,38.4063530,-110.7921143,1367.8000488,0.0,288.0,1.6,0.0,0.0,926,137,0,0,858.24,55.16,36.42,0
13:04:57,0,0,0,0,0,0,0,0,0,0,0,515,0,0,0,0,0.0000000,0.0000000,0.0000000,0.0000000,5.00,38.4063530,-110.7921143,1367.8000488,0.0,241.6,1.6,0.0,0.0,926,141,0,0,858.21,55.16,36.41,0
13:04:58,0,0,0,0,0,0,0,0,0,0,0,514,0,0,0,0,0.0000000,0.0000000,0.0000000,0.0000000,5.00,38.4063530,-110.7921143,1367.8000488,0.0,91.2,1.6,0.0,0.0,926,140,0,0,858.14,55.16,36.44,0
13:04:59,0,0,0,0,0,0,0,0,0,0,0,514,0,0,0,0,0.0000000,0.0000000,0.0000000,0.0000000,5.00,38.4063530,-110.7921143,1367.8000488,0.0,318.1,1.6,0.0,0.0,926,144,0,0,858.24,55.24,36.39,0
13:05:01,0,0,0,0,0,0,0,0,0,0,0,514,0,0,0,0,0.0000000,0.0000000,0.0000000,0.0000000,5.00,38.4063530,-110.7921143,1367.8000488,0.0,355.3,1.6,0.0,0.0,926,138,0,0,858.23,55.13,36.37,0
13:05:02,0,0,0,0,0,0,0,0,0,0,0,515,0,0,0,0,0.0000000,0.0000000,0.0000000,0.0000000,5.00,38.4063530,-110.7921143,1367.8000488,0.0,259.4,1.6,0.0,0.0,926,144,0,0,858.24,55.19,36.32,0
13:05:03,0,0,0,0,0,0,0,0,0,0,0,514,0,0,0,0,0.0000000,0.0000000,0.0000000,0.0000000,5.00,38.4063530,-110.7921143,1367.8000488,0.0,295.4,1.6,0.0,0.0,926,142,0,0,858.21,55.05,36.36,0
13:05:04,0,0,0,0,0,0,0,0,0,0,0,515,0,0,0,0,0.0000000,0.0000000,0.0000000,0.0000000,5.00,38.4063530,-110.7921143,1367.8000488,0.0,295.4,1.6,0.0,0.0,926,142,0,0,858.29,55.10,36.58,0
13:05:05,0,0,0,0,0,0,0,0,0,0,0,514,0,0,0,0,0.0000000,0.0000000,0.0000000,0.0000000,5.00,38.4063530,-110.7921143,1367.8000488,0.0,135.1,1.6,0.0,0.0,926,144,0,0,858.23,55.16,36.67,0
13:05:06,0,0,0,0,0,0,0,0,0,0,0,514,0,0,0,0,0.0000000,0.0000000,0.0000000,0.0000000,5.00,38.4063530,-110.7921143,1367.8000488,0.0,298.6,1.6,0.0,0.0,926,143,0,0,858.21,55.15,36.58,0
13:05:07,0,0,0,0,0,0,0,0,0,0,0,514,0,0,0,0,0.0000000,0.0000000,0.0000000,0.0000000,5.00,38.4063530,-110.7921143,1367.8000488,0.0,272.8,1.6,0.0,0.0,927,142,0,0,858.23,55.04,36.63,0
13:05:08,0,0,0,0,0,0,0,0,0,0,0,514,0,0,0,0,0.0000000,0.0000000,0.0000000,0.0000000,5.00,38.4063530,-110.7921143,1367.8000488,0.0,101.7,1.6,0.0,0.0,926,144,0,0,858.18,55.10,36.66,0
13:05:09,0,0,0,0,0,0,0,0,0,0,0,515,0,0,0,0,0.0000000,0.0000000,0.0000000,0.0000000,5.00,38.4063530,-110.7921143,1367.8000488,0.0,202.5,1.6,0.0,0.0,926,140,0,0,858.28,55.12,36.52,0
13:05:10,0,0,0,0,0,0,0,0,0,0,0,514,0,0,0,0,0.0000000,0.0000000,0.0000000,0.0000000,5.00,38.4063530,-110.7921143,1367.8000488,0.0,6.1,1.6,0.0,0.0,927,141,0,0,858.28,55.13,36.55,0
13:05:11,0,0,0,0,0,0,0,0,0,0,0,515,0,0,0,0,0.0000000,0.0000000,0.0000000,0.0000000,5.00,38.4063530,-110.7921143,1367.8000488,0.0,236.3,1.6,0.0,0.0,925,147,0,0,858.21,55.24,36.65,0
13:05:12,0,0,0,0,0,0,0,0,0,0,0,514,0,0,0,0,0.0000000,0.0000000,0.0000000,0.0000000,5.00,38.4063530,-110.7921143,1367.8000488,0.0,117.4,1.6,0.0,0.0,926,143,0,0,858.27,55.33,36.74,0
13:05:13,0,0,0,0,0,0,0,0,0,0,0,514,0,0,0,0,0.0000000,0.0000000,0.0000000,0.0000000,5.00,38.4063530,-110.7921143,1367.8000488,0.1,121.4,1.6,0.0,0.0,926,142,0,0,858.31,55.18,36.75,0
13:05:14,0,0,0,0,0,0,0,0,0,0,0,515,0,0,0,0,0.0000000,0.0000000,0.0000000,0.0000000,5.00,38.4063530,-110.7921143,1367.8000488,0.0,308.1,1.6,0.0,0.0,926,141,0,0,858.24,55.33,36.91,0
13:05:15,0,0,0,0,0,0,0,0,0,0,0,515,0,0,0,0,0.0000000,0.0000000,0.0000000,0.0000000,5.00,38.4063530,-110.7921143,1367.8000488,0.0,309.3,1.6,0.0,0.0,926,142,0,0,858.29,55.16,37.14,0
13:05:16,0,0,0,0,0,0,0,0,0,0,0,515,0,0,0,0,0.0000000,0.0000000,0.0000000,0.0000000,5.00,38.4063530,-110.7921143,1367.8000488,0.0,174.6,1.6,0.0,0.0,926,141,0,0,858.24,54.93,37.22,0
13:05:17,0,0,0,0,0,0,0,0,0,0,0,514,0,0,0,0,0.0000000,0.0000000,0.0000000,0.0000000,5.00,38.4063530,-110.7921143,1367.8000488,0.0,69.4,1.6,0.0,0.0,926,142,0,0,858.24,55.08,37.30,0
13:05:18,0,0,0,0,0,0,0,0,0,0,0,514,0,0,0,0,0.0000000,0.0000000,0.0000000,0.0000000,5.00,38.4063530,-110.7921143,1367.8000488,0.0,71.3,1.6,0.0,0.0,926,138,0,0,858.24,55.15,37.41,0
13:05:19,0,0,0,0,0,0,0,0,0,0,0,514,0,0,0,0,0.0000000,0.0000000,0.0000000,0.0000000,5.00,38.4063530,-110.7921143,1367.8000488,0.0,91.3,1.6,0.0,0.0,926,135,0,0,858.21,54.72,37.54,0
13:05:20,0,0,0,0,0,0,0,0,0,0,0,515,0,0,0,0,0.0000000,0.0000000,0.0000000,0.0000000,5.00,38.4063530,-110.7921143,1367.8000488,0.0,197.6,1.6,0.0,0.0,926,134,0,0,858.29,54.79,37.41,0
13:05:21,0,0,0,0,0,0,0,0,0,0,0,514,0,0,0,0,0.0000000,0.0000000,0.0000000,0.0000000,5.00,38.4063530,-110.7921143,1367.8000488,0.0,133.3,1.6,0.0,0.0,926,134,0,0,858.23,54.90,37.50,0
13:05:22,0,0,0,0,0,0,0,0,0,0,0,514,0,0,0,0,0.0000000,0.0000000,0.0000000,0.0000000,5.00,38.4063492,-110.7921143,1367.8000488,0.0,138.6,1.6,0.0,0.0,926,144,0,0,858.21,54.83,37.66,0
13:05:23,0,0,0,0,0,0,0,0,0,0,0,514,0,0,0,0,0.0000000,0.0000000,0.0000000,0.0000000,5.00,38.4063492,-110.7921143,1367.8000488,0.0,69.6,1.6,0.0,0.0,926,142,0,0,858.22,54.63,37.75,0
13:05:24,0,0,0,0,0,0,0,0,0,0,0,514,0,0,0,0,0.0000000,0.0000000,0.0000000,0.0000000,5.00,38.4063492,-110.7921143,1367.8000488,0.0,221.0,1.6,0.0,0.0,925,144,0,0,858.26,54.89,37.79,0
13:05:25,0,0,0,0,0,0,0,0,0,0,0,514,0,0,0,0,0.0000000,0.0000000,0.0000000,0.0000000,5.00,38.4063492,-110.7921143,1367.8000488,0.0,206.5,1.6,0.0,0.0,926,149,0,0,858.24,54.81,37.85,0
13:05:26,0,0,0,0,0,0,0,0,0,0,0,514,0,0,0,0,0.0000000,0.0000000,0.0000000,0.0000000,5.00,38.4063492,-110.7921143,1367.8000488,0.0,336.1,1.6,0.0,0.0,926,139,0,0,858.27,54.66,37.90,0
13:05:27,0,0,0,0,0,0,0,0,0,0,0,515,0,0,0,0,0.0000000,0.0000000,0.0000000,0.0000000,5.00,38.4063492,-110.7921143,1367.8000488,0.0,348.3,1.6,0.0,0.0,926,138,0,0,858.25,54.40,37.95,0
13:05:28,0,0,0,0,0,0,0,0,0,0,0,515,0,0,0,0,0.0000000,0.0000000,0.0000000,0.0000000,5.00,38.4063492,-110.7921143,1367.8000488,0.0,285.7,1.6,0.0,0.0,926,137,0,0,858.24,54.60,38.02,0
13:05:29,0,0,0,0,0,0,0,0,0,0,0,514,0,0,0,0,0.0000000,0.0000000,0.0000000,0.0000000,5.00,38.4063492,-110.7921143,1367.8000488,0.0,300.0,1.6,0.0,0.0,926,137,0,0,858.25,54.63,38.10,0
13:05:30,0,0,0,0,0,0,0,0,0,0,0,514,0,0,0,0,0.0000000,0.0000000,0.0000000,0.0000000,5.00,38.4063492,-110.7921143,1367.8000488,0.0,56.4,1.6,0.0,0.0,926,138,0,0,858.27,54.60,38.18,0
13:05:31,0,0,0,0,0,0,0,0,0,0,0,514,0,0,0,0,0.0000000,0.0000000,0.0000000,0.0000000,5.00,38.4063492,-110.7921143,1367.8000488,0.0,133.4,1.6,0.0,0.0,925,137,0,0,858.19,54.70,38.11,0
13:05:32,0,0,0,0,0,0,0,0,0,0,0,515,0,0,0,0,0.0000000,0.0000000,0.0000000,0.0000000,5.00,38.4063492,-110.7921143,1367.8000488,0.0,228.5,1.6,0.0,0.0,925,138,0,0,858.17,54.50,38.14,0
13:05:33,0,0,0,0,0,0,0,0,0,0,0,515,0,0,0,0,0.0000000,0.0000000,0.0000000,0.0000000,5.00,38.4063492,-110.7921143,1367.8000488,0.0,61.8,1.6,0.0,0.0,926,152,0,0,858.23,54.54,38.24,0
13:05:34,0,0,0,0,0,0,0,0,0,0,0,514,0,0,0,0,0.0000000,0.0000000,0.0000000,0.0000000,5.00,38.4063492,-110.7921143,1367.8000488,0.0,264.2,1.6,0.0,0.0,926,150,0,0,858.19,54.49,38.41,0
13:05:35,0,0,0,0,0,0,0,0,0,0,0,514,0,0,0,0,0.0000000,0.0000000,0.0000000,0.0000000,5.00,38.4063492,-110.7921143,1367.8000488,0.0,206.3,1.6,0.0,0.0,925,146,0,0,858.15,54.43,38.34,0
13:05:36,0,0,0,0,0,0,0,0,0,0,0,514,0,0,0,0,0.0000000,0.0000000,0.0000000,0.0000000,5.00,38.4063492,-110.7921143,1367.8000488,0.0,207.5,1.6,0.0,0.0,926,144,0,0,858.21,54.37,38.29,0
13:05:37,0,0,0,0,0,0,0,0,0,0,0,514,0,0,0,0,0.0000000,0.0000000,0.0000000,0.0000000,5.00,38.4063492,-110.7921143,1367.8000488,0.0,229.1,1.6,0.0,0.0,926,147,0,0,858.23,54.41,38.35,0
13:05:38,0,0,0,0,0,0,0,0,0,0,0,516,0,0,0,0,0.0000000,0.0000000,0.0000000,0.0000000,5.00,38.4063492,-110.7921143,1367.8000488,0.0,261.6,1.6,0.0,0.0,926,149,0,0,858.19,54.47,38.40,0
13:05:39,0,0,0,0,0,0,0,0,0,0,0,515,0,0,0,0,0.0000000,0.0000000,0.0000000,0.0000000,5.00,38.4063492,-110.7921143,1367.6999512,0.0,268.7,1.5,0.0,0.0,926,143,0,0,858.19,54.38,38.49,0
13:05:40,0,0,0,0,0,0,0,0,0,0,0,514,0,0,0,0,0.0000000,0.0000000,0.0000000,0.0000000,5.00,38.4063492,-110.7921143,1367.9000244,0.0,292.9,1.5,0.0,0.0,926,144,0,0,858.14,54.35,38.62,0
13:05:41,0,0,0,0,0,0,0,0,0,0,0,513,0,0,0,0,0.0000000,0.0000000,0.0000000,0.0000000,5.00,38.4063492,-110.7921143,1367.8000488,0.0,304.1,1.5,0.0,0.0,926,141,0,0,858.20,54.18,38.62,0
13:05:42,0,0,0,0,0,0,0,0,0,0,0,512,0,0,0,0,0.0000000,0.0000000,0.0000000,0.0000000,5.00,38.4063492,-110.7921143,1367.6999512,0.1,315.4,1.5,0.0,0.0,924,138,0,0,858.21,54.29,38.62,0
13:05:43,0,0,0,0,0,0,0,0,0,0,0,514,0,0,0,0,0.0000000,0.0000000,0.0000000,0.0000000,5.00,38.4063492,-110.7921143,1367.5999756,0.1,319.5,1.5,0.0,0.0,925,139,0,0,858.20,54.09,38.66,0
13:05:44,0,0,0,0,0,0,0,0,0,0,0,514,0,0,0,0,0.0000000,0.0000000,0.0000000,0.0000000,5.00,38.4063492,-110.7921143,1367.6999512,0.1,308.1,1.5,0.0,0.0,925,142,0,0,858.16,53.89,38.73,0
13:05:45,0,0,0,0,0,0,0,0,0,0,0,514,0,0,0,0,0.0000000,0.0000000,0.0000000,0.0000000,5.00,38.4063492,-110.7921143,1367.8000488,0.1,308.1,1.5,0.0,0.0,926,141,0,0,858.21,54.03,38.78,0
13:05:46,0,0,0,0,0,0,0,0,0,0,0,514,0,0,0,0,0.0000000,0.0000000,0.0000000,0.0000000,5.00,38.4063492,-110.7921143,1367.9000244,0.1,309.4,1.5,0.0,0.0,925,139,0,0,858.18,53.88,38.87,0
13:05:47,0,0,0,0,0,0,0,0,0,0,0,514,0,0,0,0,0.0000000,0.0000000,0.0000000,0.0000000,5.00,38.4063492,-110.7921143,1368.0000000,0.1,329.4,1.5,0.0,0.0,926,141,0,0,858.16,53.94,38.94,0
13:05:48,0,0,0,0,0,0,0,0,0,0,0,514,0,0,0,0,0.0000000,0.0000000,0.0000000,0.0000000,5.00,38.4063492,-110.7921143,1368.0999756,0.0,3.3,1.5,0.0,0.0,925,134,0,0,858.14,53.83,39.10,0
13:05:49,0,0,0,0,0,0,0,0,0,0,0,514,0,0,0,0,0.0000000,0.0000000,0.0000000,0.0000000,5.00,38.4063492,-110.7921143,1368.3000488,0.0,32.5,1.5,0.0,0.0,925,136,0,0,858.20,53.94,39.25,0
13:05:50,0,0,0,0,0,0,0,0,0,0,0,515,0,0,0,0,0.0000000,0.0000000,0.0000000,0.0000000,5.00,38.4063492,-110.7921143,1368.4000244,0.1,40.7,1.5,0.0,0.0,926,138,0,0,858.10,53.57,39.34,0
13:05:51,0,0,0,0,0,0,0,0,0,0,0,515,0,0,0,0,0.0000000,0.0000000,0.0000000,0.0000000,5.00,38.4063492,-110.7921143,1368.4000244,0.0,39.2,1.5,0.0,0.0,926,139,0,0,858.13,53.83,39.37,0
13:05:52,0,0,0,0,0,0,0,0,0,0,0,514,0,0,0,0,0.0000000,0.0000000,0.0000000,0.0000000,5.00,38.4063492,-110.7921143,1368.5000000,0.0,81.7,1.5,0.0,0.0,926,133,0,0,858.11,53.42,39.41,0
13:05:53,0,0,0,0,0,0,0,0,0,0,0,514,0,0,0,0,0.0000000,0.0000000,0.0000000,0.0000000,5.00,38.4063492,-110.7921143,1368.5999756,0.0,145.9,1.5,0.0,0.0,926,135,0,0,858.14,53.56,39.50,0
13:05:54,0,0,0,0,0,0,0,0,0,0,0,515,0,0,0,0,0.0000000,0.0000000,0.0000000,0.0000000,5.00,38.4063454,-110.7921143,1368.5999756,0.0,104.9,1.5,0.0,0.0,926,135,0,0,858.07,53.56,39.55,0
13:05:55,0,0,0,0,0,0,0,0,0,0,0,515,0,0,0,0,0.0000000,0.0000000,0.0000000,0.0000000,5.00,38.4063454,-110.7921143,1368.5999756,0.0,214.4,1.5,0.0,0.0,926,132,0,0,858.07,53.33,39.63,0
13:05:56,0,0,0,0,0,0,0,0,0,0,0,515,0,0,0,0,0.0000000,0.0000000,0.0000000,0.0000000,5.00,38.4063454,-110.7921143,1368.6999512,0.0,49.0,1.5,0.0,0.0,927,130,0,0,858.12,53.31,39.59,0
13:05:57,0,0,0,0,0,0,0,0,0,0,0,515,0,0,0,0,0.0000000,0.0000000,0.0000000,0.0000000,5.00,38.4063454,-110.7921143,1368.9000244,0.0,92.7,1.5,0.0,0.0,925,131,0,0,858.06,53.28,39.57,0
13:05:58,0,0,0,0,0,0,0,0,0,0,0,514,0,0,0,0,0.0000000,0.0000000,0.0000000,0.0000000,5.00,38.4063454,-110.7921143,1369.0000000,0.0,243.8,1.5,0.0,0.0,926,131,0,0,858.04,53.41,39.55,0
13:05:59,0,0,0,0,0,0,0,0,0,0,0,516,0,0,0,0,0.0000000,0.0000000,0.0000000,0.0000000,5.00,38.4063454,-110.7921143,1369.0000000,0.0,287.2,1.5,0.0,0.0,925,138,0,0,858.11,53.71,39.53,0
13:06:00,0,0,0,0,0,0,0,0,0,0,0,516,0,0,0,0,0.0000000,0.0000000,0.0000000,0.0000000,5.00,38.4063454,-110.7921143,1368.9000244,0.0,118.2,1.5,0.0,0.0,924,128,0,0,858.08,53.59,39.64,0
13:06:01,0,0,0,0,0,0,0,0,0,0,0,514,0,0,0,0,0.0000000,0.0000000,0.0000000,0.0000000,5.00,38.4063454,-110.7921143,1368.9000244,0.0,164.4,1.5,0.0,0.0,926,134,0,0,858.05,53.22,39.68,0
13:06:02,0,0,0,0,0,0,0,0,0,0,0,515,0,0,0,0,0.0000000,0.0000000,0.0000000,0.0000000,5.00,38.4063454,-110.7921143,1368.8000488,0.0,162.1,1.5,0.0,0.0,925,132,0,0,858.07,53.09,39.60,0
13:06:03,0,0,0,0,0,0,0,0,0,0,0,514,0,0,0,0,0.0000000,0.0000000,0.0000000,0.0000000,5.00,38.4063454,-110.7921143,1368.8000488,0.0,161.0,1.5,0.0,0.0,926,129,0,0,858.05,53.39,39.53,0
13:06:04,0,0,0,0,0,0,0,0,0,0,0,515,0,0,0,0,0.0000000,0.0000000,0.0000000,0.0000000,5.00,38.4063416,-110.7921143,1368.6999512,0.0,216.7,1.5,0.0,0.0,925,128,0,0,858.02,53.59,39.50,0
13:06:05,0,0,0,0,0,0,0,0,0,0,0,514,0,0,0,0,0.0000000,0.0000000,0.0000000,0.0000000,5.00,38.4063416,-110.7921143,1368.5999756,0.0,171.2,1.5,0.0,0.0,925,133,0,0,858.05,53.51,39.54,0
13:06:06,0,0,0,0,0,0,0,0,0,0,0,514,0,0,0,0,0.0000000,0.0000000,0.0000000,0.0000000,5.00,38.4063416,-110.7921143,1368.4000244,0.0,238.6,1.5,0.0,0.0,925,132,0,0,858.02,53.51,39.72,0
13:06:07,0,0,0,0,0,0,0,0,0,0,0,515,0,0,0,0,0.0000000,0.0000000,0.0000000,0.0000000,5.00,38.4063416,-110.7921143,1368.1999512,0.0,315.5,1.5,0.0,0.0,925,131,0,0,858.07,53.51,39.85,0
13:06:08,0,0,0,0,0,0,0,0,0,0,0,515,0,0,0,0,0.0000000,0.0000000,0.0000000,0.0000000,5.00,38.4063377,-110.7921143,1368.0999756,0.0,228.1,1.5,0.0,0.0,925,136,0,0,858.11,53.16,39.94,0
13:06:09,0,0,0,0,0,0,0,0,0,0,0,514,0,0,0,0,0.0000000,0.0000000,0.0000000,0.0000000,5.00,38.4063377,-110.7921143,1368.0000000,0.0,209.0,1.5,0.0,0.0,926,132,0,0,858.13,53.28,40.05,0
13:06:10,0,0,0,0,0,0,0,0,0,0,0,515,0,0,0,0,0.0000000,0.0000000,0.0000000,0.0000000,5.00,38.4063377,-110.7921143,1367.8000488,0.0,297.9,1.5,0.0,0.0,926,132,0,0,858.10,53.41,40.18,0
13:06:11,0,0,0,0,0,0,0,0,0,0,0,514,0,0,0,0,0.0000000,0.0000000,0.0000000,0.0000000,5.00,38.4063377,-110.7921143,1367.6999512,0.0,311.5,1.5,0.0,0.0,926,133,0,0,858.08,53.41,40.29,0
13:06:12,0,0,0,0,0,0,0,0,0,0,0,514,0,0,0,0,0.0000000,0.0000000,0.0000000,0.0000000,5.00,38.4063377,-110.7921143,1367.6999512,0.0,117.7,1.5,0.0,0.0,926,133,0,0,858.11,53.18,40.19,0
13:06:13,0,0,0,0,0,0,0,0,0,0,0,514,0,0,0,0,0.0000000,0.0000000,0.0000000,0.0000000,5.00,38.4063377,-110.7921143,1367.5999756,0.0,219.8,1.5,0.0,0.0,925,128,0,0,858.12,53.19,40.05,0
13:06:14,0,0,0,0,0,0,0,0,0,0,0,514,0,0,0,0,0.0000000,0.0000000,0.0000000,0.0000000,5.00,38.4063377,-110.7921143,1367.5999756,0.0,224.0,1.5,0.0,0.0,926,127,0,0,858.13,53.18,40.09,0
13:06:15,0,0,0,0,0,0,0,0,0,0,0,515,0,0,0,0,0.0000000,0.0000000,0.0000000,0.0000000,5.00,38.4063377,-110.7921143,1367.5000000,0.0,32.5,1.5,0.0,0.0,925,135,0,0,858.15,53.18,40.14,0
13:06:16,0,0,0,0,0,0,0,0,0,0,0,514,0,0,0,0,0.0000000,0.0000000,0.0000000,0.0000000,5.00,38.4063377,-110.7921143,1367.4000244,0.0,324.4,1.5,0.0,0.0,926,126,0,0,858.12,53.16,40.22,0
13:06:17,0,0,0,0,0,0,0,0,0,0,0,514,0,0,0,0,0.0000000,0.0000000,0.0000000,0.0000000,5.00,38.4063377,-110.7921143,1367.3000488,0.0,152.5,1.5,0.0,0.0,925,134,0,0,858.09,53.12,40.17,0
13:06:18,0,0,0,0,0,0,0,0,0,0,0,514,0,0,0,0,0.0000000,0.0000000,0.0000000,0.0000000,5.00,38.4063377,-110.7921143,1367.1999512,0.0,186.1,1.5,0.0,0.0,925,139,0,0,858.14,53.04,40.15,0
13:06:19,0,0,0,0,0,0,0,0,0,0,0,515,0,0,0,0,0.0000000,0.0000000,0.0000000,0.0000000,5.00,38.4063377,-110.7921143,1367.1999512,0.0,212.1,1.5,0.0,0.0,925,139,0,0,858.11,53.15,40.23,0
13:06:20,0,0,0,0,0,0,0,0,0,0,0,515,0,0,0,0,0.0000000,0.0000000,0.0000000,0.0000000,5.00,38.4063377,-110.7921143,1367.0999756,0.0,152.3,1.5,0.0,0.0,926,138,0,0,858.12,53.15,40.40,0
13:06:21,0,0,0,0,0,0,0,0,0,0,0,514,0,0,0,0,0.0000000,0.0000000,0.0000000,0.0000000,5.00,38.4063339,-110.7921143,1367.0999756,0.0,231.9,1.5,0.0,0.0,926,138,0,0,858.14,52.90,40.47,0
13:06:22,0,0,0,0,0,0,0,0,0,0,0,515,0,0,0,0,0.0000000,0.0000000,0.0000000,0.0000000,5.00,38.4063339,-110.7921143,1367.0999756,0.0,29.7,1.5,0.0,0.0,925,137,0,0,858.09,53.04,40.58,0
13:06:23,0,0,0,0,0,0,0,0,0,0,0,515,0,0,0,0,0.0000000,0.0000000,0.0000000,0.0000000,5.00,38.4063339,-110.7921143,1367.0999756,0.0,227.9,1.5,0.0,0.0,926,140,0,0,858.14,52.81,40.55,0
13:06:24,0,0,0,0,0,0,0,0,0,0,0,514,0,0,0,0,0.0000000,0.0000000,0.0000000,0.0000000,5.00,38.4063339,-110.7921143,1367.0999756,0.0,348.9,1.5,0.0,0.0,925,138,0,0,858.12,52.72,40.45,0
13:06:25,0,0,0,0,0,0,0,0,0,0,0,514,0,0,0,0,0.0000000,0.0000000,0.0000000,0.0000000,5.00,38.4063339,-110.7921143,1367.0999756,0.0,73.5,1.5,0.0,0.0,925,139,0,0,858.14,52.70,40.40,0
13:06:26,0,0,0,0,0,0,0,0,0,0,0,515,0,0,0,0,0.0000000,0.0000000,0.0000000,0.0000000,5.00,38.4063339,-110.7921143,1367.0999756,0.0,70.8,1.5,0.0,0.0,926,139,0,0,858.14,52.75,40.51,0
13:06:27,0,0,0,0,0,0,0,0,0,0,0,515,0,0,0,0,0.0000000,0.0000000,0.0000000,0.0000000,5.00,38.4063339,-110.7921143,1367.0999756,0.0,29.2,1.5,0.0,0.0,925,136,0,0,858.12,52.57,40.58,0
13:06:28,0,0,0,0,0,0,0,0,0,0,0,515,0,0,0,0,0.0000000,0.0000000,0.0000000,0.0000000,5.00,38.4063339,-110.7921143,1367.0999756,0.0,224.5,1.5,0.0,0.0,925,140,0,0,858.10,52.75,40.72,0
13:06:29,0,0,0,0,0,0,0,0,0,0,0,515,0,0,0,0,0.0000000,0.0000000,0.0000000,0.0000000,5.00,38.4063339,-110.7921143,1367.0999756,0.0,303.1,1.5,0.0,0.0,926,136,0,0,858.13,52.72,40.77,0
13:06:30,0,0,0,0,0,0,0,0,0,0,0,515,0,0,0,0,0.0000000,0.0000000,0.0000000,0.0000000,5.00,38.4063339,-110.7921143,1367.0999756,0.0,251.5,1.5,0.0,0.0,925,137,0,0,858.14,52.80,40.79,0
13:06:31,0,0,0,0,0,0,0,0,0,0,0,514,0,0,0,0,0.0000000,0.0000000,0.0000000,0.0000000,5.00,38.4063339,-110.7921143,1367.0999756,0.0,238.6,1.5,0.0,0.0,925,135,0,0,858.08,50.64,40.82,0
13:06:32,0,0,0,0,0,0,0,0,0,0,0,514,0,0,0,0,0.0000000,0.0000000,0.0000000,0.0000000,5.00,38.4063339,-110.7921143,1367.0999756,0.0,273.1,1.5,0.0,0.0,925,134,0,0,857.91,48.10,40.63,0
13:06:34,0,0,0,0,0,0,0,0,0,0,0,515,0,0,0,0,0.0000000,0.0000000,0.0000000,0.0000000,5.00,38.4063339,-110.7921143,1367.0999756,0.0,281.5,1.5,0.0,0.0,925,134,0,0,857.95,47.23,40.46,0
13:06:35,0,0,0,0,0,0,0,0,0,0,0,515,0,0,0,0,0.0000000,0.0000000,0.0000000,0.0000000,5.00,38.4063339,-110.7921143,1367.0999756,0.0,274.5,1.5,0.0,0.0,926,135,0,0,857.91,45.96,40.41,0
13:06:36,0,0,0,0,0,0,0,0,0,0,0,515,0,0,0,0,0.0000000,0.0000000,0.0000000,0.0000000,5.00,38.4063339,-110.7921143,1367.0999756,0.0,347.3,1.5,0.0,0.0,925,132,0,0,858.05,50.35,40.48,0
13:06:37,0,0,0,0,0,0,0,0,0,0,0,515,0,0,0,0,0.0000000,0.0000000,0.0000000,0.0000000,5.00,38.4063339,-110.7921143,1367.0999756,0.0,117.5,1.5,0.0,0.0,925,131,0,0,858.12,51.65,40.63,0
13:06:38,0,0,0,0,0,0,0,0,0,0,0,514,0,0,0,0,0.0000000,0.0000000,0.0000000,0.0000000,5.00,38.4063339,-110.7921143,1367.0999756,0.0,111.2,1.5,0.0,0.0,925,135,0,0,858.27,51.54,40.65,0
13:06:39,0,0,0,0,0,0,0,0,0,0,0,514,0,0,0,0,0.0000000,0.0000000,0.0000000,0.0000000,5.00,38.4063339,-110.7921143,1367.0999756,0.0,126.2,1.5,0.0,0.0,925,134,0,0,858.15,52.32,40.57,0
13:06:40,0,0,0,0,0,0,0,0,0,0,0,515,0,0,0,0,0.0000000,0.0000000,0.0000000,0.0000000,5.00,38.4063339,-110.7921143,1367.0999756,0.0,81.1,1.5,0.0,0.0,925,139,0,0,858.13,52.69,40.54,0
13:06:41,0,0,0,0,0,0,0,0,0,0,0,514,0,0,0,0,0.0000000,0.0000000,0.0000000,0.0000000,5.00,38.4063339,-110.7921143,1367.0999756,0.0,118.9,1.5,0.0,0.0,925,139,0,0,858.16,52.78,40.53,0
13:06:42,0,0,0,0,0,0,0,0,0,0,0,515,0,0,0,0,0.0000000,0.0000000,0.0000000,0.0000000,5.00,38.4063339,-110.7921143,1367.0999756,0.0,175.1,1.5,0.0,0.0,925,144,0,0,858.16,52.46,40.64,0
13:06:43,0,0,0,0,0,0,0,0,0,0,0,515,0,0,0,0,0.0000000,0.0000000,0.0000000,0.0000000,5.00,38.4063339,-110.7921143,1367.0999756,0.0,310.8,1.5,0.0,0.0,925,146,0,0,858.12,52.73,40.79,0
13:06:44,0,0,0,0,0,0,0,0,0,0,0,515,0,0,0,0,0.0000000,0.0000000,0.0000000,0.0000000,5.00,38.4063339,-110.7921143,1367.0999756,0.0,300.5,1.5,0.0,0.0,925,144,0,0,858.15,52.63,40.88,0
13:06:45,0,0,0,0,0,0,0,0,0,0,0,514,0,0,0,0,0.0000000,0.0000000,0.0000000,0.0000000,5.00,38.4063339,-110.7921143,1367.0999756,0.0,305.3,1.5,0.0,0.0,925,143,0,0,858.26,52.57,40.84,0
13:06:46,0,0,0,0,0,0,0,0,0,0,0,514,0,0,0,0,0.0000000,0.0000000,0.0000000,0.0000000,5.00,38.4063339,-110.7921143,1367.0999756,0.0,292.9,1.5,0.0,0.0,925,146,0,0,858.16,52.55,40.87,0
13:06:47,0,0,0,0,0,0,0,0,0,0,0,514,0,0,0,0,0.0000000,0.0000000,0.0000000,0.0000000,5.00,38.4063339,-110.7921143,1367.0999756,0.0,277.3,1.5,0.0,0.0,925,145,0,0,858.25,52.67,40.94,0
13:06:48,0,0,0,0,0,0,0,0,0,0,0,515,0,0,0,0,0.0000000,0.0000000,0.0000000,0.0000000,5.00,38.4063339,-110.7921143,1367.0999756,0.0,80.3,1.5,0.0,0.0,925,142,0,0,858.20,52.46,40.81,0
13:06:49,0,0,0,0,0,0,0,0,0,0,0,515,0,0,0,0,0.0000000,0.0000000,0.0000000,0.0000000,5.00,38.4063339,-110.7921143,1367.0999756,0.0,120.4,1.5,0.0,0.0,925,146,0,0,858.30,52.75,40.86,0
13:06:50,0,0,0,0,0,0,0,0,0,0,0,513,0,0,0,0,0.0000000,0.0000000,0.0000000,0.0000000,5.00,38.4063339,-110.7921143,1367.0999756,0.0,112.4,1.5,0.0,0.0,925,148,0,0,858.22,52.54,40.90,0
13:06:51,0,0,0,0,0,0,0,0,0,0,0,514,0,0,0,0,0.0000000,0.0000000,0.0000000,0.0000000,5.00,38.4063339,-110.7921143,1367.0999756,0.0,107.9,1.5,0.0,0.0,925,149,0,0,858.23,52.55,40.78,0
13:06:52,0,0,0,0,0,0,0,0,0,0,0,514,0,0,0,0,0.0000000,0.0000000,0.0000000,0.0000000,5.00,38.4063339,-110.7921143,1367.0999756,0.0,128.7,1.5,0.0,0.0,925,147,0,0,858.33,52.69,40.77,0
13:06:53,0,0,0,0,0,0,0,0,0,0,0,515,0,0,0,0,0.0000000,0.0000000,0.0000000,0.0000000,5.00,38.4063339,-110.7921143,1367.0999756,0.0,122.9,1.5,0.0,0.0,925,148,0,0,858.31,52.77,40.84,0
13:06:54,0,0,0,0,0,0,0,0,0,0,0,515,0,0,0,0,0.0000000,0.0000000,0.0000000,0.0000000,5.00,38.4063339,-110.7921143,1367.0999756,0.0,46.8,1.5,0.0,0.0,925,149,0,0,858.26,52.58,40.40,0
13:06:55,0,0,0,0,0,0,0,0,0,0,0,514,0,0,0,0,0.0000000,0.0000000,0.0000000,0.0000000,5.00,38.4063339,-110.7921143,1367.0999756,0.0,292.4,1.5,0.0,0.0,925,151,0,0,858.25,52.87,40.52,0
13:06:56,0,0,0,0,0,0,0,0,0,0,0,514,0,0,0,0,0.0000000,0.0000000,0.0000000,0.0000000,5.00,38.4063339,-110.7921143,1367.0999756,0.0,296.6,1.5,0.0,0.0,925,149,0,0,858.23,52.84,40.52,0
13:06:57,0,0,0,0,0,0,0,0,0,0,0,514,0,0,0,0,0.0000000,0.0000000,0.0000000,0.0000000,5.00,38.4063339,-110.7921143,1367.0999756,0.0,292.7,1.5,0.0,0.0,925,146,0,0,858.25,52.89,40.55,0
13:06:58,0,0,0,0,0,0,0,0,0,0,0,514,0,0,0,0,0.0000000,0.0000000,0.0000000,0.0000000,5.00,38.4063339,-110.7921143,1367.0999756,0.0,287.6,1.5,0.0,0.0,925,148,0,0,858.26,52.66,40.66,0
13:06:59,0,0,0,0,0,0,0,0,0,0,0,515,0,0,0,0,0.0000000,0.0000000,0.0000000,0.0000000,5.00,38.4063339,-110.7921143,1367.0999756,0.0,263.4,1.5,0.0,0.0,925,143,0,0,858.22,52.75,40.85,0
13:07:00,0,0,0,0,0,0,0,0,0,0,0,514,0,0,0,0,0.0000000,0.0000000,0.0000000,0.0000000,5.00,38.4063339,-110.7921143,1367.0999756,0.0,353.9,1.5,0.0,0.0,925,139,0,0,858.25,52.75,40.78,0
13:07:01,0,0,0,0,0,0,0,0,0,0,0,514,0,0,0,0,0.0000000,0.0000000,0.0000000,0.0000000,5.00,38.4063377,-110.7921143,1367.0999756,0.0,115.7,1.5,0.0,0.0,925,141,0,0,858.21,52.69,40.59,0
13:07:02,0,0,0,0,0,0,0,0,0,0,0,515,0,0,0,0,0.0000000,0.0000000,0.0000000,0.0000000,5.00,38.4063377,-110.7921143,1367.0999756,0.0,55.7,1.5,0.0,0.0,925,139,0,0,858.18,52.67,40.56,0
13:07:03,0,0,0,0,0,0,0,0,0,0,0,514,0,0,0,0,0.0000000,0.0000000,0.0000000,0.0000000,5.00,38.4063377,-110.7921143,1367.0999756,0.0,31.8,1.5,0.0,0.0,925,140,0,0,858.24,52.80,40.48,0
13:07:04,0,0,0,0,0,0,0,0,0,0,0,514,0,0,0,0,0.0000000,0.0000000,0.0000000,0.0000000,5.00,38.4063377,-110.7921143,1367.0999756,0.0,318.5,1.5,0.0,0.0,924,136,0,0,858.23,52.92,40.34,0
13:07:05,0,0,0,0,0,0,0,0,0,0,0,514,0,0,0,0,0.0000000,0.0000000,0.0000000,0.0000000,5.00,38.4063377,-110.7921143,1367.0999756,0.0,302.4,1.5,0.0,0.0,925,139,0,0,858.22,52.95,40.41,0
13:07:06,0,0,0,0,0,0,0,0,0,0,0,515,0,0,0,0,0.0000000,0.0000000,0.0000000,0.0000000,5.00,38.4063377,-110.7921143,1367.0999756,0.0,287.6,1.5,0.0,0.0,925,136,0,0,858.26,52.84,40.54,0
13:07:07,0,0,0,0,0,0,0,0,0,0,0,515,0,0,0,0,0.0000000,0.0000000,0.0000000,0.0000000,5.00,38.4063377,-110.7921143,1367.0999756,0.0,298.8,1.5,0.0,0.0,925,139,0,0,858.23,52.83,40.58,0
13:07:08,0,0,0,0,0,0,0,0,0,0,0,515,0,0,0,0,0.0000000,0.0000000,0.0000000,0.0000000,5.00,38.4063377,-110.7921143,1367.0999756,0.0,287.8,1.5,0.0,0.0,925,137,0,0,858.23,52.73,40.56,0
13:07:09,0,0,0,0,0,0,0,0,0,0,0,514,0,0,0,0,0.0000000,0.0000000,0.0000000,0.0000000,5.00,38.4063377,-110.7921143,1367.0999756,0.0,306.8,1.5,0.0,0.0,925,126,0,0,858.23,52.86,40.55,0
13:07:10,0,0,0,0,0,0,0,0,0,0,0,514,0,0,0,0,0.0000000,0.0000000,0.0000000,0.0000000,5.00,38.4063377,-110.7921143,1367.0999756,0.0,126.0,1.5,0.0,0.0,925,128,0,0,858.27,52.93,40.65,0
13:07:11,0,0,0,0,0,0,0,0,0,0,0,514,0,0,0,0,0.0000000,0.0000000,0.0000000,0.0000000,5.00,38.4063377,-110.7921143,1367.0999756,0.0,120.9,1.5,0.0,0.0,924,129,0,0,858.27,52.78,40.75,0
13:07:12,0,0,0,0,0,0,0,0,0,0,0,514,0,0,0,0,0.0000000,0.0000000,0.0000000,0.0000000,5.00,38.4063377,-110.7921143,1367.0999756,0.0,123.8,1.5,0.0,0.0,925,126,0,0,858.25,52.90,40.82,0
13:07:13,0,0,0,0,0,0,0,0,0,0,0,514,0,0,0,0,0.0000000,0.0000000,0.0000000,0.0000000,5.00,38.4063377,-110.7921143,1367.0999756,0.0,110.1,1.5,0.0,0.0,924,138,0,0,858.28,52.77,40.77,0
13:07:14,0,0,0,0,0,0,0,0,0,0,0,514,0,0,0,0,0.0000000,0.0000000,0.0000000,0.0000000,5.00,38.4063339,-110.7921143,1367.0999756,0.0,126.2,1.5,0.0,0.0,925,135,0,0,858.26,52.92,40.85,0
13:07:15,0,0,0,0,0,0,0,0,0,0,0,515,0,0,0,0,0.0000000,0.0000000,0.0000000,0.0000000,5.00,38.4063339,-110.7921143,1367.0999756,0.0,125.0,1.5,0.0,0.0,925,137,0,0,858.25,52.77,40.72,0
13:07:16,0,0,0,0,0,0,0,0,0,0,0,514,0,0,0,0,0.0000000,0.0000000,0.0000000,0.0000000,5.00,38.4063339,-110.7921143,1367.0999756,0.0,151.3,1.5,0.0,0.0,925,140,0,0,858.28,52.99,40.76,0
13:07:17,0,0,0,0,0,0,0,0,0,0,0,515,0,0,0,0,0.0000000,0.0000000,0.0000000,0.0000000,5.00,38.4063339,-110.7921143,1367.0999756,0.0,0.0,1.5,0.0,0.0,925,137,0,0,858.21,52.96,41.00,0
13:07:18,0,0,0,0,0,0,0,0,0,0,0,514,0,0,0,0,0.0000000,0.0000000,0.0000000,0.0000000,5.00,38.4063339,-110.7921143,1367.0999756,0.0,292.3,1.5,0.0,0.0,925,131,0,0,858.32,52.90,41.15,0
13:07:19,0,0,0,0,0,0,0,0,0,0,0,514,0,0,0,0,0.0000000,0.0000000,0.0000000,0.0000000,5.00,38.4063339,-110.7921143,1367.0999756,0.0,286.8,1.5,0.0,0.0,924,135,0,0,858.38,52.75,41.26,0
13:07:20,0,0,0,0,0,0,0,0,0,0,0,514,0,0,0,0,0.0000000,0.0000000,0.0000000,0.0000000,5.00,38.4063339,-110.7921143,1367.0999756,0.0,287.8,1.5,0.0,0.0,925,141,0,0,858.34,52.98,41.36,0
13:07:21,0,0,0,0,0,0,0,0,0,0,0,514,0,0,0,0,0.0000000,0.0000000,0.0000000,0.0000000,5.00,38.4063339,-110.7921143,1367.0999756,0.0,300.5,1.5,0.0,0.0,924,135,0,0,858.29,52.83,41.41,0
13:07:22,0,0,0,0,0,0,0,0,0,0,0,514,0,0,0,0,0.0000000,0.0000000,0.0000000,0.0000000,5.00,38.4063339,-110.7921143,1367.0999756,0.0,330.8,1.5,0.0,0.0,924,140,0,0,858.21,52.87,41.22,0
13:07:23,0,0,0,0,0,0,0,0,0,0,0,514,0,0,0,0,0.0000000,0.0000000,0.0000000,0.0000000,5.00,38.4063339,-110.7921143,1367.0999756,0.0,353.7,1.5,0.0,0.0,925,141,0,0,858.27,52.99,41.15,0
13:07:24,0,0,0,0,0,0,0,0,0,0,0,514,0,0,0,0,0.0000000,0.0000000,0.0000000,0.0000000,5.00,38.4063339,-110.7921143,1367.0999756,0.0,85.3,1.5,0.0,0.0,924,147,0,0,858.24,52.80,41.18,0
13:07:25,0,0,0,0,0,0,0,0,0,0,0,514,0,0,0,0,0.0000000,0.0000000,0.0000000,0.0000000,5.00,38.4063339,-110.7921143,1367.0999756,0.0,96.8,1.5,0.0,0.0,925,146,0,0,858.35,52.73,41.22,0
13:07:26,0,0,0,0,0,0,0,0,0,0,0,514,0,0,0,0,0.0000000,0.0000000,0.0000000,0.0000000,5.00,38.4063339,-110.7921143,1367.0999756,0.0,79.3,1.5,0.0,0.0,925,148,0,0,858.29,52.75,41.28,0
13:07:27,0,0,0,0,0,0,0,0,0,0,0,515,0,0,0,0,0.0000000,0.0000000,0.0000000,0.0000000,5.00,38.4063339,-110.7921143,1367.0999756,0.0,95.8,1.5,0.0,0.0,925,143,0,0,858.33,52.72,41.34,0
13:07:28,0,0,0,0,0,0,0,0,0,0,0,514,0,0,0,0,0.0000000,0.0000000,0.0000000,0.0000000,5.00,38.4063339,-110.7921143,1367.0999756,0.0,174.0,1.5,0.0,0.0,925,144,0,0,858.33,52.73,41.24,0
13:07:29,0,0,0,0,0,0,0,0,0,0,0,515,0,0,0,0,0.0000000,0.0000000,0.0000000,0.0000000,5.00,38.4063339,-110.7921143,1367.0999756,0.0,293.5,1.5,0.0,0.0,924,143,0,0,858.30,52.87,41.23,0
13:07:30,0,0,0,0,0,0,0,0,0,0,0,515,0,0,0,0,0.0000000,0.0000000,0.0000000,0.0000000,5.00,38.4063339,-110.7921143,1367.0999756,0.0,298.4,1.5,0.0,0.0,925,144,0,0,858.29,52.84,41.32,0
13:07:31,0,0,0,0,0,0,0,0,0,0,0,514,0,0,0,0,0.0000000,0.0000000,0.0000000,0.0000000,5.00,38.4063339,-110.7921143,1367.0999756,0.0,286.1,1.5,0.0,0.0,925,140,0,0,858.31,52.83,41.37,0
