Time, Motor A Speed, Motor A Dir, Motor B Speed, Motor B Dir, Servo Rail Current Sensor, Servo Pos - Arm L, Servo Pos - Arm R, Servo Pos - End, Servo Pos - Hopper, Servo Pos - Lid, Servo Pos - Extra, Servo Current, LED - Front L, LED - Front R, LED - Back L, LED - Back R, IMU Pitch, IMU Roll, IMU Yaw, Compass Heading, GPS Sats, GPS Latitude, GPS Longitude, GPS Altitude, GPS Speed, GPS Angle, GPS HDOP, GPS VDOP, GPS PDOP, Battery, Wind, Comm Xbee Latency, Comm Arduino Latency, Pressure, Humidity, Temperature, uRADMonitor
13:17:00,0,0,0,0,0,0,0,0,0,0,0,516,0,0,0,0,0.0000000,0.0000000,0.0000000,0.0000000,8.00,38.4063187,-110.7921143,1364.4000244,0.0,348.1,0.9,0.0,0.0,919,160,0,0,858.31,53.59,39.69,0
13:17:01,0,0,0,0,0,0,0,0,0,0,0,515,0,0,0,0,0.0000000,0.0000000,0.0000000,0.0000000,8.00,38.4063187,-110.7921143,1364.4000244,0.0,3.7,0.9,0.0,0.0,920,161,0,0,858.27,53.56,39.82,0
13:17:02,0,0,0,0,0,0,0,0,0,0,0,515,0,0,0,0,0.0000000,0.0000000,0.0000000,0.0000000,8.00,38.4063187,-110.7921143,1364.4000244,0.0,342.7,0.9,0.0,0.0,920,158,0,0,858.15,53.70,39.93,0
13:17:03,0,0,0,0,0,0,0,0,0,0,0,515,0,0,0,0,0.0000000,0.0000000,0.0000000,0.0000000,8.00,38.4063187,-110.7921143,1364.4000244,0.0,4.1,0.9,0.0,0.0,918,157,0,0,858.28,53.70,40.12,0
13:17:04,0,0,0,0,0,0,0,0,0,0,0,516,0,0,0,0,0.0000000,0.0000000,0.0000000,0.0000000,8.00,38.4063187,-110.7921143,1364.4000244,0.0,25.0,0.9,0.0,0.0,920,154,0,0,858.31,53.57,40.01,0
13:17:05,0,0,0,0,0,0,0,0,0,0,0,515,0,0,0,0,0.0000000,0.0000000,0.0000000,0.0000000,8.00,38.4063187,-110.7921143,1364.4000244,0.0,185.9,0.9,0.0,0.0,920,152,0,0,858.22,53.64,40.16,0
13:17:06,0,0,0,0,0,0,0,0,0,0,0,514,0,0,0,0,0.0000000,0.0000000,0.0000000,0.0000000,8.00,38.4063187,-110.7921143,1364.4000244,0.0,165.6,0.9,0.0,0.0,919,147,0,0,858.25,53.70,39.94,0
13:17:07,0,0,0,0,0,0,0,0,0,0,0,515,0,0,0,0,0.0000000,0.0000000,0.0000000,0.0000000,8.00,38.4063187,-110.7921143,1364.4000244,0.0,160.4,0.9,0.0,0.0,920,146,0,0,858.19,53.60,39.85,0
13:17:08,0,0,0,0,0,0,0,0,0,0,0,515,0,0,0,0,0.0000000,0.0000000,0.0000000,0.0000000,8.00,38.4063187,-110.7921143,1364.4000244,0.0,132.6,0.9,0.0,0.0,920,154,0,0,858.18,53.57,40.12,0
13:17:09,0,0,0,0,0,0,0,0,0,0,0,515,0,0,0,0,0.0000000,0.0000000,0.0000000,0.0000000,8.00,38.4063187,-110.7921143,1364.4000244,0.0,147.2,0.9,0.0,0.0,919,163,0,0,858.13,53.57,40.32,0
13:17:10,0,0,0,0,0,0,0,0,0,0,0,515,0,0,0,0,0.0000000,0.0000000,0.0000000,0.0000000,8.00,38.4063187,-110.7921143,1364.4000244,0.0,237.2,0.9,0.0,0.0,919,160,0,0,858.17,53.71,40.30,0
13:17:11,0,0,0,0,0,0,0,0,0,0,0,515,0,0,0,0,0.0000000,0.0000000,0.0000000,0.0000000,8.00,38.4063187,-110.7921143,1364.4000244,0.0,344.8,0.9,0.0,0.0,919,158,0,0,858.32,53.73,40.36,0
13:17:12,0,0,0,0,0,0,0,0,0,0,0,515,0,0,0,0,0.0000000,0.0000000,0.0000000,0.0000000,8.00,38.4063187,-110.7921143,1364.4000244,0.0,344.0,0.9,0.0,0.0,919,156,0,0,858.27,53.64,40.42,0
13:17:13,0,0,0,0,0,0,0,0,0,0,0,515,0,0,0,0,0.0000000,0.0000000,0.0000000,0.0000000,8.00,38.4063187,-110.7921143,1364.4000244,0.0,357.2,0.9,0.0,0.0,919,161,0,0,858.59,53.45,40.35,0
13:17:14,0,0,0,0,0,0,0,0,0,0,0,515,0,0,0,0,0.0000000,0.0000000,0.0000000,0.0000000,8.00,38.4063187,-110.7921143,1364.5000000,0.0,357.5,0.9,0.0,0.0,919,167,0,0,858.29,53.59,40.38,0
13:17:15,0,0,0,0,0,0,0,0,0,0,0,515,0,0,0,0,0.0000000,0.0000000,0.0000000,0.0000000,8.00,38.4063187,-110.7921143,1364.5000000,0.0,352.8,0.9,0.0,0.0,919,166,0,0,858.21,53.48,40.35,0
13:17:16,0,0,0,0,0,0,0,0,0,0,0,515,0,0,0,0,0.0000000,0.0000000,0.0000000,0.0000000,8.00,38.4063187,-110.7921143,1364.5000000,0.0,49.5,0.9,0.0,0.0,919,173,0,0,858.19,53.38,40.32,0
13:17:17,0,0,0,0,0,0,0,0,0,0,0,516,0,0,0,0,0.0000000,0.0000000,0.0000000,0.0000000,8.00,38.4063187,-110.7921143,1364.5000000,0.0,160.0,0.9,0.0,0.0,919,176,0,0,858.21,53.54,40.31,0
13:17:18,0,0,0,0,0,0,0,0,0,0,0,515,0,0,0,0,0.0000000,0.0000000,0.0000000,0.0000000,8.00,38.4063187,-110.7921143,1364.5000000,0.0,169.8,0.9,0.0,0.0,919,177,0,0,858.18,53.25,40.48,0
13:17:19,0,0,0,0,0,0,0,0,0,0,0,515,0,0,0,0,0.0000000,0.0000000,0.0000000,0.0000000,8.00,38.4063187,-110.7921143,1364.5000000,0.0,141.0,0.9,0.0,0.0,919,200,0,0,858.38,53.42,40.26,0
13:17:20,0,0,0,0,0,0,0,0,0,0,0,516,0,0,0,0,0.0000000,0.0000000,0.0000000,0.0000000,8.00,38.4063187,-110.7921143,1364.5000000,0.0,145.9,0.9,0.0,0.0,919,187,0,0,858.27,53.50,40.22,0
13:17:21,0,0,0,0,0,0,0,0,0,0,0,515,0,0,0,0,0.0000000,0.0000000,0.0000000,0.0000000,8.00,38.4063187,-110.7921143,1364.5000000,0.0,151.2,0.9,0.0,0.0,919,183,0,0,858.35,53.53,40.00,0
13:17:22,0,0,0,0,0,0,0,0,0,0,0,515,0,0,0,0,0.0000000,0.0000000,0.0000000,0.0000000,8.00,38.4063187,-110.7921143,1364.5000000,0.0,239.0,0.9,0.0,0.0,918,178,0,0,858.37,53.65,39.85,0
13:17:23,0,0,0,0,0,0,0,0,0,0,0,514,0,0,0,0,0.0000000,0.0000000,0.0000000,0.0000000,8.00,38.4063187,-110.7921143,1364.5000000,0.0,3.8,0.9,0.0,0.0,919,164,0,0,858.35,53.60,40.07,0
13:17:24,0,0,0,0,0,0,0,0,0,0,0,515,0,0,0,0,0.0000000,0.0000000,0.0000000,0.0000000,8.00,38.4063187,-110.7921143,1364.5000000,0.0,349.6,0.9,0.0,0.0,919,166,0,0,858.37,53.50,39.94,0
13:17:25,0,0,0,0,0,0,0,0,0,0,0,515,0,0,0,0,0.0000000,0.0000000,0.0000000,0.0000000,8.00,38.4063187,-110.7921143,1364.5000000,0.0,347.5,0.9,0.0,0.0,920,160,0,0,858.30,53.60,39.89,0
13:17:26,0,0,0,0,0,0,0,0,0,0,0,515,0,0,0,0,0.0000000,0.0000000,0.0000000,0.0000000,8.00,38.4063187,-110.7921143,1364.5000000,0.0,16.5,0.9,0.0,0.0,919,171,0,0,858.27,53.70,39.82,0
13:17:27,0,0,0,0,0,0,0,0,0,0,0,515,0,0,0,0,0.0000000,0.0000000,0.0000000,0.0000000,8.00,38.4063187,-110.7921143,1364.5000000,0.0,344.0,0.9,0.0,0.0,919,169,0,0,858.34,53.56,39.64,0
13:17:28,0,0,0,0,0,0,0,0,0,0,0,516,0,0,0,0,0.0000000,0.0000000,0.0000000,0.0000000,8.00,38.4063187,-110.7921143,1364.5000000,0.0,57.4,0.9,0.0,0.0,920,175,0,0,858.30,53.74,39.49,0
13:17:29,0,0,0,0,0,0,0,0,0,0,0,515,0,0,0,0,0.0000000,0.0000000,0.0000000,0.0000000,8.00,38.4063187,-110.7921143,1364.5000000,0.0,166.1,0.9,0.0,0.0,919,185,0,0,858.08,53.99,39.35,0
13:17:30,0,0,0,0,0,0,0,0,0,0,0,515,0,0,0,0,0.0000000,0.0000000,0.0000000,0.0000000,8.00,38.4063187,-110.7921143,1364.5000000,0.0,173.4,0.9,0.0,0.0,920,187,0,0,858.26,53.80,39.43,0
13:17:31,0,0,0,0,0,0,0,0,0,0,0,515,0,0,0,0,0.0000000,0.0000000,0.0000000,0.0000000,8.00,38.4063187,-110.7921143,1364.5000000,0.0,149.6,0.9,0.0,0.0,919,172,0,0,858.12,53.93,39.21,0
13:17:32,0,0,0,0,0,0,0,0,0,0,0,515,0,0,0,0,0.0000000,0.0000000,0.0000000,0.0000000,8.00,38.4063187,-110.7921143,1364.5000000,0.0,158.0,0.9,0.0,0.0,919,173,0,0,858.19,53.93,39.12,0
13:17:33,0,0,0,0,0,0,0,0,0,0,0,515,0,0,0,0,0.0000000,0.0000000,0.0000000,0.0000000,8.00,38.4063187,-110.7921143,1364.5000000,0.0,242.3,0.9,0.0,0.0,919,177,0,0,858.26,53.80,39.12,0
13:17:34,0,0,0,0,0,0,0,0,0,0,0,515,0,0,0,0,0.0000000,0.0000000,0.0000000,0.0000000,8.00,38.4063187,-110.7921143,1364.5000000,0.0,333.1,0.9,0.0,0.0,919,174,0,0,858.38,53.96,39.08,0
13:17:35,0,0,0,0,0,0,0,0,0,0,0,515,0,0,0,0,0.0000000,0.0000000,0.0000000,0.0000000,8.00,38.4063187,-110.7921143,1364.5000000,0.0,329.4,0.9,0.0,0.0,919,168,0,0,858.21,53.97,39.10,0
13:17:36,0,0,0,0,0,0,0,0,0,0,0,516,0,0,0,0,0.0000000,0.0000000,0.0000000,0.0000000,8.00,38.4063187,-110.7921143,1364.5000000,0.0,317.7,0.9,0.0,0.0,919,162,0,0,858.16,53.89,39.18,0
13:17:37,0,0,0,0,0,0,0,0,0,0,0,516,0,0,0,0,0.0000000,0.0000000,0.0000000,0.0000000,8.00,38.4063187,-110.7921143,1364.5000000,0.0,357.5,0.9,0.0,0.0,919,159,0,0,858.18,53.89,39.28,0
13:17:38,0,0,0,0,0,0,0,0,0,0,0,515,0,0,0,0,0.0000000,0.0000000,0.0000000,0.0000000,8.00,38.4063187,-110.7921143,1364.5000000,0.0,354.5,0.9,0.0,0.0,919,158,0,0,858.16,54.00,39.04,0
13:17:39,0,0,0,0,0,0,0,0,0,0,0,516,0,0,0,0,0.0000000,0.0000000,0.0000000,0.0000000,8.00,38.4063187,-110.7921143,1364.5000000,0.0,44.0,0.9,0.0,0.0,919,164,0,0,858.14,54.06,38.97,0
13:17:40,0,0,0,0,0,0,0,0,0,0,0,515,0,0,0,0,0.0000000,0.0000000,0.0000000,0.0000000,8.00,38.4063187,-110.7921143,1364.5000000,0.0,127.7,0.9,0.0,0.0,919,168,0,0,858.15,54.09,39.05,0
13:17:41,0,0,0,0,0,0,0,0,0,0,0,515,0,0,0,0,0.0000000,0.0000000,0.0000000,0.0000000,8.00,38.4063187,-110.7921143,1364.5000000,0.0,148.2,0.9,0.0,0.0,919,168,0,0,858.19,53.79,39.30,0
13:17:42,0,0,0,0,0,0,0,0,0,0,0,515,0,0,0,0,0.0000000,0.0000000,0.0000000,0.0000000,8.00,38.4063187,-110.7921143,1364.5000000,0.0,125.1,0.9,0.0,0.0,919,167,0,0,858.26,53.88,39.42,0
13:17:43,0,0,0,0,0,0,0,0,0,0,0,515,0,0,0,0,0.0000000,0.0000000,0.0000000,0.0000000,8.00,38.4063187,-110.7921143,1364.5000000,0.0,143.2,0.9,0.0,0.0,919,162,0,0,858.13,53.93,39.27,0
13:17:44,0,0,0,0,0,0,0,0,0,0,0,516,0,0,0,0,0.0000000,0.0000000,0.0000000,0.0000000,8.00,38.4063187,-110.7921143,1364.5000000,0.0,171.8,0.9,0.0,0.0,921,154,0,0,858.21,54.03,38.92,0
13:17:45,0,0,0,0,0,0,0,0,0,0,0,515,0,0,0,0,0.0000000,0.0000000,0.0000000,0.0000000,8.00,38.4063187,-110.7921143,1364.5000000,0.0,141.4,0.9,0.0,0.0,919,152,0,0,858.24,53.91,39.04,0
13:17:46,0,0,0,0,0,0,0,0,0,0,0,514,0,0,0,0,0.0000000,0.0000000,0.0000000,0.0000000,8.00,38.4063187,-110.7921143,1364.5000000,0.0,359.0,0.9,0.0,0.0,919,152,0,0,858.30,54.02,39.19,0
13:17:47,0,0,0,0,0,0,0,0,0,0,0,515,0,0,0,0,0.0000000,0.0000000,0.0000000,0.0000000,8.00,38.4063187,-110.7921143,1364.5000000,0.0,355.0,0.9,0.0,0.0,919,151,0,0,858.30,54.09,39.31,0
13:17:48,0,0,0,0,0,0,0,0,0,0,0,515,0,0,0,0,0.0000000,0.0000000,0.0000000,0.0000000,8.00,38.4063187,-110.7921143,1364.5000000,0.0,2.9,0.9,0.0,0.0,919,145,0,0,858.35,53.94,39.48,0
13:17:49,0,0,0,0,0,0,0,0,0,0,0,515,0,0,0,0,0.0000000,0.0000000,0.0000000,0.0000000,8.00,38.4063187,-110.7921143,1364.5000000,0.0,349.5,0.9,0.0,0.0,919,152,0,0,858.33,53.91,39.59,0
13:17:50,0,0,0,0,0,0,0,0,0,0,0,515,0,0,0,0,0.0000000,0.0000000,0.0000000,0.0000000,8.00,38.4063187,-110.7921143,1364.5000000,0.0,357.4,0.9,0.0,0.0,919,145,0,0,858.27,53.86,39.72,0
13:17:51,0,0,0,0,0,0,0,0,0,0,0,515,0,0,0,0,0.0000000,0.0000000,0.0000000,0.0000000,8.00,38.4063187,-110.7921143,1364.5000000,0.0,26.9,0.9,0.0,0.0,919,144,0,0,858.42,53.91,39.79,0
13:17:52,0,0,0,0,0,0,0,0,0,0,0,515,0,0,0,0,0.0000000,0.0000000,0.0000000,0.0000000,8.00,38.4063187,-110.7921143,1364.5000000,0.0,146.3,0.9,0.0,0.0,919,146,0,0,858.28,53.79,39.67,0
13:17:53,0,0,0,0,0,0,0,0,0,0,0,515,0,0,0,0,0.0000000,0.0000000,0.0000000,0.0000000,8.00,38.4063187,-110.7921143,1364.5000000,0.0,125.6,0.9,0.0,0.0,919,152,0,0,858.26,53.71,39.70,0
13:17:54,0,0,0,0,0,0,0,0,0,0,0,516,0,0,0,0,0.0000000,0.0000000,0.0000000,0.0000000,8.00,38.4063187,-110.7921143,1364.5000000,0.0,126.6,0.9,0.0,0.0,918,157,0,0,858.35,53.71,39.84,0
13:17:55,0,0,0,0,0,0,0,0,0,0,0,515,0,0,0,0,0.0000000,0.0000000,0.0000000,0.0000000,8.00,38.4063187,-110.7921143,1364.5000000,0.0,138.6,0.9,0.0,0.0,919,153,0,0,858.41,53.74,39.79,0
13:17:56,0,0,0,0,0,0,0,0,0,0,0,515,0,0,0,0,0.0000000,0.0000000,0.0000000,0.0000000,8.00,38.4063187,-110.7921143,1364.5000000,0.0,166.0,0.9,0.0,0.0,919,160,0,0,858.36,53.70,39.85,0
13:17:57,0,0,0,0,0,0,0,0,0,0,0,515,0,0,0,0,0.0000000,0.0000000,0.0000000,0.0000000,8.00,38.4063187,-110.7921143,1364.5000000,0.0,240.8,0.9,0.0,0.0,919,160,0,0,858.37,53.60,39.98,0
13:17:58,0,0,0,0,0,0,0,0,0,0,0,515,0,0,0,0,0.0000000,0.0000000,0.0000000,0.0000000,8.00,38.4063187,-110.7921143,1364.5000000,0.0,3.2,0.9,0.0,0.0,920,156,0,0,858.32,53.60,40.07,0
13:17:59,0,0,0,0,0,0,0,0,0,0,0,515,0,0,0,0,0.0000000,0.0000000,0.0000000,0.0000000,8.00,38.4063187,-110.7921143,1364.5000000,0.0,357.7,0.9,0.0,0.0,918,157,0,0,858.32,53.47,40.14,0
13:18:00,0,0,0,0,0,0,0,0,0,0,0,515,0,0,0,0,0.0000000,0.0000000,0.0000000,0.0000000,8.00,38.4063187,-110.7921143,1364.5000000,0.0,340.5,0.9,0.0,0.0,919,162,0,0,858.37,53.48,40.25,0
13:18:01,0,0,0,0,0,0,0,0,0,0,0,515,0,0,0,0,0.0000000,0.0000000,0.0000000,0.0000000,8.00,38.4063187,-110.7921143,1364.5000000,0.0,321.4,0.9,0.0,0.0,919,176,0,0,858.26,53.42,40.37,0
13:18:02,0,0,0,0,0,0,0,0,0,0,0,514,0,0,0,0,0.0000000,0.0000000,0.0000000,0.0000000,8.00,38.4063187,-110.7921143,1364.5000000,0.0,336.0,0.9,0.0,0.0,919,189,0,0,858.41,53.53,40.42,0
13:18:03,0,0,0,0,0,0,0,0,0,0,0,515,0,0,0,0,0.0000000,0.0000000,0.0000000,0.0000000,8.00,38.4063187,-110.7921143,1364.5000000,0.0,59.5,0.9,0.0,0.0,919,185,0,0,858.22,53.57,40.40,0
13:18:04,0,0,0,0,0,0,0,0,0,0,0,515,0,0,0,0,0.0000000,0.0000000,0.0000000,0.0000000,8.00,38.4063187,-110.7921143,1364.5000000,0.0,161.5,0.9,0.0,0.0,918,188,0,0,858.11,53.64,40.43,0
13:18:05,0,0,0,0,0,0,0,0,0,0,0,515,0,0,0,0,0.0000000,0.0000000,0.0000000,0.0000000,8.00,38.4063187,-110.7921143,1364.5000000,0.0,166.2,0.9,0.0,0.0,919,180,0,0,858.37,53.45,40.35,0
13:18:06,0,0,0,0,0,0,0,0,0,0,0,515,0,0,0,0,0.0000000,0.0000000,0.0000000,0.0000000,8.00,38.4063187,-110.7921143,1364.5000000,0.0,169.4,0.9,0.0,0.0,919,173,0,0,858.34,53.48,40.29,0
13:18:07,0,0,0,0,0,0,0,0,0,0,0,515,0,0,0,0,0.0000000,0.0000000,0.0000000,0.0000000,8.00,38.4063187,-110.7921143,1364.5000000,0.0,160.2,0.9,0.0,0.0,919,165,0,0,858.20,53.39,40.39,0
13:18:08,0,0,0,0,0,0,0,0,0,0,0,515,0,0,0,0,0.0000000,0.0000000,0.0000000,0.0000000,8.00,38.4063187,-110.7921143,1364.5000000,0.0,159.2,0.9,0.0,0.0,919,165,0,0,858.32,53.48,40.46,0
13:18:09,0,0,0,0,0,0,0,0,0,0,0,515,0,0,0,0,0.0000000,0.0000000,0.0000000,0.0000000,8.00,38.4063187,-110.7921143,1364.5999756,0.0,85.7,0.9,0.0,0.0,919,169,0,0,858.38,53.59,40.53,0
13:18:10,0,0,0,0,0,0,0,0,0,0,0,514,0,0,0,0,0.0000000,0.0000000,0.0000000,0.0000000,8.00,38.4063187,-110.7921143,1364.5999756,0.0,8.9,0.9,0.0,0.0,918,163,0,0,858.42,53.39,40.67,0
13:18:11,0,0,0,0,0,0,0,0,0,0,0,516,0,0,0,0,0.0000000,0.0000000,0.0000000,0.0000000,8.00,38.4063187,-110.7921143,1364.5999756,0.0,353.9,0.9,0.0,0.0,919,170,0,0,858.26,53.42,40.63,0
13:18:12,0,0,0,0,0,0,0,0,0,0,0,514,0,0,0,0,0.0000000,0.0000000,0.0000000,0.0000000,8.00,38.4063187,-110.7921143,1364.5999756,0.0,14.8,0.9,0.0,0.0,919,168,0,0,858.30,53.44,40.40,0
13:18:13,0,0,0,0,0,0,0,0,0,0,0,515,0,0,0,0,0.0000000,0.0000000,0.0000000,0.0000000,8.00,38.4063187,-110.7921143,1364.5999756,0.0,359.4,0.9,0.0,0.0,919,169,0,0,858.28,53.41,40.52,0
13:18:14,0,0,0,0,0,0,0,0,0,0,0,515,0,0,0,0,0.0000000,0.0000000,0.0000000,0.0000000,8.00,38.4063187,-110.7921143,1364.5999756,0.0,359.7,0.9,0.0,0.0,919,171,0,0,858.41,53.38,40.47,0
13:18:15,0,0,0,0,0,0,0,0,0,0,0,515,0,0,0,0,0.0000000,0.0000000,0.0000000,0.0000000,8.00,38.4063187,-110.7921143,1364.5999756,0.0,324.5,0.9,0.0,0.0,919,170,0,0,858.30,53.22,40.35,0
13:18:16,0,0,0,0,0,0,0,0,0,0,0,515,0,0,0,0,0.0000000,0.0000000,0.0000000,0.0000000,8.00,38.4063187,-110.7921143,1364.5999756,0.0,226.9,0.9,0.0,0.0,919,181,0,0,858.36,53.54,40.32,0
13:18:17,0,0,0,0,0,0,0,0,0,0,0,515,0,0,0,0,0.0000000,0.0000000,0.0000000,0.0000000,8.00,38.4063187,-110.7921143,1364.5999756,0.0,221.0,0.9,0.0,0.0,918,171,0,0,858.34,53.38,40.52,0
13:18:18,0,0,0,0,0,0,0,0,0,0,0,515,0,0,0,0,0.0000000,0.0000000,0.0000000,0.0000000,8.00,38.4063187,-110.7921143,1364.5999756,0.0,194.4,0.9,0.0,0.0,919,169,0,0,858.48,53.47,40.63,0
13:18:19,0,0,0,0,0,0,0,0,0,0,0,515,0,0,0,0,0.0000000,0.0000000,0.0000000,0.0000000,8.00,38.4063187,-110.7921143,1364.5999756,0.0,187.3,0.9,0.0,0.0,918,167,0,0,858.43,53.47,40.48,0
13:18:20,0,0,0,0,0,0,0,0,0,0,0,516,0,0,0,0,0.0000000,0.0000000,0.0000000,0.0000000,8.00,38.4063187,-110.7921143,1364.5999756,0.0,227.9,0.9,0.0,0.0,919,184,0,0,858.23,53.24,40.48,0
13:18:21,0,0,0,0,0,0,0,0,0,0,0,515,0,0,0,0,0.0000000,0.0000000,0.0000000,0.0000000,8.00,38.4063187,-110.7921143,1364.5999756,0.0,110.9,0.9,0.0,0.0,918,199,0,0,858.26,53.33,40.52,0
13:18:22,0,0,0,0,0,0,0,0,0,0,0,516,0,0,0,0,0.0000000,0.0000000,0.0000000,0.0000000,8.00,38.4063187,-110.7921143,1364.5999756,0.0,46.7,0.9,0.0,0.0,918,185,0,0,858.28,53.28,40.57,0
13:18:24,0,0,0,0,0,0,0,0,0,0,0,515,0,0,0,0,0.0000000,0.0000000,0.0000000,0.0000000,8.00,38.4063187,-110.7921143,1364.5999756,0.0,67.2,0.9,0.0,0.0,919,170,0,0,858.23,53.30,40.72,0
13:18:25,0,0,0,0,0,0,0,0,0,0,0,515,0,0,0,0,0.0000000,0.0000000,0.0000000,0.0000000,8.00,38.4063187,-110.7921143,1364.5999756,0.0,45.1,0.9,0.0,0.0,919,162,0,0,858.24,53.28,40.80,0
13:18:26,0,0,0,0,0,0,0,0,0,0,0,515,0,0,0,0,0.0000000,0.0000000,0.0000000,0.0000000,8.00,38.4063187,-110.7921143,1364.5999756,0.0,48.7,0.9,0.0,0.0,918,160,0,0,858.26,53.39,40.94,0
13:18:27,0,0,0,0,0,0,0,0,0,0,0,516,0,0,0,0,0.0000000,0.0000000,0.0000000,0.0000000,8.00,38.4063187,-110.7921143,1364.5999756,0.0,25.9,0.9,0.0,0.0,919,161,0,0,858.37,53.13,40.95,0
13:18:28,0,0,0,0,0,0,0,0,0,0,0,515,0,0,0,0,0.0000000,0.0000000,0.0000000,0.0000000,8.00,38.4063187,-110.7921143,1364.5999756,0.0,289.4,0.9,0.0,0.0,919,159,0,0,858.33,53.39,40.97,0
13:18:29,0,0,0,0,0,0,0,0,0,0,0,514,0,0,0,0,0.0000000,0.0000000,0.0000000,0.0000000,8.00,38.4063187,-110.7921143,1364.5999756,0.0,242.4,0.9,0.0,0.0,918,176,0,0,858.34,53.16,41.06,0
13:18:30,0,0,0,0,0,0,0,0,0,0,0,515,0,0,0,0,0.0000000,0.0000000,0.0000000,0.0000000,8.00,38.4063187,-110.7921143,1364.5999756,0.0,226.3,0.9,0.0,0.0,918,175,0,0,858.29,53.06,41.15,0
13:18:31,0,0,0,0,0,0,0,0,0,0,0,515,0,0,0,0,0.0000000,0.0000000,0.0000000,0.0000000,8.00,38.4063187,-110.7921143,1364.5999756,0.0,232.2,0.9,0.0,0.0,919,168,0,0,858.27,53.16,41.27,0
13:18:32,0,0,0,0,0,0,0,0,0,0,0,515,0,0,0,0,0.0000000,0.0000000,0.0000000,0.0000000,8.00,38.4063187,-110.7921143,1364.5999756,0.0,215.8,0.9,0.0,0.0,919,160,0,0,858.33,53.10,41.41,0
13:18:33,0,0,0,0,0,0,0,0,0,0,0,516,0,0,0,0,0.0000000,0.0000000,0.0000000,0.0000000,8.00,38.4063187,-110.7921143,1364.5999756,0.0,240.6,0.9,0.0,0.0,919,159,0,0,858.37,53.21,41.43,0
13:18:34,0,0,0,0,0,0,0,0,0,0,0,515,0,0,0,0,0.0000000,0.0000000,0.0000000,0.0000000,8.00,38.4063187,-110.7921143,1364.5999756,0.0,119.1,0.9,0.0,0.0,918,153,0,0,858.34,52.93,41.41,0
13:18:35,0,0,0,0,0,0,0,0,0,0,0,516,0,0,0,0,0.0000000,0.0000000,0.0000000,0.0000000,8.00,38.4063187,-110.7921143,1364.5999756,0.0,117.1,0.9,0.0,0.0,919,153,0,0,858.30,53.02,41.40,0
13:18:36,0,0,0,0,0,0,0,0,0,0,0,515,0,0,0,0,0.0000000,0.0000000,0.0000000,0.0000000,8.00,38.4063187,-110.7921143,1364.5999756,0.0,81.4,0.9,0.0,0.0,918,149,0,0,858.38,52.96,41.41,0
13:18:37,0,0,0,0,0,0,0,0,0,0,0,515,0,0,0,0,0.0000000,0.0000000,0.0000000,0.0000000,8.00,38.4063187,-110.7921143,1364.5999756,0.0,147.0,0.9,0.0,0.0,918,142,0,0,858.38,52.92,41.55,0
13:18:38,0,0,0,0,0,0,0,0,0,0,0,515,0,0,0,0,0.0000000,0.0000000,0.0000000,0.0000000,8.00,38.4063187,-110.7921143,1364.5999756,0.0,82.7,0.9,0.0,0.0,919,145,0,0,858.34,53.02,41.56,0
13:18:39,0,0,0,0,0,0,0,0,0,0,0,514,0,0,0,0,0.0000000,0.0000000,0.0000000,0.0000000,8.00,38.4063187,-110.7921143,1364.5999756,0.0,107.0,0.9,0.0,0.0,918,153,0,0,858.33,53.10,41.44,0
13:18:40,0,0,0,0,0,0,0,0,0,0,0,516,0,0,0,0,0.0000000,0.0000000,0.0000000,0.0000000,8.00,38.4063187,-110.7921143,1364.5999756,0.0,49.7,0.9,0.0,0.0,919,153,0,0,858.35,53.12,41.07,0
13:18:41,0,0,0,0,0,0,0,0,0,0,0,515,0,0,0,0,0.0000000,0.0000000,0.0000000,0.0000000,8.00,38.4063187,-110.7921143,1364.5999756,0.0,284.1,0.9,0.0,0.0,918,153,0,0,858.36,53.07,41.28,0
13:18:42,0,0,0,0,0,0,0,0,0,0,0,515,0,0,0,0,0.0000000,0.0000000,0.0000000,0.0000000,8.00,38.4063187,-110.7921143,1364.5999756,0.0,6.0,0.9,0.0,0.0,918,150,0,0,858.34,53.09,41.45,0
13:18:43,0,0,0,0,0,0,0,0,0,0,0,515,0,0,0,0,0.0000000,0.0000000,0.0000000,0.0000000,8.00,38.4063187,-110.7921143,1364.5999756,0.0,327.4,0.9,0.0,0.0,919,145,0,0,858.33,53.13,41.62,0
13:18:44,0,0,0,0,0,0,0,0,0,0,0,515,0,0,0,0,0.0000000,0.0000000,0.0000000,0.0000000,8.00,38.4063187,-110.7921143,1364.5999756,0.0,323.1,0.9,0.0,0.0,919,143,0,0,858.32,52.95,41.83,0
13:18:45,0,0,0,0,0,0,0,0,0,0,0,515,0,0,0,0,0.0000000,0.0000000,0.0000000,0.0000000,8.00,38.4063187,-110.7921143,1364.5999756,0.0,354.7,0.9,0.0,0.0,918,144,0,0,858.33,52.75,41.68,0
13:18:46,0,0,0,0,0,0,0,0,0,0,0,515,0,0,0,0,0.0000000,0.0000000,0.0000000,0.0000000,8.00,38.4063187,-110.7921143,1364.5999756,0.0,50.9,0.9,0.0,0.0,918,143,0,0,858.36,52.87,41.64,0
13:18:47,0,0,0,0,0,0,0,0,0,0,0,515,0,0,0,0,0.0000000,0.0000000,0.0000000,0.0000000,8.00,38.4063187,-110.7920990,1364.5999756,0.0,176.8,0.9,0.0,0.0,919,144,0,0,858.39,52.73,41.60,0
13:18:48,0,0,0,0,0,0,0,0,0,0,0,515,0,0,0,0,0.0000000,0.0000000,0.0000000,0.0000000,8.00,38.4063187,-110.7920990,1364.5999756,0.0,160.1,0.9,0.0,0.0,918,149,0,0,858.36,52.78,41.71,0
13:18:49,0,0,0,0,0,0,0,0,0,0,0,515,0,0,0,0,0.0000000,0.0000000,0.0000000,0.0000000,8.00,38.4063187,-110.7920990,1364.5999756,0.0,126.2,0.9,0.0,0.0,919,148,0,0,858.29,52.78,41.81,0
13:18:50,0,0,0,0,0,0,0,0,0,0,0,514,0,0,0,0,0.0000000,0.0000000,0.0000000,0.0000000,8.00,38.4063187,-110.7920990,1364.5999756,0.0,149.5,0.9,0.0,0.0,918,149,0,0,858.30,52.83,42.02,0
13:18:51,0,0,0,0,0,0,0,0,0,0,0,515,0,0,0,0,0.0000000,0.0000000,0.0000000,0.0000000,8.00,38.4063187,-110.7920990,1364.5999756,0.0,157.7,0.9,0.0,0.0,919,145,0,0,858.41,52.67,42.17,0
13:18:52,0,0,0,0,0,0,0,0,0,0,0,516,0,0,0,0,0.0000000,0.0000000,0.0000000,0.0000000,8.00,38.4063187,-110.7920990,1364.5999756,0.0,228.5,0.9,0.0,0.0,918,175,0,0,858.37,52.63,42.10,0
13:18:53,0,0,0,0,0,0,0,0,0,0,0,515,0,0,0,0,0.0000000,0.0000000,0.0000000,0.0000000,8.00,38.4063187,-110.7920990,1364.5999756,0.0,317.6,0.9,0.0,0.0,918,168,0,0,858.23,52.83,41.99,0
13:18:54,0,0,0,0,0,0,0,0,0,0,0,515,0,0,0,0,0.0000000,0.0000000,0.0000000,0.0000000,8.00,38.4063187,-110.7920990,1364.5999756,0.0,309.4,0.9,0.0,0.0,918,177,0,0,858.13,52.81,42.05,0
13:18:55,0,0,0,0,0,0,0,0,0,0,0,515,0,0,0,0,0.0000000,0.0000000,0.0000000,0.0000000,8.00,38.4063187,-110.7920990,1364.5999756,0.0,304.6,0.9,0.0,0.0,918,178,0,0,858.22,52.90,41.95,0
13:18:56,0,0,0,0,0,0,0,0,0,0,0,515,0,0,0,0,0.0000000,0.0000000,0.0000000,0.0000000,8.00,38.4063187,-110.7921143,1364.5999756,0.0,352.0,0.9,0.0,0.0,920,175,0,0,858.26,52.84,41.83,0
13:18:57,0,0,0,0,0,0,0,0,0,0,0,515,0,0,0,0,0.0000000,0.0000000,0.0000000,0.0000000,8.00,38.4063187,-110.7921143,1364.5999756,0.0,3.1,0.9,0.0,0.0,919,178,0,0,858.20,52.95,41.82,0
13:18:58,0,0,0,0,0,0,0,0,0,0,0,515,0,0,0,0,0.0000000,0.0000000,0.0000000,0.0000000,8.00,38.4063187,-110.7921143,1364.5999756,0.0,59.9,0.9,0.0,0.0,918,174,0,0,858.27,52.77,41.93,0
13:18:59,0,0,0,0,0,0,0,0,0,0,0,514,0,0,0,0,0.0000000,0.0000000,0.0000000,0.0000000,8.00,38.4063187,-110.7920990,1364.5999756,0.0,132.5,0.9,0.0,0.0,918,168,0,0,858.27,52.80,41.84,0
13:19:00,0,0,0,0,0,0,0,0,0,0,0,515,0,0,0,0,0.0000000,0.0000000,0.0000000,0.0000000,8.00,38.4063187,-110.7920990,1364.5999756,0.0,156.3,0.9,0.0,0.0,919,157,0,0,858.39,52.96,41.99,0
13:19:01,0,0,0,0,0,0,0,0,0,0,0,514,0,0,0,0,0.0000000,0.0000000,0.0000000,0.0000000,8.00,38.4063187,-110.7920990,1364.5999756,0.0,120.3,0.9,0.0,0.0,919,159,0,0,858.33,52.92,42.12,0
13:19:02,0,0,0,0,0,0,0,0,0,0,0,514,0,0,0,0,0.0000000,0.0000000,0.0000000,0.0000000,8.00,38.4063187,-110.7920990,1364.5999756,0.0,124.6,0.9,0.0,0.0,918,151,0,0,858.30,52.84,42.33,0
13:19:03,0,0,0,0,0,0,0,0,0,0,0,516,0,0,0,0,0.0000000,0.0000000,0.0000000,0.0000000,8.00,38.4063187,-110.7920990,1364.5999756,0.0,124.6,0.9,0.0,0.0,919,150,0,0,858.42,52.67,42.47,0
13:19:04,0,0,0,0,0,0,0,0,0,0,0,515,0,0,0,0,0.0000000,0.0000000,0.0000000,0.0000000,8.00,38.4063187,-110.7920990,1364.5999756,0.0,232.7,0.9,0.0,0.0,918,149,0,0,858.36,52.51,42.51,0
13:19:05,0,0,0,0,0,0,0,0,0,0,0,515,0,0,0,0,0.0000000,0.0000000,0.0000000,0.0000000,8.00,38.4063187,-110.7920990,1364.5999756,0.0,311.0,0.9,0.0,0.0,918,147,0,0,858.31,52.72,42.54,0
13:19:06,0,0,0,0,0,0,0,0,0,0,0,515,0,0,0,0,0.0000000,0.0000000,0.0000000,0.0000000,8.00,38.4063187,-110.7920990,1364.5999756,0.0,302.7,0.9,0.0,0.0,918,159,0,0,858.42,52.81,42.58,0
13:19:07,0,0,0,0,0,0,0,0,0,0,0,515,0,0,0,0,0.0000000,0.0000000,0.0000000,0.0000000,8.00,38.4063187,-110.7920990,1364.5999756,0.0,331.0,0.9,0.0,0.0,918,163,0,0,858.39,52.70,42.70,0
13:19:08,0,0,0,0,0,0,0,0,0,0,0,515,0,0,0,0,0.0000000,0.0000000,0.0000000,0.0000000,8.00,38.4063187,-110.7920990,1364.5999756,0.0,298.7,0.9,0.0,0.0,918,157,0,0,858.48,52.69,42.41,0
13:19:09,0,0,0,0,0,0,0,0,0,0,0,515,0,0,0,0,0.0000000,0.0000000,0.0000000,0.0000000,8.00,38.4063187,-110.7920990,1364.5999756,0.0,52.8,0.9,0.0,0.0,918,154,0,0,858.41,52.77,42.36,0
13:19:10,0,0,0,0,0,0,0,0,0,0,0,515,0,0,0,0,0.0000000,0.0000000,0.0000000,0.0000000,8.00,38.4063187,-110.7920990,1364.5999756,0.0,115.3,0.9,0.0,0.0,918,152,0,0,858.37,52.86,42.54,0
13:19:11,0,0,0,0,0,0,0,0,0,0,0,515,0,0,0,0,0.0000000,0.0000000,0.0000000,0.0000000,8.00,38.4063187,-110.7920990,1364.5999756,0.0,116.9,0.9,0.0,0.0,919,156,0,0,858.32,52.48,42.67,0
13:19:12,0,0,0,0,0,0,0,0,0,0,0,515,0,0,0,0,0.0000000,0.0000000,0.0000000,0.0000000,8.00,38.4063187,-110.7920990,1364.5999756,0.0,100.5,0.9,0.0,0.0,919,159,0,0,858.38,52.77,42.39,0
13:19:13,0,0,0,0,0,0,0,0,0,0,0,515,0,0,0,0,0.0000000,0.0000000,0.0000000,0.0000000,8.00,38.4063187,-110.7920990,1364.5999756,0.0,146.9,0.9,0.0,0.0,918,162,0,0,858.36,52.72,42.43,0
13:19:14,0,0,0,0,0,0,0,0,0,0,0,514,0,0,0,0,0.0000000,0.0000000,0.0000000,0.0000000,8.00,38.4063187,-110.7920990,1364.5999756,0.0,131.5,0.9,0.0,0.0,918,172,0,0,858.36,52.67,42.58,0
13:19:15,0,0,0,0,0,0,0,0,0,0,0,515,0,0,0,0,0.0000000,0.0000000,0.0000000,0.0000000,8.00,38.4063187,-110.7920990,1364.5999756,0.0,232.2,0.9,0.0,0.0,919,162,0,0,858.37,52.77,42.66,0
13:19:16,0,0,0,0,0,0,0,0,0,0,0,515,0,0,0,0,0.0000000,0.0000000,0.0000000,0.0000000,8.00,38.4063187,-110.7920990,1364.5999756,0.0,315.2,0.9,0.0,0.0,918,162,0,0,858.25,52.52,42.62,0
13:19:17,0,0,0,0,0,0,0,0,0,0,0,515,0,0,0,0,0.0000000,0.0000000,0.0000000,0.0000000,8.00,38.4063187,-110.7920990,1364.5999756,0.0,308.1,0.9,0.0,0.0,918,163,0,0,858.35,52.63,42.44,0
13:19:18,0,0,0,0,0,0,0,0,0,0,0,514,0,0,0,0,0.0000000,0.0000000,0.0000000,0.0000000,8.00,38.4063187,-110.7920990,1364.5999756,0.0,337.2,0.9,0.0,0.0,918,176,0,0,858.31,52.80,42.50,0
13:19:19,0,0,0,0,0,0,0,0,0,0,0,515,0,0,0,0,0.0000000,0.0000000,0.0000000,0.0000000,8.00,38.4063187,-110.7920990,1364.5999756,0.0,296.9,0.9,0.0,0.0,918,167,0,0,858.33,52.81,42.65,0
13:19:20,0,0,0,0,0,0,0,0,0,0,0,515,0,0,0,0,0.0000000,0.0000000,0.0000000,0.0000000,8.00,38.4063187,-110.7920990,1364.5999756,0.0,312.7,0.9,0.0,0.0,918,161,0,0,858.36,52.69,42.67,0
13:19:21,0,0,0,0,0,0,0,0,0,0,0,515,0,0,0,0,0.0000000,0.0000000,0.0000000,0.0000000,8.00,38.4063187,-110.7920990,1364.5999756,0.0,60.1,0.9,0.0,0.0,918,156,0,0,858.39,52.93,42.60,0
13:19:22,0,0,0,0,0,0,0,0,0,0,0,514,0,0,0,0,0.0000000,0.0000000,0.0000000,0.0000000,8.00,38.4063187,-110.7920990,1364.5999756,0.0,79.7,0.9,0.0,0.0,918,159,0,0,858.41,52.95,42.75,0
13:19:23,0,0,0,0,0,0,0,0,0,0,0,515,0,0,0,0,0.0000000,0.0000000,0.0000000,0.0000000,8.00,38.4063187,-110.7920990,1364.5999756,0.0,97.8,0.9,0.0,0.0,918,154,0,0,858.40,52.87,42.94,0
13:19:24,0,0,0,0,0,0,0,0,0,0,0,514,0,0,0,0,0.0000000,0.0000000,0.0000000,0.0000000,8.00,38.4063187,-110.7920990,1364.5999756,0.0,166.2,0.9,0.0,0.0,918,150,0,0,858.48,52.93,43.04,0
13:19:25,0,0,0,0,0,0,0,0,0,0,0,515,0,0,0,0,0.0000000,0.0000000,0.0000000,0.0000000,8.00,38.4063187,-110.7920990,1364.5999756,0.0,59.0,0.9,0.0,0.0,918,151,0,0,858.34,53.01,43.02,0
13:19:26,0,0,0,0,0,0,0,0,0,0,0,515,0,0,0,0,0.0000000,0.0000000,0.0000000,0.0000000,8.00,38.4063187,-110.7920990,1364.5999756,0.0,113.1,0.9,0.0,0.0,918,169,0,0,858.37,52.86,43.10,0
13:19:27,0,0,0,0,0,0,0,0,0,0,0,514,0,0,0,0,0.0000000,0.0000000,0.0000000,0.0000000,8.00,38.4063187,-110.7920990,1364.5999756,0.0,261.6,0.9,0.0,0.0,918,181,0,0,858.46,52.83,43.04,0
13:19:28,0,0,0,0,0,0,0,0,0,0,0,516,0,0,0,0,0.0000000,0.0000000,0.0000000,0.0000000,8.00,38.4063187,-110.7920990,1364.5999756,0.0,317.6,0.9,0.0,0.0,918,181,0,0,858.45,52.84,42.48,0
13:19:29,0,0,0,0,0,0,0,0,0,0,0,516,0,0,0,0,0.0000000,0.0000000,0.0000000,0.0000000,8.00,38.4063187,-110.7920990,1364.5999756,0.0,326.7,0.9,0.0,0.0,918,173,0,0,858.38,53.01,42.25,0
13:19:30,0,0,0,0,0,0,0,0,0,0,0,516,0,0,0,0,0.0000000,0.0000000,0.0000000,0.0000000,8.00,38.4063187,-110.7920990,1364.5999756,0.0,327.8,0.9,0.0,0.0,918,165,0,0,858.37,53.10,42.41,0
13:19:31,0,0,0,0,0,0,0,0,0,0,0,515,0,0,0,0,0.0000000,0.0000000,0.0000000,0.0000000,8.00,38.4063187,-110.7920990,1364.5999756,0.0,317.5,0.9,0.0,0.0,918,178,0,0,858.38,53.10,42.53,0
13:19:32,0,0,0,0,0,0,0,0,0,0,0,515,0,0,0,0,0.0000000,0.0000000,0.0000000,0.0000000,8.00,38.4063187,-110.7921143,1364.5999756,0.0,318.5,0.9,0.0,0.0,918,186,0,0,858.32,52.93,42.52,0
13:19:33,0,0,0,0,0,0,0,0,0,0,0,515,0,0,0,0,0.0000000,0.0000000,0.0000000,0.0000000,8.00,38.4063187,-110.7921143,1364.5999756,0.0,29.3,0.9,0.0,0.0,918,180,0,0,858.30,52.96,42.56,0
13:19:34,0,0,0,0,0,0,0,0,0,0,0,515,0,0,0,0,0.0000000,0.0000000,0.0000000,0.0000000,8.00,38.4063187,-110.7921143,1364.5999756,0.0,68.7,0.9,0.0,0.0,918,182,0,0,858.39,52.84,42.58,0
13:19:35,0,0,0,0,0,0,0,0,0,0,0,515,0,0,0,0,0.0000000,0.0000000,0.0000000,0.0000000,8.00,38.4063187,-110.7920990,1364.5999756,0.0,91.9,0.9,0.0,0.0,918,174,0,0,858.45,53.01,42.59,0
13:19:36,0,0,0,0,0,0,0,0,0,0,0,515,0,0,0,0,0.0000000,0.0000000,0.0000000,0.0000000,8.00,38.4063187,-110.7920990,1364.5999756,0.0,125.5,0.9,0.0,0.0,918,167,0,0,858.41,53.02,42.35,0
13:19:37,0,0,0,0,0,0,0,0,0,0,0,515,0,0,0,0,0.0000000,0.0000000,0.0000000,0.0000000,8.00,38.4063187,-110.7920990,1364.5999756,0.0,127.4,0.9,0.0,0.0,918,163,0,0,858.35,52.95,42.39,0
13:19:38,0,0,0,0,0,0,0,0,0,0,0,515,0,0,0,0,0.0000000,0.0000000,0.0000000,0.0000000,8.00,38.4063187,-110.7920990,1364.5999756,0.0,129.2,0.9,0.0,0.0,918,172,0,0,858.44,53.09,42.48,0
13:19:39,0,0,0,0,0,0,0,0,0,0,0,515,0,0,0,0,0.0000000,0.0000000,0.0000000,0.0000000,8.00,38.4063187,-110.7920990,1364.5999756,0.0,182.3,0.9,0.0,0.0,918,166,0,0,858.42,53.04,42.54,0
13:19:40,0,0,0,0,0,0,0,0,0,0,0,515,0,0,0,0,0.0000000,0.0000000,0.0000000,0.0000000,8.00,38.4063187,-110.7920990,1364.5999756,0.0,200.6,0.9,0.0,0.0,919,169,0,0,858.47,53.12,42.69,0
13:19:41,0,0,0,0,0,0,0,0,0,0,0,515,0,0,0,0,0.0000000,0.0000000,0.0000000,0.0000000,8.00,38.4063187,-110.7920990,1364.5999756,0.0,244.0,0.9,0.0,0.0,919,168,0,0,858.44,52.89,42.78,0
13:19:42,0,0,0,0,0,0,0,0,0,0,0,515,0,0,0,0,0.0000000,0.0000000,0.0000000,0.0000000,8.00,38.4063187,-110.7920990,1364.5999756,0.0,242.5,0.9,0.0,0.0,916,161,0,0,858.42,52.87,42.87,0
13:19:43,0,0,0,0,0,0,0,0,0,0,0,515,0,0,0,0,0.0000000,0.0000000,0.0000000,0.0000000,8.00,38.4063187,-110.7920990,1364.5999756,0.0,253.1,0.9,0.0,0.0,918,154,0,0,858.39,52.98,42.81,0
13:19:44,0,0,0,0,0,0,0,0,0,0,0,515,0,0,0,0,0.0000000,0.0000000,0.0000000,0.0000000,8.00,38.4063187,-110.7920990,1364.5999756,0.0,259.6,0.9,0.0,0.0,919,163,0,0,858.38,53.16,42.83,0
13:19:45,0,0,0,0,0,0,0,0,0,0,0,515,0,0,0,0,0.0000000,0.0000000,0.0000000,0.0000000,8.00,38.4063187,-110.7920990,1364.5999756,0.0,67.8,0.9,0.0,0.0,918,170,0,0,858.32,53.09,42.90,0
13:19:46,0,0,0,0,0,0,0,0,0,0,0,515,0,0,0,0,0.0000000,0.0000000,0.0000000,0.0000000,8.00,38.4063187,-110.7920990,1364.5999756,0.0,96.1,0.9,0.0,0.0,917,175,0,0,858.37,52.99,42.92,0
13:19:47,0,0,0,0,0,0,0,0,0,0,0,515,0,0,0,0,0.0000000,0.0000000,0.0000000,0.0000000,8.00,38.4063187,-110.7920990,1364.5999756,0.0,79.7,0.9,0.0,0.0,919,180,0,0,858.44,52.95,42.97,0
13:19:48,0,0,0,0,0,0,0,0,0,0,0,516,0,0,0,0,0.0000000,0.0000000,0.0000000,0.0000000,8.00,38.4063187,-110.7920990,1364.5999756,0.0,96.8,0.9,0.0,0.0,919,168,0,0,858.45,52.86,43.04,0
13:19:49,0,0,0,0,0,0,0,0,0,0,0,514,0,0,0,0,0.0000000,0.0000000,0.0000000,0.0000000,8.00,38.4063187,-110.7920990,1364.5999756,0.0,104.2,0.9,0.0,0.0,918,162,0,0,858.49,52.87,43.17,0
13:19:50,0,0,0,0,0,0,0,0,0,0,0,515,0,0,0,0,0.0000000,0.0000000,0.0000000,0.0000000,8.00,38.4063187,-110.7920990,1364.5999756,0.0,105.3,0.9,0.0,0.0,918,162,0,0,858.44,52.98,43.30,0
13:19:51,0,0,0,0,0,0,0,0,0,0,0,515,0,0,0,0,0.0000000,0.0000000,0.0000000,0.0000000,8.00,38.4063187,-110.7920990,1364.5999756,0.0,183.0,0.9,0.0,0.0,917,162,0,0,858.54,52.81,43.39,0
13:19:52,0,0,0,0,0,0,0,0,0,0,0,515,0,0,0,0,0.0000000,0.0000000,0.0000000,0.0000000,8.00,38.4063187,-110.7920990,1364.5999756,0.0,216.4,0.9,0.0,0.0,918,167,0,0,858.48,52.80,43.44,0
13:19:53,0,0,0,0,0,0,0,0,0,0,0,515,0,0,0,0,0.0000000,0.0000000,0.0000000,0.0000000,8.00,38.4063187,-110.7920990,1364.5999756,0.0,250.5,0.9,0.0,0.0,918,173,0,0,858.40,52.83,43.43,0
13:19:54,0,0,0,0,0,0,0,0,0,0,0,515,0,0,0,0,0.0000000,0.0000000,0.0000000,0.0000000,8.00,38.4063187,-110.7920990,1364.5999756,0.0,260.9,0.9,0.0,0.0,918,164,0,0,858.44,52.90,43.41,0
13:19:55,0,0,0,0,0,0,0,0,0,0,0,515,0,0,0,0,0.0000000,0.0000000,0.0000000,0.0000000,8.00,38.4063187,-110.7920990,1364.6999512,0.0,267.3,0.9,0.0,0.0,919,178,0,0,858.47,52.87,43.37,0
13:19:56,0,0,0,0,0,0,0,0,0,0,0,515,0,0,0,0,0.0000000,0.0000000,0.0000000,0.0000000,8.00,38.4063187,-110.7920990,1364.6999512,0.0,277.0,0.9,0.0,0.0,918,168,0,0,858.42,52.72,43.41,0
13:19:57,0,0,0,0,0,0,0,0,0,0,0,515,0,0,0,0,0.0000000,0.0000000,0.0000000,0.0000000,8.00,38.4063187,-110.7920990,1364.6999512,0.0,29.1,0.9,0.0,0.0,918,163,0,0,858.42,52.77,43.39,0
13:19:59,0,0,0,0,0,0,0,0,0,0,0,516,0,0,0,0,0.0000000,0.0000000,0.0000000,0.0000000,8.00,38.4063187,-110.7920990,1364.6999512,0.0,88.5,0.9,0.0,0.0,919,160,0,0,858.49,52.75,43.34,0
13:20:00,0,0,0,0,0,0,0,0,0,0,0,516,0,0,0,0,0.0000000,0.0000000,0.0000000,0.0000000,8.00,38.4063187,-110.7920990,1364.6999512,0.0,94.3,0.9,0.0,0.0,918,161,0,0,858.47,52.93,43.40,0
13:20:01,0,0,0,0,0,0,0,0,0,0,0,515,0,0,0,0,0.0000000,0.0000000,0.0000000,0.0000000,8.00,38.4063187,-110.7920990,1364.6999512,0.0,98.0,0.9,0.0,0.0,918,169,0,0,858.42,52.95,43.35,0
13:20:02,0,0,0,0,0,0,0,0,0,0,0,515,0,0,0,0,0.0000000,0.0000000,0.0000000,0.0000000,8.00,38.4063187,-110.7920990,1364.6999512,0.0,105.1,0.9,0.0,0.0,917,162,0,0,858.24,52.77,43.30,0
13:20:03,0,0,0,0,0,0,0,0,0,0,0,515,0,0,0,0,0.0000000,0.0000000,0.0000000,0.0000000,8.00,38.4063187,-110.7920990,1364.6999512,0.0,114.1,0.9,0.0,0.0,918,156,0,0,858.32,52.83,43.04,0
13:20:04,0,0,0,0,0,0,0,0,0,0,0,515,0,0,0,0,0.0000000,0.0000000,0.0000000,0.0000000,8.00,38.4063187,-110.7920990,1364.6999512,0.0,252.4,0.9,0.0,0.0,918,161,0,0,858.39,52.90,43.18,0
13:20:05,0,0,0,0,0,0,0,0,0,0,0,515,0,0,0,0,0.0000000,0.0000000,0.0000000,0.0000000,8.00,38.4063187,-110.7920990,1364.6999512,0.0,309.5,0.9,0.0,0.0,918,163,0,0,858.40,52.77,43.35,0
13:20:06,0,0,0,0,0,0,0,0,0,0,0,516,0,0,0,0,0.0000000,0.0000000,0.0000000,0.0000000,8.00,38.4063187,-110.7920990,1364.6999512,0.0,251.1,0.9,0.0,0.0,918,163,0,0,858.49,52.89,43.41,0
13:20:07,0,0,0,0,0,0,0,0,0,0,0,515,0,0,0,0,0.0000000,0.0000000,0.0000000,0.0000000,8.00,38.4063187,-110.7920990,1364.6999512,0.0,257.0,0.9,0.0,0.0,918,165,0,0,858.48,52.83,43.49,0
13:20:08,0,0,0,0,0,0,0,0,0,0,0,515,0,0,0,0,0.0000000,0.0000000,0.0000000,0.0000000,8.00,38.4063187,-110.7920990,1364.6999512,0.0,256.0,0.9,0.0,0.0,917,166,0,0,858.45,52.77,43.53,0
13:20:09,0,0,0,0,0,0,0,0,0,0,0,515,0,0,0,0,0.0000000,0.0000000,0.0000000,0.0000000,8.00,38.4063187,-110.7920990,1364.6999512,0.0,278.4,0.9,0.0,0.0,918,172,0,0,858.45,52.57,43.55,0
13:20:10,0,0,0,0,0,0,0,0,0,0,0,516,0,0,0,0,0.0000000,0.0000000,0.0000000,0.0000000,8.00,38.4063187,-110.7920990,1364.6999512,0.0,75.0,0.9,0.0,0.0,918,175,0,0,858.44,52.80,43.50,0
13:20:11,0,0,0,0,0,0,0,0,0,0,0,514,0,0,0,0,0.0000000,0.0000000,0.0000000,0.0000000,8.00,38.4063187,-110.7920990,1364.6999512,0.0,44.3,0.9,0.0,0.0,917,172,0,0,858.34,52.78,43.54,0
13:20:12,0,0,0,0,0,0,0,0,0,0,0,515,0,0,0,0,0.0000000,0.0000000,0.0000000,0.0000000,8.00,38.4063187,-110.7920990,1364.6999512,0.0,51.5,0.9,0.0,0.0,918,170,0,0,858.44,52.78,43.60,0
13:20:13,0,0,0,0,0,0,0,0,0,0,0,515,0,0,0,0,0.0000000,0.0000000,0.0000000,0.0000000,8.00,38.4063187,-110.7920990,1364.6999512,0.0,64.2,0.9,0.0,0.0,918,165,0,0,858.40,52.73,43.51,0
13:20:14,0,0,0,0,0,0,0,0,0,0,0,516,0,0,0,0,0.0000000,0.0000000,0.0000000,0.0000000,8.00,38.4063187,-110.7920990,1364.6999512,0.0,49.5,0.9,0.0,0.0,918,161,0,0,858.42,52.67,43.32,0
13:20:15,0,0,0,0,0,0,0,0,0,0,0,515,0,0,0,0,0.0000000,0.0000000,0.0000000,0.0000000,8.00,38.4063187,-110.7920990,1364.6999512,0.0,47.2,0.9,0.0,0.0,918,154,0,0,858.39,52.93,43.31,0
13:20:16,0,0,0,0,0,0,0,0,0,0,0,515,0,0,0,0,0.0000000,0.0000000,0.0000000,0.0000000,8.00,38.4063187,-110.7920990,1364.6999512,0.0,334.9,0.9,0.0,0.0,918,157,0,0,858.42,52.70,43.47,0
13:20:17,0,0,0,0,0,0,0,0,0,0,0,515,0,0,0,0,0.0000000,0.0000000,0.0000000,0.0000000,8.00,38.4063187,-110.7920990,1364.6999512,0.0,241.8,0.9,0.0,0.0,918,168,0,0,858.40,52.90,43.64,0
13:20:18,0,0,0,0,0,0,0,0,0,0,0,515,0,0,0,0,0.0000000,0.0000000,0.0000000,0.0000000,8.00,38.4063187,-110.7920990,1364.6999512,0.0,235.6,0.9,0.0,0.0,918,161,0,0,858.42,52.84,43.67,0
13:20:19,0,0,0,0,0,0,0,0,0,0,0,515,0,0,0,0,0.0000000,0.0000000,0.0000000,0.0000000,8.00,38.4063187,-110.7920990,1364.6999512,0.0,223.3,0.9,0.0,0.0,918,163,0,0,858.44,52.78,43.72,0
13:20:20,0,0,0,0,0,0,0,0,0,0,0,514,0,0,0,0,0.0000000,0.0000000,0.0000000,0.0000000,8.00,38.4063187,-110.7920990,1364.6999512,0.0,245.1,0.9,0.0,0.0,918,164,0,0,858.34,52.80,43.84,0
13:20:21,0,0,0,0,0,0,0,0,0,0,0,515,0,0,0,0,0.0000000,0.0000000,0.0000000,0.0000000,8.00,38.4063187,-110.7920990,1364.6999512,0.0,223.8,0.9,0.0,0.0,918,166,0,0,858.39,52.64,43.88,0
13:20:22,0,0,0,0,0,0,0,0,0,0,0,515,0,0,0,0,0.0000000,0.0000000,0.0000000,0.0000000,8.00,38.4063187,-110.7920990,1364.6999512,0.0,175.8,0.9,0.0,0.0,918,162,0,0,858.43,52.70,43.82,0
13:20:23,0,0,0,0,0,0,0,0,0,0,0,516,0,0,0,0,0.0000000,0.0000000,0.0000000,0.0000000,8.00,38.4063187,-110.7920990,1364.6999512,0.0,51.2,0.9,0.0,0.0,917,158,0,0,858.49,52.55,43.77,0
13:20:24,0,0,0,0,0,0,0,0,0,0,0,515,0,0,0,0,0.0000000,0.0000000,0.0000000,0.0000000,8.00,38.4063187,-110.7920990,1364.6999512,0.0,64.5,0.9,0.0,0.0,918,153,0,0,858.45,52.70,43.74,0
13:20:25,0,0,0,0,0,0,0,0,0,0,0,515,0,0,0,0,0.0000000,0.0000000,0.0000000,0.0000000,8.00,38.4063187,-110.7920990,1364.6999512,0.0,62.3,0.9,0.0,0.0,917,149,0,0,858.50,52.83,43.96,0
13:20:26,0,0,0,0,0,0,0,0,0,0,0,515,0,0,0,0,0.0000000,0.0000000,0.0000000,0.0000000,8.00,38.4063187,-110.7920990,1364.6999512,0.0,35.2,0.9,0.0,0.0,918,145,0,0,858.51,52.77,44.09,0
13:20:27,0,0,0,0,0,0,0,0,0,0,0,516,0,0,0,0,0.0000000,0.0000000,0.0000000,0.0000000,8.00,38.4063187,-110.7920990,1364.6999512,0.0,58.4,0.9,0.0,0.0,918,147,0,0,858.44,52.80,44.21,0
13:20:28,0,0,0,0,0,0,0,0,0,0,0,517,0,0,0,0,0.0000000,0.0000000,0.0000000,0.0000000,8.00,38.4063187,-110.7920990,1364.6999512,0.0,348.7,0.9,0.0,0.0,917,148,0,0,858.46,52.67,44.33,0
13:20:29,0,0,0,0,0,0,0,0,0,0,0,514,0,0,0,0,0.0000000,0.0000000,0.0000000,0.0000000,8.00,38.4063187,-110.7920990,1364.6999512,0.0,236.2,0.9,0.0,0.0,919,145,0,0,858.44,52.66,44.37,0
13:20:30,0,0,0,0,0,0,0,0,0,0,0,515,0,0,0,0,0.0000000,0.0000000,0.0000000,0.0000000,8.00,38.4063187,-110.7920990,1364.6999512,0.0,231.3,0.9,0.0,0.0,919,150,0,0,858.48,52.83,44.26,0
13:20:31,0,0,0,0,0,0,0,0,0,0,0,515,0,0,0,0,0.0000000,0.0000000,0.0000000,0.0000000,8.00,38.4063187,-110.7920990,1364.6999512,0.0,242.0,0.9,0.0,0.0,918,159,0,0,858.45,52.80,44.24,0
13:20:32,0,0,0,0,0,0,0,0,0,0,0,514,0,0,0,0,0.0000000,0.0000000,0.0000000,0.0000000,8.00,38.4063187,-110.7920990,1364.6999512,0.0,227.2,0.9,0.0,0.0,918,160,0,0,858.50,52.66,44.39,0
13:20:33,0,0,0,0,0,0,0,0,0,0,0,515,0,0,0,0,0.0000000,0.0000000,0.0000000,0.0000000,8.00,38.4063187,-110.7920990,1364.6999512,0.0,238.7,0.9,0.0,0.0,918,160,0,0,858.48,52.72,44.33,0
13:20:34,0,0,0,0,0,0,0,0,0,0,0,515,0,0,0,0,0.0000000,0.0000000,0.0000000,0.0000000,8.00,38.4063187,-110.7920990,1364.6999512,0.0,237.6,0.9,0.0,0.0,917,152,0,0,858.44,52.66,44.30,0
13:20:35,0,0,0,0,0,0,0,0,0,0,0,515,0,0,0,0,0.0000000,0.0000000,0.0000000,0.0000000,8.00,38.4063187,-110.7920990,1364.6999512,0.0,12.3,0.9,0.0,0.0,918,156,0,0,858.51,52.73,44.37,0
13:20:36,0,0,0,0,0,0,0,0,0,0,0,515,0,0,0,0,0.0000000,0.0000000,0.0000000,0.0000000,8.00,38.4063187,-110.7920990,1364.6999512,0.0,11.3,0.9,0.0,0.0,918,153,0,0,858.58,52.93,44.44,0
13:20:37,0,0,0,0,0,0,0,0,0,0,0,515,0,0,0,0,0.0000000,0.0000000,0.0000000,0.0000000,8.00,38.4063187,-110.7920990,1364.6999512,0.0,4.6,0.9,0.0,0.0,917,158,0,0,858.59,52.95,44.51,0
13:20:38,0,0,0,0,0,0,0,0,0,0,0,515,0,0,0,0,0.0000000,0.0000000,0.0000000,0.0000000,8.00,38.4063187,-110.7920990,1364.6999512,0.0,20.1,0.9,0.0,0.0,918,155,0,0,858.58,52.86,44.59,0
13:20:39,0,0,0,0,0,0,0,0,0,0,0,515,0,0,0,0,0.0000000,0.0000000,0.0000000,0.0000000,8.00,38.4063187,-110.7920990,1364.6999512,0.0,86.9,0.9,0.0,0.0,918,157,0,0,858.39,52.52,44.65,0
13:20:40,0,0,0,0,0,0,0,0,0,0,0,515,0,0,0,0,0.0000000,0.0000000,0.0000000,0.0000000,8.00,38.4063187,-110.7920990,1364.6999512,0.0,183.9,0.9,0.0,0.0,918,180,0,0,858.57,52.67,44.60,0
13:20:41,0,0,0,0,0,0,0,0,0,0,0,514,0,0,0,0,0.0000000,0.0000000,0.0000000,0.0000000,8.00,38.4063187,-110.7920990,1364.6999512,0.0,194.5,0.9,0.0,0.0,918,174,0,0,858.59,52.93,44.59,0
13:20:42,0,0,0,0,0,0,0,0,0,0,0,514,0,0,0,0,0.0000000,0.0000000,0.0000000,0.0000000,8.00,38.4063187,-110.7920990,1364.6999512,0.0,185.4,0.9,0.0,0.0,918,168,0,0,858.58,52.84,44.56,0
13:20:43,0,0,0,0,0,0,0,0,0,0,0,515,0,0,0,0,0.0000000,0.0000000,0.0000000,0.0000000,8.00,38.4063187,-110.7920990,1364.6999512,0.0,191.3,0.9,0.0,0.0,918,160,0,0,858.55,52.77,44.59,0
13:20:44,0,0,0,0,0,0,0,0,0,0,0,515,0,0,0,0,0.0000000,0.0000000,0.0000000,0.0000000,8.00,38.4063187,-110.7920990,1364.6999512,0.0,197.3,0.9,0.0,0.0,918,151,0,0,858.54,52.81,44.62,0
13:20:45,0,0,0,0,0,0,0,0,0,0,0,515,0,0,0,0,0.0000000,0.0000000,0.0000000,0.0000000,8.00,38.4063187,-110.7920990,1364.6999512,0.0,239.4,0.9,0.0,0.0,917,153,0,0,858.59,52.96,44.65,0
13:20:46,0,0,0,0,0,0,0,0,0,0,0,514,0,0,0,0,0.0000000,0.0000000,0.0000000,0.0000000,8.00,38.4063187,-110.7920990,1364.6999512,0.0,15.6,0.9,0.0,0.0,918,162,0,0,858.60,53.13,44.57,0
13:20:47,0,0,0,0,0,0,0,0,0,0,0,515,0,0,0,0,0.0000000,0.0000000,0.0000000,0.0000000,8.00,38.4063187,-110.7920990,1364.6999512,0.0,22.3,0.9,0.0,0.0,917,163,0,0,858.48,53.13,44.52,0
13:20:48,0,0,0,0,0,0,0,0,0,0,0,516,0,0,0,0,0.0000000,0.0000000,0.0000000,0.0000000,8.00,38.4063187,-110.7920990,1364.6999512,0.0,19.9,0.9,0.0,0.0,918,159,0,0,858.48,52.99,44.40,0
13:20:49,0,0,0,0,0,0,0,0,0,0,0,516,0,0,0,0,0.0000000,0.0000000,0.0000000,0.0000000,8.00,38.4063187,-110.7920990,1364.6999512,0.0,22.7,0.9,0.0,0.0,918,168,0,0,858.41,53.04,44.31,0
13:20:50,0,0,0,0,0,0,0,0,0,0,0,515,0,0,0,0,0.0000000,0.0000000,0.0000000,0.0000000,8.00,38.4063187,-110.7920990,1364.6999512,0.0,24.9,0.9,0.0,0.0,918,168,0,0,858.55,53.18,44.52,0
13:20:51,0,0,0,0,0,0,0,0,0,0,0,515,0,0,0,0,0.0000000,0.0000000,0.0000000,0.0000000,8.00,38.4063187,-110.7920990,1364.6999512,0.0,72.2,0.9,0.0,0.0,917,163,0,0,858.49,53.18,44.74,0
13:20:52,0,0,0,0,0,0,0,0,0,0,0,515,0,0,0,0,0.0000000,0.0000000,0.0000000,0.0000000,8.00,38.4063187,-110.7920990,1364.6999512,0.0,192.1,0.9,0.0,0.0,918,158,0,0,858.52,53.19,44.89,0
13:20:53,0,0,0,0,0,0,0,0,0,0,0,515,0,0,0,0,0.0000000,0.0000000,0.0000000,0.0000000,8.00,38.4063187,-110.7920990,1364.6999512,0.0,188.5,0.9,0.0,0.0,918,152,0,0,858.57,52.99,44.96,0
13:20:54,0,0,0,0,0,0,0,0,0,0,0,514,0,0,0,0,0.0000000,0.0000000,0.0000000,0.0000000,8.00,38.4063187,-110.7920990,1364.6999512,0.0,193.6,0.9,0.0,0.0,917,157,0,0,858.50,53.07,45.01,0
13:20:55,0,0,0,0,0,0,0,0,0,0,0,516,0,0,0,0,0.0000000,0.0000000,0.0000000,0.0000000,8.00,38.4063187,-110.7920990,1364.6999512,0.0,198.6,0.9,0.0,0.0,918,153,0,0,858.50,53.04,44.89,0
13:20:56,0,0,0,0,0,0,0,0,0,0,0,515,0,0,0,0,0.0000000,0.0000000,0.0000000,0.0000000,8.00,38.4063187,-110.7920990,1364.6999512,0.0,189.6,0.9,0.0,0.0,917,154,0,0,858.37,53.10,44.71,0
13:20:57,0,0,0,0,0,0,0,0,0,0,0,514,0,0,0,0,0.0000000,0.0000000,0.0000000,0.0000000,8.00,38.4063187,-110.7920990,1364.6999512,0.0,257.3,0.9,0.0,0.0,918,166,0,0,858.48,52.52,44.73,0
13:20:58,0,0,0,0,0,0,0,0,0,0,0,515,0,0,0,0,0.0000000,0.0000000,0.0000000,0.0000000,8.00,38.4063187,-110.7920990,1364.6999512,0.0,0.0,0.9,0.0,0.0,918,161,0,0,858.39,51.88,44.50,0
13:20:59,0,0,0,0,0,0,0,0,0,0,0,516,0,0,0,0,0.0000000,0.0000000,0.0000000,0.0000000,8.00,38.4063187,-110.7920990,1364.6999512,0.0,15.4,0.9,0.0,0.0,918,159,0,0,858.35,51.45,44.57,0
13:21:00,0,0,0,0,0,0,0,0,0,0,0,515,0,0,0,0,0.0000000,0.0000000,0.0000000,0.0000000,8.00,38.4063187,-110.7920990,1364.6999512,0.0,3.2,0.9,0.0,0.0,918,165,0,0,858.39,52.77,44.70,0
13:21:01,0,0,0,0,0,0,0,0,0,0,0,516,0,0,0,0,0.0000000,0.0000000,0.0000000,0.0000000,8.00,38.4063187,-110.7920990,1364.6999512,0.0,14.6,0.9,0.0,0.0,917,168,0,0,858.47,53.10,44.43,0
13:21:02,0,0,0,0,0,0,0,0,0,0,0,515,0,0,0,0,0.0000000,0.0000000,0.0000000,0.0000000,8.00,38.4063187,-110.7920990,1364.6999512,0.0,2.3,0.9,0.0,0.0,918,173,0,0,858.53,53.30,44.42,0
13:21:03,0,0,0,0,0,0,0,0,0,0,0,516,0,0,0,0,0.0000000,0.0000000,0.0000000,0.0000000,8.00,38.4063187,-110.7920990,1364.6999512,0.0,69.4,0.9,0.0,0.0,917,170,0,0,858.54,52.95,44.35,0
13:21:04,0,0,0,0,0,0,0,0,0,0,0,515,0,0,0,0,0.0000000,0.0000000,0.0000000,0.0000000,8.00,38.4063187,-110.7920990,1364.6999512,0.0,141.7,0.9,0.0,0.0,918,175,0,0,858.49,52.46,44.43,0
13:21:05,0,0,0,0,0,0,0,0,0,0,0,515,0,0,0,0,0.0000000,0.0000000,0.0000000,0.0000000,8.00,38.4063187,-110.7920990,1364.6999512,0.0,167.3,0.9,0.0,0.0,917,174,0,0,858.53,50.60,44.39,0
13:21:06,0,0,0,0,0,0,0,0,0,0,0,515,0,0,0,0,0.0000000,0.0000000,0.0000000,0.0000000,8.00,38.4063187,-110.7920990,1364.6999512,0.0,154.8,0.9,0.0,0.0,918,177,0,0,858.53,51.09,44.39,0
13:21:07,0,0,0,0,0,0,0,0,0,0,0,516,0,0,0,0,0.0000000,0.0000000,0.0000000,0.0000000,8.00,38.4063187,-110.7920990,1364.6999512,0.0,154.8,0.9,0.0,0.0,917,181,0,0,858.49,52.75,44.24,0
13:21:08,0,0,0,0,0,0,0,0,0,0,0,515,0,0,0,0,0.0000000,0.0000000,0.0000000,0.0000000,8.00,38.4063187,-110.7920990,1364.6999512,0.0,149.0,0.9,0.0,0.0,918,166,0,0,858.53,53.13,44.23,0
13:21:09,0,0,0,0,0,0,0,0,0,0,0,515,0,0,0,0,0.0000000,0.0000000,0.0000000,0.0000000,8.00,38.4063187,-110.7920990,1364.6999512,0.0,174.9,0.9,0.0,0.0,918,162,0,0,858.51,53.24,44.30,0
13:21:10,0,0,0,0,0,0,0,0,0,0,0,516,0,0,0,0,0.0000000,0.0000000,0.0000000,0.0000000,8.00,38.4063187,-110.7920990,1364.6999512,0.0,21.0,0.9,0.0,0.0,917,161,0,0,858.51,53.16,44.38,0
13:21:11,0,0,0,0,0,0,0,0,0,0,0,516,0,0,0,0,0.0000000,0.0000000,0.0000000,0.0000000,8.00,38.4063187,-110.7920990,1364.6999512,0.0,334.6,0.9,0.0,0.0,918,168,0,0,858.50,53.21,44.37,0
13:21:12,0,0,0,0,0,0,0,0,0,0,0,514,0,0,0,0,0.0000000,0.0000000,0.0000000,0.0000000,8.00,38.4063187,-110.7920990,1364.6999512,0.0,1.5,0.9,0.0,0.0,917,163,0,0,858.52,53.25,44.48,0
13:21:13,0,0,0,0,0,0,0,0,0,0,0,515,0,0,0,0,0.0000000,0.0000000,0.0000000,0.0000000,8.00,38.4063187,-110.7920990,1364.6999512,0.0,331.6,0.9,0.0,0.0,918,172,0,0,858.53,53.21,44.53,0
13:21:14,0,0,0,0,0,0,0,0,0,0,0,515,0,0,0,0,0.0000000,0.0000000,0.0000000,0.0000000,8.00,38.4063187,-110.7920990,1364.6999512,0.0,339.9,0.9,0.0,0.0,917,176,0,0,858.53,53.41,44.57,0
13:21:15,0,0,0,0,0,0,0,0,0,0,0,515,0,0,0,0,0.0000000,0.0000000,0.0000000,0.0000000,8.00,38.4063187,-110.7920990,1364.6999512,0.0,313.1,0.9,0.0,0.0,917,175,0,0,858.48,53.24,44.65,0
13:21:16,0,0,0,0,0,0,0,0,0,0,0,515,0,0,0,0,0.0000000,0.0000000,0.0000000,0.0000000,8.00,38.4063187,-110.7920990,1364.6999512,0.0,230.8,0.9,0.0,0.0,918,171,0,0,858.47,53.12,44.51,0
13:21:17,0,0,0,0,0,0,0,0,0,0,0,515,0,0,0,0,0.0000000,0.0000000,0.0000000,0.0000000,8.00,38.4063187,-110.7920990,1364.6999512,0.0,217.7,0.9,0.0,0.0,917,161,0,0,858.49,53.31,44.48,0
13:21:18,0,0,0,0,0,0,0,0,0,0,0,515,0,0,0,0,0.0000000,0.0000000,0.0000000,0.0000000,8.00,38.4063187,-110.7920990,1364.6999512,0.0,240.3,0.9,0.0,0.0,917,160,0,0,858.49,53.28,44.59,0
13:21:19,0,0,0,0,0,0,0,0,0,0,0,515,0,0,0,0,0.0000000,0.0000000,0.0000000,0.0000000,8.00,38.4063187,-110.7920990,1364.6999512,0.0,240.6,0.9,0.0,0.0,918,161,0,0,858.51,53.19,44.59,0
13:21:20,0,0,0,0,0,0,0,0,0,0,0,515,0,0,0,0,0.0000000,0.0000000,0.0000000,0.0000000,8.00,38.4063187,-110.7921143,1364.6999512,0.0,226.3,0.9,0.0,0.0,918,153,0,0,858.47,53.22,44.72,0
13:21:21,0,0,0,0,0,0,0,0,0,0,0,514,0,0,0,0,0.0000000,0.0000000,0.0000000,0.0000000,8.00,38.4063187,-110.7921143,1364.6999512,0.0,170.6,0.9,0.0,0.0,917,155,0,0,858.47,53.01,44.88,0
13:21:22,0,0,0,0,0,0,0,0,0,0,0,515,0,0,0,0,0.0000000,0.0000000,0.0000000,0.0000000,8.00,38.4063187,-110.7921143,1364.6999512,0.0,81.5,0.9,0.0,0.0,917,153,0,0,858.50,53.15,44.77,0
13:21:23,0,0,0,0,0,0,0,0,0,0,0,516,0,0,0,0,0.0000000,0.0000000,0.0000000,0.0000000,8.00,38.4063187,-110.7921143,1364.6999512,0.0,64.9,0.9,0.0,0.0,917,150,0,0,858.51,53.13,44.81,0
13:21:24,0,0,0,0,0,0,0,0,0,0,0,516,0,0,0,0,0.0000000,0.0000000,0.0000000,0.0000000,8.00,38.4063187,-110.7921143,1364.6999512,0.0,60.1,0.9,0.0,0.0,918,150,0,0,858.53,53.15,44.97,0
13:21:25,0,0,0,0,0,0,0,0,0,0,0,515,0,0,0,0,0.0000000,0.0000000,0.0000000,0.0000000,8.00,38.4063187,-110.7921143,1364.6999512,0.0,34.0,0.9,0.0,0.0,917,152,0,0,858.54,53.13,45.12,0
13:21:26,0,0,0,0,0,0,0,0,0,0,0,514,0,0,0,0,0.0000000,0.0000000,0.0000000,0.0000000,8.00,38.4063187,-110.7921143,1364.6999512,0.0,45.7,0.9,0.0,0.0,917,150,0,0,858.54,53.21,45.27,0
13:21:28,0,0,0,0,0,0,0,0,0,0,0,514,0,0,0,0,0.0000000,0.0000000,0.0000000,0.0000000,8.00,38.4063187,-110.7921143,1364.6999512,0.0,39.6,0.9,0.0,0.0,917,148,0,0,858.65,53.18,45.37,0
13:21:29,0,0,0,0,0,0,0,0,0,0,0,515,0,0,0,0,0.0000000,0.0000000,0.0000000,0.0000000,8.00,38.4063187,-110.7921143,1364.6999512,0.0,183.4,1.0,0.0,0.0,917,149,0,0,858.53,52.99,45.41,0
13:21:30,0,0,0,0,0,0,0,0,0,0,0,515,0,0,0,0,0.0000000,0.0000000,0.0000000,0.0000000,8.00,38.4063187,-110.7921143,1364.6999512,0.0,208.7,1.0,0.0,0.0,917,153,0,0,858.56,53.06,45.29,0
13:21:31,0,0,0,0,0,0,0,0,0,0,0,515,0,0,0,0,0.0000000,0.0000000,0.0000000,0.0000000,8.00,38.4063187,-110.7921143,1364.6999512,0.0,178.5,1.0,0.0,0.0,917,147,0,0,858.61,53.07,45.25,0
13:21:32,0,0,0,0,0,0,0,0,0,0,0,515,0,0,0,0,0.0000000,0.0000000,0.0000000,0.0000000,8.00,38.4063187,-110.7921143,1364.6999512,0.0,199.8,1.0,0.0,0.0,917,145,0,0,858.53,52.96,45.31,0
13:21:33,0,0,0,0,0,0,0,0,0,0,0,514,0,0,0,0,0.0000000,0.0000000,0.0000000,0.0000000,8.00,38.4063187,-110.7921143,1364.6999512,0.0,158.6,1.0,0.0,0.0,918,154,0,0,858.57,52.96,45.43,0
13:21:34,0,0,0,0,0,0,0,0,0,0,0,515,0,0,0,0,0.0000000,0.0000000,0.0000000,0.0000000,8.00,38.4063187,-110.7921143,1364.6999512,0.0,128.4,1.0,0.0,0.0,917,149,0,0,858.55,52.92,45.52,0
13:21:35,0,0,0,0,0,0,0,0,0,0,0,515,0,0,0,0,0.0000000,0.0000000,0.0000000,0.0000000,8.00,38.4063187,-110.7921143,1364.6999512,0.0,48.0,1.0,0.0,0.0,917,156,0,0,858.55,52.86,45.64,0
13:21:36,0,0,0,0,0,0,0,0,0,0,0,515,0,0,0,0,0.0000000,0.0000000,0.0000000,0.0000000,8.00,38.4063187,-110.7921143,1364.6999512,0.0,52.4,1.0,0.0,0.0,917,149,0,0,858.57,52.86,45.73,0
13:21:37,0,0,0,0,0,0,0,0,0,0,0,515,0,0,0,0,0.0000000,0.0000000,0.0000000,0.0000000,8.00,38.4063187,-110.7921143,1364.6999512,0.0,46.9,1.0,0.0,0.0,918,150,0,0,858.57,52.86,45.79,0
13:21:38,0,0,0,0,0,0,0,0,0,0,0,516,0,0,0,0,0.0000000,0.0000000,0.0000000,0.0000000,8.00,38.4063187,-110.7921143,1364.6999512,0.0,45.9,1.0,0.0,0.0,917,149,0,0,858.65,52.99,45.46,0
13:21:39,0,0,0,0,0,0,0,0,0,0,0,515,0,0,0,0,0.0000000,0.0000000,0.0000000,0.0000000,8.00,38.4063187,-110.7921143,1364.6999512,0.0,65.0,1.0,0.0,0.0,917,147,0,0,858.54,53.15,45.33,0
13:21:40,0,0,0,0,0,0,0,0,0,0,0,515,0,0,0,0,0.0000000,0.0000000,0.0000000,0.0000000,8.00,38.4063187,-110.7921143,1364.6999512,0.0,339.7,1.0,0.0,0.0,917,150,0,0,858.60,52.83,45.37,0
13:21:41,0,0,0,0,0,0,0,0,0,0,0,516,0,0,0,0,0.0000000,0.0000000,0.0000000,0.0000000,8.00,38.4063187,-110.7921143,1364.6999512,0.0,188.7,1.0,0.0,0.0,917,153,0,0,858.57,52.73,45.46,0
13:21:42,0,0,0,0,0,0,0,0,0,0,0,514,0,0,0,0,0.0000000,0.0000000,0.0000000,0.0000000,8.00,38.4063187,-110.7921143,1364.6999512,0.0,230.1,1.0,0.0,0.0,917,154,0,0,858.58,52.86,45.58,0
13:21:43,0,0,0,0,0,0,0,0,0,0,0,515,0,0,0,0,0.0000000,0.0000000,0.0000000,0.0000000,8.00,38.4063187,-110.7921143,1364.6999512,0.0,219.3,1.0,0.0,0.0,917,157,0,0,858.63,52.77,45.63,0
13:21:44,0,0,0,0,0,0,0,0,0,0,0,515,0,0,0,0,0.0000000,0.0000000,0.0000000,0.0000000,8.00,38.4063187,-110.7921143,1364.6999512,0.0,251.1,1.0,0.0,0.0,918,163,0,0,858.59,52.67,45.65,0
13:21:45,0,0,0,0,0,0,0,0,0,0,0,515,0,0,0,0,0.0000000,0.0000000,0.0000000,0.0000000,8.00,38.4063187,-110.7921143,1364.5999756,0.0,217.9,1.0,0.0,0.0,917,166,0,0,858.57,52.52,45.65,0
13:21:46,0,0,0,0,0,0,0,0,0,0,0,515,0,0,0,0,0.0000000,0.0000000,0.0000000,0.0000000,8.00,38.4063187,-110.7921143,1364.5999756,0.0,185.6,1.0,0.0,0.0,917,161,0,0,858.57,52.54,45.74,0
13:21:47,0,0,0,0,0,0,0,0,0,0,0,516,0,0,0,0,0.0000000,0.0000000,0.0000000,0.0000000,8.00,38.4063187,-110.7921143,1364.5999756,0.0,345.3,1.0,0.0,0.0,917,155,0,0,858.54,52.17,45.56,0
13:21:48,0,0,0,0,0,0,0,0,0,0,0,515,0,0,0,0,0.0000000,0.0000000,0.0000000,0.0000000,8.00,38.4063187,-110.7921143,1364.5999756,0.0,330.7,1.0,0.0,0.0,917,158,0,0,858.56,52.26,45.44,0
13:21:49,0,0,0,0,0,0,0,0,0,0,0,515,0,0,0,0,0.0000000,0.0000000,0.0000000,0.0000000,8.00,38.4063187,-110.7921143,1364.5999756,0.0,325.2,1.0,0.0,0.0,917,161,0,0,858.55,52.37,45.41,0
13:21:50,0,0,0,0,0,0,0,0,0,0,0,516,0,0,0,0,0.0000000,0.0000000,0.0000000,0.0000000,8.00,38.4063187,-110.7921143,1364.5999756,0.0,342.6,1.0,0.0,0.0,917,162,0,0,858.63,52.14,45.45,0
13:21:51,0,0,0,0,0,0,0,0,0,0,0,514,0,0,0,0,0.0000000,0.0000000,0.0000000,0.0000000,8.00,38.4063187,-110.7921143,1364.5999756,0.0,3.1,1.0,0.0,0.0,917,159,0,0,858.55,52.09,45.65,0
13:21:52,0,0,0,0,0,0,0,0,0,0,0,515,0,0,0,0,0.0000000,0.0000000,0.0000000,0.0000000,8.00,38.4063187,-110.7921143,1364.5999756,0.0,349.0,1.0,0.0,0.0,917,150,0,0,858.58,52.08,45.74,0
13:21:53,0,0,0,0,0,0,0,0,0,0,0,515,0,0,0,0,0.0000000,0.0000000,0.0000000,0.0000000,8.00,38.4063187,-110.7921143,1364.5999756,0.0,146.6,1.0,0.0,0.0,917,149,0,0,858.56,51.77,45.75,0
13:21:54,0,0,0,0,0,0,0,0,0,0,0,515,0,0,0,0,0.0000000,0.0000000,0.0000000,0.0000000,8.00,38.4063187,-110.7921143,1364.5999756,0.0,127.8,1.0,0.0,0.0,917,149,0,0,858.60,51.64,45.60,0
13:21:55,0,0,0,0,0,0,0,0,0,0,0,515,0,0,0,0,0.0000000,0.0000000,0.0000000,0.0000000,8.00,38.4063187,-110.7921143,1364.5999756,0.0,103.2,1.0,0.0,0.0,917,147,0,0,858.53,50.45,45.64,0
13:21:56,0,0,0,0,0,0,0,0,0,0,0,516,0,0,0,0,0.0000000,0.0000000,0.0000000,0.0000000,8.00,38.4063187,-110.7921143,1364.5999756,0.0,162.0,1.0,0.0,0.0,917,146,0,0,858.36,48.26,45.86,0
13:21:57,0,0,0,0,0,0,0,0,0,0,0,516,0,0,0,0,0.0000000,0.0000000,0.0000000,0.0000000,8.00,38.4063187,-110.7921143,1364.5999756,0.0,133.9,1.0,0.0,0.0,916,153,0,0,858.45,49.30,45.91,0
13:21:58,0,0,0,0,0,0,0,0,0,0,0,515,0,0,0,0,0.0000000,0.0000000,0.0000000,0.0000000,8.00,38.4063187,-110.7921143,1364.5999756,0.0,111.1,1.0,0.0,0.0,917,158,0,0,858.51,51.27,45.97,0
13:21:59,0,0,0,0,0,0,0,0,0,0,0,515,0,0,0,0,0.0000000,0.0000000,0.0000000,0.0000000,8.00,38.4063187,-110.7921143,1364.5999756,0.0,291.7,1.0,0.0,0.0,917,160,0,0,858.58,51.22,46.07,0
13:22:00,0,0,0,0,0,0,0,0,0,0,0,515,0,0,0,0,0.0000000,0.0000000,0.0000000,0.0000000,8.00,38.4063187,-110.7921143,1364.5999756,0.0,290.3,1.0,0.0,0.0,917,155,0,0,858.51,51.12,46.10,0
13:22:01,0,0,0,0,0,0,0,0,0,0,0,515,0,0,0,0,0.0000000,0.0000000,0.0000000,0.0000000,8.00,38.4063187,-110.7921143,1364.5999756,0.0,307.3,1.0,0.0,0.0,917,156,0,0,858.47,50.55,46.04,0
13:22:02,0,0,0,0,0,0,0,0,0,0,0,515,0,0,0,0,0.0000000,0.0000000,0.0000000,0.0000000,8.00,38.4063187,-110.7921143,1364.5999756,0.0,278.9,1.0,0.0,0.0,917,159,0,0,858.42,49.15,45.95,0
13:22:03,0,0,0,0,0,0,0,0,0,0,0,515,0,0,0,0,0.0000000,0.0000000,0.0000000,0.0000000,8.00,38.4063187,-110.7921143,1364.5999756,0.0,303.8,1.0,0.0,0.0,917,164,0,0,858.27,47.53,45.92,0
13:22:04,0,0,0,0,0,0,0,0,0,0,0,514,0,0,0,0,0.0000000,0.0000000,0.0000000,0.0000000,8.00,38.4063187,-110.7921143,1364.5999756,0.0,302.6,1.0,0.0,0.0,917,169,0,0,858.45,48.90,45.90,0
13:22:05,0,0,0,0,0,0,0,0,0,0,0,515,0,0,0,0,0.0000000,0.0000000,0.0000000,0.0000000,8.00,38.4063187,-110.7921143,1364.5999756,0.0,123.2,1.0,0.0,0.0,917,164,0,0,858.50,50.69,45.82,0
13:22:06,0,0,0,0,0,0,0,0,0,0,0,515,0,0,0,0,0.0000000,0.0000000,0.0000000,0.0000000,8.00,38.4063187,-110.7921143,1364.5999756,0.0,109.0,1.0,0.0,0.0,917,157,0,0,858.52,51.27,45.95,0
13:22:07,0,0,0,0,0,0,0,0,0,0,0,516,0,0,0,0,0.0000000,0.0000000,0.0000000,0.0000000,8.00,38.4063187,-110.7921143,1364.5999756,0.0,128.1,1.0,0.0,0.0,917,156,0,0,858.62,51.51,46.10,0
13:22:08,0,0,0,0,0,0,0,0,0,0,0,515,0,0,0,0,0.0000000,0.0000000,0.0000000,0.0000000,8.00,38.4063187,-110.7921143,1364.5999756,0.0,112.0,1.0,0.0,0.0,918,160,0,0,858.56,51.44,46.01,0
13:22:09,0,0,0,0,0,0,0,0,0,0,0,515,0,0,0,0,0.0000000,0.0000000,0.0000000,0.0000000,8.00,38.4063187,-110.7921143,1364.5999756,0.0,102.2,1.0,0.0,0.0,917,154,0,0,858.52,51.64,46.13,0
13:22:10,0,0,0,0,0,0,0,0,0,0,0,515,0,0,0,0,0.0000000,0.0000000,0.0000000,0.0000000,8.00,38.4063187,-110.7921143,1364.5999756,0.0,245.6,1.0,0.0,0.0,916,153,0,0,858.51,51.41,46.19,0
13:22:11,0,0,0,0,0,0,0,0,0,0,0,514,0,0,0,0,0.0000000,0.0000000,0.0000000,0.0000000,8.00,38.4063187,-110.7921143,1364.5999756,0.0,278.4,1.0,0.0,0.0,917,150,0,0,858.54,51.36,46.17,0
13:22:12,0,0,0,0,0,0,0,0,0,0,0,516,0,0,0,0,0.0000000,0.0000000,0.0000000,0.0000000,8.00,38.4063187,-110.7921143,1364.5999756,0.0,311.3,1.0,0.0,0.0,917,154,0,0,858.55,51.44,46.28,0
13:22:13,0,0,0,0,0,0,0,0,0,0,0,516,0,0,0,0,0.0000000,0.0000000,0.0000000,0.0000000,8.00,38.4063187,-110.7921143,1364.5999756,0.0,302.8,1.0,0.0,0.0,917,148,0,0,858.56,51.41,46.32,0
13:22:14,0,0,0,0,0,0,0,0,0,0,0,514,0,0,0,0,0.0000000,0.0000000,0.0000000,0.0000000,8.00,38.4063187,-110.7921143,1364.5999756,0.0,301.4,1.0,0.0,0.0,917,154,0,0,858.57,51.38,46.03,0
13:22:15,0,0,0,0,0,0,0,0,0,0,0,515,0,0,0,0,0.0000000,0.0000000,0.0000000,0.0000000,8.00,38.4063187,-110.7921143,1364.5000000,0.0,294.0,1.0,0.0,0.0,917,157,0,0,858.58,51.58,46.02,0
13:22:16,0,0,0,0,0,0,0,0,0,0,0,515,0,0,0,0,0.0000000,0.0000000,0.0000000,0.0000000,8.00,38.4063187,-110.7921143,1364.5000000,0.0,114.8,1.0,0.0,0.0,917,150,0,0,858.58,51.44,45.68,0
13:22:17,0,0,0,0,0,0,0,0,0,0,0,514,0,0,0,0,0.0000000,0.0000000,0.0000000,0.0000000,8.00,38.4063187,-110.7921143,1364.5000000,0.0,106.7,1.0,0.0,0.0,917,143,0,0,858.54,51.45,45.65,0
13:22:18,0,0,0,0,0,0,0,0,0,0,0,515,0,0,0,0,0.0000000,0.0000000,0.0000000,0.0000000,8.00,38.4063187,-110.7921143,1364.5000000,0.0,134.9,1.0,0.0,0.0,917,147,0,0,858.50,51.62,45.86,0
13:22:19,0,0,0,0,0,0,0,0,0,0,0,515,0,0,0,0,0.0000000,0.0000000,0.0000000,0.0000000,8.00,38.4063187,-110.7921143,1364.5000000,0.0,154.3,1.0,0.0,0.0,917,152,0,0,858.61,51.54,45.98,0
13:22:20,0,0,0,0,0,0,0,0,0,0,0,514,0,0,0,0,0.0000000,0.0000000,0.0000000,0.0000000,8.00,38.4063187,-110.7921143,1364.5000000,0.0,120.0,1.0,0.0,0.0,917,151,0,0,858.62,51.68,46.14,0
13:22:21,0,0,0,0,0,0,0,0,0,0,0,515,0,0,0,0,0.0000000,0.0000000,0.0000000,0.0000000,8.00,38.4063187,-110.7921143,1364.5000000,0.0,115.6,1.0,0.0,0.0,917,152,0,0,858.61,51.70,46.21,0
13:22:22,0,0,0,0,0,0,0,0,0,0,0,515,0,0,0,0,0.0000000,0.0000000,0.0000000,0.0000000,8.00,38.4063187,-110.7921143,1364.5000000,0.0,320.0,1.0,0.0,0.0,918,148,0,0,858.64,51.47,46.28,0
13:22:23,0,0,0,0,0,0,0,0,0,0,0,514,0,0,0,0,0.0000000,0.0000000,0.0000000,0.0000000,8.00,38.4063187,-110.7921143,1364.5000000,0.0,265.9,1.0,0.0,0.0,917,152,0,0,858.67,51.59,46.21,0
13:22:24,0,0,0,0,0,0,0,0,0,0,0,515,0,0,0,0,0.0000000,0.0000000,0.0000000,0.0000000,8.00,38.4063187,-110.7921143,1364.5000000,0.0,308.1,1.0,0.0,0.0,917,149,0,0,858.62,51.64,46.23,0
13:22:25,0,0,0,0,0,0,0,0,0,0,0,515,0,0,0,0,0.0000000,0.0000000,0.0000000,0.0000000,8.00,38.4063187,-110.7921143,1364.5000000,0.0,285.6,1.0,0.0,0.0,918,155,0,0,858.64,51.71,46.21,0
13:22:26,0,0,0,0,0,0,0,0,0,0,0,514,0,0,0,0,0.0000000,0.0000000,0.0000000,0.0000000,8.00,38.4063187,-110.7921143,1364.5000000,0.0,294.2,1.0,0.0,0.0,917,163,0,0,858.62,51.82,46.06,0
13:22:27,0,0,0,0,0,0,0,0,0,0,0,516,0,0,0,0,0.0000000,0.0000000,0.0000000,0.0000000,8.00,38.4063187,-110.7921143,1364.5000000,0.0,19.6,1.0,0.0,0.0,916,158,0,0,858.59,52.03,45.96,0
13:22:28,0,0,0,0,0,0,0,0,0,0,0,515,0,0,0,0,0.0000000,0.0000000,0.0000000,0.0000000,8.00,38.4063187,-110.7921143,1364.5000000,0.0,117.6,1.0,0.0,0.0,917,156,0,0,858.54,51.90,46.07,0
13:22:29,0,0,0,0,0,0,0,0,0,0,0,516,0,0,0,0,0.0000000,0.0000000,0.0000000,0.0000000,8.00,38.4063187,-110.7921143,1364.5000000,0.0,108.9,1.0,0.0,0.0,917,159,0,0,858.54,52.12,46.13,0
13:22:30,0,0,0,0,0,0,0,0,0,0,0,514,0,0,0,0,0.0000000,0.0000000,0.0000000,0.0000000,8.00,38.4063187,-110.7921143,1364.5000000,0.0,99.0,1.0,0.0,0.0,917,159,0,0,858.59,51.96,46.30,0
13:22:31,0,0,0,0,0,0,0,0,0,0,0,514,0,0,0,0,0.0000000,0.0000000,0.0000000,0.0000000,8.00,38.4063187,-110.7921143,1364.5000000,0.0,107.6,1.0,0.0,0.0,917,155,0,0,858.63,51.93,46.42,0
