Time, Motor A Speed, Motor A Dir, Motor B Speed, Motor B Dir, Servo Rail Current Sensor, Servo Pos - Arm L, Servo Pos - Arm R, Servo Pos - End, Servo Pos - Hopper, Servo Pos - Lid, Servo Pos - Extra, Servo Current, LED - Front L, LED - Front R, LED - Back L, LED - Back R, IMU Pitch, IMU Roll, IMU Yaw, Compass Heading, GPS Sats, GPS Latitude, GPS Longitude, GPS Altitude, GPS Speed, GPS Angle, GPS HDOP, GPS VDOP, GPS PDOP, Battery, Wind, Comm Xbee Latency, Comm Arduino Latency, Pressure, Humidity, Temperature, uRADMonitor
11:40:07,0,0,0,0,0,0,0,0,0,0,0,515,0,0,0,0,0.0000000,0.0000000,0.0000000,0.0000000,9.00,38.4063797,-110.7920609,1367.6999512,0.0,321.8,0.9,0.0,0.0,901,126,0,0,860.73,-0.17,55.72,0
11:40:08,0,0,0,0,0,0,0,0,0,0,0,515,0,0,0,0,0.0000000,0.0000000,0.0000000,0.0000000,9.00,38.4063797,-110.7920609,1367.6999512,0.0,343.6,0.9,0.0,0.0,901,129,0,0,860.71,-0.18,55.61,0
11:40:09,0,0,0,0,0,0,0,0,0,0,0,515,0,0,0,0,0.0000000,0.0000000,0.0000000,0.0000000,9.00,38.4063797,-110.7920609,1367.6999512,0.0,355.6,0.9,0.0,0.0,901,127,0,0,860.75,-0.12,55.60,0
11:40:10,0,0,0,0,0,0,0,0,0,0,0,515,0,0,0,0,0.0000000,0.0000000,0.0000000,0.0000000,9.00,38.4063797,-110.7920609,1367.6999512,0.0,248.1,0.9,0.0,0.0,901,130,0,0,860.70,-0.12,55.71,0
11:40:11,0,0,0,0,0,0,0,0,0,0,0,515,0,0,0,0,0.0000000,0.0000000,0.0000000,0.0000000,9.00,38.4063797,-110.7920609,1367.6999512,0.0,101.9,0.9,0.0,0.0,901,127,0,0,860.72,-0.12,55.72,0
11:40:12,0,0,0,0,0,0,0,0,0,0,0,515,0,0,0,0,0.0000000,0.0000000,0.0000000,0.0000000,9.00,38.4063797,-110.7920609,1367.6999512,0.0,133.7,0.9,0.0,0.0,901,127,0,0,860.73,-0.09,55.75,0
11:40:13,0,0,0,0,0,0,0,0,0,0,0,515,0,0,0,0,0.0000000,0.0000000,0.0000000,0.0000000,9.00,38.4063797,-110.7920609,1367.6999512,0.0,141.9,0.9,0.0,0.0,901,129,0,0,860.74,-0.11,55.84,0
11:40:14,0,0,0,0,0,0,0,0,0,0,0,514,0,0,0,0,0.0000000,0.0000000,0.0000000,0.0000000,9.00,38.4063797,-110.7920609,1367.6999512,0.0,204.5,0.9,0.0,0.0,901,127,0,0,860.77,-0.14,55.79,0
11:40:15,0,0,0,0,0,0,0,0,0,0,0,515,0,0,0,0,0.0000000,0.0000000,0.0000000,0.0000000,9.00,38.4063797,-110.7920609,1367.6999512,0.0,148.5,0.9,0.0,0.0,901,128,0,0,860.81,-0.09,55.86,0
11:40:16,0,0,0,0,0,0,0,0,0,0,0,515,0,0,0,0,0.0000000,0.0000000,0.0000000,0.0000000,9.00,38.4063797,-110.7920609,1367.8000488,0.0,27.0,0.9,0.0,0.0,901,126,0,0,860.76,-0.08,55.93,0
11:40:17,0,0,0,0,0,0,0,0,0,0,0,515,0,0,0,0,0.0000000,0.0000000,0.0000000,0.0000000,9.00,38.4063797,-110.7920609,1367.8000488,0.0,353.9,0.9,0.0,0.0,901,127,0,0,860.77,-0.11,56.00,0
11:40:18,0,0,0,0,0,0,0,0,0,0,0,515,0,0,0,0,0.0000000,0.0000000,0.0000000,0.0000000,9.00,38.4063797,-110.7920609,1367.8000488,0.0,342.3,0.9,0.0,0.0,901,129,0,0,860.80,-0.12,56.03,0
11:40:19,0,0,0,0,0,0,0,0,0,0,0,516,0,0,0,0,0.0000000,0.0000000,0.0000000,0.0000000,9.00,38.4063797,-110.7920609,1367.8000488,0.0,325.6,0.9,0.0,0.0,901,127,0,0,860.81,-0.12,56.08,0
11:40:20,0,0,0,0,0,0,0,0,0,0,0,514,0,0,0,0,0.0000000,0.0000000,0.0000000,0.0000000,9.00,38.4063797,-110.7920609,1367.8000488,0.0,323.0,0.9,0.0,0.0,901,130,0,0,860.81,-0.15,56.12,0
11:40:21,0,0,0,0,0,0,0,0,0,0,0,516,0,0,0,0,0.0000000,0.0000000,0.0000000,0.0000000,9.00,38.4063797,-110.7920609,1367.8000488,0.0,339.7,0.9,0.0,0.0,901,127,0,0,860.80,-0.15,56.11,0
11:40:22,0,0,0,0,0,0,0,0,0,0,0,515,0,0,0,0,0.0000000,0.0000000,0.0000000,0.0000000,9.00,38.4063797,-110.7920609,1367.8000488,0.0,239.5,0.9,0.0,0.0,901,127,0,0,860.78,-0.15,56.16,0
11:40:23,0,0,0,0,0,0,0,0,0,0,0,515,0,0,0,0,0.0000000,0.0000000,0.0000000,0.0000000,9.00,38.4063797,-110.7920609,1367.8000488,0.0,176.7,0.9,0.0,0.0,901,127,0,0,860.80,-0.15,56.22,0
11:40:24,0,0,0,0,0,0,0,0,0,0,0,514,0,0,0,0,0.0000000,0.0000000,0.0000000,0.0000000,9.00,38.4063797,-110.7920609,1367.8000488,0.0,149.4,0.9,0.0,0.0,901,127,0,0,860.76,-0.11,56.20,0
11:40:25,0,0,0,0,0,0,0,0,0,0,0,515,0,0,0,0,0.0000000,0.0000000,0.0000000,0.0000000,9.00,38.4063797,-110.7920609,1367.8000488,0.0,138.3,0.9,0.0,0.0,901,129,0,0,860.73,-0.12,56.15,0
11:40:26,0,0,0,0,0,0,0,0,0,0,0,516,0,0,0,0,0.0000000,0.0000000,0.0000000,0.0000000,9.00,38.4063797,-110.7920609,1367.8000488,0.0,138.5,0.9,0.0,0.0,901,126,0,0,860.77,-0.14,56.10,0
11:40:27,0,0,0,0,0,0,0,0,0,0,0,515,0,0,0,0,0.0000000,0.0000000,0.0000000,0.0000000,9.00,38.4063797,-110.7920609,1367.8000488,0.0,171.2,0.9,0.0,0.0,901,124,0,0,860.76,-0.20,56.13,0
11:40:28,0,0,0,0,0,0,0,0,0,0,0,515,0,0,0,0,0.0000000,0.0000000,0.0000000,0.0000000,9.00,38.4063797,-110.7920609,1367.8000488,0.0,301.5,0.9,0.0,0.0,901,125,0,0,860.80,-0.18,55.98,0
11:40:29,0,0,0,0,0,0,0,0,0,0,0,515,0,0,0,0,0.0000000,0.0000000,0.0000000,0.0000000,9.00,38.4063797,-110.7920609,1367.8000488,0.0,336.6,0.9,0.0,0.0,901,134,0,0,860.75,-0.23,55.84,0
11:40:30,0,0,0,0,0,0,0,0,0,0,0,514,0,0,0,0,0.0000000,0.0000000,0.0000000,0.0000000,9.00,38.4063797,-110.7920609,1367.8000488,0.0,334.9,0.9,0.0,0.0,901,128,0,0,860.67,-0.17,55.92,0
11:40:31,0,0,0,0,0,0,0,0,0,0,0,515,0,0,0,0,0.0000000,0.0000000,0.0000000,0.0000000,9.00,38.4063797,-110.7920609,1367.8000488,0.0,334.7,0.9,0.0,0.0,901,133,0,0,860.76,-0.15,56.00,0
11:40:32,0,0,0,0,0,0,0,0,0,0,0,515,0,0,0,0,0.0000000,0.0000000,0.0000000,0.0000000,9.00,38.4063797,-110.7920609,1367.8000488,0.0,308.5,0.9,0.0,0.0,901,132,0,0,860.75,-0.17,55.89,0
11:40:33,0,0,0,0,0,0,0,0,0,0,0,514,0,0,0,0,0.0000000,0.0000000,0.0000000,0.0000000,9.00,38.4063797,-110.7920609,1367.8000488,0.0,317.5,0.9,0.0,0.0,901,133,0,0,860.71,-0.15,55.70,0
11:40:34,0,0,0,0,0,0,0,0,0,0,0,515,0,0,0,0,0.0000000,0.0000000,0.0000000,0.0000000,9.00,38.4063797,-110.7920609,1367.8000488,0.0,119.1,0.9,0.0,0.0,901,134,0,0,860.70,-0.15,55.70,0
11:40:35,0,0,0,0,0,0,0,0,0,0,0,515,0,0,0,0,0.0000000,0.0000000,0.0000000,0.0000000,9.00,38.4063797,-110.7920609,1367.8000488,0.0,126.7,0.9,0.0,0.0,901,128,0,0,860.67,-0.15,55.90,0
11:40:36,0,0,0,0,0,0,0,0,0,0,0,514,0,0,0,0,0.0000000,0.0000000,0.0000000,0.0000000,9.00,38.4063797,-110.7920609,1367.8000488,0.0,127.8,0.9,0.0,0.0,902,129,0,0,860.70,-0.17,56.06,0
11:40:37,0,0,0,0,0,0,0,0,0,0,0,514,0,0,0,0,0.0000000,0.0000000,0.0000000,0.0000000,9.00,38.4063797,-110.7920609,1367.8000488,0.0,178.1,0.9,0.0,0.0,901,127,0,0,860.76,-0.17,56.10,0
11:40:39,0,0,0,0,0,0,0,0,0,0,0,515,0,0,0,0,0.0000000,0.0000000,0.0000000,0.0000000,9.00,38.4063797,-110.7920609,1367.8000488,0.0,167.5,0.9,0.0,0.0,901,127,0,0,860.73,-0.20,56.04,0
11:40:40,0,0,0,0,0,0,0,0,0,0,0,515,0,0,0,0,0.0000000,0.0000000,0.0000000,0.0000000,9.00,38.4063797,-110.7920609,1367.8000488,0.0,135.6,0.9,0.0,0.0,902,130,0,0,860.67,-0.17,55.94,0
11:40:41,0,0,0,0,0,0,0,0,0,0,0,515,0,0,0,0,0.0000000,0.0000000,0.0000000,0.0000000,9.00,38.4063797,-110.7920609,1367.8000488,0.0,296.2,0.9,0.0,0.0,901,128,0,0,860.70,-0.18,56.07,0
11:40:42,0,0,0,0,0,0,0,0,0,0,0,515,0,0,0,0,0.0000000,0.0000000,0.0000000,0.0000000,9.00,38.4063797,-110.7920609,1367.8000488,0.0,328.0,0.9,0.0,0.0,901,132,0,0,860.70,-0.17,56.06,0
11:40:43,0,0,0,0,0,0,0,0,0,0,0,514,0,0,0,0,0.0000000,0.0000000,0.0000000,0.0000000,9.00,38.4063797,-110.7920609,1367.8000488,0.0,335.9,0.9,0.0,0.0,901,128,0,0,860.72,-0.17,56.19,0
11:40:44,0,0,0,0,0,0,0,0,0,0,0,515,0,0,0,0,0.0000000,0.0000000,0.0000000,0.0000000,9.00,38.4063797,-110.7920609,1367.9000244,0.0,341.4,0.9,0.0,0.0,901,129,0,0,860.69,-0.17,56.26,0
11:40:45,0,0,0,0,0,0,0,0,0,0,0,514,0,0,0,0,0.0000000,0.0000000,0.0000000,0.0000000,9.00,38.4063797,-110.7920609,1368.0000000,0.0,326.9,0.9,0.0,0.0,901,130,0,0,860.69,-0.21,56.28,0
11:40:46,0,0,0,0,0,0,0,0,0,0,0,514,0,0,0,0,0.0000000,0.0000000,0.0000000,0.0000000,9.00,38.4063797,-110.7920609,1368.0000000,0.0,269.1,0.9,0.0,0.0,901,127,0,0,860.66,-0.24,55.89,0
11:40:47,0,0,0,0,0,0,0,0,0,0,0,516,0,0,0,0,0.0000000,0.0000000,0.0000000,0.0000000,9.00,38.4063759,-110.7920609,1368.0000000,0.0,188.7,0.9,0.0,0.0,901,129,0,0,860.61,-0.18,55.70,0
11:40:48,0,0,0,0,0,0,0,0,0,0,0,515,0,0,0,0,0.0000000,0.0000000,0.0000000,0.0000000,9.00,38.4063759,-110.7920609,1367.9000244,0.0,157.6,0.9,0.0,0.0,901,130,0,0,860.64,-0.23,55.85,0
11:40:49,0,0,0,0,0,0,0,0,0,0,0,515,0,0,0,0,0.0000000,0.0000000,0.0000000,0.0000000,9.00,38.4063759,-110.7920609,1368.0000000,0.0,141.5,0.9,0.0,0.0,901,129,0,0,860.69,-0.20,55.83,0
11:40:50,0,0,0,0,0,0,0,0,0,0,0,515,0,0,0,0,0.0000000,0.0000000,0.0000000,0.0000000,9.00,38.4063759,-110.7920609,1368.0000000,0.0,144.0,0.9,0.0,0.0,901,135,0,0,860.70,-0.15,55.78,0
11:40:51,0,0,0,0,0,0,0,0,0,0,0,515,0,0,0,0,0.0000000,0.0000000,0.0000000,0.0000000,9.00,38.4063721,-110.7920609,1368.0999756,0.0,161.9,0.9,0.0,0.0,901,131,0,0,860.66,-0.15,55.88,0
11:40:52,0,0,0,0,0,0,0,0,0,0,0,515,0,0,0,0,0.0000000,0.0000000,0.0000000,0.0000000,9.00,38.4063721,-110.7920609,1368.0999756,0.0,161.2,0.9,0.0,0.0,901,132,0,0,860.69,-0.11,55.80,0
11:40:53,0,0,0,0,0,0,0,0,0,0,0,514,0,0,0,0,0.0000000,0.0000000,0.0000000,0.0000000,9.00,38.4063721,-110.7920609,1368.0999756,0.0,254.9,0.9,0.0,0.0,901,128,0,0,860.63,-0.11,55.90,0
11:40:54,0,0,0,0,0,0,0,0,0,0,0,515,0,0,0,0,0.0000000,0.0000000,0.0000000,0.0000000,9.00,38.4063721,-110.7920609,1368.0999756,0.0,323.5,0.9,0.0,0.0,901,130,0,0,860.69,-0.09,56.07,0
11:40:55,0,0,0,0,0,0,0,0,0,0,0,515,0,0,0,0,0.0000000,0.0000000,0.0000000,0.0000000,9.00,38.4063721,-110.7920609,1368.0999756,0.0,325.8,0.9,0.0,0.0,901,128,0,0,860.66,-0.17,56.15,0
11:40:56,0,0,0,0,0,0,0,0,0,0,0,515,0,0,0,0,0.0000000,0.0000000,0.0000000,0.0000000,9.00,38.4063721,-110.7920609,1368.0999756,0.0,297.1,0.9,0.0,0.0,901,131,0,0,860.69,-0.21,55.87,0
11:40:57,0,0,0,0,0,0,0,0,0,0,0,514,0,0,0,0,0.0000000,0.0000000,0.0000000,0.0000000,9.00,38.4063721,-110.7920609,1368.0999756,0.0,307.8,0.9,0.0,0.0,901,131,0,0,860.62,-0.17,55.66,0
11:40:58,0,0,0,0,0,0,0,0,0,0,0,515,0,0,0,0,0.0000000,0.0000000,0.0000000,0.0000000,9.00,38.4063721,-110.7920609,1368.0999756,0.0,313.5,0.9,0.0,0.0,901,129,0,0,860.61,-0.14,55.75,0
11:40:59,0,0,0,0,0,0,0,0,0,0,0,515,0,0,0,0,0.0000000,0.0000000,0.0000000,0.0000000,9.00,38.4063721,-110.7920609,1368.0999756,0.0,112.7,0.9,0.0,0.0,901,127,0,0,860.69,-0.18,55.85,0
11:41:00,0,0,0,0,0,0,0,0,0,0,0,515,0,0,0,0,0.0000000,0.0000000,0.0000000,0.0000000,9.00,38.4063721,-110.7920609,1368.0999756,0.0,174.1,0.9,0.0,0.0,901,130,0,0,860.61,-0.20,55.97,0
11:41:01,0,0,0,0,0,0,0,0,0,0,0,515,0,0,0,0,0.0000000,0.0000000,0.0000000,0.0000000,9.00,38.4063721,-110.7920609,1368.0999756,0.0,143.7,0.9,0.0,0.0,901,131,0,0,860.73,-0.24,56.03,0
11:41:02,0,0,0,0,0,0,0,0,0,0,0,516,0,0,0,0,0.0000000,0.0000000,0.0000000,0.0000000,9.00,38.4063721,-110.7920609,1368.0999756,0.0,153.2,0.9,0.0,0.0,901,131,0,0,860.68,-0.24,55.79,0
11:41:03,0,0,0,0,0,0,0,0,0,0,0,515,0,0,0,0,0.0000000,0.0000000,0.0000000,0.0000000,9.00,38.4063721,-110.7920609,1368.0999756,0.0,137.1,0.9,0.0,0.0,901,130,0,0,860.70,-0.20,55.74,0
11:41:04,0,0,0,0,0,0,0,0,0,0,0,515,0,0,0,0,0.0000000,0.0000000,0.0000000,0.0000000,9.00,38.4063721,-110.7920609,1368.0999756,0.0,158.7,0.9,0.0,0.0,901,130,0,0,860.64,-0.14,55.82,0
11:41:05,0,0,0,0,0,0,0,0,0,0,0,515,0,0,0,0,0.0000000,0.0000000,0.0000000,0.0000000,9.00,38.4063721,-110.7920609,1368.0999756,0.0,285.3,0.9,0.0,0.0,901,131,0,0,860.65,-0.11,55.98,0
11:41:06,0,0,0,0,0,0,0,0,0,0,0,515,0,0,0,0,0.0000000,0.0000000,0.0000000,0.0000000,9.00,38.4063721,-110.7920609,1368.0999756,0.0,300.6,0.9,0.0,0.0,901,130,0,0,860.61,-0.17,56.11,0
11:41:07,0,0,0,0,0,0,0,0,0,0,0,515,0,0,0,0,0.0000000,0.0000000,0.0000000,0.0000000,9.00,38.4063721,-110.7920761,1368.0999756,0.0,288.5,0.9,0.0,0.0,901,129,0,0,860.63,-0.17,56.23,0
11:41:08,0,0,0,0,0,0,0,0,0,0,0,514,0,0,0,0,0.0000000,0.0000000,0.0000000,0.0000000,9.00,38.4063721,-110.7920761,1368.0999756,0.0,294.8,0.9,0.0,0.0,901,130,0,0,860.58,-0.18,56.32,0
11:41:09,0,0,0,0,0,0,0,0,0,0,0,514,0,0,0,0,0.0000000,0.0000000,0.0000000,0.0000000,9.00,38.4063721,-110.7920761,1368.0999756,0.0,299.2,0.9,0.0,0.0,901,129,0,0,860.69,-0.21,56.40,0
11:41:10,0,0,0,0,0,0,0,0,0,0,0,515,0,0,0,0,0.0000000,0.0000000,0.0000000,0.0000000,9.00,38.4063721,-110.7920761,1368.0999756,0.0,318.5,0.9,0.0,0.0,901,132,0,0,860.66,-0.23,56.38,0
11:41:11,0,0,0,0,0,0,0,0,0,0,0,515,0,0,0,0,0.0000000,0.0000000,0.0000000,0.0000000,9.00,38.4063721,-110.7920761,1368.0999756,0.0,149.2,0.9,0.0,0.0,901,131,0,0,860.61,-0.20,56.31,0
11:41:12,0,0,0,0,0,0,0,0,0,0,0,515,0,0,0,0,0.0000000,0.0000000,0.0000000,0.0000000,9.00,38.4063721,-110.7920761,1368.0999756,0.0,107.4,0.9,0.0,0.0,901,130,0,0,860.61,-0.17,56.28,0
11:41:13,0,0,0,0,0,0,0,0,0,0,0,515,0,0,0,0,0.0000000,0.0000000,0.0000000,0.0000000,9.00,38.4063721,-110.7920761,1368.0999756,0.0,124.1,0.9,0.0,0.0,901,126,0,0,860.63,-0.20,56.41,0
11:41:14,0,0,0,0,0,0,0,0,0,0,0,515,0,0,0,0,0.0000000,0.0000000,0.0000000,0.0000000,9.00,38.4063721,-110.7920761,1368.0999756,0.0,116.2,0.9,0.0,0.0,901,127,0,0,860.59,-0.18,56.51,0
11:41:15,0,0,0,0,0,0,0,0,0,0,0,515,0,0,0,0,0.0000000,0.0000000,0.0000000,0.0000000,9.00,38.4063721,-110.7920761,1368.0999756,0.0,131.7,0.9,0.0,0.0,901,130,0,0,860.61,-0.21,56.59,0
11:41:16,0,0,0,0,0,0,0,0,0,0,0,514,0,0,0,0,0.0000000,0.0000000,0.0000000,0.0000000,9.00,38.4063721,-110.7920761,1368.0999756,0.0,106.1,0.9,0.0,0.0,901,127,0,0,860.67,-0.21,56.65,0
11:41:17,0,0,0,0,0,0,0,0,0,0,0,514,0,0,0,0,0.0000000,0.0000000,0.0000000,0.0000000,9.00,38.4063721,-110.7920761,1368.0999756,0.0,346.1,0.9,0.0,0.0,902,127,0,0,860.63,-0.24,56.68,0
11:41:18,0,0,0,0,0,0,0,0,0,0,0,515,0,0,0,0,0.0000000,0.0000000,0.0000000,0.0000000,9.00,38.4063721,-110.7920761,1368.0999756,0.0,297.2,0.9,0.0,0.0,901,135,0,0,860.69,-0.24,56.73,0
11:41:19,0,0,0,0,0,0,0,0,0,0,0,515,0,0,0,0,0.0000000,0.0000000,0.0000000,0.0000000,9.00,38.4063721,-110.7920761,1368.0999756,0.0,284.3,0.9,0.0,0.0,901,131,0,0,860.65,-0.34,56.52,0
11:41:20,0,0,0,0,0,0,0,0,0,0,0,515,0,0,0,0,0.0000000,0.0000000,0.0000000,0.0000000,9.00,38.4063721,-110.7920761,1368.0999756,0.0,300.3,0.9,0.0,0.0,901,137,0,0,860.60,-0.29,56.19,0
11:41:21,0,0,0,0,0,0,0,0,0,0,0,514,0,0,0,0,0.0000000,0.0000000,0.0000000,0.0000000,9.00,38.4063721,-110.7920761,1368.0999756,0.0,274.1,0.9,0.0,0.0,901,134,0,0,860.58,-0.26,56.02,0
11:41:22,0,0,0,0,0,0,0,0,0,0,0,515,0,0,0,0,0.0000000,0.0000000,0.0000000,0.0000000,9.00,38.4063721,-110.7920761,1368.0999756,0.0,296.0,0.9,0.0,0.0,901,137,0,0,860.59,-0.23,55.83,0
11:41:23,0,0,0,0,0,0,0,0,0,0,0,516,0,0,0,0,0.0000000,0.0000000,0.0000000,0.0000000,9.00,38.4063721,-110.7920761,1368.0999756,0.0,161.1,0.9,0.0,0.0,901,143,0,0,860.59,-0.27,55.87,0
11:41:24,0,0,0,0,0,0,0,0,0,0,0,515,0,0,0,0,0.0000000,0.0000000,0.0000000,0.0000000,9.00,38.4063721,-110.7920761,1368.0999756,0.0,104.2,0.9,0.0,0.0,902,136,0,0,860.55,-0.27,55.87,0
11:41:25,0,0,0,0,0,0,0,0,0,0,0,515,0,0,0,0,0.0000000,0.0000000,0.0000000,0.0000000,9.00,38.4063721,-110.7920761,1368.0999756,0.0,91.5,0.9,0.0,0.0,901,136,0,0,860.52,-0.29,55.85,0
11:41:26,0,0,0,0,0,0,0,0,0,0,0,516,0,0,0,0,0.0000000,0.0000000,0.0000000,0.0000000,9.00,38.4063721,-110.7920761,1368.0999756,0.0,116.2,0.9,0.0,0.0,901,132,0,0,860.61,-0.29,55.89,0
11:41:27,0,0,0,0,0,0,0,0,0,0,0,515,0,0,0,0,0.0000000,0.0000000,0.0000000,0.0000000,9.00,38.4063721,-110.7920761,1368.0999756,0.0,129.1,0.9,0.0,0.0,901,134,0,0,860.63,-0.30,55.76,0
11:41:28,0,0,0,0,0,0,0,0,0,0,0,515,0,0,0,0,0.0000000,0.0000000,0.0000000,0.0000000,9.00,38.4063721,-110.7920761,1368.0999756,0.0,344.3,0.9,0.0,0.0,901,138,0,0,860.62,-0.06,55.61,0
11:41:29,0,0,0,0,0,0,0,0,0,0,0,516,0,0,0,0,0.0000000,0.0000000,0.0000000,0.0000000,9.00,38.4063721,-110.7920761,1368.0999756,0.0,315.5,0.9,0.0,0.0,901,135,0,0,860.63,0.03,55.34,0
11:41:30,0,0,0,0,0,0,0,0,0,0,0,514,0,0,0,0,0.0000000,0.0000000,0.0000000,0.0000000,9.00,38.4063721,-110.7920761,1368.0999756,0.0,294.3,0.9,0.0,0.0,901,130,0,0,860.62,-0.01,55.52,0
11:41:31,0,0,0,0,0,0,0,0,0,0,0,515,0,0,0,0,0.0000000,0.0000000,0.0000000,0.0000000,9.00,38.4063721,-110.7920761,1368.0999756,0.0,292.0,0.9,0.0,0.0,901,134,0,0,860.60,-0.05,55.73,0
11:41:32,0,0,0,0,0,0,0,0,0,0,0,516,0,0,0,0,0.0000000,0.0000000,0.0000000,0.0000000,9.00,38.4063721,-110.7920761,1368.0999756,0.0,319.2,0.9,0.0,0.0,901,134,0,0,860.57,-0.09,55.87,0
11:41:33,0,0,0,0,0,0,0,0,0,0,0,515,0,0,0,0,0.0000000,0.0000000,0.0000000,0.0000000,9.00,38.4063721,-110.7920761,1368.0999756,0.0,306.1,0.9,0.0,0.0,902,135,0,0,860.62,-0.14,55.54,0
11:41:34,0,0,0,0,0,0,0,0,0,0,0,515,0,0,0,0,0.0000000,0.0000000,0.0000000,0.0000000,9.00,38.4063721,-110.7920761,1368.0999756,0.0,144.8,0.9,0.0,0.0,901,129,0,0,860.60,-0.11,55.15,0
11:41:35,0,0,0,0,0,0,0,0,0,0,0,515,0,0,0,0,0.0000000,0.0000000,0.0000000,0.0000000,9.00,38.4063721,-110.7920761,1368.0999756,0.0,107.7,0.9,0.0,0.0,901,134,0,0,860.56,-0.09,55.21,0
11:41:36,0,0,0,0,0,0,0,0,0,0,0,515,0,0,0,0,0.0000000,0.0000000,0.0000000,0.0000000,9.00,38.4063721,-110.7920761,1368.0999756,0.0,110.9,0.9,0.0,0.0,901,133,0,0,860.53,-0.06,55.42,0
11:41:37,0,0,0,0,0,0,0,0,0,0,0,515,0,0,0,0,0.0000000,0.0000000,0.0000000,0.0000000,9.00,38.4063721,-110.7920761,1368.0999756,0.0,114.3,0.9,0.0,0.0,901,133,0,0,860.60,-0.08,55.63,0
11:41:38,0,0,0,0,0,0,0,0,0,0,0,515,0,0,0,0,0.0000000,0.0000000,0.0000000,0.0000000,9.00,38.4063721,-110.7920761,1368.0999756,0.0,104.5,0.9,0.0,0.0,901,136,0,0,860.53,-0.06,55.63,0
11:41:39,0,0,0,0,0,0,0,0,0,0,0,515,0,0,0,0,0.0000000,0.0000000,0.0000000,0.0000000,9.00,38.4063721,-110.7920761,1368.0999756,0.0,94.6,0.9,0.0,0.0,901,131,0,0,860.54,-0.03,55.78,0
11:41:40,0,0,0,0,0,0,0,0,0,0,0,516,0,0,0,0,0.0000000,0.0000000,0.0000000,0.0000000,9.00,38.4063721,-110.7920761,1368.0999756,0.0,356.4,0.9,0.0,0.0,901,132,0,0,860.58,-0.03,55.91,0
11:41:41,0,0,0,0,0,0,0,0,0,0,0,515,0,0,0,0,0.0000000,0.0000000,0.0000000,0.0000000,9.00,38.4063721,-110.7920761,1368.0999756,0.0,280.5,0.9,0.0,0.0,901,132,0,0,860.59,-0.09,56.04,0
11:41:42,0,0,0,0,0,0,0,0,0,0,0,515,0,0,0,0,0.0000000,0.0000000,0.0000000,0.0000000,9.00,38.4063721,-110.7920761,1368.0999756,0.0,289.8,0.9,0.0,0.0,902,128,0,0,860.55,-0.15,56.14,0
11:41:43,0,0,0,0,0,0,0,0,0,0,0,515,0,0,0,0,0.0000000,0.0000000,0.0000000,0.0000000,9.00,38.4063721,-110.7920761,1368.0999756,0.0,290.2,0.9,0.0,0.0,901,132,0,0,860.53,-0.18,56.16,0
11:41:44,0,0,0,0,0,0,0,0,0,0,0,515,0,0,0,0,0.0000000,0.0000000,0.0000000,0.0000000,9.00,38.4063721,-110.7920761,1368.0999756,0.0,288.9,0.9,0.0,0.0,901,133,0,0,860.60,-0.18,56.05,0
11:41:45,0,0,0,0,0,0,0,0,0,0,0,515,0,0,0,0,0.0000000,0.0000000,0.0000000,0.0000000,9.00,38.4063721,-110.7920761,1368.0999756,0.0,287.9,0.9,0.0,0.0,901,128,0,0,860.55,-0.15,56.07,0
11:41:46,0,0,0,0,0,0,0,0,0,0,0,515,0,0,0,0,0.0000000,0.0000000,0.0000000,0.0000000,9.00,38.4063721,-110.7920761,1368.0999756,0.0,149.7,0.9,0.0,0.0,901,126,0,0,860.58,-0.20,56.08,0
11:41:47,0,0,0,0,0,0,0,0,0,0,0,515,0,0,0,0,0.0000000,0.0000000,0.0000000,0.0000000,9.00,38.4063721,-110.7920761,1368.0999756,0.0,106.8,0.9,0.0,0.0,901,128,0,0,860.55,-0.23,55.95,0
11:41:48,0,0,0,0,0,0,0,0,0,0,0,515,0,0,0,0,0.0000000,0.0000000,0.0000000,0.0000000,9.00,38.4063721,-110.7920761,1368.0999756,0.0,105.9,0.9,0.0,0.0,901,132,0,0,860.54,-0.20,56.01,0
11:41:49,0,0,0,0,0,0,0,0,0,0,0,515,0,0,0,0,0.0000000,0.0000000,0.0000000,0.0000000,9.00,38.4063721,-110.7920761,1368.0999756,0.0,101.4,0.9,0.0,0.0,901,135,0,0,860.54,-0.23,55.98,0
11:41:50,0,0,0,0,0,0,0,0,0,0,0,515,0,0,0,0,0.0000000,0.0000000,0.0000000,0.0000000,9.00,38.4063721,-110.7920761,1368.0999756,0.0,108.9,0.9,0.0,0.0,901,131,0,0,860.53,-0.14,56.09,0
11:41:51,0,0,0,0,0,0,0,0,0,0,0,515,0,0,0,0,0.0000000,0.0000000,0.0000000,0.0000000,9.00,38.4063721,-110.7920761,1368.0999756,0.0,103.8,0.9,0.0,0.0,900,133,0,0,860.59,-0.18,56.11,0
11:41:52,0,0,0,0,0,0,0,0,0,0,0,515,0,0,0,0,0.0000000,0.0000000,0.0000000,0.0000000,9.00,38.4063721,-110.7920761,1368.0999756,0.0,44.8,0.9,0.0,0.0,901,135,0,0,860.55,-0.17,56.23,0
11:41:53,0,0,0,0,0,0,0,0,0,0,0,515,0,0,0,0,0.0000000,0.0000000,0.0000000,0.0000000,9.00,38.4063721,-110.7920761,1368.0999756,0.0,301.8,0.9,0.0,0.0,901,136,0,0,860.56,-0.15,56.32,0
11:41:54,0,0,0,0,0,0,0,0,0,0,0,515,0,0,0,0,0.0000000,0.0000000,0.0000000,0.0000000,9.00,38.4063721,-110.7920761,1368.0999756,0.0,290.3,0.9,0.0,0.0,901,132,0,0,860.60,-0.21,56.41,0
11:41:55,0,0,0,0,0,0,0,0,0,0,0,514,0,0,0,0,0.0000000,0.0000000,0.0000000,0.0000000,9.00,38.4063721,-110.7920761,1368.0999756,0.0,292.3,0.9,0.0,0.0,901,131,0,0,860.63,-0.26,56.35,0
11:41:56,0,0,0,0,0,0,0,0,0,0,0,515,0,0,0,0,0.0000000,0.0000000,0.0000000,0.0000000,9.00,38.4063721,-110.7920761,1368.0999756,0.0,286.0,0.9,0.0,0.0,901,138,0,0,860.58,-0.24,56.42,0
11:41:57,0,0,0,0,0,0,0,0,0,0,0,515,0,0,0,0,0.0000000,0.0000000,0.0000000,0.0000000,9.00,38.4063721,-110.7920761,1368.0999756,0.0,293.6,0.9,0.0,0.0,901,134,0,0,860.52,-0.24,56.50,0
11:41:58,0,0,0,0,0,0,0,0,0,0,0,515,0,0,0,0,0.0000000,0.0000000,0.0000000,0.0000000,9.00,38.4063721,-110.7920761,1368.1999512,0.0,148.8,0.9,0.0,0.0,901,132,0,0,860.54,-0.30,56.54,0
11:41:59,0,0,0,0,0,0,0,0,0,0,0,515,0,0,0,0,0.0000000,0.0000000,0.0000000,0.0000000,9.00,38.4063721,-110.7920761,1368.1999512,0.0,83.3,0.9,0.0,0.0,901,131,0,0,860.54,-0.34,56.39,0
11:42:00,0,0,0,0,0,0,0,0,0,0,0,515,0,0,0,0,0.0000000,0.0000000,0.0000000,0.0000000,9.00,38.4063721,-110.7920761,1368.1999512,0.0,17.2,0.9,0.0,0.0,901,130,0,0,860.56,-0.29,56.14,0
11:42:01,0,0,0,0,0,0,0,0,0,0,0,515,0,0,0,0,0.0000000,0.0000000,0.0000000,0.0000000,9.00,38.4063721,-110.7920761,1368.1999512,0.0,68.8,0.9,0.0,0.0,901,130,0,0,860.53,-0.27,56.27,0
11:42:02,0,0,0,0,0,0,0,0,0,0,0,515,0,0,0,0,0.0000000,0.0000000,0.0000000,0.0000000,9.00,38.4063721,-110.7920761,1368.1999512,0.0,358.4,0.9,0.0,0.0,901,134,0,0,860.55,-0.26,56.40,0
11:42:03,0,0,0,0,0,0,0,0,0,0,0,515,0,0,0,0,0.0000000,0.0000000,0.0000000,0.0000000,9.00,38.4063721,-110.7920761,1368.1999512,0.0,334.4,0.9,0.0,0.0,901,132,0,0,860.58,-0.27,56.52,0
11:42:04,0,0,0,0,0,0,0,0,0,0,0,515,0,0,0,0,0.0000000,0.0000000,0.0000000,0.0000000,9.00,38.4063721,-110.7920761,1368.1999512,0.0,9.9,0.9,0.0,0.0,901,134,0,0,860.51,-0.32,56.46,0
11:42:05,0,0,0,0,0,0,0,0,0,0,0,515,0,0,0,0,0.0000000,0.0000000,0.0000000,0.0000000,9.00,38.4063721,-110.7920761,1368.1999512,0.0,268.1,0.9,0.0,0.0,901,131,0,0,860.56,-0.32,56.45,0
11:42:06,0,0,0,0,0,0,0,0,0,0,0,515,0,0,0,0,0.0000000,0.0000000,0.0000000,0.0000000,9.00,38.4063721,-110.7920761,1368.1999512,0.0,289.6,0.9,0.0,0.0,901,136,0,0,860.53,-0.29,56.54,0
11:42:07,0,0,0,0,0,0,0,0,0,0,0,515,0,0,0,0,0.0000000,0.0000000,0.0000000,0.0000000,9.00,38.4063721,-110.7920761,1368.1999512,0.0,288.5,0.9,0.0,0.0,901,134,0,0,860.53,-0.30,56.61,0
11:42:08,0,0,0,0,0,0,0,0,0,0,0,515,0,0,0,0,0.0000000,0.0000000,0.0000000,0.0000000,9.00,38.4063721,-110.7920761,1368.1999512,0.0,143.8,0.9,0.0,0.0,902,129,0,0,860.55,-0.29,56.65,0
11:42:09,0,0,0,0,0,0,0,0,0,0,0,516,0,0,0,0,0.0000000,0.0000000,0.0000000,0.0000000,9.00,38.4063721,-110.7920761,1368.1999512,0.0,276.3,0.9,0.0,0.0,901,127,0,0,860.64,-0.35,56.62,0
11:42:10,0,0,0,0,0,0,0,0,0,0,0,515,0,0,0,0,0.0000000,0.0000000,0.0000000,0.0000000,9.00,38.4063721,-110.7920761,1368.1999512,0.0,153.8,0.9,0.0,0.0,901,134,0,0,860.57,-0.30,56.39,0
11:42:11,0,0,0,0,0,0,0,0,0,0,0,515,0,0,0,0,0.0000000,0.0000000,0.0000000,0.0000000,9.00,38.4063721,-110.7920761,1368.1999512,0.0,118.0,0.9,0.0,0.0,900,132,0,0,860.58,-0.27,56.02,0
11:42:13,0,0,0,0,0,0,0,0,0,0,0,514,0,0,0,0,0.0000000,0.0000000,0.0000000,0.0000000,9.00,38.4063721,-110.7920761,1368.1999512,0.0,50.2,0.9,0.0,0.0,901,131,0,0,860.47,-0.27,56.08,0
11:42:14,0,0,0,0,0,0,0,0,0,0,0,515,0,0,0,0,0.0000000,0.0000000,0.0000000,0.0000000,9.00,38.4063721,-110.7920761,1368.1999512,0.0,355.9,0.9,0.0,0.0,901,133,0,0,860.53,-0.29,55.97,0
11:42:15,0,0,0,0,0,0,0,0,0,0,0,516,0,0,0,0,0.0000000,0.0000000,0.0000000,0.0000000,9.00,38.4063721,-110.7920761,1368.1999512,0.0,62.7,0.9,0.0,0.0,901,133,0,0,860.53,-0.24,56.12,0
11:42:16,0,0,0,0,0,0,0,0,0,0,0,515,0,0,0,0,0.0000000,0.0000000,0.0000000,0.0000000,9.00,38.4063721,-110.7920761,1368.1999512,0.0,71.3,0.9,0.0,0.0,901,137,0,0,860.54,-0.23,56.33,0
11:42:17,0,0,0,0,0,0,0,0,0,0,0,515,0,0,0,0,0.0000000,0.0000000,0.0000000,0.0000000,9.00,38.4063721,-110.7920761,1368.1999512,0.0,0.6,0.9,0.0,0.0,902,135,0,0,860.49,-0.21,56.47,0
11:42:18,0,0,0,0,0,0,0,0,0,0,0,515,0,0,0,0,0.0000000,0.0000000,0.0000000,0.0000000,9.00,38.4063721,-110.7920761,1368.1999512,0.0,285.2,0.9,0.0,0.0,902,140,0,0,860.56,-0.26,56.33,0
11:42:19,0,0,0,0,0,0,0,0,0,0,0,515,0,0,0,0,0.0000000,0.0000000,0.0000000,0.0000000,9.00,38.4063721,-110.7920761,1368.1999512,0.0,319.3,0.9,0.0,0.0,901,143,0,0,860.54,-0.27,56.21,0
11:42:20,0,0,0,0,0,0,0,0,0,0,0,515,0,0,0,0,0.0000000,0.0000000,0.0000000,0.0000000,9.00,38.4063721,-110.7920761,1368.1999512,0.0,161.4,0.9,0.0,0.0,902,138,0,0,860.49,-0.26,56.14,0
11:42:21,0,0,0,0,0,0,0,0,0,0,0,515,0,0,0,0,0.0000000,0.0000000,0.0000000,0.0000000,9.00,38.4063721,-110.7920761,1368.1999512,0.0,143.9,0.9,0.0,0.0,901,138,0,0,860.48,-0.24,56.24,0
11:42:22,0,0,0,0,0,0,0,0,0,0,0,515,0,0,0,0,0.0000000,0.0000000,0.0000000,0.0000000,9.00,38.4063721,-110.7920761,1368.1999512,0.0,162.9,0.9,0.0,0.0,901,143,0,0,860.54,-0.21,56.40,0
11:42:23,0,0,0,0,0,0,0,0,0,0,0,515,0,0,0,0,0.0000000,0.0000000,0.0000000,0.0000000,9.00,38.4063721,-110.7920761,1368.1999512,0.0,160.7,0.9,0.0,0.0,901,138,0,0,860.52,-0.23,56.51,0
11:42:24,0,0,0,0,0,0,0,0,0,0,0,515,0,0,0,0,0.0000000,0.0000000,0.0000000,0.0000000,9.00,38.4063721,-110.7920761,1368.1999512,0.0,2.9,0.9,0.0,0.0,901,138,0,0,860.58,-0.26,56.48,0
11:42:25,0,0,0,0,0,0,0,0,0,0,0,514,0,0,0,0,0.0000000,0.0000000,0.0000000,0.0000000,9.00,38.4063721,-110.7920761,1368.1999512,0.0,116.0,0.9,0.0,0.0,901,141,0,0,860.52,-0.29,56.29,0
11:42:26,0,0,0,0,0,0,0,0,0,0,0,516,0,0,0,0,0.0000000,0.0000000,0.0000000,0.0000000,9.00,38.4063721,-110.7920761,1368.1999512,0.0,115.9,0.9,0.0,0.0,901,138,0,0,860.54,-0.26,56.21,0
11:42:27,0,0,0,0,0,0,0,0,0,0,0,515,0,0,0,0,0.0000000,0.0000000,0.0000000,0.0000000,9.00,38.4063721,-110.7920761,1368.1999512,0.0,113.5,0.9,0.0,0.0,901,141,0,0,860.51,-0.27,56.19,0
11:42:28,0,0,0,0,0,0,0,0,0,0,0,515,0,0,0,0,0.0000000,0.0000000,0.0000000,0.0000000,9.00,38.4063721,-110.7920761,1368.1999512,0.0,114.5,0.9,0.0,0.0,902,144,0,0,860.56,-0.27,55.90,0
11:42:29,0,0,0,0,0,0,0,0,0,0,0,515,0,0,0,0,0.0000000,0.0000000,0.0000000,0.0000000,9.00,38.4063721,-110.7920761,1368.1999512,0.0,11.1,0.9,0.0,0.0,901,142,0,0,860.52,-0.18,55.52,0
11:42:30,0,0,0,0,0,0,0,0,0,0,0,515,0,0,0,0,0.0000000,0.0000000,0.0000000,0.0000000,9.00,38.4063721,-110.7920761,1368.1999512,0.0,266.0,0.9,0.0,0.0,901,139,0,0,860.50,-0.17,55.26,0
11:42:31,0,0,0,0,0,0,0,0,0,0,0,515,0,0,0,0,0.0000000,0.0000000,0.0000000,0.0000000,9.00,38.4063721,-110.7920761,1368.1999512,0.0,287.2,0.9,0.0,0.0,901,144,0,0,860.44,-0.12,54.95,0
11:42:32,0,0,0,0,0,0,0,0,0,0,0,515,0,0,0,0,0.0000000,0.0000000,0.0000000,0.0000000,9.00,38.4063721,-110.7920761,1368.1999512,0.0,311.2,0.9,0.0,0.0,901,143,0,0,860.48,-0.09,55.08,0
11:42:33,0,0,0,0,0,0,0,0,0,0,0,515,0,0,0,0,0.0000000,0.0000000,0.0000000,0.0000000,9.00,38.4063721,-110.7920761,1368.1999512,0.0,276.9,0.9,0.0,0.0,901,140,0,0,860.41,-0.08,55.11,0
11:42:34,0,0,0,0,0,0,0,0,0,0,0,515,0,0,0,0,0.0000000,0.0000000,0.0000000,0.0000000,9.00,38.4063721,-110.7920761,1368.1999512,0.0,132.1,0.9,0.0,0.0,901,139,0,0,860.42,-0.01,55.06,0
11:42:35,0,0,0,0,0,0,0,0,0,0,0,515,0,0,0,0,0.0000000,0.0000000,0.0000000,0.0000000,9.00,38.4063721,-110.7920761,1368.1999512,0.0,218.2,0.9,0.0,0.0,901,140,0,0,860.48,-0.06,54.96,0
11:42:36,0,0,0,0,0,0,0,0,0,0,0,515,0,0,0,0,0.0000000,0.0000000,0.0000000,0.0000000,9.00,38.4063721,-110.7920761,1368.1999512,0.0,324.9,0.9,0.0,0.0,901,142,0,0,860.44,0.00,55.09,0
11:42:37,0,0,0,0,0,0,0,0,0,0,0,515,0,0,0,0,0.0000000,0.0000000,0.0000000,0.0000000,9.00,38.4063721,-110.7920761,1368.1999512,0.0,305.8,0.9,0.0,0.0,901,139,0,0,860.47,-0.06,55.37,0
11:42:38,0,0,0,0,0,0,0,0,0,0,0,515,0,0,0,0,0.0000000,0.0000000,0.0000000,0.0000000,9.00,38.4063721,-110.7920761,1368.1999512,0.0,331.4,0.9,0.0,0.0,901,147,0,0,860.47,-0.08,55.34,0
11:42:39,0,0,0,0,0,0,0,0,0,0,0,514,0,0,0,0,0.0000000,0.0000000,0.0000000,0.0000000,9.00,38.4063721,-110.7920761,1368.1999512,0.0,104.2,0.9,0.0,0.0,901,140,0,0,860.48,-0.08,55.13,0
11:42:40,0,0,0,0,0,0,0,0,0,0,0,515,0,0,0,0,0.0000000,0.0000000,0.0000000,0.0000000,9.00,38.4063721,-110.7920761,1368.1999512,0.0,77.5,0.9,0.0,0.0,901,137,0,0,860.47,-0.11,54.97,0
11:42:41,0,0,0,0,0,0,0,0,0,0,0,516,0,0,0,0,0.0000000,0.0000000,0.0000000,0.0000000,9.00,38.4063721,-110.7920761,1368.1999512,0.0,335.2,0.9,0.0,0.0,901,140,0,0,860.48,-0.05,54.67,0
11:42:42,0,0,0,0,0,0,0,0,0,0,0,514,0,0,0,0,0.0000000,0.0000000,0.0000000,0.0000000,9.00,38.4063721,-110.7920761,1368.1999512,0.0,249.4,0.9,0.0,0.0,901,144,0,0,860.40,0.03,54.74,0
11:42:43,0,0,0,0,0,0,0,0,0,0,0,515,0,0,0,0,0.0000000,0.0000000,0.0000000,0.0000000,9.00,38.4063721,-110.7920761,1368.1999512,0.0,248.0,0.9,0.0,0.0,901,144,0,0,860.42,-0.01,54.89,0
11:42:44,0,0,0,0,0,0,0,0,0,0,0,515,0,0,0,0,0.0000000,0.0000000,0.0000000,0.0000000,9.00,38.4063721,-110.7920761,1368.1999512,0.0,225.7,0.9,0.0,0.0,901,140,0,0,860.42,-0.03,54.95,0
11:42:45,0,0,0,0,0,0,0,0,0,0,0,515,0,0,0,0,0.0000000,0.0000000,0.0000000,0.0000000,9.00,38.4063721,-110.7920761,1368.1999512,0.0,267.6,0.9,0.0,0.0,901,140,0,0,860.39,-0.01,54.72,0
11:42:46,0,0,0,0,0,0,0,0,0,0,0,515,0,0,0,0,0.0000000,0.0000000,0.0000000,0.0000000,9.00,38.4063721,-110.7920761,1368.1999512,0.0,263.9,0.9,0.0,0.0,901,140,0,0,860.44,-0.01,54.79,0
11:42:47,0,0,0,0,0,0,0,0,0,0,0,515,0,0,0,0,0.0000000,0.0000000,0.0000000,0.0000000,9.00,38.4063721,-110.7920761,1368.1999512,0.0,162.0,0.9,0.0,0.0,901,148,0,0,860.40,-0.05,54.90,0
11:42:48,0,0,0,0,0,0,0,0,0,0,0,515,0,0,0,0,0.0000000,0.0000000,0.0000000,0.0000000,9.00,38.4063721,-110.7920761,1368.1999512,0.0,107.6,0.9,0.0,0.0,901,142,0,0,860.42,0.02,54.96,0
11:42:49,0,0,0,0,0,0,0,0,0,0,0,515,0,0,0,0,0.0000000,0.0000000,0.0000000,0.0000000,9.00,38.4063721,-110.7920761,1368.1999512,0.0,79.1,0.9,0.0,0.0,901,142,0,0,860.44,-0.01,55.16,0
11:42:50,0,0,0,0,0,0,0,0,0,0,0,515,0,0,0,0,0.0000000,0.0000000,0.0000000,0.0000000,9.00,38.4063721,-110.7920761,1368.1999512,0.0,96.2,0.9,0.0,0.0,901,140,0,0,860.47,-0.06,55.22,0
11:42:51,0,0,0,0,0,0,0,0,0,0,0,515,0,0,0,0,0.0000000,0.0000000,0.0000000,0.0000000,9.00,38.4063721,-110.7920761,1368.1999512,0.0,94.7,0.9,0.0,0.0,901,142,0,0,860.41,-0.08,55.35,0
11:42:52,0,0,0,0,0,0,0,0,0,0,0,516,0,0,0,0,0.0000000,0.0000000,0.0000000,0.0000000,9.00,38.4063721,-110.7920761,1368.1999512,0.0,80.4,0.9,0.0,0.0,901,149,0,0,860.46,-0.12,55.23,0
11:42:53,0,0,0,0,0,0,0,0,0,0,0,515,0,0,0,0,0.0000000,0.0000000,0.0000000,0.0000000,9.00,38.4063721,-110.7920761,1368.1999512,0.0,9.9,0.9,0.0,0.0,901,140,0,0,860.48,-0.12,55.15,0
11:42:54,0,0,0,0,0,0,0,0,0,0,0,515,0,0,0,0,0.0000000,0.0000000,0.0000000,0.0000000,9.00,38.4063721,-110.7920761,1368.1999512,0.0,218.4,0.9,0.0,0.0,901,139,0,0,860.46,-0.11,55.18,0
11:42:55,0,0,0,0,0,0,0,0,0,0,0,516,0,0,0,0,0.0000000,0.0000000,0.0000000,0.0000000,9.00,38.4063721,-110.7920761,1368.1999512,0.0,242.8,0.9,0.0,0.0,901,142,0,0,860.40,-0.08,54.90,0
11:42:56,0,0,0,0,0,0,0,0,0,0,0,515,0,0,0,0,0.0000000,0.0000000,0.0000000,0.0000000,9.00,38.4063721,-110.7920761,1368.1999512,0.0,213.2,0.9,0.0,0.0,901,140,0,0,860.40,-0.05,54.98,0
11:42:57,0,0,0,0,0,0,0,0,0,0,0,515,0,0,0,0,0.0000000,0.0000000,0.0000000,0.0000000,9.00,38.4063721,-110.7920761,1368.1999512,0.0,245.3,0.9,0.0,0.0,901,139,0,0,860.40,-0.05,54.92,0
11:42:58,0,0,0,0,0,0,0,0,0,0,0,516,0,0,0,0,0.0000000,0.0000000,0.0000000,0.0000000,9.00,38.4063721,-110.7920761,1368.1999512,0.0,238.2,0.9,0.0,0.0,901,142,0,0,860.39,-0.08,54.67,0
11:42:59,0,0,0,0,0,0,0,0,0,0,0,515,0,0,0,0,0.0000000,0.0000000,0.0000000,0.0000000,9.00,38.4063721,-110.7920761,1368.1999512,0.0,201.9,0.9,0.0,0.0,901,140,0,0,860.39,0.00,54.53,0
11:43:00,0,0,0,0,0,0,0,0,0,0,0,515,0,0,0,0,0.0000000,0.0000000,0.0000000,0.0000000,9.00,38.4063721,-110.7920761,1368.1999512,0.0,40.5,0.9,0.0,0.0,901,141,0,0,860.44,0.05,54.27,0
11:43:01,0,0,0,0,0,0,0,0,0,0,0,514,0,0,0,0,0.0000000,0.0000000,0.0000000,0.0000000,9.00,38.4063721,-110.7920761,1368.1999512,0.0,26.0,0.9,0.0,0.0,901,143,0,0,860.38,0.03,53.93,0
11:43:02,0,0,0,0,0,0,0,0,0,0,0,515,0,0,0,0,0.0000000,0.0000000,0.0000000,0.0000000,9.00,38.4063721,-110.7920761,1368.1999512,0.0,67.6,0.9,0.0,0.0,901,144,0,0,860.37,0.09,53.73,0
11:43:03,0,0,0,0,0,0,0,0,0,0,0,515,0,0,0,0,0.0000000,0.0000000,0.0000000,0.0000000,9.00,38.4063721,-110.7920761,1368.1999512,0.0,70.5,0.9,0.0,0.0,901,143,0,0,860.43,0.15,53.37,0
11:43:04,0,0,0,0,0,0,0,0,0,0,0,515,0,0,0,0,0.0000000,0.0000000,0.0000000,0.0000000,9.00,38.4063721,-110.7920761,1368.1999512,0.0,98.4,0.9,0.0,0.0,901,142,0,0,860.32,0.24,53.24,0
11:43:05,0,0,0,0,0,0,0,0,0,0,0,516,0,0,0,0,0.0000000,0.0000000,0.0000000,0.0000000,9.00,38.4063721,-110.7920761,1368.1999512,0.0,98.4,0.9,0.0,0.0,901,144,0,0,860.30,0.28,53.31,0
11:43:06,0,0,0,0,0,0,0,0,0,0,0,515,0,0,0,0,0.0000000,0.0000000,0.0000000,0.0000000,9.00,38.4063721,-110.7920761,1368.1999512,0.0,263.3,0.9,0.0,0.0,901,144,0,0,860.30,0.26,53.56,0
11:43:07,0,0,0,0,0,0,0,0,0,0,0,515,0,0,0,0,0.0000000,0.0000000,0.0000000,0.0000000,9.00,38.4063721,-110.7920761,1368.1999512,0.0,96.1,0.9,0.0,0.0,901,146,0,0,860.39,0.23,53.56,0
11:43:08,0,0,0,0,0,0,0,0,0,0,0,515,0,0,0,0,0.0000000,0.0000000,0.0000000,0.0000000,9.00,38.4063721,-110.7920761,1368.1999512,0.0,288.4,0.9,0.0,0.0,901,146,0,0,860.34,0.26,53.46,0
11:43:09,0,0,0,0,0,0,0,0,0,0,0,515,0,0,0,0,0.0000000,0.0000000,0.0000000,0.0000000,9.00,38.4063721,-110.7920761,1368.1999512,0.0,255.8,0.9,0.0,0.0,901,141,0,0,860.38,0.31,53.24,0
11:43:10,0,0,0,0,0,0,0,0,0,0,0,514,0,0,0,0,0.0000000,0.0000000,0.0000000,0.0000000,9.00,38.4063721,-110.7920761,1368.1999512,0.0,178.9,0.9,0.0,0.0,901,141,0,0,860.37,0.28,53.28,0
11:43:11,0,0,0,0,0,0,0,0,0,0,0,515,0,0,0,0,0.0000000,0.0000000,0.0000000,0.0000000,9.00,38.4063721,-110.7920761,1368.1999512,0.0,96.2,0.9,0.0,0.0,901,138,0,0,860.31,0.29,53.26,0
11:43:12,0,0,0,0,0,0,0,0,0,0,0,515,0,0,0,0,0.0000000,0.0000000,0.0000000,0.0000000,9.00,38.4063721,-110.7920761,1368.1999512,0.0,92.4,0.9,0.0,0.0,901,142,0,0,860.31,0.32,53.18,0
11:43:13,0,0,0,0,0,0,0,0,0,0,0,514,0,0,0,0,0.0000000,0.0000000,0.0000000,0.0000000,9.00,38.4063721,-110.7920761,1368.1999512,0.0,70.8,0.9,0.0,0.0,901,137,0,0,860.32,0.26,53.15,0
11:43:14,0,0,0,0,0,0,0,0,0,0,0,515,0,0,0,0,0.0000000,0.0000000,0.0000000,0.0000000,9.00,38.4063721,-110.7920761,1368.1999512,0.0,101.5,0.9,0.0,0.0,901,136,0,0,860.31,0.31,53.18,0
11:43:15,0,0,0,0,0,0,0,0,0,0,0,515,0,0,0,0,0.0000000,0.0000000,0.0000000,0.0000000,9.00,38.4063721,-110.7920761,1368.1999512,0.0,89.8,0.9,0.0,0.0,901,137,0,0,860.34,0.32,53.47,0
11:43:16,0,0,0,0,0,0,0,0,0,0,0,515,0,0,0,0,0.0000000,0.0000000,0.0000000,0.0000000,9.00,38.4063721,-110.7920761,1368.1999512,0.0,340.7,0.9,0.0,0.0,901,139,0,0,860.35,0.28,53.70,0
11:43:17,0,0,0,0,0,0,0,0,0,0,0,515,0,0,0,0,0.0000000,0.0000000,0.0000000,0.0000000,9.00,38.4063721,-110.7920761,1368.1999512,0.0,277.0,0.9,0.0,0.0,901,140,0,0,860.33,0.28,53.43,0
11:43:18,0,0,0,0,0,0,0,0,0,0,0,515,0,0,0,0,0.0000000,0.0000000,0.0000000,0.0000000,9.00,38.4063721,-110.7920761,1368.1999512,0.0,256.9,0.9,0.0,0.0,901,144,0,0,860.30,0.35,53.24,0
11:43:19,0,0,0,0,0,0,0,0,0,0,0,515,0,0,0,0,0.0000000,0.0000000,0.0000000,0.0000000,9.00,38.4063721,-110.7920761,1368.1999512,0.0,266.6,0.9,0.0,0.0,901,150,0,0,860.34,0.37,52.97,0
11:43:20,0,0,0,0,0,0,0,0,0,0,0,515,0,0,0,0,0.0000000,0.0000000,0.0000000,0.0000000,9.00,38.4063721,-110.7920761,1368.1999512,0.0,266.5,0.9,0.0,0.0,901,144,0,0,860.25,0.37,53.12,0
11:43:21,0,0,0,0,0,0,0,0,0,0,0,515,0,0,0,0,0.0000000,0.0000000,0.0000000,0.0000000,9.00,38.4063721,-110.7920761,1368.1999512,0.0,279.9,0.9,0.0,0.0,901,143,0,0,860.32,0.38,53.25,0
11:43:22,0,0,0,0,0,0,0,0,0,0,0,516,0,0,0,0,0.0000000,0.0000000,0.0000000,0.0000000,9.00,38.4063721,-110.7920761,1368.1999512,0.0,172.8,0.9,0.0,0.0,901,143,0,0,860.34,0.35,53.22,0
11:43:23,0,0,0,0,0,0,0,0,0,0,0,516,0,0,0,0,0.0000000,0.0000000,0.0000000,0.0000000,9.00,38.4063721,-110.7920761,1368.1999512,0.0,113.1,0.9,0.0,0.0,901,144,0,0,860.30,0.38,53.26,0
11:43:24,0,0,0,0,0,0,0,0,0,0,0,515,0,0,0,0,0.0000000,0.0000000,0.0000000,0.0000000,9.00,38.4063721,-110.7920761,1368.1999512,0.0,98.0,0.9,0.0,0.0,901,147,0,0,860.33,0.35,53.33,0
11:43:25,0,0,0,0,0,0,0,0,0,0,0,516,0,0,0,0,0.0000000,0.0000000,0.0000000,0.0000000,9.00,38.4063721,-110.7920761,1368.1999512,0.0,114.6,0.9,0.0,0.0,901,143,0,0,860.29,0.35,53.44,0
11:43:26,0,0,0,0,0,0,0,0,0,0,0,516,0,0,0,0,0.0000000,0.0000000,0.0000000,0.0000000,9.00,38.4063721,-110.7920761,1368.1999512,0.0,87.7,0.9,0.0,0.0,901,147,0,0,860.34,0.34,53.51,0
11:43:27,0,0,0,0,0,0,0,0,0,0,0,514,0,0,0,0,0.0000000,0.0000000,0.0000000,0.0000000,9.00,38.4063721,-110.7920761,1368.1999512,0.0,84.7,0.9,0.0,0.0,901,152,0,0,860.38,0.34,53.40,0
11:43:28,0,0,0,0,0,0,0,0,0,0,0,515,0,0,0,0,0.0000000,0.0000000,0.0000000,0.0000000,9.00,38.4063721,-110.7920761,1368.1999512,0.0,348.0,0.9,0.0,0.0,901,149,0,0,860.31,0.34,53.42,0
11:43:29,0,0,0,0,0,0,0,0,0,0,0,515,0,0,0,0,0.0000000,0.0000000,0.0000000,0.0000000,9.00,38.4063721,-110.7920761,1368.1999512,0.0,276.7,0.9,0.0,0.0,901,146,0,0,860.34,0.37,53.38,0
11:43:30,0,0,0,0,0,0,0,0,0,0,0,515,0,0,0,0,0.0000000,0.0000000,0.0000000,0.0000000,9.00,38.4063721,-110.7920761,1368.1999512,0.0,307.0,0.9,0.0,0.0,901,148,0,0,860.28,0.41,53.30,0
11:43:31,0,0,0,0,0,0,0,0,0,0,0,514,0,0,0,0,0.0000000,0.0000000,0.0000000,0.0000000,9.00,38.4063721,-110.7920761,1368.1999512,0.0,261.3,0.9,0.0,0.0,901,145,0,0,860.32,0.40,53.20,0
11:43:32,0,0,0,0,0,0,0,0,0,0,0,515,0,0,0,0,0.0000000,0.0000000,0.0000000,0.0000000,9.00,38.4063721,-110.7920761,1368.1999512,0.0,269.5,0.9,0.0,0.0,900,143,0,0,860.29,0.38,53.10,0
11:43:33,0,0,0,0,0,0,0,0,0,0,0,515,0,0,0,0,0.0000000,0.0000000,0.0000000,0.0000000,9.00,38.4063721,-110.7920761,1368.1999512,0.0,266.4,0.9,0.0,0.0,901,146,0,0,860.32,0.40,53.07,0
11:43:34,0,0,0,0,0,0,0,0,0,0,0,514,0,0,0,0,0.0000000,0.0000000,0.0000000,0.0000000,9.00,38.4063721,-110.7920761,1368.1999512,0.0,164.5,0.9,0.0,0.0,901,146,0,0,860.29,0.43,52.93,0
11:43:35,0,0,0,0,0,0,0,0,0,0,0,515,0,0,0,0,0.0000000,0.0000000,0.0000000,0.0000000,9.00,38.4063721,-110.7920761,1368.1999512,0.0,107.8,0.9,0.0,0.0,901,146,0,0,860.35,0.40,52.99,0
11:43:36,0,0,0,0,0,0,0,0,0,0,0,515,0,0,0,0,0.0000000,0.0000000,0.0000000,0.0000000,9.00,38.4063721,-110.7920761,1368.1999512,0.0,80.2,0.9,0.0,0.0,901,145,0,0,860.29,0.44,52.98,0
11:43:37,0,0,0,0,0,0,0,0,0,0,0,515,0,0,0,0,0.0000000,0.0000000,0.0000000,0.0000000,9.00,38.4063721,-110.7920761,1368.1999512,0.0,89.2,0.9,0.0,0.0,901,142,0,0,860.30,0.38,53.15,0
11:43:38,0,0,0,0,0,0,0,0,0,0,0,515,0,0,0,0,0.0000000,0.0000000,0.0000000,0.0000000,9.00,38.4063721,-110.7920761,1368.1999512,0.0,98.0,0.9,0.0,0.0,901,138,0,0,860.30,0.41,52.96,0
11:43:39,0,0,0,0,0,0,0,0,0,0,0,515,0,0,0,0,0.0000000,0.0000000,0.0000000,0.0000000,9.00,38.4063721,-110.7920761,1368.1999512,0.0,93.2,0.9,0.0,0.0,901,138,0,0,860.29,0.40,53.08,0
11:43:40,0,0,0,0,0,0,0,0,0,0,0,514,0,0,0,0,0.0000000,0.0000000,0.0000000,0.0000000,9.00,38.4063721,-110.7920761,1368.1999512,0.0,17.3,0.9,0.0,0.0,901,138,0,0,860.31,0.40,53.02,0
11:43:41,0,0,0,0,0,0,0,0,0,0,0,514,0,0,0,0,0.0000000,0.0000000,0.0000000,0.0000000,9.00,38.4063721,-110.7920761,1368.1999512,0.0,276.8,0.9,0.0,0.0,901,132,0,0,860.32,0.40,52.95,0
11:43:42,0,0,0,0,0,0,0,0,0,0,0,515,0,0,0,0,0.0000000,0.0000000,0.0000000,0.0000000,9.00,38.4063721,-110.7920761,1368.1999512,0.0,261.9,0.9,0.0,0.0,901,135,0,0,860.25,0.41,52.97,0
11:43:43,0,0,0,0,0,0,0,0,0,0,0,515,0,0,0,0,0.0000000,0.0000000,0.0000000,0.0000000,9.00,38.4063721,-110.7920761,1368.1999512,0.0,249.6,0.9,0.0,0.0,901,134,0,0,860.28,0.40,53.19,0
11:43:44,0,0,0,0,0,0,0,0,0,0,0,515,0,0,0,0,0.0000000,0.0000000,0.0000000,0.0000000,9.00,38.4063721,-110.7920761,1368.1999512,0.0,257.0,0.9,0.0,0.0,901,136,0,0,860.34,0.35,53.30,0
11:43:45,0,0,0,0,0,0,0,0,0,0,0,515,0,0,0,0,0.0000000,0.0000000,0.0000000,0.0000000,9.00,38.4063721,-110.7920761,1368.1999512,0.0,288.5,0.9,0.0,0.0,901,135,0,0,860.32,0.31,53.37,0
11:43:46,0,0,0,0,0,0,0,0,0,0,0,515,0,0,0,0,0.0000000,0.0000000,0.0000000,0.0000000,9.00,38.4063721,-110.7920761,1368.1999512,0.0,202.5,0.9,0.0,0.0,901,132,0,0,860.27,0.32,53.33,0
11:43:47,0,0,0,0,0,0,0,0,0,0,0,515,0,0,0,0,0.0000000,0.0000000,0.0000000,0.0000000,9.00,38.4063721,-110.7920761,1368.1999512,0.0,94.9,0.9,0.0,0.0,901,137,0,0,860.29,0.29,53.43,0
11:43:48,0,0,0,0,0,0,0,0,0,0,0,515,0,0,0,0,0.0000000,0.0000000,0.0000000,0.0000000,9.00,38.4063721,-110.7920761,1368.1999512,0.0,48.9,0.9,0.0,0.0,901,134,0,0,860.33,0.28,53.57,0
11:43:49,0,0,0,0,0,0,0,0,0,0,0,515,0,0,0,0,0.0000000,0.0000000,0.0000000,0.0000000,9.00,38.4063721,-110.7920761,1368.1999512,0.0,101.5,0.9,0.0,0.0,901,134,0,0,860.30,0.26,53.62,0
11:43:50,0,0,0,0,0,0,0,0,0,0,0,514,0,0,0,0,0.0000000,0.0000000,0.0000000,0.0000000,9.00,38.4063721,-110.7920761,1368.1999512,0.0,95.4,0.9,0.0,0.0,901,139,0,0,860.27,0.29,53.47,0
11:43:51,0,0,0,0,0,0,0,0,0,0,0,515,0,0,0,0,0.0000000,0.0000000,0.0000000,0.0000000,9.00,38.4063721,-110.7920761,1368.1999512,0.0,118.8,0.9,0.0,0.0,901,134,0,0,860.35,0.29,53.42,0
11:43:52,0,0,0,0,0,0,0,0,0,0,0,515,0,0,0,0,0.0000000,0.0000000,0.0000000,0.0000000,9.00,38.4063721,-110.7920761,1368.1999512,0.0,342.5,0.9,0.0,0.0,901,137,0,0,860.30,0.31,53.13,0
11:43:54,0,0,0,0,0,0,0,0,0,0,0,515,0,0,0,0,0.0000000,0.0000000,0.0000000,0.0000000,9.00,38.4063721,-110.7920761,1368.1999512,0.0,292.0,0.9,0.0,0.0,901,135,0,0,860.29,0.38,53.33,0
11:43:55,0,0,0,0,0,0,0,0,0,0,0,515,0,0,0,0,0.0000000,0.0000000,0.0000000,0.0000000,9.00,38.4063721,-110.7920761,1368.1999512,0.0,266.4,0.9,0.0,0.0,901,134,0,0,860.36,0.29,53.43,0
11:43:56,0,0,0,0,0,0,0,0,0,0,0,515,0,0,0,0,0.0000000,0.0000000,0.0000000,0.0000000,9.00,38.4063721,-110.7920761,1368.1999512,0.0,260.6,0.9,0.0,0.0,901,135,0,0,860.26,0.28,53.38,0
11:43:57,0,0,0,0,0,0,0,0,0,0,0,516,0,0,0,0,0.0000000,0.0000000,0.0000000,0.0000000,9.00,38.4063721,-110.7920761,1368.3000488,0.0,282.1,0.9,0.0,0.0,901,133,0,0,860.30,0.34,53.40,0
11:43:58,0,0,0,0,0,0,0,0,0,0,0,515,0,0,0,0,0.0000000,0.0000000,0.0000000,0.0000000,9.00,38.4063721,-110.7920761,1368.4000244,0.0,261.0,0.9,0.0,0.0,901,139,0,0,860.30,0.31,53.33,0
11:43:59,0,0,0,0,0,0,0,0,0,0,0,515,0,0,0,0,0.0000000,0.0000000,0.0000000,0.0000000,9.00,38.4063683,-110.7920761,1368.5000000,0.0,157.5,0.9,0.0,0.0,900,133,0,0,860.32,0.34,53.45,0
11:44:00,0,0,0,0,0,0,0,0,0,0,0,516,0,0,0,0,0.0000000,0.0000000,0.0000000,0.0000000,9.00,38.4063683,-110.7920609,1368.5000000,0.0,100.9,0.9,0.0,0.0,901,136,0,0,860.26,0.28,53.61,0
11:44:01,0,0,0,0,0,0,0,0,0,0,0,515,0,0,0,0,0.0000000,0.0000000,0.0000000,0.0000000,9.00,38.4063683,-110.7920609,1368.5999756,0.0,103.2,0.9,0.0,0.0,901,135,0,0,860.30,0.26,53.76,0
11:44:02,0,0,0,0,0,0,0,0,0,0,0,515,0,0,0,0,0.0000000,0.0000000,0.0000000,0.0000000,9.00,38.4063683,-110.7920609,1368.5000000,0.0,6.4,0.9,0.0,0.0,901,134,0,0,860.29,0.23,53.82,0
11:44:03,0,0,0,0,0,0,0,0,0,0,0,515,0,0,0,0,0.0000000,0.0000000,0.0000000,0.0000000,9.00,38.4063683,-110.7920609,1368.5000000,0.0,8.7,0.9,0.0,0.0,901,139,0,0,860.33,0.20,53.81,0
11:44:04,0,0,0,0,0,0,0,0,0,0,0,515,0,0,0,0,0.0000000,0.0000000,0.0000000,0.0000000,9.00,38.4063683,-110.7920609,1368.5000000,0.0,57.3,0.9,0.0,0.0,901,141,0,0,860.35,0.24,53.74,0
11:44:05,0,0,0,0,0,0,0,0,0,0,0,515,0,0,0,0,0.0000000,0.0000000,0.0000000,0.0000000,9.00,38.4063683,-110.7920609,1368.5999756,0.0,323.7,0.9,0.0,0.0,901,139,0,0,860.34,0.20,53.68,0
11:44:06,0,0,0,0,0,0,0,0,0,0,0,515,0,0,0,0,0.0000000,0.0000000,0.0000000,0.0000000,9.00,38.4063683,-110.7920609,1368.5999756,0.0,186.3,0.9,0.0,0.0,901,141,0,0,860.31,0.23,53.42,0
11:44:07,0,0,0,0,0,0,0,0,0,0,0,515,0,0,0,0,0.0000000,0.0000000,0.0000000,0.0000000,9.00,38.4063683,-110.7920609,1368.5999756,0.0,178.7,0.9,0.0,0.0,901,143,0,0,860.41,0.21,53.27,0
11:44:08,0,0,0,0,0,0,0,0,0,0,0,515,0,0,0,0,0.0000000,0.0000000,0.0000000,0.0000000,9.00,38.4063683,-110.7920609,1368.5999756,0.0,178.3,0.9,0.0,0.0,901,144,0,0,860.32,0.28,53.34,0
11:44:09,0,0,0,0,0,0,0,0,0,0,0,515,0,0,0,0,0.0000000,0.0000000,0.0000000,0.0000000,9.00,38.4063683,-110.7920609,1368.5999756,0.0,186.3,0.9,0.0,0.0,901,137,0,0,860.29,0.21,53.34,0
11:44:10,0,0,0,0,0,0,0,0,0,0,0,515,0,0,0,0,0.0000000,0.0000000,0.0000000,0.0000000,9.00,38.4063683,-110.7920609,1368.5999756,0.0,172.1,0.9,0.0,0.0,901,139,0,0,860.30,0.21,53.40,0
11:44:11,0,0,0,0,0,0,0,0,0,0,0,516,0,0,0,0,0.0000000,0.0000000,0.0000000,0.0000000,9.00,38.4063683,-110.7920609,1368.5999756,0.0,173.9,0.9,0.0,0.0,901,142,0,0,860.29,0.24,53.59,0
11:44:12,0,0,0,0,0,0,0,0,0,0,0,516,0,0,0,0,0.0000000,0.0000000,0.0000000,0.0000000,9.00,38.4063683,-110.7920609,1368.5999756,0.0,35.0,0.9,0.0,0.0,901,138,0,0,860.31,0.24,53.73,0
11:44:13,0,0,0,0,0,0,0,0,0,0,0,516,0,0,0,0,0.0000000,0.0000000,0.0000000,0.0000000,9.00,38.4063683,-110.7920609,1368.5999756,0.0,26.4,0.9,0.0,0.0,901,138,0,0,860.35,0.18,53.77,0
11:44:14,0,0,0,0,0,0,0,0,0,0,0,515,0,0,0,0,0.0000000,0.0000000,0.0000000,0.0000000,9.00,38.4063683,-110.7920609,1368.5999756,0.0,20.7,0.9,0.0,0.0,901,135,0,0,860.30,0.17,53.63,0
11:44:15,0,0,0,0,0,0,0,0,0,0,0,515,0,0,0,0,0.0000000,0.0000000,0.0000000,0.0000000,9.00,38.4063683,-110.7920609,1368.5999756,0.0,27.6,0.9,0.0,0.0,901,134,0,0,860.25,0.17,53.63,0
11:44:16,0,0,0,0,0,0,0,0,0,0,0,516,0,0,0,0,0.0000000,0.0000000,0.0000000,0.0000000,9.00,38.4063683,-110.7920609,1368.5999756,0.0,354.5,0.9,0.0,0.0,901,138,0,0,860.31,0.21,53.80,0
11:44:17,0,0,0,0,0,0,0,0,0,0,0,516,0,0,0,0,0.0000000,0.0000000,0.0000000,0.0000000,9.00,38.4063683,-110.7920609,1368.5999756,0.0,348.6,0.9,0.0,0.0,902,133,0,0,860.37,0.18,53.91,0
11:44:18,0,0,0,0,0,0,0,0,0,0,0,515,0,0,0,0,0.0000000,0.0000000,0.0000000,0.0000000,9.00,38.4063683,-110.7920609,1368.5999756,0.0,176.0,0.9,0.0,0.0,901,133,0,0,860.29,0.17,53.83,0
11:44:19,0,0,0,0,0,0,0,0,0,0,0,515,0,0,0,0,0.0000000,0.0000000,0.0000000,0.0000000,9.00,38.4063683,-110.7920609,1368.5999756,0.0,195.5,0.9,0.0,0.0,901,134,0,0,860.32,0.20,53.93,0
11:44:20,0,0,0,0,0,0,0,0,0,0,0,515,0,0,0,0,0.0000000,0.0000000,0.0000000,0.0000000,9.00,38.4063683,-110.7920609,1368.5999756,0.0,183.1,0.9,0.0,0.0,901,139,0,0,860.32,0.21,54.01,0
11:44:21,0,0,0,0,0,0,0,0,0,0,0,515,0,0,0,0,0.0000000,0.0000000,0.0000000,0.0000000,9.00,38.4063683,-110.7920609,1368.5999756,0.0,198.9,0.9,0.0,0.0,901,134,0,0,860.28,0.18,54.09,0
11:44:22,0,0,0,0,0,0,0,0,0,0,0,515,0,0,0,0,0.0000000,0.0000000,0.0000000,0.0000000,9.00,38.4063683,-110.7920609,1368.5999756,0.0,198.5,0.9,0.0,0.0,901,138,0,0,860.33,0.15,54.16,0
11:44:23,0,0,0,0,0,0,0,0,0,0,0,515,0,0,0,0,0.0000000,0.0000000,0.0000000,0.0000000,9.00,38.4063683,-110.7920609,1368.5999756,0.0,136.9,0.9,0.0,0.0,901,138,0,0,860.36,0.15,54.20,0
11:44:24,0,0,0,0,0,0,0,0,0,0,0,514,0,0,0,0,0.0000000,0.0000000,0.0000000,0.0000000,9.00,38.4063683,-110.7920609,1368.5999756,0.0,12.0,0.9,0.0,0.0,901,149,0,0,860.38,0.12,54.23,0
11:44:25,0,0,0,0,0,0,0,0,0,0,0,515,0,0,0,0,0.0000000,0.0000000,0.0000000,0.0000000,9.00,38.4063683,-110.7920609,1368.5999756,0.0,28.1,0.9,0.0,0.0,901,141,0,0,860.36,0.11,54.29,0
11:44:26,0,0,0,0,0,0,0,0,0,0,0,515,0,0,0,0,0.0000000,0.0000000,0.0000000,0.0000000,9.00,38.4063683,-110.7920609,1368.5999756,0.0,2.9,0.9,0.0,0.0,901,138,0,0,860.40,0.12,54.34,0
11:44:27,0,0,0,0,0,0,0,0,0,0,0,515,0,0,0,0,0.0000000,0.0000000,0.0000000,0.0000000,9.00,38.4063683,-110.7920609,1368.5999756,0.0,14.7,0.9,0.0,0.0,901,142,0,0,860.36,0.06,54.39,0
11:44:28,0,0,0,0,0,0,0,0,0,0,0,516,0,0,0,0,0.0000000,0.0000000,0.0000000,0.0000000,9.00,38.4063683,-110.7920609,1368.5999756,0.0,5.9,0.9,0.0,0.0,901,140,0,0,860.34,0.08,54.44,0
11:44:29,0,0,0,0,0,0,0,0,0,0,0,515,0,0,0,0,0.0000000,0.0000000,0.0000000,0.0000000,9.00,38.4063683,-110.7920609,1368.5999756,0.0,312.1,0.9,0.0,0.0,901,139,0,0,860.33,0.09,54.46,0
11:44:30,0,0,0,0,0,0,0,0,0,0,0,515,0,0,0,0,0.0000000,0.0000000,0.0000000,0.0000000,9.00,38.4063683,-110.7920609,1368.5999756,0.0,196.7,0.9,0.0,0.0,901,140,0,0,860.36,0.08,54.48,0
11:44:31,0,0,0,0,0,0,0,0,0,0,0,515,0,0,0,0,0.0000000,0.0000000,0.0000000,0.0000000,9.00,38.4063683,-110.7920609,1368.5999756,0.0,180.4,0.9,0.0,0.0,901,136,0,0,860.34,0.06,54.53,0
11:44:32,0,0,0,0,0,0,0,0,0,0,0,514,0,0,0,0,0.0000000,0.0000000,0.0000000,0.0000000,9.00,38.4063683,-110.7920609,1368.5999756,0.0,170.7,0.9,0.0,0.0,901,138,0,0,860.40,0.06,54.57,0
11:44:33,0,0,0,0,0,0,0,0,0,0,0,515,0,0,0,0,0.0000000,0.0000000,0.0000000,0.0000000,9.00,38.4063683,-110.7920609,1368.5999756,0.0,194.3,0.9,0.0,0.0,901,141,0,0,860.33,0.05,54.55,0
11:44:34,0,0,0,0,0,0,0,0,0,0,0,515,0,0,0,0,0.0000000,0.0000000,0.0000000,0.0000000,9.00,38.4063683,-110.7920609,1368.5999756,0.0,123.1,0.9,0.0,0.0,901,139,0,0,860.35,0.03,54.38,0
11:44:35,0,0,0,0,0,0,0,0,0,0,0,515,0,0,0,0,0.0000000,0.0000000,0.0000000,0.0000000,9.00,38.4063683,-110.7920609,1368.5999756,0.0,162.2,0.9,0.0,0.0,901,139,0,0,860.36,0.05,54.34,0
11:44:36,0,0,0,0,0,0,0,0,0,0,0,515,0,0,0,0,0.0000000,0.0000000,0.0000000,0.0000000,9.00,38.4063683,-110.7920609,1368.5999756,0.0,335.1,0.9,0.0,0.0,901,138,0,0,860.31,0.08,54.25,0
11:44:37,0,0,0,0,0,0,0,0,0,0,0,516,0,0,0,0,0.0000000,0.0000000,0.0000000,0.0000000,9.00,38.4063683,-110.7920609,1368.5999756,0.0,343.3,0.9,0.0,0.0,901,138,0,0,860.31,0.09,54.32,0
11:44:38,0,0,0,0,0,0,0,0,0,0,0,515,0,0,0,0,0.0000000,0.0000000,0.0000000,0.0000000,9.00,38.4063683,-110.7920609,1368.5999756,0.0,19.1,0.9,0.0,0.0,901,139,0,0,860.36,0.09,54.15,0
11:44:39,0,0,0,0,0,0,0,0,0,0,0,515,0,0,0,0,0.0000000,0.0000000,0.0000000,0.0000000,9.00,38.4063683,-110.7920609,1368.5999756,0.0,21.5,0.9,0.0,0.0,901,140,0,0,860.33,0.06,54.31,0
11:44:40,0,0,0,0,0,0,0,0,0,0,0,516,0,0,0,0,0.0000000,0.0000000,0.0000000,0.0000000,9.00,38.4063683,-110.7920609,1368.5999756,0.0,350.5,0.9,0.0,0.0,901,137,0,0,860.28,0.08,54.22,0
11:44:41,0,0,0,0,0,0,0,0,0,0,0,516,0,0,0,0,0.0000000,0.0000000,0.0000000,0.0000000,9.00,38.4063683,-110.7920609,1368.6999512,0.0,224.8,0.9,0.0,0.0,901,137,0,0,860.39,0.12,54.12,0
11:44:42,0,0,0,0,0,0,0,0,0,0,0,515,0,0,0,0,0.0000000,0.0000000,0.0000000,0.0000000,9.00,38.4063683,-110.7920609,1368.6999512,0.0,197.7,0.9,0.0,0.0,901,136,0,0,860.31,0.08,54.25,0
11:44:43,0,0,0,0,0,0,0,0,0,0,0,515,0,0,0,0,0.0000000,0.0000000,0.0000000,0.0000000,9.00,38.4063683,-110.7920609,1368.6999512,0.0,208.6,0.9,0.0,0.0,901,137,0,0,860.33,0.08,54.33,0
11:44:44,0,0,0,0,0,0,0,0,0,0,0,516,0,0,0,0,0.0000000,0.0000000,0.0000000,0.0000000,9.00,38.4063683,-110.7920609,1368.6999512,0.0,192.6,0.9,0.0,0.0,901,139,0,0,860.32,0.09,54.39,0
11:44:45,0,0,0,0,0,0,0,0,0,0,0,515,0,0,0,0,0.0000000,0.0000000,0.0000000,0.0000000,9.00,38.4063683,-110.7920609,1368.6999512,0.0,183.7,0.9,0.0,0.0,901,138,0,0,860.35,0.08,54.48,0
11:44:46,0,0,0,0,0,0,0,0,0,0,0,516,0,0,0,0,0.0000000,0.0000000,0.0000000,0.0000000,9.00,38.4063683,-110.7920609,1368.6999512,0.0,164.2,0.9,0.0,0.0,901,133,0,0,860.32,0.06,54.56,0
11:44:47,0,0,0,0,0,0,0,0,0,0,0,515,0,0,0,0,0.0000000,0.0000000,0.0000000,0.0000000,9.00,38.4063683,-110.7920609,1368.6999512,0.0,8.6,0.9,0.0,0.0,901,133,0,0,860.30,0.02,54.49,0
11:44:48,0,0,0,0,0,0,0,0,0,0,0,515,0,0,0,0,0.0000000,0.0000000,0.0000000,0.0000000,9.00,38.4063683,-110.7920609,1368.6999512,0.0,344.8,0.9,0.0,0.0,901,136,0,0,860.32,0.05,54.56,0
11:44:49,0,0,0,0,0,0,0,0,0,0,0,515,0,0,0,0,0.0000000,0.0000000,0.0000000,0.0000000,9.00,38.4063683,-110.7920609,1368.6999512,0.0,346.1,0.9,0.0,0.0,901,137,0,0,860.31,0.06,54.46,0
11:44:50,0,0,0,0,0,0,0,0,0,0,0,514,0,0,0,0,0.0000000,0.0000000,0.0000000,0.0000000,9.00,38.4063683,-110.7920609,1368.6999512,0.0,355.3,0.9,0.0,0.0,901,138,0,0,860.35,0.03,54.52,0
11:44:51,0,0,0,0,0,0,0,0,0,0,0,515,0,0,0,0,0.0000000,0.0000000,0.0000000,0.0000000,9.00,38.4063683,-110.7920609,1368.6999512,0.0,344.1,0.9,0.0,0.0,901,135,0,0,860.32,0.02,54.44,0
11:44:52,0,0,0,0,0,0,0,0,0,0,0,515,0,0,0,0,0.0000000,0.0000000,0.0000000,0.0000000,9.00,38.4063683,-110.7920609,1368.6999512,0.0,306.6,0.9,0.0,0.0,901,137,0,0,860.29,0.05,54.37,0
11:44:53,0,0,0,0,0,0,0,0,0,0,0,515,0,0,0,0,0.0000000,0.0000000,0.0000000,0.0000000,9.00,38.4063683,-110.7920609,1368.6999512,0.0,168.5,0.9,0.0,0.0,901,134,0,0,860.28,0.05,54.28,0
11:44:54,0,0,0,0,0,0,0,0,0,0,0,515,0,0,0,0,0.0000000,0.0000000,0.0000000,0.0000000,9.00,38.4063683,-110.7920609,1368.6999512,0.0,181.5,0.9,0.0,0.0,901,133,0,0,860.32,0.05,54.10,0
11:44:55,0,0,0,0,0,0,0,0,0,0,0,515,0,0,0,0,0.0000000,0.0000000,0.0000000,0.0000000,9.00,38.4063683,-110.7920609,1368.6999512,0.0,184.5,0.9,0.0,0.0,901,136,0,0,860.30,0.08,53.98,0
11:44:56,0,0,0,0,0,0,0,0,0,0,0,514,0,0,0,0,0.0000000,0.0000000,0.0000000,0.0000000,9.00,38.4063683,-110.7920609,1368.6999512,0.0,193.1,0.9,0.0,0.0,901,134,0,0,860.27,0.08,54.18,0
11:44:57,0,0,0,0,0,0,0,0,0,0,0,515,0,0,0,0,0.0000000,0.0000000,0.0000000,0.0000000,9.00,38.4063683,-110.7920609,1368.6999512,0.0,173.6,0.9,0.0,0.0,900,133,0,0,860.31,0.08,54.34,0
11:44:58,0,0,0,0,0,0,0,0,0,0,0,515,0,0,0,0,0.0000000,0.0000000,0.0000000,0.0000000,9.00,38.4063683,-110.7920609,1368.6999512,0.0,161.2,0.9,0.0,0.0,901,134,0,0,860.32,0.03,54.41,0
11:44:59,0,0,0,0,0,0,0,0,0,0,0,515,0,0,0,0,0.0000000,0.0000000,0.0000000,0.0000000,9.00,38.4063683,-110.7920609,1368.6999512,0.0,302.0,0.9,0.0,0.0,901,133,0,0,860.33,0.03,54.34,0
11:45:00,0,0,0,0,0,0,0,0,0,0,0,515,0,0,0,0,0.0000000,0.0000000,0.0000000,0.0000000,9.00,38.4063683,-110.7920609,1368.6999512,0.0,1.4,0.9,0.0,0.0,901,140,0,0,860.31,0.05,54.41,0
11:45:01,0,0,0,0,0,0,0,0,0,0,0,515,0,0,0,0,0.0000000,0.0000000,0.0000000,0.0000000,9.00,38.4063683,-110.7920609,1368.6999512,0.0,343.9,0.9,0.0,0.0,901,133,0,0,860.33,0.11,54.21,0
11:45:02,0,0,0,0,0,0,0,0,0,0,0,515,0,0,0,0,0.0000000,0.0000000,0.0000000,0.0000000,9.00,38.4063683,-110.7920609,1368.6999512,0.0,354.5,0.9,0.0,0.0,901,137,0,0,860.30,0.12,54.12,0
11:45:03,0,0,0,0,0,0,0,0,0,0,0,515,0,0,0,0,0.0000000,0.0000000,0.0000000,0.0000000,9.00,38.4063683,-110.7920609,1368.6999512,0.0,324.1,0.9,0.0,0.0,900,140,0,0,860.32,0.09,54.26,0
11:45:04,0,0,0,0,0,0,0,0,0,0,0,515,0,0,0,0,0.0000000,0.0000000,0.0000000,0.0000000,9.00,38.4063683,-110.7920609,1368.6999512,0.0,9.4,0.9,0.0,0.0,901,140,0,0,860.32,0.08,54.36,0
11:45:05,0,0,0,0,0,0,0,0,0,0,0,516,0,0,0,0,0.0000000,0.0000000,0.0000000,0.0000000,9.00,38.4063683,-110.7920609,1368.6999512,0.0,277.6,0.9,0.0,0.0,901,140,0,0,860.34,0.08,54.25,0
11:45:06,0,0,0,0,0,0,0,0,0,0,0,515,0,0,0,0,0.0000000,0.0000000,0.0000000,0.0000000,9.00,38.4063683,-110.7920609,1368.6999512,0.0,163.3,0.9,0.0,0.0,901,141,0,0,860.34,0.08,54.26,0
11:45:07,0,0,0,0,0,0,0,0,0,0,0,515,0,0,0,0,0.0000000,0.0000000,0.0000000,0.0000000,9.00,38.4063683,-110.7920609,1368.6999512,0.0,157.3,0.9,0.0,0.0,901,140,0,0,860.30,0.08,54.28,0
11:45:08,0,0,0,0,0,0,0,0,0,0,0,515,0,0,0,0,0.0000000,0.0000000,0.0000000,0.0000000,9.00,38.4063683,-110.7920609,1368.6999512,0.0,155.1,0.9,0.0,0.0,900,142,0,0,860.30,0.09,54.08,0
11:45:09,0,0,0,0,0,0,0,0,0,0,0,516,0,0,0,0,0.0000000,0.0000000,0.0000000,0.0000000,9.00,38.4063683,-110.7920609,1368.6999512,0.0,151.1,0.9,0.0,0.0,901,139,0,0,860.30,0.12,54.04,0
11:45:10,0,0,0,0,0,0,0,0,0,0,0,515,0,0,0,0,0.0000000,0.0000000,0.0000000,0.0000000,9.00,38.4063683,-110.7920609,1368.6999512,0.0,180.4,0.9,0.0,0.0,901,138,0,0,860.28,0.11,54.11,0
11:45:11,0,0,0,0,0,0,0,0,0,0,0,514,0,0,0,0,0.0000000,0.0000000,0.0000000,0.0000000,9.00,38.4063683,-110.7920609,1368.6999512,0.0,323.6,0.9,0.0,0.0,900,140,0,0,860.31,0.12,54.14,0
11:45:12,0,0,0,0,0,0,0,0,0,0,0,515,0,0,0,0,0.0000000,0.0000000,0.0000000,0.0000000,9.00,38.4063683,-110.7920609,1368.6999512,0.0,352.9,0.9,0.0,0.0,900,145,0,0,860.29,0.11,53.75,0
11:45:13,0,0,0,0,0,0,0,0,0,0,0,516,0,0,0,0,0.0000000,0.0000000,0.0000000,0.0000000,9.00,38.4063683,-110.7920609,1368.6999512,0.0,303.1,0.9,0.0,0.0,901,138,0,0,860.29,0.21,53.39,0
11:45:14,0,0,0,0,0,0,0,0,0,0,0,515,0,0,0,0,0.0000000,0.0000000,0.0000000,0.0000000,9.00,38.4063683,-110.7920609,1368.6999512,0.0,345.5,0.9,0.0,0.0,901,141,0,0,860.22,0.23,53.31,0
11:45:15,0,0,0,0,0,0,0,0,0,0,0,514,0,0,0,0,0.0000000,0.0000000,0.0000000,0.0000000,9.00,38.4063683,-110.7920609,1368.6999512,0.0,300.7,0.9,0.0,0.0,901,143,0,0,860.21,0.31,53.14,0
11:45:16,0,0,0,0,0,0,0,0,0,0,0,515,0,0,0,0,0.0000000,0.0000000,0.0000000,0.0000000,9.00,38.4063683,-110.7920609,1368.6999512,0.0,342.4,0.9,0.0,0.0,900,143,0,0,860.24,0.29,53.25,0
11:45:17,0,0,0,0,0,0,0,0,0,0,0,515,0,0,0,0,0.0000000,0.0000000,0.0000000,0.0000000,9.00,38.4063683,-110.7920609,1368.6999512,0.0,123.0,0.9,0.0,0.0,901,138,0,0,860.27,0.28,53.36,0
11:45:18,0,0,0,0,0,0,0,0,0,0,0,515,0,0,0,0,0.0000000,0.0000000,0.0000000,0.0000000,9.00,38.4063683,-110.7920609,1368.6999512,0.0,132.3,0.9,0.0,0.0,901,137,0,0,860.23,0.26,53.46,0
11:45:19,0,0,0,0,0,0,0,0,0,0,0,515,0,0,0,0,0.0000000,0.0000000,0.0000000,0.0000000,9.00,38.4063683,-110.7920609,1368.6999512,0.0,147.9,0.9,0.0,0.0,901,143,0,0,860.29,0.24,53.48,0
11:45:20,0,0,0,0,0,0,0,0,0,0,0,515,0,0,0,0,0.0000000,0.0000000,0.0000000,0.0000000,9.00,38.4063683,-110.7920609,1368.6999512,0.0,108.7,0.9,0.0,0.0,901,139,0,0,860.26,0.26,53.39,0
11:45:21,0,0,0,0,0,0,0,0,0,0,0,515,0,0,0,0,0.0000000,0.0000000,0.0000000,0.0000000,9.00,38.4063683,-110.7920609,1368.6999512,0.0,110.6,0.9,0.0,0.0,901,139,0,0,860.21,0.29,53.20,0
11:45:22,0,0,0,0,0,0,0,0,0,0,0,515,0,0,0,0,0.0000000,0.0000000,0.0000000,0.0000000,9.00,38.4063683,-110.7920609,1368.6999512,0.0,140.6,0.9,0.0,0.0,900,137,0,0,860.21,0.34,53.02,0
11:45:23,0,0,0,0,0,0,0,0,0,0,0,515,0,0,0,0,0.0000000,0.0000000,0.0000000,0.0000000,9.00,38.4063683,-110.7920609,1368.6999512,0.0,252.3,0.9,0.0,0.0,901,139,0,0,860.24,0.37,52.99,0
11:45:24,0,0,0,0,0,0,0,0,0,0,0,515,0,0,0,0,0.0000000,0.0000000,0.0000000,0.0000000,9.00,38.4063683,-110.7920609,1368.6999512,0.0,161.7,0.9,0.0,0.0,901,138,0,0,860.23,0.40,52.83,0
11:45:25,0,0,0,0,0,0,0,0,0,0,0,514,0,0,0,0,0.0000000,0.0000000,0.0000000,0.0000000,9.00,38.4063683,-110.7920609,1368.6999512,0.0,142.0,0.9,0.0,0.0,901,140,0,0,860.18,0.40,52.77,0
11:45:26,0,0,0,0,0,0,0,0,0,0,0,515,0,0,0,0,0.0000000,0.0000000,0.0000000,0.0000000,9.00,38.4063683,-110.7920609,1368.6999512,0.0,147.7,0.9,0.0,0.0,901,148,0,0,860.25,0.41,52.66,0
11:45:27,0,0,0,0,0,0,0,0,0,0,0,515,0,0,0,0,0.0000000,0.0000000,0.0000000,0.0000000,9.00,38.4063683,-110.7920609,1368.6999512,0.0,247.5,0.9,0.0,0.0,901,144,0,0,860.19,0.41,52.52,0
11:45:29,0,0,0,0,0,0,0,0,0,0,0,516,0,0,0,0,0.0000000,0.0000000,0.0000000,0.0000000,9.00,38.4063683,-110.7920609,1368.6999512,0.0,313.9,0.9,0.0,0.0,901,142,0,0,860.18,0.44,52.58,0
11:45:30,0,0,0,0,0,0,0,0,0,0,0,515,0,0,0,0,0.0000000,0.0000000,0.0000000,0.0000000,9.00,38.4063683,-110.7920609,1368.6999512,0.0,81.4,0.9,0.0,0.0,901,139,0,0,860.21,0.47,52.44,0
11:45:31,0,0,0,0,0,0,0,0,0,0,0,515,0,0,0,0,0.0000000,0.0000000,0.0000000,0.0000000,9.00,38.4063683,-110.7920609,1368.6999512,0.0,26.0,0.9,0.0,0.0,901,140,0,0,860.16,0.50,52.57,0
11:45:32,0,0,0,0,0,0,0,0,0,0,0,515,0,0,0,0,0.0000000,0.0000000,0.0000000,0.0000000,9.00,38.4063683,-110.7920609,1368.6999512,0.0,29.9,0.9,0.0,0.0,901,145,0,0,860.19,0.43,52.84,0
11:45:33,0,0,0,0,0,0,0,0,0,0,0,515,0,0,0,0,0.0000000,0.0000000,0.0000000,0.0000000,9.00,38.4063683,-110.7920609,1368.6999512,0.0,26.9,0.9,0.0,0.0,900,139,0,0,860.15,0.44,52.91,0
11:45:34,0,0,0,0,0,0,0,0,0,0,0,514,0,0,0,0,0.0000000,0.0000000,0.0000000,0.0000000,9.00,38.4063683,-110.7920609,1368.6999512,0.0,26.6,0.9,0.0,0.0,901,139,0,0,860.20,0.43,52.89,0
11:45:35,0,0,0,0,0,0,0,0,0,0,0,515,0,0,0,0,0.0000000,0.0000000,0.0000000,0.0000000,9.00,38.4063683,-110.7920609,1368.6999512,0.0,134.9,0.9,0.0,0.0,901,141,0,0,860.20,0.41,53.00,0
11:45:36,0,0,0,0,0,0,0,0,0,0,0,515,0,0,0,0,0.0000000,0.0000000,0.0000000,0.0000000,9.00,38.4063683,-110.7920609,1368.6999512,0.0,124.1,0.9,0.0,0.0,901,139,0,0,860.23,0.38,52.93,0
11:45:37,0,0,0,0,0,0,0,0,0,0,0,516,0,0,0,0,0.0000000,0.0000000,0.0000000,0.0000000,9.00,38.4063683,-110.7920609,1368.6999512,0.0,149.3,0.9,0.0,0.0,901,135,0,0,860.24,0.40,52.98,0
11:45:38,0,0,0,0,0,0,0,0,0,0,0,515,0,0,0,0,0.0000000,0.0000000,0.0000000,0.0000000,9.00,38.4063683,-110.7920609,1368.6999512,0.0,205.6,0.9,0.0,0.0,901,140,0,0,860.19,0.38,52.88,0
11:45:39,0,0,0,0,0,0,0,0,0,0,0,515,0,0,0,0,0.0000000,0.0000000,0.0000000,0.0000000,9.00,38.4063683,-110.7920609,1368.6999512,0.0,203.0,0.9,0.0,0.0,902,141,0,0,860.16,0.37,52.84,0
