Time, Motor A Speed, Motor A Dir, Motor B Speed, Motor B Dir, Servo Rail Current Sensor, Servo Pos - Arm L, Servo Pos - Arm R, Servo Pos - End, Servo Pos - Hopper, Servo Pos - Lid, Servo Pos - Extra, Servo Current, LED - Front L, LED - Front R, LED - Back L, LED - Back R, IMU Pitch, IMU Roll, IMU Yaw, Compass Heading, GPS Sats, GPS Latitude, GPS Longitude, GPS Altitude, GPS Speed, GPS Angle, GPS HDOP, GPS VDOP, GPS PDOP, Battery, Wind, Comm Xbee Latency, Comm Arduino Latency, Pressure, Humidity, Temperature, uRADMonitor
11:55:07,0,0,0,0,0,0,0,0,0,0,0,514,0,0,0,0,0.0000000,0.0000000,0.0000000,0.0000000,8.00,38.4063301,-110.7922592,1360.3000488,0.4,343.5,1.0,0.0,0.0,899,128,0,0,860.26,3.40,40.23,0
11:55:08,0,0,0,0,0,0,0,0,0,0,0,514,0,0,0,0,0.0000000,0.0000000,0.0000000,0.0000000,8.00,38.4063339,-110.7922592,1360.1999512,0.3,5.3,0.9,0.0,0.0,899,128,0,0,860.25,3.43,40.21,0
11:55:09,0,0,0,0,0,0,0,0,0,0,0,514,0,0,0,0,0.0000000,0.0000000,0.0000000,0.0000000,8.00,38.4063339,-110.7922592,1360.0999756,0.3,26.9,1.0,0.0,0.0,899,121,0,0,860.26,3.43,40.17,0
11:55:10,0,0,0,0,0,0,0,0,0,0,0,514,0,0,0,0,0.0000000,0.0000000,0.0000000,0.0000000,8.00,38.4063377,-110.7922592,1360.0000000,0.4,6.2,0.9,0.0,0.0,899,132,0,0,860.27,3.48,40.12,0
11:55:11,0,0,0,0,0,0,0,0,0,0,0,514,0,0,0,0,0.0000000,0.0000000,0.0000000,0.0000000,8.00,38.4063377,-110.7922592,1359.9000244,0.5,19.5,1.0,0.0,0.0,899,128,0,0,860.23,3.48,40.08,0
11:55:12,0,0,0,0,0,0,0,0,0,0,0,514,0,0,0,0,0.0000000,0.0000000,0.0000000,0.0000000,8.00,38.4063377,-110.7922592,1359.8000488,0.5,17.6,0.9,0.0,0.0,899,128,0,0,860.22,3.51,40.06,0
11:55:13,0,0,0,0,0,0,0,0,0,0,0,514,0,0,0,0,0.0000000,0.0000000,0.0000000,0.0000000,8.00,38.4063416,-110.7922440,1359.8000488,0.4,351.0,0.9,0.0,0.0,899,124,0,0,860.26,3.48,40.04,0
11:55:14,0,0,0,0,0,0,0,0,0,0,0,515,0,0,0,0,0.0000000,0.0000000,0.0000000,0.0000000,8.00,38.4063416,-110.7922440,1359.6999512,0.5,352.8,1.0,0.0,0.0,899,125,0,0,860.30,3.49,40.01,0
11:55:15,0,0,0,0,0,0,0,0,0,0,0,514,0,0,0,0,0.0000000,0.0000000,0.0000000,0.0000000,8.00,38.4063454,-110.7922592,1359.6999512,0.7,343.0,1.0,0.0,0.0,899,125,0,0,860.29,3.53,39.97,0
11:55:16,0,0,0,0,0,0,0,0,0,0,0,514,0,0,0,0,0.0000000,0.0000000,0.0000000,0.0000000,8.00,38.4063644,-110.7922592,1358.9000244,0.7,346.1,0.9,0.0,0.0,899,129,0,0,860.28,3.53,39.93,0
11:55:17,0,0,0,0,0,0,0,0,0,0,0,514,0,0,0,0,0.0000000,0.0000000,0.0000000,0.0000000,8.00,38.4063835,-110.7922592,1358.1999512,0.7,340.5,1.0,0.0,0.0,899,129,0,0,860.25,3.56,39.90,0
11:55:18,0,0,0,0,0,0,0,0,0,0,0,514,0,0,0,0,0.0000000,0.0000000,0.0000000,0.0000000,8.00,38.4064102,-110.7922440,1357.3000488,0.7,345.5,0.9,0.0,0.0,899,129,0,0,860.20,3.56,39.88,0
11:55:19,0,0,0,0,0,0,0,0,0,0,0,513,0,0,0,0,0.0000000,0.0000000,0.0000000,0.0000000,8.00,38.4064217,-110.7922440,1356.6999512,0.5,353.7,1.0,0.0,0.0,899,128,0,0,860.27,3.60,39.85,0
11:55:20,0,0,0,0,0,0,0,0,0,0,0,514,0,0,0,0,0.0000000,0.0000000,0.0000000,0.0000000,8.00,38.4064369,-110.7922440,1356.0000000,0.6,3.7,1.0,0.0,0.0,899,124,0,0,860.31,3.59,39.82,0
11:55:21,0,0,0,0,0,0,0,0,0,0,0,514,0,0,0,0,0.0000000,0.0000000,0.0000000,0.0000000,8.00,38.4064560,-110.7922287,1355.1999512,0.5,9.8,1.0,0.0,0.0,899,129,0,0,860.27,3.63,39.79,0
11:55:22,0,0,0,0,0,0,0,0,0,0,0,515,0,0,0,0,0.0000000,0.0000000,0.0000000,0.0000000,8.00,38.4064636,-110.7922287,1354.5999756,0.6,3.2,1.0,0.0,0.0,899,127,0,0,860.23,3.62,39.67,0
11:55:23,0,0,0,0,0,0,0,0,0,0,0,514,0,0,0,0,0.0000000,0.0000000,0.0000000,0.0000000,8.00,38.4064674,-110.7922287,1354.5000000,0.4,6.8,1.0,0.0,0.0,899,129,0,0,860.24,3.66,39.75,0
11:55:24,0,0,0,0,0,0,0,0,0,0,0,514,0,0,0,0,0.0000000,0.0000000,0.0000000,0.0000000,8.00,38.4064713,-110.7922287,1354.4000244,0.4,11.5,1.0,0.0,0.0,899,128,0,0,860.26,3.65,39.62,0
11:55:25,0,0,0,0,0,0,0,0,0,0,0,514,0,0,0,0,0.0000000,0.0000000,0.0000000,0.0000000,8.00,38.4064713,-110.7922287,1354.3000488,0.3,18.9,1.0,0.0,0.0,899,127,0,0,860.23,3.66,39.59,0
11:55:26,0,0,0,0,0,0,0,0,0,0,0,514,0,0,0,0,0.0000000,0.0000000,0.0000000,0.0000000,8.00,38.4064751,-110.7922287,1354.1999512,0.1,343.2,0.9,0.0,0.0,899,127,0,0,860.23,3.66,39.57,0
11:55:27,0,0,0,0,0,0,0,0,0,0,0,514,0,0,0,0,0.0000000,0.0000000,0.0000000,0.0000000,8.00,38.4064751,-110.7922287,1354.0999756,0.3,358.6,0.9,0.0,0.0,899,126,0,0,860.18,3.68,39.55,0
11:55:28,0,0,0,0,0,0,0,0,0,0,0,514,0,0,0,0,0.0000000,0.0000000,0.0000000,0.0000000,8.00,38.4064751,-110.7922287,1354.0000000,0.3,354.8,1.0,0.0,0.0,899,129,0,0,860.22,3.69,39.57,0
11:55:29,0,0,0,0,0,0,0,0,0,0,0,514,0,0,0,0,0.0000000,0.0000000,0.0000000,0.0000000,8.00,38.4064751,-110.7922287,1353.9000244,0.3,354.8,1.0,0.0,0.0,899,129,0,0,860.23,3.71,39.53,0
11:55:30,0,0,0,0,0,0,0,0,0,0,0,513,0,0,0,0,0.0000000,0.0000000,0.0000000,0.0000000,8.00,38.4064789,-110.7922287,1353.9000244,0.3,354.8,1.0,0.0,0.0,899,130,0,0,860.28,3.72,39.51,0
11:55:31,0,0,0,0,0,0,0,0,0,0,0,514,0,0,0,0,0.0000000,0.0000000,0.0000000,0.0000000,8.00,38.4064941,-110.7922211,1353.5000000,0.4,9.6,0.9,0.0,0.0,899,127,0,0,860.23,3.72,39.53,0
11:55:32,0,0,0,0,0,0,0,0,0,0,0,514,0,0,0,0,0.0000000,0.0000000,0.0000000,0.0000000,8.00,38.4064980,-110.7922211,1353.3000488,0.4,4.8,1.0,0.0,0.0,899,126,0,0,860.24,3.75,39.51,0
11:55:33,0,0,0,0,0,0,0,0,0,0,0,514,0,0,0,0,0.0000000,0.0000000,0.0000000,0.0000000,8.00,38.4065018,-110.7922058,1353.0999756,0.4,12.4,1.0,0.0,0.0,899,127,0,0,860.22,3.77,39.48,0
11:55:34,0,0,0,0,0,0,0,0,0,0,0,513,0,0,0,0,0.0000000,0.0000000,0.0000000,0.0000000,8.00,38.4065018,-110.7922058,1352.5999756,0.4,2.7,1.0,0.0,0.0,899,128,0,0,860.24,3.75,39.46,0
11:55:35,0,0,0,0,0,0,0,0,0,0,0,514,0,0,0,0,0.0000000,0.0000000,0.0000000,0.0000000,8.00,38.4065094,-110.7922058,1351.8000488,0.3,8.5,1.0,0.0,0.0,899,127,0,0,860.26,3.78,39.42,0
11:55:36,0,0,0,0,0,0,0,0,0,0,0,513,0,0,0,0,0.0000000,0.0000000,0.0000000,0.0000000,8.00,38.4065132,-110.7922058,1351.3000488,0.4,33.0,1.0,0.0,0.0,899,126,0,0,860.24,3.78,39.40,0
11:55:37,0,0,0,0,0,0,0,0,0,0,0,513,0,0,0,0,0.0000000,0.0000000,0.0000000,0.0000000,8.00,38.4065170,-110.7921906,1351.0000000,0.3,45.0,0.9,0.0,0.0,899,131,0,0,860.22,3.80,39.39,0
11:55:38,0,0,0,0,0,0,0,0,0,0,0,514,0,0,0,0,0.0000000,0.0000000,0.0000000,0.0000000,8.00,38.4065170,-110.7921906,1350.5999756,0.2,22.4,1.0,0.0,0.0,900,126,0,0,860.21,3.80,39.35,0
11:55:39,0,0,0,0,0,0,0,0,0,0,0,514,0,0,0,0,0.0000000,0.0000000,0.0000000,0.0000000,8.00,38.4065208,-110.7921906,1350.4000244,0.2,351.4,1.0,0.0,0.0,899,130,0,0,860.23,3.82,39.33,0
11:55:40,0,0,0,0,0,0,0,0,0,0,0,514,0,0,0,0,0.0000000,0.0000000,0.0000000,0.0000000,8.00,38.4065247,-110.7921906,1350.0000000,0.2,0.6,1.0,0.0,0.0,899,126,0,0,860.27,3.85,39.31,0
11:55:41,0,0,0,0,0,0,0,0,0,0,0,515,0,0,0,0,0.0000000,0.0000000,0.0000000,0.0000000,8.00,38.4065247,-110.7921906,1349.8000488,0.2,1.0,1.0,0.0,0.0,899,127,0,0,860.26,3.83,39.28,0
11:55:42,0,0,0,0,0,0,0,0,0,0,0,514,0,0,0,0,0.0000000,0.0000000,0.0000000,0.0000000,8.00,38.4065285,-110.7921906,1349.5999756,0.2,31.3,1.0,0.0,0.0,899,127,0,0,860.25,3.86,39.28,0
11:55:43,0,0,0,0,0,0,0,0,0,0,0,513,0,0,0,0,0.0000000,0.0000000,0.0000000,0.0000000,8.00,38.4065285,-110.7921906,1349.5000000,0.2,353.0,0.9,0.0,0.0,899,129,0,0,860.16,3.86,39.27,0
11:55:44,0,0,0,0,0,0,0,0,0,0,0,514,0,0,0,0,0.0000000,0.0000000,0.0000000,0.0000000,7.00,38.4065323,-110.7921829,1349.4000244,0.3,30.7,1.1,0.0,0.0,899,126,0,0,860.28,3.89,39.24,0
11:55:45,0,0,0,0,0,0,0,0,0,0,0,514,0,0,0,0,0.0000000,0.0000000,0.0000000,0.0000000,8.00,38.4065361,-110.7921829,1349.4000244,0.3,65.2,0.9,0.0,0.0,899,128,0,0,860.22,3.89,39.22,0
11:55:46,0,0,0,0,0,0,0,0,0,0,0,514,0,0,0,0,0.0000000,0.0000000,0.0000000,0.0000000,8.00,38.4065361,-110.7921829,1349.4000244,0.4,73.6,0.9,0.0,0.0,899,127,0,0,860.23,3.91,39.20,0
11:55:47,0,0,0,0,0,0,0,0,0,0,0,514,0,0,0,0,0.0000000,0.0000000,0.0000000,0.0000000,7.00,38.4065361,-110.7921906,1349.3000488,0.3,43.8,1.1,0.0,0.0,899,128,0,0,860.27,3.91,39.18,0
11:55:48,0,0,0,0,0,0,0,0,0,0,0,514,0,0,0,0,0.0000000,0.0000000,0.0000000,0.0000000,7.00,38.4065361,-110.7921906,1349.3000488,0.2,33.5,1.1,0.0,0.0,899,127,0,0,860.23,3.92,39.15,0
11:55:49,0,0,0,0,0,0,0,0,0,0,0,515,0,0,0,0,0.0000000,0.0000000,0.0000000,0.0000000,7.00,38.4065361,-110.7922058,1349.3000488,0.1,114.4,1.1,0.0,0.0,899,122,0,0,860.23,3.92,39.14,0
11:55:50,0,0,0,0,0,0,0,0,0,0,0,514,0,0,0,0,0.0000000,0.0000000,0.0000000,0.0000000,7.00,38.4065361,-110.7922058,1349.1999512,0.1,131.1,1.1,0.0,0.0,899,126,0,0,860.28,3.91,39.13,0
11:55:51,0,0,0,0,0,0,0,0,0,0,0,514,0,0,0,0,0.0000000,0.0000000,0.0000000,0.0000000,7.00,38.4065323,-110.7922211,1349.1999512,0.1,295.8,1.1,0.0,0.0,899,122,0,0,860.28,3.92,39.11,0
11:55:52,0,0,0,0,0,0,0,0,0,0,0,514,0,0,0,0,0.0000000,0.0000000,0.0000000,0.0000000,7.00,38.4065323,-110.7922211,1349.0999756,0.1,55.5,1.1,0.0,0.0,899,128,0,0,860.26,3.92,39.07,0
11:55:53,0,0,0,0,0,0,0,0,0,0,0,514,0,0,0,0,0.0000000,0.0000000,0.0000000,0.0000000,7.00,38.4065323,-110.7922287,1349.1999512,0.0,317.0,1.1,0.0,0.0,900,132,0,0,860.23,3.95,39.03,0
11:55:54,0,0,0,0,0,0,0,0,0,0,0,514,0,0,0,0,0.0000000,0.0000000,0.0000000,0.0000000,7.00,38.4065361,-110.7922287,1349.3000488,0.1,339.9,1.1,0.0,0.0,899,130,0,0,860.18,3.97,39.01,0
11:55:55,0,0,0,0,0,0,0,0,0,0,0,514,0,0,0,0,0.0000000,0.0000000,0.0000000,0.0000000,7.00,38.4065361,-110.7922440,1349.4000244,0.1,349.4,1.1,0.0,0.0,899,128,0,0,860.25,4.04,38.98,0
11:55:56,0,0,0,0,0,0,0,0,0,0,0,514,0,0,0,0,0.0000000,0.0000000,0.0000000,0.0000000,7.00,38.4065361,-110.7922440,1349.5999756,0.1,72.3,1.1,0.0,0.0,899,127,0,0,860.25,3.98,38.96,0
11:55:57,0,0,0,0,0,0,0,0,0,0,0,514,0,0,0,0,0.0000000,0.0000000,0.0000000,0.0000000,7.00,38.4065361,-110.7922440,1349.5999756,0.1,94.7,1.1,0.0,0.0,899,127,0,0,860.28,4.00,38.94,0
11:55:58,0,0,0,0,0,0,0,0,0,0,0,514,0,0,0,0,0.0000000,0.0000000,0.0000000,0.0000000,7.00,38.4065361,-110.7922440,1349.5999756,0.1,84.1,1.1,0.0,0.0,899,132,0,0,860.22,4.03,38.92,0
11:55:59,0,0,0,0,0,0,0,0,0,0,0,514,0,0,0,0,0.0000000,0.0000000,0.0000000,0.0000000,7.00,38.4065361,-110.7922440,1349.5999756,0.1,312.3,1.1,0.0,0.0,899,126,0,0,860.19,4.03,38.89,0
11:56:00,0,0,0,0,0,0,0,0,0,0,0,514,0,0,0,0,0.0000000,0.0000000,0.0000000,0.0000000,8.00,38.4065361,-110.7922440,1349.5999756,0.2,285.3,1.0,0.0,0.0,899,127,0,0,860.24,4.03,38.86,0
11:56:01,0,0,0,0,0,0,0,0,0,0,0,514,0,0,0,0,0.0000000,0.0000000,0.0000000,0.0000000,7.00,38.4065361,-110.7922440,1349.5999756,0.1,291.6,1.1,0.0,0.0,899,128,0,0,860.21,4.06,38.84,0
11:56:02,0,0,0,0,0,0,0,0,0,0,0,514,0,0,0,0,0.0000000,0.0000000,0.0000000,0.0000000,8.00,38.4065361,-110.7922440,1349.5999756,0.1,24.7,1.0,0.0,0.0,899,131,0,0,860.25,4.09,38.80,0
11:56:03,0,0,0,0,0,0,0,0,0,0,0,513,0,0,0,0,0.0000000,0.0000000,0.0000000,0.0000000,8.00,38.4065361,-110.7922440,1349.5999756,0.1,5.3,1.0,0.0,0.0,899,129,0,0,860.18,4.06,38.78,0
11:56:04,0,0,0,0,0,0,0,0,0,0,0,514,0,0,0,0,0.0000000,0.0000000,0.0000000,0.0000000,8.00,38.4065361,-110.7922440,1349.5999756,0.3,294.7,1.0,0.0,0.0,899,127,0,0,860.19,4.09,38.75,0
11:56:05,0,0,0,0,0,0,0,0,0,0,0,514,0,0,0,0,0.0000000,0.0000000,0.0000000,0.0000000,8.00,38.4065399,-110.7922440,1349.5999756,0.3,288.9,1.0,0.0,0.0,899,129,0,0,860.21,4.11,38.73,0
11:56:06,0,0,0,0,0,0,0,0,0,0,0,513,0,0,0,0,0.0000000,0.0000000,0.0000000,0.0000000,8.00,38.4065323,-110.7922592,1349.5999756,0.3,241.5,1.0,0.0,0.0,900,128,0,0,860.18,4.12,38.70,0
11:56:07,0,0,0,0,0,0,0,0,0,0,0,514,0,0,0,0,0.0000000,0.0000000,0.0000000,0.0000000,8.00,38.4065323,-110.7922592,1349.8000488,0.2,240.6,1.0,0.0,0.0,899,130,0,0,860.22,4.14,38.67,0
11:56:08,0,0,0,0,0,0,0,0,0,0,0,514,0,0,0,0,0.0000000,0.0000000,0.0000000,0.0000000,8.00,38.4065208,-110.7922668,1349.8000488,0.3,206.4,1.0,0.0,0.0,899,126,0,0,860.22,4.14,38.64,0
11:56:09,0,0,0,0,0,0,0,0,0,0,0,514,0,0,0,0,0.0000000,0.0000000,0.0000000,0.0000000,8.00,38.4065170,-110.7922821,1349.8000488,0.3,243.5,1.0,0.0,0.0,899,125,0,0,860.19,4.15,38.63,0
11:56:10,0,0,0,0,0,0,0,0,0,0,0,514,0,0,0,0,0.0000000,0.0000000,0.0000000,0.0000000,8.00,38.4065132,-110.7922821,1349.8000488,0.3,235.4,1.0,0.0,0.0,899,133,0,0,860.25,4.17,38.61,0
11:56:11,0,0,0,0,0,0,0,0,0,0,0,513,0,0,0,0,0.0000000,0.0000000,0.0000000,0.0000000,8.00,38.4065094,-110.7922974,1349.9000244,0.3,224.2,1.0,0.0,0.0,899,128,0,0,860.24,4.20,38.59,0
11:56:12,0,0,0,0,0,0,0,0,0,0,0,513,0,0,0,0,0.0000000,0.0000000,0.0000000,0.0000000,8.00,38.4065094,-110.7922974,1350.0000000,0.2,235.2,1.0,0.0,0.0,899,127,0,0,860.20,4.15,38.56,0
11:56:13,0,0,0,0,0,0,0,0,0,0,0,514,0,0,0,0,0.0000000,0.0000000,0.0000000,0.0000000,8.00,38.4065094,-110.7923050,1350.0000000,0.2,238.5,1.0,0.0,0.0,899,123,0,0,860.18,4.17,38.55,0
11:56:14,0,0,0,0,0,0,0,0,0,0,0,514,0,0,0,0,0.0000000,0.0000000,0.0000000,0.0000000,8.00,38.4065094,-110.7923050,1350.0999756,0.0,184.3,1.0,0.0,0.0,899,131,0,0,860.24,4.21,38.54,0
11:56:15,0,0,0,0,0,0,0,0,0,0,0,514,0,0,0,0,0.0000000,0.0000000,0.0000000,0.0000000,8.00,38.4065094,-110.7923050,1350.3000488,0.0,123.2,1.0,0.0,0.0,899,127,0,0,860.20,4.18,38.53,0
11:56:16,0,0,0,0,0,0,0,0,0,0,0,514,0,0,0,0,0.0000000,0.0000000,0.0000000,0.0000000,8.00,38.4065056,-110.7923050,1350.4000244,0.0,211.7,1.0,0.0,0.0,899,128,0,0,860.23,4.20,38.52,0
11:56:17,0,0,0,0,0,0,0,0,0,0,0,514,0,0,0,0,0.0000000,0.0000000,0.0000000,0.0000000,8.00,38.4065018,-110.7923203,1350.4000244,0.2,240.3,1.0,0.0,0.0,899,128,0,0,860.22,4.18,38.50,0
11:56:19,0,0,0,0,0,0,0,0,0,0,0,514,0,0,0,0,0.0000000,0.0000000,0.0000000,0.0000000,8.00,38.4064980,-110.7923203,1350.6999512,0.2,242.5,1.0,0.0,0.0,899,127,0,0,860.20,4.21,38.48,0
11:56:20,0,0,0,0,0,0,0,0,0,0,0,514,0,0,0,0,0.0000000,0.0000000,0.0000000,0.0000000,8.00,38.4064980,-110.7923203,1350.9000244,0.2,249.1,1.0,0.0,0.0,899,129,0,0,860.23,4.23,38.47,0
11:56:21,0,0,0,0,0,0,0,0,0,0,0,513,0,0,0,0,0.0000000,0.0000000,0.0000000,0.0000000,8.00,38.4064941,-110.7923203,1351.1999512,0.1,247.1,1.0,0.0,0.0,899,127,0,0,860.24,4.23,38.44,0
11:56:22,0,0,0,0,0,0,0,0,0,0,0,514,0,0,0,0,0.0000000,0.0000000,0.0000000,0.0000000,8.00,38.4064941,-110.7923203,1351.5000000,0.2,263.4,1.0,0.0,0.0,899,125,0,0,860.19,4.26,38.41,0
11:56:23,0,0,0,0,0,0,0,0,0,0,0,514,0,0,0,0,0.0000000,0.0000000,0.0000000,0.0000000,8.00,38.4064941,-110.7923355,1351.8000488,0.1,220.7,1.0,0.0,0.0,900,128,0,0,860.20,4.27,38.38,0
11:56:24,0,0,0,0,0,0,0,0,0,0,0,514,0,0,0,0,0.0000000,0.0000000,0.0000000,0.0000000,8.00,38.4064865,-110.7923355,1352.0999756,0.1,230.0,1.0,0.0,0.0,899,128,0,0,860.21,4.29,38.37,0
11:56:25,0,0,0,0,0,0,0,0,0,0,0,514,0,0,0,0,0.0000000,0.0000000,0.0000000,0.0000000,8.00,38.4064827,-110.7923355,1352.4000244,0.2,221.6,1.0,0.0,0.0,899,128,0,0,860.21,4.30,38.34,0
11:56:26,0,0,0,0,0,0,0,0,0,0,0,514,0,0,0,0,0.0000000,0.0000000,0.0000000,0.0000000,8.00,38.4064789,-110.7923355,1352.6999512,0.1,229.9,1.0,0.0,0.0,899,125,0,0,860.17,4.29,38.33,0
11:56:27,0,0,0,0,0,0,0,0,0,0,0,514,0,0,0,0,0.0000000,0.0000000,0.0000000,0.0000000,8.00,38.4064751,-110.7923355,1352.9000244,0.1,89.3,1.0,0.0,0.0,899,127,0,0,860.19,4.33,38.31,0
11:56:28,0,0,0,0,0,0,0,0,0,0,0,513,0,0,0,0,0.0000000,0.0000000,0.0000000,0.0000000,8.00,38.4064751,-110.7923355,1353.1999512,0.1,66.3,0.9,0.0,0.0,899,132,0,0,860.21,4.32,38.31,0
11:56:29,0,0,0,0,0,0,0,0,0,0,0,514,0,0,0,0,0.0000000,0.0000000,0.0000000,0.0000000,8.00,38.4064751,-110.7923355,1353.4000244,0.2,88.1,1.0,0.0,0.0,899,127,0,0,860.22,4.32,38.31,0
11:56:30,0,0,0,0,0,0,0,0,0,0,0,515,0,0,0,0,0.0000000,0.0000000,0.0000000,0.0000000,8.00,38.4064751,-110.7923355,1353.6999512,0.1,70.2,0.9,0.0,0.0,899,127,0,0,860.19,4.32,38.29,0
11:56:31,0,0,0,0,0,0,0,0,0,0,0,514,0,0,0,0,0.0000000,0.0000000,0.0000000,0.0000000,8.00,38.4064674,-110.7923355,1354.0999756,0.0,70.5,1.0,0.0,0.0,899,126,0,0,860.21,4.35,38.26,0
11:56:32,0,0,0,0,0,0,0,0,0,0,0,514,0,0,0,0,0.0000000,0.0000000,0.0000000,0.0000000,8.00,38.4064674,-110.7923355,1354.4000244,0.1,144.1,1.0,0.0,0.0,899,128,0,0,860.18,4.35,38.24,0
11:56:33,0,0,0,0,0,0,0,0,0,0,0,514,0,0,0,0,0.0000000,0.0000000,0.0000000,0.0000000,8.00,38.4064636,-110.7923355,1354.6999512,0.1,195.7,1.0,0.0,0.0,899,127,0,0,860.20,4.36,38.23,0
11:56:34,0,0,0,0,0,0,0,0,0,0,0,514,0,0,0,0,0.0000000,0.0000000,0.0000000,0.0000000,8.00,38.4064598,-110.7923355,1354.8000488,0.1,160.3,1.0,0.0,0.0,900,126,0,0,860.19,4.36,38.22,0
11:56:35,0,0,0,0,0,0,0,0,0,0,0,514,0,0,0,0,0.0000000,0.0000000,0.0000000,0.0000000,8.00,38.4064560,-110.7923203,1354.9000244,0.1,57.2,1.0,0.0,0.0,899,128,0,0,860.22,4.36,38.21,0
11:56:36,0,0,0,0,0,0,0,0,0,0,0,514,0,0,0,0,0.0000000,0.0000000,0.0000000,0.0000000,8.00,38.4064560,-110.7923203,1355.0000000,0.1,80.7,1.0,0.0,0.0,899,127,0,0,860.20,4.36,38.18,0
11:56:37,0,0,0,0,0,0,0,0,0,0,0,514,0,0,0,0,0.0000000,0.0000000,0.0000000,0.0000000,8.00,38.4064522,-110.7923203,1355.0999756,0.2,43.7,1.0,0.0,0.0,899,127,0,0,860.18,4.36,38.15,0
11:56:38,0,0,0,0,0,0,0,0,0,0,0,514,0,0,0,0,0.0000000,0.0000000,0.0000000,0.0000000,8.00,38.4064445,-110.7923050,1355.3000488,0.1,127.8,1.0,0.0,0.0,899,127,0,0,860.19,4.40,38.14,0
11:56:39,0,0,0,0,0,0,0,0,0,0,0,514,0,0,0,0,0.0000000,0.0000000,0.0000000,0.0000000,8.00,38.4064407,-110.7923050,1355.3000488,0.1,195.0,1.0,0.0,0.0,899,130,0,0,860.17,4.41,38.10,0
11:56:40,0,0,0,0,0,0,0,0,0,0,0,515,0,0,0,0,0.0000000,0.0000000,0.0000000,0.0000000,8.00,38.4064407,-110.7923050,1355.3000488,0.2,61.5,1.0,0.0,0.0,899,129,0,0,860.21,4.43,38.07,0
11:56:41,0,0,0,0,0,0,0,0,0,0,0,514,0,0,0,0,0.0000000,0.0000000,0.0000000,0.0000000,8.00,38.4064369,-110.7923050,1355.1999512,0.1,85.1,1.0,0.0,0.0,899,128,0,0,860.18,4.43,38.06,0
11:56:42,0,0,0,0,0,0,0,0,0,0,0,514,0,0,0,0,0.0000000,0.0000000,0.0000000,0.0000000,8.00,38.4064331,-110.7923050,1355.1999512,0.1,228.5,1.0,0.0,0.0,899,127,0,0,860.18,4.44,38.05,0
11:56:43,0,0,0,0,0,0,0,0,0,0,0,514,0,0,0,0,0.0000000,0.0000000,0.0000000,0.0000000,8.00,38.4064331,-110.7922974,1355.1999512,0.1,31.8,1.0,0.0,0.0,899,128,0,0,860.19,4.44,38.01,0
11:56:44,0,0,0,0,0,0,0,0,0,0,0,514,0,0,0,0,0.0000000,0.0000000,0.0000000,0.0000000,8.00,38.4064331,-110.7922974,1355.0999756,0.1,2.5,1.0,0.0,0.0,899,127,0,0,860.19,4.47,37.99,0
11:56:45,0,0,0,0,0,0,0,0,0,0,0,514,0,0,0,0,0.0000000,0.0000000,0.0000000,0.0000000,8.00,38.4064293,-110.7922974,1355.0999756,0.0,153.3,1.0,0.0,0.0,898,127,0,0,860.17,4.47,37.96,0
11:56:46,0,0,0,0,0,0,0,0,0,0,0,514,0,0,0,0,0.0000000,0.0000000,0.0000000,0.0000000,8.00,38.4064255,-110.7922974,1355.0000000,0.0,176.8,1.0,0.0,0.0,899,128,0,0,860.15,4.55,37.94,0
11:56:47,0,0,0,0,0,0,0,0,0,0,0,514,0,0,0,0,0.0000000,0.0000000,0.0000000,0.0000000,8.00,38.4064217,-110.7922974,1354.9000244,0.1,271.0,1.0,0.0,0.0,899,128,0,0,860.19,4.53,37.93,0
11:56:48,0,0,0,0,0,0,0,0,0,0,0,514,0,0,0,0,0.0000000,0.0000000,0.0000000,0.0000000,8.00,38.4064217,-110.7922974,1354.9000244,0.1,210.2,1.0,0.0,0.0,899,128,0,0,860.18,4.52,37.92,0
11:56:49,0,0,0,0,0,0,0,0,0,0,0,514,0,0,0,0,0.0000000,0.0000000,0.0000000,0.0000000,8.00,38.4064178,-110.7922974,1354.8000488,0.1,258.4,1.0,0.0,0.0,899,127,0,0,860.18,4.52,37.90,0
11:56:50,0,0,0,0,0,0,0,0,0,0,0,514,0,0,0,0,0.0000000,0.0000000,0.0000000,0.0000000,8.00,38.4064178,-110.7922974,1354.8000488,0.2,224.0,1.0,0.0,0.0,899,126,0,0,860.23,4.53,37.89,0
11:56:51,0,0,0,0,0,0,0,0,0,0,0,514,0,0,0,0,0.0000000,0.0000000,0.0000000,0.0000000,8.00,38.4064178,-110.7922974,1354.8000488,0.1,187.3,1.0,0.0,0.0,899,127,0,0,860.18,4.55,37.87,0
11:56:52,0,0,0,0,0,0,0,0,0,0,0,514,0,0,0,0,0.0000000,0.0000000,0.0000000,0.0000000,8.00,38.4064140,-110.7922821,1354.8000488,0.1,187.6,1.0,0.0,0.0,899,126,0,0,860.10,4.53,37.84,0
11:56:53,0,0,0,0,0,0,0,0,0,0,0,514,0,0,0,0,0.0000000,0.0000000,0.0000000,0.0000000,8.00,38.4064102,-110.7922821,1354.8000488,0.1,164.8,1.0,0.0,0.0,899,126,0,0,860.13,4.56,37.83,0
11:56:54,0,0,0,0,0,0,0,0,0,0,0,514,0,0,0,0,0.0000000,0.0000000,0.0000000,0.0000000,8.00,38.4064064,-110.7922821,1354.8000488,0.1,174.8,1.0,0.0,0.0,899,127,0,0,860.18,4.59,37.82,0
11:56:55,0,0,0,0,0,0,0,0,0,0,0,514,0,0,0,0,0.0000000,0.0000000,0.0000000,0.0000000,8.00,38.4064026,-110.7922821,1354.8000488,0.2,205.1,1.0,0.0,0.0,899,129,0,0,860.14,4.53,37.81,0
11:56:56,0,0,0,0,0,0,0,0,0,0,0,514,0,0,0,0,0.0000000,0.0000000,0.0000000,0.0000000,8.00,38.4063988,-110.7922821,1354.8000488,0.2,230.8,1.0,0.0,0.0,899,130,0,0,860.17,4.58,37.79,0
11:56:57,0,0,0,0,0,0,0,0,0,0,0,514,0,0,0,0,0.0000000,0.0000000,0.0000000,0.0000000,8.00,38.4063950,-110.7922668,1354.6999512,0.1,199.3,1.0,0.0,0.0,899,124,0,0,860.16,4.61,37.67,0
11:56:58,0,0,0,0,0,0,0,0,0,0,0,514,0,0,0,0,0.0000000,0.0000000,0.0000000,0.0000000,8.00,38.4063950,-110.7922668,1354.6999512,0.1,130.7,1.0,0.0,0.0,899,128,0,0,860.17,4.61,37.66,0
11:56:59,0,0,0,0,0,0,0,0,0,0,0,514,0,0,0,0,0.0000000,0.0000000,0.0000000,0.0000000,8.00,38.4063911,-110.7922668,1354.5999756,0.1,184.0,1.0,0.0,0.0,899,127,0,0,860.16,4.59,37.65,0
11:57:00,0,0,0,0,0,0,0,0,0,0,0,514,0,0,0,0,0.0000000,0.0000000,0.0000000,0.0000000,8.00,38.4063873,-110.7922668,1354.5000000,0.3,184.0,1.0,0.0,0.0,899,128,0,0,860.16,4.58,37.65,0
11:57:01,0,0,0,0,0,0,0,0,0,0,0,514,0,0,0,0,0.0000000,0.0000000,0.0000000,0.0000000,8.00,38.4063835,-110.7922668,1354.5000000,0.2,188.5,1.0,0.0,0.0,899,126,0,0,860.12,4.58,37.64,0
11:57:02,0,0,0,0,0,0,0,0,0,0,0,514,0,0,0,0,0.0000000,0.0000000,0.0000000,0.0000000,8.00,38.4063797,-110.7922668,1354.4000244,0.2,185.9,1.0,0.0,0.0,899,128,0,0,860.18,4.59,37.63,0
11:57:03,0,0,0,0,0,0,0,0,0,0,0,514,0,0,0,0,0.0000000,0.0000000,0.0000000,0.0000000,7.00,38.4063759,-110.7922592,1354.3000488,0.2,184.3,1.1,0.0,0.0,898,129,0,0,860.16,4.59,37.65,0
11:57:04,0,0,0,0,0,0,0,0,0,0,0,514,0,0,0,0,0.0000000,0.0000000,0.0000000,0.0000000,8.00,38.4063759,-110.7922592,1354.3000488,0.0,26.1,1.0,0.0,0.0,898,128,0,0,860.16,4.62,37.67,0
11:57:05,0,0,0,0,0,0,0,0,0,0,0,514,0,0,0,0,0.0000000,0.0000000,0.0000000,0.0000000,8.00,38.4063759,-110.7922592,1354.1999512,0.1,216.5,1.0,0.0,0.0,899,127,0,0,860.17,4.64,37.67,0
11:57:06,0,0,0,0,0,0,0,0,0,0,0,515,0,0,0,0,0.0000000,0.0000000,0.0000000,0.0000000,8.00,38.4063759,-110.7922440,1354.1999512,0.0,193.3,1.0,0.0,0.0,899,125,0,0,860.15,4.62,37.66,0
11:57:07,0,0,0,0,0,0,0,0,0,0,0,514,0,0,0,0,0.0000000,0.0000000,0.0000000,0.0000000,8.00,38.4063721,-110.7922440,1354.1999512,0.1,216.5,1.0,0.0,0.0,899,128,0,0,860.14,4.64,37.65,0
11:57:08,0,0,0,0,0,0,0,0,0,0,0,514,0,0,0,0,0.0000000,0.0000000,0.0000000,0.0000000,8.00,38.4063721,-110.7922440,1354.1999512,0.0,168.3,1.0,0.0,0.0,899,126,0,0,860.14,4.62,37.64,0
11:57:09,0,0,0,0,0,0,0,0,0,0,0,514,0,0,0,0,0.0000000,0.0000000,0.0000000,0.0000000,7.00,38.4063721,-110.7922287,1354.3000488,0.0,167.8,1.1,0.0,0.0,899,128,0,0,860.17,4.62,37.63,0
11:57:10,0,0,0,0,0,0,0,0,0,0,0,514,0,0,0,0,0.0000000,0.0000000,0.0000000,0.0000000,7.00,38.4063683,-110.7922287,1354.3000488,0.1,169.1,1.1,0.0,0.0,899,131,0,0,860.12,4.62,37.61,0
11:57:11,0,0,0,0,0,0,0,0,0,0,0,514,0,0,0,0,0.0000000,0.0000000,0.0000000,0.0000000,7.00,38.4063683,-110.7922287,1354.3000488,0.1,173.8,1.1,0.0,0.0,899,126,0,0,860.16,4.67,37.59,0
11:57:12,0,0,0,0,0,0,0,0,0,0,0,513,0,0,0,0,0.0000000,0.0000000,0.0000000,0.0000000,8.00,38.4063683,-110.7922287,1354.3000488,0.0,155.4,1.0,0.0,0.0,899,127,0,0,860.21,4.64,37.58,0
11:57:13,0,0,0,0,0,0,0,0,0,0,0,514,0,0,0,0,0.0000000,0.0000000,0.0000000,0.0000000,7.00,38.4063644,-110.7922211,1354.3000488,0.1,155.4,1.1,0.0,0.0,899,124,0,0,860.17,4.67,37.57,0
11:57:14,0,0,0,0,0,0,0,0,0,0,0,514,0,0,0,0,0.0000000,0.0000000,0.0000000,0.0000000,8.00,38.4063644,-110.7922211,1354.3000488,0.1,188.4,1.0,0.0,0.0,899,127,0,0,860.14,4.67,37.55,0
11:57:15,0,0,0,0,0,0,0,0,0,0,0,514,0,0,0,0,0.0000000,0.0000000,0.0000000,0.0000000,8.00,38.4063644,-110.7922211,1354.3000488,0.1,219.7,1.0,0.0,0.0,899,127,0,0,860.13,4.67,37.53,0
11:57:16,0,0,0,0,0,0,0,0,0,0,0,514,0,0,0,0,0.0000000,0.0000000,0.0000000,0.0000000,7.00,38.4063644,-110.7922211,1354.1999512,0.0,208.1,1.1,0.0,0.0,900,130,0,0,860.15,4.67,37.53,0
11:57:17,0,0,0,0,0,0,0,0,0,0,0,514,0,0,0,0,0.0000000,0.0000000,0.0000000,0.0000000,7.00,38.4063644,-110.7922058,1354.0999756,0.0,76.3,1.1,0.0,0.0,899,128,0,0,860.17,4.70,37.52,0
11:57:18,0,0,0,0,0,0,0,0,0,0,0,514,0,0,0,0,0.0000000,0.0000000,0.0000000,0.0000000,8.00,38.4063644,-110.7922058,1354.0000000,0.0,298.4,1.0,0.0,0.0,899,126,0,0,860.17,4.65,37.51,0
11:57:19,0,0,0,0,0,0,0,0,0,0,0,514,0,0,0,0,0.0000000,0.0000000,0.0000000,0.0000000,8.00,38.4063644,-110.7922058,1353.9000244,0.0,255.9,1.0,0.0,0.0,899,127,0,0,860.15,4.73,37.50,0
11:57:20,0,0,0,0,0,0,0,0,0,0,0,514,0,0,0,0,0.0000000,0.0000000,0.0000000,0.0000000,8.00,38.4063644,-110.7922058,1353.8000488,0.0,205.7,1.0,0.0,0.0,899,126,0,0,860.12,4.70,37.49,0
11:57:21,0,0,0,0,0,0,0,0,0,0,0,514,0,0,0,0,0.0000000,0.0000000,0.0000000,0.0000000,8.00,38.4063644,-110.7922058,1353.6999512,0.0,291.4,1.0,0.0,0.0,899,128,0,0,860.14,4.72,37.47,0
11:57:22,0,0,0,0,0,0,0,0,0,0,0,514,0,0,0,0,0.0000000,0.0000000,0.0000000,0.0000000,8.00,38.4063644,-110.7922058,1353.5999756,0.0,312.6,1.0,0.0,0.0,899,129,0,0,860.19,4.72,37.46,0
11:57:23,0,0,0,0,0,0,0,0,0,0,0,514,0,0,0,0,0.0000000,0.0000000,0.0000000,0.0000000,8.00,38.4063683,-110.7922058,1353.4000244,0.0,313.6,1.0,0.0,0.0,898,127,0,0,860.15,4.72,37.45,0
11:57:24,0,0,0,0,0,0,0,0,0,0,0,514,0,0,0,0,0.0000000,0.0000000,0.0000000,0.0000000,8.00,38.4063683,-110.7922058,1353.3000488,0.0,359.2,1.0,0.0,0.0,899,129,0,0,860.15,4.70,37.44,0
11:57:25,0,0,0,0,0,0,0,0,0,0,0,514,0,0,0,0,0.0000000,0.0000000,0.0000000,0.0000000,8.00,38.4063683,-110.7922058,1353.1999512,0.0,307.6,1.0,0.0,0.0,899,128,0,0,860.16,4.73,37.44,0
11:57:26,0,0,0,0,0,0,0,0,0,0,0,514,0,0,0,0,0.0000000,0.0000000,0.0000000,0.0000000,7.00,38.4063683,-110.7922058,1353.0000000,0.0,354.1,1.1,0.0,0.0,898,128,0,0,860.15,4.75,37.42,0
11:57:27,0,0,0,0,0,0,0,0,0,0,0,514,0,0,0,0,0.0000000,0.0000000,0.0000000,0.0000000,7.00,38.4063683,-110.7921906,1352.8000488,0.0,323.7,1.1,0.0,0.0,899,126,0,0,860.14,4.79,37.39,0
11:57:28,0,0,0,0,0,0,0,0,0,0,0,514,0,0,0,0,0.0000000,0.0000000,0.0000000,0.0000000,7.00,38.4063721,-110.7921906,1352.5999756,0.0,344.0,1.1,0.0,0.0,899,126,0,0,860.16,4.79,37.38,0
11:57:29,0,0,0,0,0,0,0,0,0,0,0,513,0,0,0,0,0.0000000,0.0000000,0.0000000,0.0000000,8.00,38.4063721,-110.7921906,1352.5000000,0.0,171.3,1.0,0.0,0.0,899,127,0,0,860.13,4.76,37.37,0
11:57:30,0,0,0,0,0,0,0,0,0,0,0,514,0,0,0,0,0.0000000,0.0000000,0.0000000,0.0000000,8.00,38.4063721,-110.7921906,1352.4000244,0.0,243.3,1.0,0.0,0.0,899,128,0,0,860.21,4.79,37.35,0
11:57:31,0,0,0,0,0,0,0,0,0,0,0,514,0,0,0,0,0.0000000,0.0000000,0.0000000,0.0000000,8.00,38.4063721,-110.7921906,1352.3000488,0.0,131.8,1.0,0.0,0.0,900,129,0,0,860.14,4.82,37.33,0
11:57:32,0,0,0,0,0,0,0,0,0,0,0,514,0,0,0,0,0.0000000,0.0000000,0.0000000,0.0000000,8.00,38.4063721,-110.7921906,1352.0999756,0.0,120.3,1.0,0.0,0.0,899,132,0,0,860.24,4.81,37.32,0
11:57:33,0,0,0,0,0,0,0,0,0,0,0,513,0,0,0,0,0.0000000,0.0000000,0.0000000,0.0000000,8.00,38.4063721,-110.7921906,1352.0999756,0.0,154.8,1.0,0.0,0.0,899,127,0,0,860.21,4.84,37.31,0
11:57:34,0,0,0,0,0,0,0,0,0,0,0,514,0,0,0,0,0.0000000,0.0000000,0.0000000,0.0000000,8.00,38.4063721,-110.7921906,1352.0000000,0.0,231.4,1.0,0.0,0.0,899,127,0,0,860.26,4.82,37.30,0
11:57:35,0,0,0,0,0,0,0,0,0,0,0,514,0,0,0,0,0.0000000,0.0000000,0.0000000,0.0000000,8.00,38.4063721,-110.7921906,1352.0000000,0.0,161.5,1.0,0.0,0.0,899,126,0,0,860.20,4.84,37.29,0
11:57:36,0,0,0,0,0,0,0,0,0,0,0,514,0,0,0,0,0.0000000,0.0000000,0.0000000,0.0000000,8.00,38.4063721,-110.7921906,1351.9000244,0.0,215.2,1.0,0.0,0.0,899,124,0,0,860.21,4.82,37.26,0
11:57:37,0,0,0,0,0,0,0,0,0,0,0,514,0,0,0,0,0.0000000,0.0000000,0.0000000,0.0000000,8.00,38.4063683,-110.7921906,1351.9000244,0.0,239.8,1.0,0.0,0.0,899,128,0,0,860.13,4.84,37.25,0
11:57:38,0,0,0,0,0,0,0,0,0,0,0,514,0,0,0,0,0.0000000,0.0000000,0.0000000,0.0000000,8.00,38.4063683,-110.7921906,1351.8000488,0.0,206.9,1.0,0.0,0.0,899,128,0,0,860.19,4.84,37.24,0
11:57:39,0,0,0,0,0,0,0,0,0,0,0,514,0,0,0,0,0.0000000,0.0000000,0.0000000,0.0000000,8.00,38.4063683,-110.7921906,1351.8000488,0.0,130.9,1.0,0.0,0.0,898,135,0,0,860.20,4.85,37.22,0
11:57:40,0,0,0,0,0,0,0,0,0,0,0,514,0,0,0,0,0.0000000,0.0000000,0.0000000,0.0000000,8.00,38.4063683,-110.7921906,1351.8000488,0.0,271.9,1.0,0.0,0.0,899,126,0,0,860.15,4.84,37.21,0
11:57:41,0,0,0,0,0,0,0,0,0,0,0,514,0,0,0,0,0.0000000,0.0000000,0.0000000,0.0000000,8.00,38.4063683,-110.7921906,1351.9000244,0.0,294.6,1.0,0.0,0.0,899,130,0,0,860.17,4.87,37.20,0
11:57:42,0,0,0,0,0,0,0,0,0,0,0,514,0,0,0,0,0.0000000,0.0000000,0.0000000,0.0000000,8.00,38.4063644,-110.7921906,1352.0000000,0.0,185.4,1.0,0.0,0.0,899,127,0,0,860.18,4.88,37.20,0
11:57:43,0,0,0,0,0,0,0,0,0,0,0,514,0,0,0,0,0.0000000,0.0000000,0.0000000,0.0000000,8.00,38.4063644,-110.7921906,1352.0999756,0.0,158.0,1.0,0.0,0.0,898,125,0,0,860.16,4.90,37.20,0
11:57:44,0,0,0,0,0,0,0,0,0,0,0,513,0,0,0,0,0.0000000,0.0000000,0.0000000,0.0000000,8.00,38.4063644,-110.7921829,1352.1999512,0.0,125.4,1.0,0.0,0.0,899,125,0,0,860.17,4.90,37.19,0
11:57:45,0,0,0,0,0,0,0,0,0,0,0,514,0,0,0,0,0.0000000,0.0000000,0.0000000,0.0000000,8.00,38.4063606,-110.7921829,1352.3000488,0.0,94.6,1.0,0.0,0.0,899,127,0,0,860.23,4.88,37.17,0
11:57:46,0,0,0,0,0,0,0,0,0,0,0,514,0,0,0,0,0.0000000,0.0000000,0.0000000,0.0000000,8.00,38.4063606,-110.7921829,1352.5000000,0.0,234.5,1.0,0.0,0.0,899,126,0,0,860.18,4.91,37.16,0
11:57:47,0,0,0,0,0,0,0,0,0,0,0,514,0,0,0,0,0.0000000,0.0000000,0.0000000,0.0000000,8.00,38.4063568,-110.7921829,1352.5000000,0.0,259.8,1.0,0.0,0.0,899,131,0,0,860.17,4.88,37.15,0
11:57:48,0,0,0,0,0,0,0,0,0,0,0,514,0,0,0,0,0.0000000,0.0000000,0.0000000,0.0000000,8.00,38.4063568,-110.7921829,1352.5000000,0.0,135.6,1.0,0.0,0.0,898,125,0,0,860.14,4.90,37.14,0
11:57:50,0,0,0,0,0,0,0,0,0,0,0,514,0,0,0,0,0.0000000,0.0000000,0.0000000,0.0000000,8.00,38.4063568,-110.7921829,1352.8000488,0.0,253.0,1.0,0.0,0.0,899,128,0,0,860.17,4.90,37.13,0
11:57:51,0,0,0,0,0,0,0,0,0,0,0,514,0,0,0,0,0.0000000,0.0000000,0.0000000,0.0000000,8.00,38.4063568,-110.7921829,1352.8000488,0.0,194.5,1.0,0.0,0.0,899,130,0,0,860.14,4.94,37.10,0
11:57:52,0,0,0,0,0,0,0,0,0,0,0,515,0,0,0,0,0.0000000,0.0000000,0.0000000,0.0000000,8.00,38.4063568,-110.7921677,1353.0999756,0.0,124.3,1.0,0.0,0.0,899,128,0,0,860.17,4.90,37.08,0
11:57:53,0,0,0,0,0,0,0,0,0,0,0,513,0,0,0,0,0.0000000,0.0000000,0.0000000,0.0000000,8.00,38.4063530,-110.7921677,1353.0999756,0.0,186.1,1.0,0.0,0.0,898,124,0,0,860.15,4.93,37.08,0
11:57:54,0,0,0,0,0,0,0,0,0,0,0,514,0,0,0,0,0.0000000,0.0000000,0.0000000,0.0000000,8.00,38.4063530,-110.7921677,1353.4000244,0.0,255.6,1.0,0.0,0.0,899,126,0,0,860.08,4.93,37.07,0
11:57:55,0,0,0,0,0,0,0,0,0,0,0,514,0,0,0,0,0.0000000,0.0000000,0.0000000,0.0000000,8.00,38.4063492,-110.7921677,1353.4000244,0.0,126.6,1.0,0.0,0.0,899,129,0,0,860.12,4.94,37.06,0
11:57:56,0,0,0,0,0,0,0,0,0,0,0,514,0,0,0,0,0.0000000,0.0000000,0.0000000,0.0000000,8.00,38.4063492,-110.7921677,1353.5999756,0.0,122.2,1.0,0.0,0.0,898,128,0,0,860.11,4.93,37.05,0
11:57:57,0,0,0,0,0,0,0,0,0,0,0,515,0,0,0,0,0.0000000,0.0000000,0.0000000,0.0000000,8.00,38.4063454,-110.7921677,1353.8000488,0.0,150.4,1.0,0.0,0.0,899,128,0,0,860.11,4.91,37.04,0
11:57:58,0,0,0,0,0,0,0,0,0,0,0,514,0,0,0,0,0.0000000,0.0000000,0.0000000,0.0000000,8.00,38.4063454,-110.7921677,1353.9000244,0.0,139.3,1.0,0.0,0.0,898,126,0,0,860.10,4.94,37.03,0
11:57:59,0,0,0,0,0,0,0,0,0,0,0,514,0,0,0,0,0.0000000,0.0000000,0.0000000,0.0000000,8.00,38.4063454,-110.7921524,1354.0999756,0.0,98.5,1.0,0.0,0.0,899,130,0,0,860.13,4.94,37.03,0
11:58:00,0,0,0,0,0,0,0,0,0,0,0,514,0,0,0,0,0.0000000,0.0000000,0.0000000,0.0000000,8.00,38.4063416,-110.7921524,1354.3000488,0.0,158.6,1.0,0.0,0.0,899,128,0,0,860.17,4.93,37.02,0
11:58:01,0,0,0,0,0,0,0,0,0,0,0,514,0,0,0,0,0.0000000,0.0000000,0.0000000,0.0000000,8.00,38.4063416,-110.7921524,1354.4000244,0.0,194.7,1.0,0.0,0.0,899,125,0,0,860.16,4.96,37.00,0
11:58:02,0,0,0,0,0,0,0,0,0,0,0,513,0,0,0,0,0.0000000,0.0000000,0.0000000,0.0000000,8.00,38.4063416,-110.7921524,1354.5000000,0.0,167.4,1.0,0.0,0.0,899,127,0,0,860.14,4.99,36.99,0
11:58:03,0,0,0,0,0,0,0,0,0,0,0,514,0,0,0,0,0.0000000,0.0000000,0.0000000,0.0000000,8.00,38.4063377,-110.7921524,1354.5999756,0.0,100.6,1.0,0.0,0.0,899,130,0,0,860.16,5.02,36.98,0
11:58:04,0,0,0,0,0,0,0,0,0,0,0,514,0,0,0,0,0.0000000,0.0000000,0.0000000,0.0000000,8.00,38.4063377,-110.7921524,1354.6999512,0.0,341.8,1.0,0.0,0.0,898,127,0,0,860.17,5.02,36.97,0
11:58:05,0,0,0,0,0,0,0,0,0,0,0,514,0,0,0,0,0.0000000,0.0000000,0.0000000,0.0000000,8.00,38.4063377,-110.7921524,1354.8000488,0.0,186.3,1.0,0.0,0.0,899,127,0,0,860.16,5.01,36.97,0
11:58:06,0,0,0,0,0,0,0,0,0,0,0,513,0,0,0,0,0.0000000,0.0000000,0.0000000,0.0000000,8.00,38.4063377,-110.7921524,1354.9000244,0.0,130.2,1.0,0.0,0.0,898,126,0,0,860.17,5.01,36.96,0
11:58:07,0,0,0,0,0,0,0,0,0,0,0,514,0,0,0,0,0.0000000,0.0000000,0.0000000,0.0000000,8.00,38.4063377,-110.7921524,1355.0000000,0.0,160.3,1.0,0.0,0.0,899,124,0,0,860.17,5.02,36.95,0
11:58:08,0,0,0,0,0,0,0,0,0,0,0,514,0,0,0,0,0.0000000,0.0000000,0.0000000,0.0000000,8.00,38.4063377,-110.7921371,1355.0999756,0.0,100.8,1.0,0.0,0.0,899,127,0,0,860.15,5.04,36.94,0
11:58:09,0,0,0,0,0,0,0,0,0,0,0,514,0,0,0,0,0.0000000,0.0000000,0.0000000,0.0000000,8.00,38.4063377,-110.7921371,1355.0999756,0.0,145.9,1.0,0.0,0.0,899,127,0,0,860.22,5.04,36.93,0
11:58:10,0,0,0,0,0,0,0,0,0,0,0,514,0,0,0,0,0.0000000,0.0000000,0.0000000,0.0000000,8.00,38.4063377,-110.7921371,1355.1999512,0.0,143.5,1.0,0.0,0.0,899,126,0,0,860.16,5.04,36.93,0
11:58:11,0,0,0,0,0,0,0,0,0,0,0,514,0,0,0,0,0.0000000,0.0000000,0.0000000,0.0000000,8.00,38.4063377,-110.7921371,1355.1999512,0.0,126.7,1.0,0.0,0.0,899,128,0,0,860.19,5.05,36.91,0
11:58:12,0,0,0,0,0,0,0,0,0,0,0,514,0,0,0,0,0.0000000,0.0000000,0.0000000,0.0000000,8.00,38.4063377,-110.7921371,1355.1999512,0.0,95.0,1.0,0.0,0.0,898,128,0,0,860.13,5.07,36.90,0
11:58:13,0,0,0,0,0,0,0,0,0,0,0,514,0,0,0,0,0.0000000,0.0000000,0.0000000,0.0000000,8.00,38.4063377,-110.7921371,1355.3000488,0.0,333.9,1.0,0.0,0.0,899,126,0,0,860.13,5.05,36.87,0
11:58:14,0,0,0,0,0,0,0,0,0,0,0,514,0,0,0,0,0.0000000,0.0000000,0.0000000,0.0000000,8.00,38.4063377,-110.7921371,1355.3000488,0.0,31.7,1.0,0.0,0.0,898,128,0,0,860.18,5.05,36.87,0
11:58:15,0,0,0,0,0,0,0,0,0,0,0,514,0,0,0,0,0.0000000,0.0000000,0.0000000,0.0000000,8.00,38.4063377,-110.7921371,1355.1999512,0.0,12.7,1.0,0.0,0.0,898,125,0,0,860.15,5.08,36.86,0
11:58:16,0,0,0,0,0,0,0,0,0,0,0,514,0,0,0,0,0.0000000,0.0000000,0.0000000,0.0000000,8.00,38.4063416,-110.7921371,1355.0999756,0.0,51.2,1.0,0.0,0.0,899,125,0,0,860.16,5.11,36.84,0
11:58:17,0,0,0,0,0,0,0,0,0,0,0,513,0,0,0,0,0.0000000,0.0000000,0.0000000,0.0000000,8.00,38.4063416,-110.7921371,1355.0999756,0.0,265.9,1.0,0.0,0.0,899,131,0,0,860.12,5.10,36.82,0
11:58:18,0,0,0,0,0,0,0,0,0,0,0,514,0,0,0,0,0.0000000,0.0000000,0.0000000,0.0000000,8.00,38.4063492,-110.7921371,1355.5999756,0.0,359.0,1.0,0.0,0.0,899,128,0,0,860.16,5.11,36.80,0
11:58:19,0,0,0,0,0,0,0,0,0,0,0,514,0,0,0,0,0.0000000,0.0000000,0.0000000,0.0000000,8.00,38.4063530,-110.7921371,1356.0999756,0.0,18.4,1.0,0.0,0.0,899,129,0,0,860.15,5.13,36.79,0
11:58:20,0,0,0,0,0,0,0,0,0,0,0,514,0,0,0,0,0.0000000,0.0000000,0.0000000,0.0000000,8.00,38.4063568,-110.7921371,1356.5000000,0.0,329.7,1.0,0.0,0.0,898,128,0,0,860.17,5.11,36.78,0
11:58:21,0,0,0,0,0,0,0,0,0,0,0,514,0,0,0,0,0.0000000,0.0000000,0.0000000,0.0000000,8.00,38.4063606,-110.7921371,1356.9000244,0.0,350.9,1.0,0.0,0.0,898,128,0,0,860.14,5.13,36.78,0
11:58:22,0,0,0,0,0,0,0,0,0,0,0,513,0,0,0,0,0.0000000,0.0000000,0.0000000,0.0000000,8.00,38.4063683,-110.7921371,1357.0999756,0.0,358.2,1.0,0.0,0.0,899,127,0,0,860.14,5.14,36.77,0
11:58:23,0,0,0,0,0,0,0,0,0,0,0,514,0,0,0,0,0.0000000,0.0000000,0.0000000,0.0000000,8.00,38.4063721,-110.7921371,1357.3000488,0.1,20.7,1.0,0.0,0.0,899,125,0,0,860.21,5.13,36.76,0
11:58:24,0,0,0,0,0,0,0,0,0,0,0,514,0,0,0,0,0.0000000,0.0000000,0.0000000,0.0000000,8.00,38.4063759,-110.7921371,1357.4000244,0.0,17.5,1.0,0.0,0.0,899,123,0,0,860.21,5.13,36.74,0
11:58:25,0,0,0,0,0,0,0,0,0,0,0,514,0,0,0,0,0.0000000,0.0000000,0.0000000,0.0000000,8.00,38.4063797,-110.7921371,1357.5999756,0.0,32.3,1.0,0.0,0.0,899,128,0,0,860.16,5.16,36.72,0
11:58:26,0,0,0,0,0,0,0,0,0,0,0,513,0,0,0,0,0.0000000,0.0000000,0.0000000,0.0000000,8.00,38.4063873,-110.7921295,1357.5999756,0.0,33.6,1.0,0.0,0.0,899,127,0,0,860.18,5.17,36.71,0
11:58:27,0,0,0,0,0,0,0,0,0,0,0,514,0,0,0,0,0.0000000,0.0000000,0.0000000,0.0000000,8.00,38.4063911,-110.7921295,1357.6999512,0.0,6.8,1.0,0.0,0.0,899,129,0,0,860.15,5.19,36.70,0
11:58:28,0,0,0,0,0,0,0,0,0,0,0,514,0,0,0,0,0.0000000,0.0000000,0.0000000,0.0000000,8.00,38.4063950,-110.7921295,1357.6999512,0.0,19.1,1.0,0.0,0.0,899,127,0,0,860.16,5.19,36.70,0
11:58:29,0,0,0,0,0,0,0,0,0,0,0,513,0,0,0,0,0.0000000,0.0000000,0.0000000,0.0000000,8.00,38.4063988,-110.7921295,1357.5999756,0.0,36.7,1.0,0.0,0.0,899,129,0,0,860.10,5.20,36.69,0
11:58:30,0,0,0,0,0,0,0,0,0,0,0,513,0,0,0,0,0.0000000,0.0000000,0.0000000,0.0000000,8.00,38.4064026,-110.7921295,1357.5000000,0.0,35.0,1.0,0.0,0.0,899,131,0,0,860.09,5.22,36.68,0
11:58:31,0,0,0,0,0,0,0,0,0,0,0,514,0,0,0,0,0.0000000,0.0000000,0.0000000,0.0000000,8.00,38.4064064,-110.7921295,1357.3000488,0.0,354.1,1.0,0.0,0.0,899,128,0,0,860.20,5.23,36.66,0
11:58:32,0,0,0,0,0,0,0,0,0,0,0,514,0,0,0,0,0.0000000,0.0000000,0.0000000,0.0000000,8.00,38.4064140,-110.7921143,1357.0999756,0.0,8.1,1.0,0.0,0.0,899,127,0,0,860.15,5.23,36.57,0
11:58:33,0,0,0,0,0,0,0,0,0,0,0,514,0,0,0,0,0.0000000,0.0000000,0.0000000,0.0000000,8.00,38.4064178,-110.7921143,1357.0000000,0.0,30.8,1.0,0.0,0.0,899,126,0,0,860.16,5.25,36.57,0
11:58:34,0,0,0,0,0,0,0,0,0,0,0,514,0,0,0,0,0.0000000,0.0000000,0.0000000,0.0000000,8.00,38.4064178,-110.7921143,1356.8000488,0.0,23.3,1.0,0.0,0.0,899,131,0,0,860.12,5.22,36.57,0
11:58:35,0,0,0,0,0,0,0,0,0,0,0,514,0,0,0,0,0.0000000,0.0000000,0.0000000,0.0000000,8.00,38.4064293,-110.7921143,1356.4000244,0.0,6.4,1.0,0.0,0.0,899,126,0,0,860.18,5.23,36.61,0
11:58:36,0,0,0,0,0,0,0,0,0,0,0,514,0,0,0,0,0.0000000,0.0000000,0.0000000,0.0000000,8.00,38.4064331,-110.7921143,1356.1999512,0.1,3.8,1.0,0.0,0.0,898,130,0,0,860.21,5.25,36.59,0
11:58:37,0,0,0,0,0,0,0,0,0,0,0,514,0,0,0,0,0.0000000,0.0000000,0.0000000,0.0000000,8.00,38.4064369,-110.7921143,1355.9000244,0.0,348.6,1.0,0.0,0.0,899,125,0,0,860.23,5.25,36.57,0
11:58:38,0,0,0,0,0,0,0,0,0,0,0,514,0,0,0,0,0.0000000,0.0000000,0.0000000,0.0000000,8.00,38.4064407,-110.7921143,1355.5000000,0.0,4.1,1.0,0.0,0.0,898,129,0,0,860.17,5.26,36.60,0
11:58:39,0,0,0,0,0,0,0,0,0,0,0,513,0,0,0,0,0.0000000,0.0000000,0.0000000,0.0000000,8.00,38.4064445,-110.7921143,1355.1999512,0.0,2.4,1.0,0.0,0.0,899,125,0,0,860.17,5.28,36.60,0
11:58:40,0,0,0,0,0,0,0,0,0,0,0,514,0,0,0,0,0.0000000,0.0000000,0.0000000,0.0000000,8.00,38.4064484,-110.7920990,1354.9000244,0.0,54.2,1.0,0.0,0.0,898,125,0,0,860.13,5.28,36.59,0
11:58:41,0,0,0,0,0,0,0,0,0,0,0,514,0,0,0,0,0.0000000,0.0000000,0.0000000,0.0000000,8.00,38.4064522,-110.7920990,1354.5999756,0.0,314.9,1.0,0.0,0.0,898,127,0,0,860.11,5.30,36.58,0
11:58:42,0,0,0,0,0,0,0,0,0,0,0,514,0,0,0,0,0.0000000,0.0000000,0.0000000,0.0000000,8.00,38.4064522,-110.7920990,1354.3000488,0.0,90.5,1.0,0.0,0.0,899,129,0,0,860.16,5.28,36.58,0
11:58:43,0,0,0,0,0,0,0,0,0,0,0,514,0,0,0,0,0.0000000,0.0000000,0.0000000,0.0000000,8.00,38.4064560,-110.7920990,1354.0000000,0.0,26.5,1.0,0.0,0.0,898,127,0,0,860.22,5.31,36.58,0
11:58:44,0,0,0,0,0,0,0,0,0,0,0,514,0,0,0,0,0.0000000,0.0000000,0.0000000,0.0000000,8.00,38.4064560,-110.7920990,1353.6999512,0.0,292.4,1.0,0.0,0.0,899,126,0,0,860.19,5.25,36.58,0
11:58:45,0,0,0,0,0,0,0,0,0,0,0,514,0,0,0,0,0.0000000,0.0000000,0.0000000,0.0000000,8.00,38.4064560,-110.7920914,1353.3000488,0.0,320.8,1.0,0.0,0.0,898,131,0,0,860.16,5.30,36.57,0
11:58:46,0,0,0,0,0,0,0,0,0,0,0,513,0,0,0,0,0.0000000,0.0000000,0.0000000,0.0000000,8.00,38.4064598,-110.7920914,1353.0000000,0.0,337.5,1.0,0.0,0.0,899,127,0,0,860.20,5.30,36.55,0
11:58:47,0,0,0,0,0,0,0,0,0,0,0,513,0,0,0,0,0.0000000,0.0000000,0.0000000,0.0000000,8.00,38.4064636,-110.7920914,1352.6999512,0.0,26.4,1.0,0.0,0.0,899,128,0,0,860.18,5.30,36.54,0
11:58:48,0,0,0,0,0,0,0,0,0,0,0,514,0,0,0,0,0.0000000,0.0000000,0.0000000,0.0000000,8.00,38.4064636,-110.7920914,1352.4000244,0.0,300.5,1.0,0.0,0.0,899,126,0,0,860.23,5.33,36.53,0
11:58:49,0,0,0,0,0,0,0,0,0,0,0,513,0,0,0,0,0.0000000,0.0000000,0.0000000,0.0000000,8.00,38.4064674,-110.7920914,1352.0000000,0.0,322.7,1.0,0.0,0.0,898,126,0,0,860.26,5.33,36.52,0
11:58:50,0,0,0,0,0,0,0,0,0,0,0,514,0,0,0,0,0.0000000,0.0000000,0.0000000,0.0000000,8.00,38.4064713,-110.7920914,1351.6999512,0.0,335.4,1.0,0.0,0.0,898,126,0,0,860.15,5.30,36.51,0
11:58:51,0,0,0,0,0,0,0,0,0,0,0,513,0,0,0,0,0.0000000,0.0000000,0.0000000,0.0000000,8.00,38.4064751,-110.7920914,1351.4000244,0.0,19.3,1.0,0.0,0.0,899,124,0,0,860.18,5.34,36.50,0
11:58:52,0,0,0,0,0,0,0,0,0,0,0,514,0,0,0,0,0.0000000,0.0000000,0.0000000,0.0000000,8.00,38.4064751,-110.7920914,1351.0999756,0.0,51.3,1.0,0.0,0.0,898,127,0,0,860.17,5.36,36.49,0
11:58:53,0,0,0,0,0,0,0,0,0,0,0,514,0,0,0,0,0.0000000,0.0000000,0.0000000,0.0000000,8.00,38.4064789,-110.7920914,1350.8000488,0.0,47.6,1.0,0.0,0.0,899,126,0,0,860.15,5.34,36.47,0
11:58:54,0,0,0,0,0,0,0,0,0,0,0,514,0,0,0,0,0.0000000,0.0000000,0.0000000,0.0000000,8.00,38.4064827,-110.7920914,1350.5000000,0.0,343.1,1.0,0.0,0.0,899,128,0,0,860.14,5.37,36.46,0
11:58:55,0,0,0,0,0,0,0,0,0,0,0,513,0,0,0,0,0.0000000,0.0000000,0.0000000,0.0000000,8.00,38.4064865,-110.7920914,1350.4000244,0.0,331.1,1.0,0.0,0.0,898,130,0,0,860.13,5.39,36.44,0
11:58:56,0,0,0,0,0,0,0,0,0,0,0,514,0,0,0,0,0.0000000,0.0000000,0.0000000,0.0000000,8.00,38.4064941,-110.7920914,1350.3000488,0.0,356.2,1.0,0.0,0.0,899,130,0,0,860.13,5.40,36.44,0
11:58:57,0,0,0,0,0,0,0,0,0,0,0,514,0,0,0,0,0.0000000,0.0000000,0.0000000,0.0000000,8.00,38.4064941,-110.7920914,1350.0999756,0.0,306.7,1.0,0.0,0.0,898,128,0,0,860.13,5.40,36.43,0
11:58:58,0,0,0,0,0,0,0,0,0,0,0,514,0,0,0,0,0.0000000,0.0000000,0.0000000,0.0000000,8.00,38.4064980,-110.7920914,1350.0000000,0.0,320.4,1.0,0.0,0.0,899,127,0,0,860.12,5.37,36.40,0
11:58:59,0,0,0,0,0,0,0,0,0,0,0,514,0,0,0,0,0.0000000,0.0000000,0.0000000,0.0000000,8.00,38.4065018,-110.7920914,1350.0999756,0.0,307.8,1.0,0.0,0.0,899,124,0,0,860.14,5.39,36.39,0
11:59:00,0,0,0,0,0,0,0,0,0,0,0,514,0,0,0,0,0.0000000,0.0000000,0.0000000,0.0000000,8.00,38.4065056,-110.7920990,1350.1999512,0.0,346.9,1.0,0.0,0.0,898,126,0,0,860.17,5.39,36.39,0
11:59:01,0,0,0,0,0,0,0,0,0,0,0,514,0,0,0,0,0.0000000,0.0000000,0.0000000,0.0000000,8.00,38.4065094,-110.7920990,1350.3000488,0.0,346.0,1.0,0.0,0.0,898,125,0,0,860.16,5.43,36.39,0
11:59:02,0,0,0,0,0,0,0,0,0,0,0,514,0,0,0,0,0.0000000,0.0000000,0.0000000,0.0000000,8.00,38.4065170,-110.7920990,1350.4000244,0.0,346.2,1.0,0.0,0.0,899,126,0,0,860.14,5.40,36.39,0
11:59:03,0,0,0,0,0,0,0,0,0,0,0,514,0,0,0,0,0.0000000,0.0000000,0.0000000,0.0000000,8.00,38.4065208,-110.7920990,1350.5999756,0.0,5.1,1.0,0.0,0.0,899,127,0,0,860.10,5.40,36.38,0
11:59:04,0,0,0,0,0,0,0,0,0,0,0,514,0,0,0,0,0.0000000,0.0000000,0.0000000,0.0000000,8.00,38.4065247,-110.7920990,1350.8000488,0.0,3.2,1.0,0.0,0.0,899,128,0,0,860.15,5.42,36.38,0
11:59:05,0,0,0,0,0,0,0,0,0,0,0,515,0,0,0,0,0.0000000,0.0000000,0.0000000,0.0000000,8.00,38.4065285,-110.7920990,1350.9000244,0.1,336.3,1.0,0.0,0.0,899,129,0,0,860.11,5.40,36.37,0
11:59:06,0,0,0,0,0,0,0,0,0,0,0,514,0,0,0,0,0.0000000,0.0000000,0.0000000,0.0000000,8.00,38.4065361,-110.7920990,1351.1999512,0.0,352.9,1.0,0.0,0.0,898,128,0,0,860.12,5.42,36.36,0
11:59:07,0,0,0,0,0,0,0,0,0,0,0,513,0,0,0,0,0.0000000,0.0000000,0.0000000,0.0000000,8.00,38.4065361,-110.7920990,1351.3000488,0.0,327.0,1.0,0.0,0.0,898,131,0,0,860.12,5.40,36.36,0
11:59:08,0,0,0,0,0,0,0,0,0,0,0,514,0,0,0,0,0.0000000,0.0000000,0.0000000,0.0000000,8.00,38.4065437,-110.7920990,1351.4000244,0.1,337.6,1.0,0.0,0.0,898,127,0,0,860.09,5.40,36.35,0
11:59:09,0,0,0,0,0,0,0,0,0,0,0,514,0,0,0,0,0.0000000,0.0000000,0.0000000,0.0000000,8.00,38.4065514,-110.7920990,1351.5000000,0.0,352.0,1.0,0.0,0.0,898,127,0,0,860.08,5.39,36.35,0
11:59:10,0,0,0,0,0,0,0,0,0,0,0,514,0,0,0,0,0.0000000,0.0000000,0.0000000,0.0000000,8.00,38.4065552,-110.7920990,1351.5999756,0.0,355.6,1.0,0.0,0.0,899,132,0,0,860.14,5.43,36.34,0
11:59:11,0,0,0,0,0,0,0,0,0,0,0,514,0,0,0,0,0.0000000,0.0000000,0.0000000,0.0000000,8.00,38.4065628,-110.7920990,1351.9000244,0.0,329.4,1.0,0.0,0.0,899,126,0,0,860.13,5.46,36.34,0
11:59:12,0,0,0,0,0,0,0,0,0,0,0,514,0,0,0,0,0.0000000,0.0000000,0.0000000,0.0000000,8.00,38.4065704,-110.7920990,1351.9000244,0.1,10.9,1.0,0.0,0.0,899,125,0,0,860.08,5.45,36.33,0
11:59:13,0,0,0,0,0,0,0,0,0,0,0,513,0,0,0,0,0.0000000,0.0000000,0.0000000,0.0000000,8.00,38.4065742,-110.7920990,1351.8000488,0.1,4.1,1.0,0.0,0.0,898,126,0,0,860.13,5.45,36.32,0
11:59:14,0,0,0,0,0,0,0,0,0,0,0,514,0,0,0,0,0.0000000,0.0000000,0.0000000,0.0000000,8.00,38.4065819,-110.7920990,1351.8000488,0.0,4.6,1.0,0.0,0.0,898,128,0,0,860.10,5.46,36.32,0
11:59:15,0,0,0,0,0,0,0,0,0,0,0,513,0,0,0,0,0.0000000,0.0000000,0.0000000,0.0000000,8.00,38.4065895,-110.7920990,1351.8000488,0.1,7.2,1.0,0.0,0.0,899,130,0,0,860.16,5.48,36.30,0
11:59:16,0,0,0,0,0,0,0,0,0,0,0,515,0,0,0,0,0.0000000,0.0000000,0.0000000,0.0000000,8.00,38.4065933,-110.7920990,1351.9000244,0.0,344.3,1.0,0.0,0.0,899,128,0,0,860.15,5.46,36.28,0
11:59:17,0,0,0,0,0,0,0,0,0,0,0,514,0,0,0,0,0.0000000,0.0000000,0.0000000,0.0000000,8.00,38.4065933,-110.7920990,1352.0000000,0.0,17.0,1.0,0.0,0.0,899,126,0,0,860.10,5.46,36.27,0
11:59:18,0,0,0,0,0,0,0,0,0,0,0,514,0,0,0,0,0.0000000,0.0000000,0.0000000,0.0000000,8.00,38.4065971,-110.7920990,1352.0000000,0.0,14.7,1.0,0.0,0.0,899,130,0,0,860.10,5.46,36.27,0
11:59:19,0,0,0,0,0,0,0,0,0,0,0,513,0,0,0,0,0.0000000,0.0000000,0.0000000,0.0000000,8.00,38.4066048,-110.7920990,1352.0000000,0.0,0.5,1.0,0.0,0.0,898,131,0,0,860.10,5.45,36.27,0
11:59:20,0,0,0,0,0,0,0,0,0,0,0,514,0,0,0,0,0.0000000,0.0000000,0.0000000,0.0000000,8.00,38.4066124,-110.7920990,1351.8000488,0.0,356.3,1.0,0.0,0.0,898,128,0,0,860.08,5.46,36.27,0
11:59:21,0,0,0,0,0,0,0,0,0,0,0,514,0,0,0,0,0.0000000,0.0000000,0.0000000,0.0000000,8.00,38.4066162,-110.7920990,1351.6999512,0.0,27.8,1.0,0.0,0.0,898,129,0,0,860.08,5.46,36.26,0
11:59:22,0,0,0,0,0,0,0,0,0,0,0,513,0,0,0,0,0.0000000,0.0000000,0.0000000,0.0000000,8.00,38.4066200,-110.7920914,1351.5000000,0.0,19.6,1.0,0.0,0.0,899,129,0,0,860.12,5.48,36.25,0
11:59:23,0,0,0,0,0,0,0,0,0,0,0,514,0,0,0,0,0.0000000,0.0000000,0.0000000,0.0000000,8.00,38.4066200,-110.7920914,1351.3000488,0.0,291.4,1.0,0.0,0.0,898,129,0,0,860.11,5.46,36.25,0
11:59:24,0,0,0,0,0,0,0,0,0,0,0,514,0,0,0,0,0.0000000,0.0000000,0.0000000,0.0000000,8.00,38.4066238,-110.7920914,1351.1999512,0.0,320.0,1.0,0.0,0.0,898,126,0,0,860.11,5.46,36.24,0
11:59:25,0,0,0,0,0,0,0,0,0,0,0,514,0,0,0,0,0.0000000,0.0000000,0.0000000,0.0000000,8.00,38.4066277,-110.7920990,1351.0000000,0.0,312.4,1.0,0.0,0.0,898,127,0,0,860.14,5.48,36.24,0
11:59:27,0,0,0,0,0,0,0,0,0,0,0,513,0,0,0,0,0.0000000,0.0000000,0.0000000,0.0000000,8.00,38.4066277,-110.7920990,1350.9000244,0.0,290.8,1.0,0.0,0.0,898,125,0,0,860.12,5.46,36.23,0
11:59:28,0,0,0,0,0,0,0,0,0,0,0,514,0,0,0,0,0.0000000,0.0000000,0.0000000,0.0000000,8.00,38.4066315,-110.7920990,1350.6999512,0.0,302.7,1.0,0.0,0.0,898,127,0,0,860.12,5.49,36.22,0
11:59:29,0,0,0,0,0,0,0,0,0,0,0,514,0,0,0,0,0.0000000,0.0000000,0.0000000,0.0000000,8.00,38.4066315,-110.7920914,1350.3000488,0.0,314.7,1.0,0.0,0.0,898,128,0,0,860.14,5.49,36.21,0
11:59:30,0,0,0,0,0,0,0,0,0,0,0,514,0,0,0,0,0.0000000,0.0000000,0.0000000,0.0000000,8.00,38.4066315,-110.7920914,1350.0000000,0.0,135.6,1.0,0.0,0.0,899,127,0,0,860.17,5.51,36.19,0
11:59:31,0,0,0,0,0,0,0,0,0,0,0,514,0,0,0,0,0.0000000,0.0000000,0.0000000,0.0000000,8.00,38.4066353,-110.7920914,1349.6999512,0.0,52.6,1.0,0.0,0.0,899,125,0,0,860.17,5.51,36.18,0
11:59:32,0,0,0,0,0,0,0,0,0,0,0,514,0,0,0,0,0.0000000,0.0000000,0.0000000,0.0000000,8.00,38.4066353,-110.7920914,1349.4000244,0.0,248.0,1.0,0.0,0.0,899,128,0,0,860.13,5.52,36.18,0
11:59:33,0,0,0,0,0,0,0,0,0,0,0,514,0,0,0,0,0.0000000,0.0000000,0.0000000,0.0000000,8.00,38.4066315,-110.7920914,1349.1999512,0.0,220.9,1.0,0.0,0.0,898,127,0,0,860.16,5.52,36.17,0
11:59:34,0,0,0,0,0,0,0,0,0,0,0,514,0,0,0,0,0.0000000,0.0000000,0.0000000,0.0000000,8.00,38.4066315,-110.7920914,1348.9000244,0.0,143.7,1.0,0.0,0.0,898,127,0,0,860.19,5.54,36.16,0
11:59:35,0,0,0,0,0,0,0,0,0,0,0,515,0,0,0,0,0.0000000,0.0000000,0.0000000,0.0000000,8.00,38.4066315,-110.7920914,1348.5000000,0.0,134.0,1.0,0.0,0.0,898,130,0,0,860.15,5.57,36.14,0
11:59:36,0,0,0,0,0,0,0,0,0,0,0,514,0,0,0,0,0.0000000,0.0000000,0.0000000,0.0000000,8.00,38.4066315,-110.7920914,1348.3000488,0.0,240.1,1.0,0.0,0.0,899,126,0,0,860.20,5.51,36.13,0
11:59:37,0,0,0,0,0,0,0,0,0,0,0,514,0,0,0,0,0.0000000,0.0000000,0.0000000,0.0000000,8.00,38.4066315,-110.7920914,1347.9000244,0.0,158.8,1.0,0.0,0.0,899,131,0,0,860.17,5.55,36.13,0
11:59:38,0,0,0,0,0,0,0,0,0,0,0,514,0,0,0,0,0.0000000,0.0000000,0.0000000,0.0000000,8.00,38.4066315,-110.7920914,1347.5000000,0.0,300.6,1.0,0.0,0.0,899,126,0,0,860.14,5.55,36.13,0
11:59:39,0,0,0,0,0,0,0,0,0,0,0,514,0,0,0,0,0.0000000,0.0000000,0.0000000,0.0000000,8.00,38.4066277,-110.7920914,1347.0999756,0.0,167.6,1.0,0.0,0.0,899,126,0,0,860.17,5.55,36.13,0
11:59:40,0,0,0,0,0,0,0,0,0,0,0,513,0,0,0,0,0.0000000,0.0000000,0.0000000,0.0000000,8.00,38.4066238,-110.7920914,1346.5999756,0.0,226.0,1.0,0.0,0.0,898,129,0,0,860.11,5.52,36.12,0
11:59:41,0,0,0,0,0,0,0,0,0,0,0,514,0,0,0,0,0.0000000,0.0000000,0.0000000,0.0000000,8.00,38.4066200,-110.7920914,1346.0999756,0.0,185.5,1.0,0.0,0.0,899,127,0,0,860.16,5.54,36.12,0
11:59:42,0,0,0,0,0,0,0,0,0,0,0,514,0,0,0,0,0.0000000,0.0000000,0.0000000,0.0000000,8.00,38.4066162,-110.7920914,1345.6999512,0.0,184.1,1.0,0.0,0.0,898,129,0,0,860.21,5.57,36.11,0
11:59:43,0,0,0,0,0,0,0,0,0,0,0,513,0,0,0,0,0.0000000,0.0000000,0.0000000,0.0000000,8.00,38.4066162,-110.7920914,1345.1999512,0.0,182.3,1.0,0.0,0.0,898,126,0,0,860.15,5.57,36.11,0
11:59:44,0,0,0,0,0,0,0,0,0,0,0,514,0,0,0,0,0.0000000,0.0000000,0.0000000,0.0000000,8.00,38.4066086,-110.7920914,1344.5999756,0.1,166.8,1.0,0.0,0.0,898,127,0,0,860.20,5.55,36.09,0
11:59:45,0,0,0,0,0,0,0,0,0,0,0,514,0,0,0,0,0.0000000,0.0000000,0.0000000,0.0000000,8.00,38.4066048,-110.7920914,1344.1999512,0.0,148.2,1.0,0.0,0.0,898,127,0,0,860.12,5.59,36.08,0
11:59:46,0,0,0,0,0,0,0,0,0,0,0,514,0,0,0,0,0.0000000,0.0000000,0.0000000,0.0000000,8.00,38.4066010,-110.7920914,1343.9000244,0.0,198.4,1.0,0.0,0.0,898,132,0,0,860.15,5.59,36.07,0
11:59:47,0,0,0,0,0,0,0,0,0,0,0,514,0,0,0,0,0.0000000,0.0000000,0.0000000,0.0000000,8.00,38.4066010,-110.7920914,1343.9000244,0.0,197.3,1.0,0.0,0.0,899,127,0,0,860.17,5.59,36.05,0
11:59:48,0,0,0,0,0,0,0,0,0,0,0,514,0,0,0,0,0.0000000,0.0000000,0.0000000,0.0000000,8.00,38.4066010,-110.7920914,1343.9000244,0.0,191.0,1.0,0.0,0.0,898,130,0,0,860.15,5.62,36.04,0
11:59:49,0,0,0,0,0,0,0,0,0,0,0,514,0,0,0,0,0.0000000,0.0000000,0.0000000,0.0000000,8.00,38.4065933,-110.7920914,1343.5999756,0.0,196.7,1.0,0.0,0.0,899,128,0,0,860.11,5.60,36.03,0
11:59:50,0,0,0,0,0,0,0,0,0,0,0,514,0,0,0,0,0.0000000,0.0000000,0.0000000,0.0000000,8.00,38.4065933,-110.7920914,1343.5000000,0.0,188.4,1.0,0.0,0.0,899,128,0,0,860.17,5.62,36.02,0
11:59:51,0,0,0,0,0,0,0,0,0,0,0,514,0,0,0,0,0.0000000,0.0000000,0.0000000,0.0000000,8.00,38.4065895,-110.7920914,1343.3000488,0.0,185.6,1.0,0.0,0.0,899,126,0,0,860.16,5.63,36.01,0
11:59:52,0,0,0,0,0,0,0,0,0,0,0,514,0,0,0,0,0.0000000,0.0000000,0.0000000,0.0000000,8.00,38.4065857,-110.7920914,1343.0999756,0.0,170.5,1.0,0.0,0.0,898,127,0,0,860.10,5.59,36.01,0
11:59:53,0,0,0,0,0,0,0,0,0,0,0,514,0,0,0,0,0.0000000,0.0000000,0.0000000,0.0000000,8.00,38.4065819,-110.7920914,1342.9000244,0.0,141.1,1.0,0.0,0.0,898,128,0,0,860.14,5.62,36.00,0
11:59:54,0,0,0,0,0,0,0,0,0,0,0,514,0,0,0,0,0.0000000,0.0000000,0.0000000,0.0000000,8.00,38.4065781,-110.7920914,1342.9000244,0.0,183.6,1.0,0.0,0.0,898,130,0,0,860.14,5.62,35.99,0
11:59:55,0,0,0,0,0,0,0,0,0,0,0,514,0,0,0,0,0.0000000,0.0000000,0.0000000,0.0000000,8.00,38.4065742,-110.7920914,1342.9000244,0.0,184.6,1.0,0.0,0.0,899,126,0,0,860.16,5.60,35.99,0
11:59:56,0,0,0,0,0,0,0,0,0,0,0,513,0,0,0,0,0.0000000,0.0000000,0.0000000,0.0000000,8.00,38.4065742,-110.7920914,1342.9000244,0.0,207.7,1.0,0.0,0.0,899,128,0,0,860.17,5.62,35.99,0
11:59:57,0,0,0,0,0,0,0,0,0,0,0,514,0,0,0,0,0.0000000,0.0000000,0.0000000,0.0000000,8.00,38.4065742,-110.7920914,1342.9000244,0.0,180.7,1.0,0.0,0.0,899,128,0,0,860.12,5.62,35.99,0
11:59:58,0,0,0,0,0,0,0,0,0,0,0,513,0,0,0,0,0.0000000,0.0000000,0.0000000,0.0000000,8.00,38.4065742,-110.7920914,1342.9000244,0.0,169.0,1.0,0.0,0.0,899,127,0,0,860.16,5.66,35.99,0
11:59:59,0,0,0,0,0,0,0,0,0,0,0,514,0,0,0,0,0.0000000,0.0000000,0.0000000,0.0000000,8.00,38.4065742,-110.7920914,1342.9000244,0.0,171.1,1.0,0.0,0.0,898,128,0,0,860.12,5.65,35.96,0
12:00:00,0,0,0,0,0,0,0,0,0,0,0,513,0,0,0,0,0.0000000,0.0000000,0.0000000,0.0000000,8.00,38.4065742,-110.7920914,1342.9000244,0.0,151.0,1.0,0.0,0.0,898,128,0,0,860.12,5.66,35.94,0
12:00:01,0,0,0,0,0,0,0,0,0,0,0,514,0,0,0,0,0.0000000,0.0000000,0.0000000,0.0000000,8.00,38.4065742,-110.7920914,1342.9000244,0.0,185.6,1.0,0.0,0.0,898,128,0,0,860.11,5.65,35.93,0
12:00:02,0,0,0,0,0,0,0,0,0,0,0,514,0,0,0,0,0.0000000,0.0000000,0.0000000,0.0000000,8.00,38.4065742,-110.7920914,1342.9000244,0.0,181.9,1.0,0.0,0.0,899,130,0,0,860.13,5.65,35.94,0
12:00:03,0,0,0,0,0,0,0,0,0,0,0,514,0,0,0,0,0.0000000,0.0000000,0.0000000,0.0000000,8.00,38.4065742,-110.7920914,1342.9000244,0.0,173.2,1.0,0.0,0.0,898,128,0,0,860.09,5.68,35.85,0
12:00:04,0,0,0,0,0,0,0,0,0,0,0,514,0,0,0,0,0.0000000,0.0000000,0.0000000,0.0000000,8.00,38.4065742,-110.7920914,1342.9000244,0.0,172.6,1.0,0.0,0.0,899,127,0,0,860.14,5.69,35.84,0
12:00:05,0,0,0,0,0,0,0,0,0,0,0,514,0,0,0,0,0.0000000,0.0000000,0.0000000,0.0000000,8.00,38.4065742,-110.7920914,1342.9000244,0.0,185.3,1.0,0.0,0.0,898,132,0,0,860.13,5.66,35.89,0
12:00:06,0,0,0,0,0,0,0,0,0,0,0,514,0,0,0,0,0.0000000,0.0000000,0.0000000,0.0000000,8.00,38.4065742,-110.7920914,1342.9000244,0.1,182.5,1.0,0.0,0.0,899,127,0,0,860.10,5.68,35.88,0
12:00:07,0,0,0,0,0,0,0,0,0,0,0,514,0,0,0,0,0.0000000,0.0000000,0.0000000,0.0000000,8.00,38.4065742,-110.7920914,1342.9000244,0.1,182.5,1.0,0.0,0.0,898,126,0,0,860.09,5.66,35.87,0
12:00:08,0,0,0,0,0,0,0,0,0,0,0,514,0,0,0,0,0.0000000,0.0000000,0.0000000,0.0000000,8.00,38.4065742,-110.7920914,1342.9000244,0.0,190.1,1.0,0.0,0.0,899,126,0,0,860.13,5.63,35.90,0
12:00:09,0,0,0,0,0,0,0,0,0,0,0,514,0,0,0,0,0.0000000,0.0000000,0.0000000,0.0000000,8.00,38.4065742,-110.7920914,1342.9000244,0.0,186.6,1.0,0.0,0.0,899,126,0,0,860.18,5.68,35.90,0
12:00:10,0,0,0,0,0,0,0,0,0,0,0,514,0,0,0,0,0.0000000,0.0000000,0.0000000,0.0000000,8.00,38.4065742,-110.7920914,1342.9000244,0.1,179.9,1.0,0.0,0.0,899,126,0,0,860.17,5.68,35.89,0
12:00:11,0,0,0,0,0,0,0,0,0,0,0,514,0,0,0,0,0.0000000,0.0000000,0.0000000,0.0000000,8.00,38.4065742,-110.7920914,1342.9000244,0.0,190.9,1.0,0.0,0.0,898,128,0,0,860.16,5.69,35.88,0
12:00:12,0,0,0,0,0,0,0,0,0,0,0,514,0,0,0,0,0.0000000,0.0000000,0.0000000,0.0000000,8.00,38.4065742,-110.7920914,1342.9000244,0.1,195.4,1.0,0.0,0.0,898,129,0,0,860.15,5.72,35.88,0
12:00:13,0,0,0,0,0,0,0,0,0,0,0,514,0,0,0,0,0.0000000,0.0000000,0.0000000,0.0000000,8.00,38.4065742,-110.7920914,1342.9000244,0.1,188.3,1.0,0.0,0.0,898,125,0,0,860.11,5.69,35.86,0
12:00:14,0,0,0,0,0,0,0,0,0,0,0,513,0,0,0,0,0.0000000,0.0000000,0.0000000,0.0000000,8.00,38.4065742,-110.7920914,1342.9000244,0.0,196.4,1.0,0.0,0.0,898,131,0,0,860.08,5.72,35.85,0
12:00:15,0,0,0,0,0,0,0,0,0,0,0,514,0,0,0,0,0.0000000,0.0000000,0.0000000,0.0000000,8.00,38.4065742,-110.7920914,1342.9000244,0.0,198.4,1.0,0.0,0.0,898,125,0,0,860.16,5.72,35.84,0
12:00:16,0,0,0,0,0,0,0,0,0,0,0,514,0,0,0,0,0.0000000,0.0000000,0.0000000,0.0000000,8.00,38.4065742,-110.7920914,1342.9000244,0.0,194.8,1.0,0.0,0.0,899,129,0,0,860.11,5.74,35.84,0
12:00:17,0,0,0,0,0,0,0,0,0,0,0,514,0,0,0,0,0.0000000,0.0000000,0.0000000,0.0000000,8.00,38.4065742,-110.7920914,1342.9000244,0.1,184.3,1.0,0.0,0.0,898,126,0,0,860.09,5.71,35.83,0
12:00:18,0,0,0,0,0,0,0,0,0,0,0,513,0,0,0,0,0.0000000,0.0000000,0.0000000,0.0000000,8.00,38.4065742,-110.7920914,1342.9000244,0.1,178.9,1.0,0.0,0.0,898,130,0,0,860.08,5.71,35.82,0
12:00:19,0,0,0,0,0,0,0,0,0,0,0,514,0,0,0,0,0.0000000,0.0000000,0.0000000,0.0000000,8.00,38.4065742,-110.7920914,1342.9000244,0.1,174.6,1.0,0.0,0.0,898,125,0,0,860.09,5.72,35.81,0
12:00:20,0,0,0,0,0,0,0,0,0,0,0,513,0,0,0,0,0.0000000,0.0000000,0.0000000,0.0000000,8.00,38.4065742,-110.7920914,1342.9000244,0.0,176.6,1.0,0.0,0.0,899,126,0,0,860.08,5.72,35.80,0
12:00:21,0,0,0,0,0,0,0,0,0,0,0,514,0,0,0,0,0.0000000,0.0000000,0.0000000,0.0000000,8.00,38.4065742,-110.7920914,1342.9000244,0.0,161.7,1.0,0.0,0.0,898,127,0,0,860.04,5.77,35.78,0
12:00:22,0,0,0,0,0,0,0,0,0,0,0,514,0,0,0,0,0.0000000,0.0000000,0.0000000,0.0000000,8.00,38.4065742,-110.7920914,1342.9000244,0.0,192.1,1.0,0.0,0.0,898,127,0,0,860.14,5.75,35.78,0
12:00:23,0,0,0,0,0,0,0,0,0,0,0,514,0,0,0,0,0.0000000,0.0000000,0.0000000,0.0000000,8.00,38.4065742,-110.7920914,1342.9000244,0.0,215.7,1.0,0.0,0.0,899,128,0,0,860.08,5.77,35.77,0
12:00:24,0,0,0,0,0,0,0,0,0,0,0,514,0,0,0,0,0.0000000,0.0000000,0.0000000,0.0000000,8.00,38.4065742,-110.7920914,1342.9000244,0.1,172.8,1.0,0.0,0.0,899,129,0,0,860.08,5.77,35.77,0
12:00:25,0,0,0,0,0,0,0,0,0,0,0,514,0,0,0,0,0.0000000,0.0000000,0.0000000,0.0000000,8.00,38.4065742,-110.7920914,1343.0000000,0.0,239.8,1.0,0.0,0.0,898,131,0,0,860.01,5.77,35.76,0
12:00:26,0,0,0,0,0,0,0,0,0,0,0,514,0,0,0,0,0.0000000,0.0000000,0.0000000,0.0000000,8.00,38.4065742,-110.7920914,1343.0000000,0.0,115.5,1.0,0.0,0.0,898,127,0,0,860.10,5.78,35.76,0
12:00:27,0,0,0,0,0,0,0,0,0,0,0,514,0,0,0,0,0.0000000,0.0000000,0.0000000,0.0000000,8.00,38.4065742,-110.7920914,1343.0000000,0.0,317.8,1.0,0.0,0.0,898,126,0,0,860.06,5.77,35.75,0
12:00:28,0,0,0,0,0,0,0,0,0,0,0,514,0,0,0,0,0.0000000,0.0000000,0.0000000,0.0000000,8.00,38.4065590,-110.7920914,1343.3000488,0.1,201.9,1.0,0.0,0.0,899,126,0,0,860.05,5.78,35.73,0
12:00:29,0,0,0,0,0,0,0,0,0,0,0,514,0,0,0,0,0.0000000,0.0000000,0.0000000,0.0000000,8.00,38.4065552,-110.7920914,1343.5999756,0.0,186.0,1.0,0.0,0.0,898,128,0,0,860.06,5.78,35.72,0
12:00:30,0,0,0,0,0,0,0,0,0,0,0,514,0,0,0,0,0.0000000,0.0000000,0.0000000,0.0000000,8.00,38.4065552,-110.7920990,1344.0000000,0.0,153.6,1.0,0.0,0.0,898,126,0,0,860.06,5.81,35.71,0
12:00:31,0,0,0,0,0,0,0,0,0,0,0,514,0,0,0,0,0.0000000,0.0000000,0.0000000,0.0000000,8.00,38.4065552,-110.7920914,1344.0999756,0.0,349.5,1.0,0.0,0.0,899,125,0,0,860.01,5.78,35.71,0
12:00:32,0,0,0,0,0,0,0,0,0,0,0,514,0,0,0,0,0.0000000,0.0000000,0.0000000,0.0000000,8.00,38.4065590,-110.7920914,1344.4000244,0.0,17.8,1.0,0.0,0.0,898,127,0,0,860.04,5.81,35.69,0
12:00:33,0,0,0,0,0,0,0,0,0,0,0,514,0,0,0,0,0.0000000,0.0000000,0.0000000,0.0000000,8.00,38.4065552,-110.7920914,1344.9000244,0.0,286.1,1.0,0.0,0.0,899,128,0,0,860.02,5.83,35.68,0
12:00:34,0,0,0,0,0,0,0,0,0,0,0,514,0,0,0,0,0.0000000,0.0000000,0.0000000,0.0000000,8.00,38.4065475,-110.7920990,1345.1999512,0.1,184.7,1.0,0.0,0.0,899,130,0,0,860.05,5.83,35.68,0
12:00:35,0,0,0,0,0,0,0,0,0,0,0,513,0,0,0,0,0.0000000,0.0000000,0.0000000,0.0000000,8.00,38.4065399,-110.7920990,1345.6999512,0.1,206.2,1.0,0.0,0.0,898,127,0,0,860.03,5.81,35.67,0
12:00:36,0,0,0,0,0,0,0,0,0,0,0,514,0,0,0,0,0.0000000,0.0000000,0.0000000,0.0000000,8.00,38.4065285,-110.7920990,1346.0000000,0.1,206.9,1.0,0.0,0.0,898,127,0,0,860.07,5.81,35.67,0
12:00:37,0,0,0,0,0,0,0,0,0,0,0,514,0,0,0,0,0.0000000,0.0000000,0.0000000,0.0000000,8.00,38.4065247,-110.7920990,1346.4000244,0.0,199.6,1.0,0.0,0.0,898,128,0,0,860.04,5.83,35.67,0
12:00:38,0,0,0,0,0,0,0,0,0,0,0,513,0,0,0,0,0.0000000,0.0000000,0.0000000,0.0000000,8.00,38.4065247,-110.7920990,1346.5999756,0.0,89.7,1.0,0.0,0.0,898,127,0,0,860.07,5.80,35.66,0
12:00:39,0,0,0,0,0,0,0,0,0,0,0,514,0,0,0,0,0.0000000,0.0000000,0.0000000,0.0000000,8.00,38.4065247,-110.7920990,1346.8000488,0.0,248.4,1.0,0.0,0.0,899,128,0,0,860.03,5.84,35.66,0
12:00:40,0,0,0,0,0,0,0,0,0,0,0,513,0,0,0,0,0.0000000,0.0000000,0.0000000,0.0000000,8.00,38.4065247,-110.7920990,1346.8000488,0.0,222.9,1.0,0.0,0.0,898,127,0,0,860.00,5.84,35.65,0
