Time, Motor A Speed, Motor A Dir, Motor B Speed, Motor B Dir, Servo Rail Current Sensor, Servo Pos - Arm L, Servo Pos - Arm R, Servo Pos - End, Servo Pos - Hopper, Servo Pos - Lid, Servo Pos - Extra, Servo Current, LED - Front L, LED - Front R, LED - Back L, LED - Back R, IMU Pitch, IMU Roll, IMU Yaw, Compass Heading, GPS Sats, GPS Latitude, GPS Longitude, GPS Altitude, GPS Speed, GPS Angle, GPS HDOP, GPS VDOP, GPS PDOP, Battery, Wind, Comm Xbee Latency, Comm Arduino Latency, Pressure, Humidity, Temperature, uRADMonitor
11:10:07,0,0,0,0,0,0,0,0,0,0,0,515,0,0,0,0,0.0000000,0.0000000,0.0000000,0.0000000,10.00,38.4063454,-110.7920990,1374.5999756,0.0,169.0,0.9,0.0,0.0,906,139,0,0,861.71,0.96,47.10,0
11:10:08,0,0,0,0,0,0,0,0,0,0,0,515,0,0,0,0,0.0000000,0.0000000,0.0000000,0.0000000,10.00,38.4063454,-110.7920990,1374.5999756,0.0,92.6,0.9,0.0,0.0,905,136,0,0,861.67,0.98,47.21,0
11:10:09,0,0,0,0,0,0,0,0,0,0,0,515,0,0,0,0,0.0000000,0.0000000,0.0000000,0.0000000,10.00,38.4063454,-110.7920990,1374.5999756,0.0,127.6,0.9,0.0,0.0,906,139,0,0,861.73,0.96,47.23,0
11:10:10,0,0,0,0,0,0,0,0,0,0,0,515,0,0,0,0,0.0000000,0.0000000,0.0000000,0.0000000,10.00,38.4063454,-110.7920990,1374.5999756,0.0,43.7,0.9,0.0,0.0,906,135,0,0,861.67,1.05,47.32,0
11:10:11,0,0,0,0,0,0,0,0,0,0,0,515,0,0,0,0,0.0000000,0.0000000,0.0000000,0.0000000,10.00,38.4063454,-110.7920990,1374.5999756,0.0,68.9,0.9,0.0,0.0,905,142,0,0,861.70,1.04,47.43,0
11:10:12,0,0,0,0,0,0,0,0,0,0,0,516,0,0,0,0,0.0000000,0.0000000,0.0000000,0.0000000,10.00,38.4063454,-110.7920990,1374.5999756,0.1,43.2,0.9,0.0,0.0,906,138,0,0,861.68,0.98,47.36,0
11:10:13,0,0,0,0,0,0,0,0,0,0,0,515,0,0,0,0,0.0000000,0.0000000,0.0000000,0.0000000,10.00,38.4063454,-110.7920990,1374.5999756,0.0,64.3,0.9,0.0,0.0,905,134,0,0,861.67,0.96,47.30,0
11:10:14,0,0,0,0,0,0,0,0,0,0,0,515,0,0,0,0,0.0000000,0.0000000,0.0000000,0.0000000,10.00,38.4063454,-110.7920990,1374.5999756,0.0,30.7,0.9,0.0,0.0,906,132,0,0,861.68,1.02,47.13,0
11:10:15,0,0,0,0,0,0,0,0,0,0,0,515,0,0,0,0,0.0000000,0.0000000,0.0000000,0.0000000,10.00,38.4063454,-110.7920990,1374.5999756,0.0,60.3,0.9,0.0,0.0,906,137,0,0,861.69,1.07,47.01,0
11:10:16,0,0,0,0,0,0,0,0,0,0,0,514,0,0,0,0,0.0000000,0.0000000,0.0000000,0.0000000,10.00,38.4063492,-110.7920990,1374.5999756,0.0,112.1,0.9,0.0,0.0,905,136,0,0,861.63,1.05,46.95,0
11:10:17,0,0,0,0,0,0,0,0,0,0,0,515,0,0,0,0,0.0000000,0.0000000,0.0000000,0.0000000,10.00,38.4063492,-110.7920990,1374.5999756,0.0,70.2,0.9,0.0,0.0,906,140,0,0,861.74,1.05,47.05,0
11:10:18,0,0,0,0,0,0,0,0,0,0,0,515,0,0,0,0,0.0000000,0.0000000,0.0000000,0.0000000,10.00,38.4063492,-110.7920990,1374.5999756,0.0,50.1,0.9,0.0,0.0,906,136,0,0,861.64,1.07,47.18,0
11:10:19,0,0,0,0,0,0,0,0,0,0,0,515,0,0,0,0,0.0000000,0.0000000,0.0000000,0.0000000,10.00,38.4063492,-110.7920990,1374.5999756,0.0,44.8,0.9,0.0,0.0,906,138,0,0,861.68,1.07,47.30,0
11:10:20,0,0,0,0,0,0,0,0,0,0,0,515,0,0,0,0,0.0000000,0.0000000,0.0000000,0.0000000,10.00,38.4063492,-110.7920990,1374.5999756,0.0,42.2,0.9,0.0,0.0,905,141,0,0,861.63,1.11,47.26,0
11:10:21,0,0,0,0,0,0,0,0,0,0,0,515,0,0,0,0,0.0000000,0.0000000,0.0000000,0.0000000,10.00,38.4063492,-110.7920990,1374.5999756,0.0,113.7,0.9,0.0,0.0,905,139,0,0,861.64,1.11,47.22,0
11:10:22,0,0,0,0,0,0,0,0,0,0,0,515,0,0,0,0,0.0000000,0.0000000,0.0000000,0.0000000,10.00,38.4063492,-110.7920990,1374.5999756,0.0,18.1,0.9,0.0,0.0,906,141,0,0,861.62,1.10,47.34,0
11:10:23,0,0,0,0,0,0,0,0,0,0,0,515,0,0,0,0,0.0000000,0.0000000,0.0000000,0.0000000,10.00,38.4063492,-110.7920990,1374.5999756,0.0,38.9,0.9,0.0,0.0,906,138,0,0,861.72,1.10,47.30,0
11:10:24,0,0,0,0,0,0,0,0,0,0,0,515,0,0,0,0,0.0000000,0.0000000,0.0000000,0.0000000,10.00,38.4063492,-110.7920990,1374.5999756,0.0,23.8,0.9,0.0,0.0,906,141,0,0,861.66,1.10,47.01,0
11:10:25,0,0,0,0,0,0,0,0,0,0,0,515,0,0,0,0,0.0000000,0.0000000,0.0000000,0.0000000,10.00,38.4063492,-110.7920990,1374.5999756,0.1,5.9,0.9,0.0,0.0,906,137,0,0,861.67,1.16,46.84,0
11:10:26,0,0,0,0,0,0,0,0,0,0,0,515,0,0,0,0,0.0000000,0.0000000,0.0000000,0.0000000,10.00,38.4063492,-110.7920990,1374.5999756,0.0,25.5,0.9,0.0,0.0,906,138,0,0,861.68,1.16,46.88,0
11:10:27,0,0,0,0,0,0,0,0,0,0,0,514,0,0,0,0,0.0000000,0.0000000,0.0000000,0.0000000,10.00,38.4063492,-110.7920990,1374.5999756,0.0,54.2,0.9,0.0,0.0,906,136,0,0,861.64,1.11,46.92,0
11:10:28,0,0,0,0,0,0,0,0,0,0,0,515,0,0,0,0,0.0000000,0.0000000,0.0000000,0.0000000,10.00,38.4063492,-110.7920990,1374.5999756,0.0,278.6,0.9,0.0,0.0,906,127,0,0,861.65,1.13,47.09,0
11:10:29,0,0,0,0,0,0,0,0,0,0,0,515,0,0,0,0,0.0000000,0.0000000,0.0000000,0.0000000,10.00,38.4063492,-110.7920990,1374.5999756,0.0,29.2,0.9,0.0,0.0,906,129,0,0,861.66,1.13,47.22,0
11:10:30,0,0,0,0,0,0,0,0,0,0,0,515,0,0,0,0,0.0000000,0.0000000,0.0000000,0.0000000,10.00,38.4063492,-110.7920990,1374.5999756,0.0,233.3,0.9,0.0,0.0,906,128,0,0,861.68,1.07,47.34,0
11:10:31,0,0,0,0,0,0,0,0,0,0,0,515,0,0,0,0,0.0000000,0.0000000,0.0000000,0.0000000,10.00,38.4063492,-110.7920990,1374.5999756,0.0,28.1,0.9,0.0,0.0,906,129,0,0,861.69,1.04,47.44,0
11:10:32,0,0,0,0,0,0,0,0,0,0,0,515,0,0,0,0,0.0000000,0.0000000,0.0000000,0.0000000,10.00,38.4063492,-110.7920990,1374.5999756,0.0,27.5,0.9,0.0,0.0,905,128,0,0,861.70,1.04,47.52,0
11:10:33,0,0,0,0,0,0,0,0,0,0,0,515,0,0,0,0,0.0000000,0.0000000,0.0000000,0.0000000,10.00,38.4063492,-110.7920990,1374.5999756,0.0,65.2,0.9,0.0,0.0,906,127,0,0,861.70,1.04,47.59,0
11:10:34,0,0,0,0,0,0,0,0,0,0,0,515,0,0,0,0,0.0000000,0.0000000,0.0000000,0.0000000,10.00,38.4063492,-110.7920990,1374.5999756,0.0,356.9,0.9,0.0,0.0,906,129,0,0,861.68,1.05,47.61,0
11:10:35,0,0,0,0,0,0,0,0,0,0,0,515,0,0,0,0,0.0000000,0.0000000,0.0000000,0.0000000,10.00,38.4063492,-110.7920990,1374.5999756,0.1,75.0,0.9,0.0,0.0,905,127,0,0,861.65,1.02,47.64,0
11:10:36,0,0,0,0,0,0,0,0,0,0,0,516,0,0,0,0,0.0000000,0.0000000,0.0000000,0.0000000,10.00,38.4063492,-110.7920990,1374.5999756,0.0,147.8,0.9,0.0,0.0,906,130,0,0,861.65,0.95,47.54,0
11:10:37,0,0,0,0,0,0,0,0,0,0,0,515,0,0,0,0,0.0000000,0.0000000,0.0000000,0.0000000,10.00,38.4063492,-110.7920990,1374.5999756,0.0,63.2,0.9,0.0,0.0,905,128,0,0,861.64,0.96,47.52,0
11:10:38,0,0,0,0,0,0,0,0,0,0,0,515,0,0,0,0,0.0000000,0.0000000,0.0000000,0.0000000,10.00,38.4063492,-110.7920990,1374.5000000,0.0,175.5,0.9,0.0,0.0,906,127,0,0,861.66,0.90,47.60,0
11:10:39,0,0,0,0,0,0,0,0,0,0,0,515,0,0,0,0,0.0000000,0.0000000,0.0000000,0.0000000,10.00,38.4063492,-110.7920990,1374.5000000,0.0,175.5,0.9,0.0,0.0,906,130,0,0,861.65,0.87,47.61,0
11:10:40,0,0,0,0,0,0,0,0,0,0,0,515,0,0,0,0,0.0000000,0.0000000,0.0000000,0.0000000,10.00,38.4063492,-110.7920990,1374.5000000,0.0,138.2,0.9,0.0,0.0,905,127,0,0,861.69,0.86,47.48,0
11:10:41,0,0,0,0,0,0,0,0,0,0,0,515,0,0,0,0,0.0000000,0.0000000,0.0000000,0.0000000,10.00,38.4063492,-110.7920990,1374.5000000,0.0,138.2,0.9,0.0,0.0,906,130,0,0,861.66,0.84,47.35,0
11:10:42,0,0,0,0,0,0,0,0,0,0,0,515,0,0,0,0,0.0000000,0.0000000,0.0000000,0.0000000,10.00,38.4063492,-110.7920990,1374.5000000,0.0,175.1,0.9,0.0,0.0,906,131,0,0,861.71,0.93,47.19,0
11:10:43,0,0,0,0,0,0,0,0,0,0,0,514,0,0,0,0,0.0000000,0.0000000,0.0000000,0.0000000,10.00,38.4063492,-110.7920990,1374.5000000,0.0,317.7,0.9,0.0,0.0,905,129,0,0,861.65,0.95,47.32,0
11:10:44,0,0,0,0,0,0,0,0,0,0,0,515,0,0,0,0,0.0000000,0.0000000,0.0000000,0.0000000,10.00,38.4063492,-110.7920990,1374.5000000,0.0,283.9,0.9,0.0,0.0,906,129,0,0,861.72,0.96,47.31,0
11:10:45,0,0,0,0,0,0,0,0,0,0,0,515,0,0,0,0,0.0000000,0.0000000,0.0000000,0.0000000,10.00,38.4063492,-110.7920990,1374.5000000,0.0,270.5,0.9,0.0,0.0,905,130,0,0,861.70,0.99,47.34,0
11:10:46,0,0,0,0,0,0,0,0,0,0,0,515,0,0,0,0,0.0000000,0.0000000,0.0000000,0.0000000,10.00,38.4063492,-110.7920990,1374.5000000,0.0,3.9,0.9,0.0,0.0,906,135,0,0,861.74,0.96,47.12,0
11:10:47,0,0,0,0,0,0,0,0,0,0,0,515,0,0,0,0,0.0000000,0.0000000,0.0000000,0.0000000,10.00,38.4063492,-110.7920990,1374.5000000,0.0,159.2,0.9,0.0,0.0,906,134,0,0,861.66,1.01,46.77,0
11:10:48,0,0,0,0,0,0,0,0,0,0,0,515,0,0,0,0,0.0000000,0.0000000,0.0000000,0.0000000,10.00,38.4063492,-110.7920990,1374.5000000,0.0,263.5,0.9,0.0,0.0,906,140,0,0,861.68,1.11,46.33,0
11:10:49,0,0,0,0,0,0,0,0,0,0,0,514,0,0,0,0,0.0000000,0.0000000,0.0000000,0.0000000,10.00,38.4063492,-110.7920990,1374.5000000,0.0,224.8,0.9,0.0,0.0,906,144,0,0,861.68,1.19,46.01,0
11:10:50,0,0,0,0,0,0,0,0,0,0,0,515,0,0,0,0,0.0000000,0.0000000,0.0000000,0.0000000,10.00,38.4063492,-110.7920990,1374.5000000,0.0,56.6,0.9,0.0,0.0,906,141,0,0,861.58,1.22,45.96,0
11:10:51,0,0,0,0,0,0,0,0,0,0,0,515,0,0,0,0,0.0000000,0.0000000,0.0000000,0.0000000,10.00,38.4063492,-110.7920990,1374.5000000,0.0,235.3,0.9,0.0,0.0,905,144,0,0,861.62,1.24,46.15,0
11:10:52,0,0,0,0,0,0,0,0,0,0,0,514,0,0,0,0,0.0000000,0.0000000,0.0000000,0.0000000,10.00,38.4063492,-110.7920990,1374.5000000,0.0,198.1,0.9,0.0,0.0,905,144,0,0,861.64,1.21,46.32,0
11:10:53,0,0,0,0,0,0,0,0,0,0,0,515,0,0,0,0,0.0000000,0.0000000,0.0000000,0.0000000,10.00,38.4063492,-110.7920990,1374.5000000,0.0,200.6,0.9,0.0,0.0,906,143,0,0,861.63,1.22,46.46,0
11:10:54,0,0,0,0,0,0,0,0,0,0,0,515,0,0,0,0,0.0000000,0.0000000,0.0000000,0.0000000,10.00,38.4063492,-110.7920990,1374.5000000,0.0,281.8,0.9,0.0,0.0,906,145,0,0,861.66,1.21,46.64,0
11:10:55,0,0,0,0,0,0,0,0,0,0,0,515,0,0,0,0,0.0000000,0.0000000,0.0000000,0.0000000,10.00,38.4063492,-110.7920990,1374.5000000,0.0,223.8,0.9,0.0,0.0,906,144,0,0,861.72,1.14,46.53,0
11:10:56,0,0,0,0,0,0,0,0,0,0,0,515,0,0,0,0,0.0000000,0.0000000,0.0000000,0.0000000,10.00,38.4063492,-110.7920990,1374.5000000,0.0,240.0,0.9,0.0,0.0,906,143,0,0,861.67,1.16,46.21,0
11:10:57,0,0,0,0,0,0,0,0,0,0,0,515,0,0,0,0,0.0000000,0.0000000,0.0000000,0.0000000,10.00,38.4063492,-110.7920990,1374.5000000,0.0,198.6,0.9,0.0,0.0,906,146,0,0,861.64,1.22,45.95,0
11:10:58,0,0,0,0,0,0,0,0,0,0,0,516,0,0,0,0,0.0000000,0.0000000,0.0000000,0.0000000,10.00,38.4063492,-110.7920990,1374.5000000,0.0,155.1,0.9,0.0,0.0,905,148,0,0,861.64,1.25,45.59,0
11:10:59,0,0,0,0,0,0,0,0,0,0,0,515,0,0,0,0,0.0000000,0.0000000,0.0000000,0.0000000,10.00,38.4063492,-110.7920990,1374.5000000,0.0,221.6,0.9,0.0,0.0,906,147,0,0,861.61,1.30,45.40,0
11:11:00,0,0,0,0,0,0,0,0,0,0,0,515,0,0,0,0,0.0000000,0.0000000,0.0000000,0.0000000,10.00,38.4063492,-110.7920990,1374.5000000,0.0,208.4,0.9,0.0,0.0,906,147,0,0,861.60,1.42,45.27,0
11:11:01,0,0,0,0,0,0,0,0,0,0,0,515,0,0,0,0,0.0000000,0.0000000,0.0000000,0.0000000,10.00,38.4063492,-110.7920990,1374.5000000,0.0,177.2,0.9,0.0,0.0,906,146,0,0,861.66,1.48,45.33,0
11:11:02,0,0,0,0,0,0,0,0,0,0,0,514,0,0,0,0,0.0000000,0.0000000,0.0000000,0.0000000,10.00,38.4063492,-110.7920990,1374.5000000,0.0,346.3,0.9,0.0,0.0,906,149,0,0,861.61,1.47,45.11,0
11:11:03,0,0,0,0,0,0,0,0,0,0,0,515,0,0,0,0,0.0000000,0.0000000,0.0000000,0.0000000,10.00,38.4063492,-110.7920990,1374.5000000,0.0,21.0,0.9,0.0,0.0,906,147,0,0,861.61,1.51,44.85,0
11:11:04,0,0,0,0,0,0,0,0,0,0,0,515,0,0,0,0,0.0000000,0.0000000,0.0000000,0.0000000,10.00,38.4063492,-110.7920990,1374.5000000,0.0,311.4,0.9,0.0,0.0,906,141,0,0,861.57,1.56,44.79,0
11:11:05,0,0,0,0,0,0,0,0,0,0,0,515,0,0,0,0,0.0000000,0.0000000,0.0000000,0.0000000,10.00,38.4063492,-110.7920990,1374.5000000,0.0,127.3,0.9,0.0,0.0,906,147,0,0,861.56,1.59,44.85,0
11:11:06,0,0,0,0,0,0,0,0,0,0,0,515,0,0,0,0,0.0000000,0.0000000,0.0000000,0.0000000,10.00,38.4063492,-110.7920990,1374.5000000,0.0,31.7,0.9,0.0,0.0,906,147,0,0,861.59,1.62,45.11,0
11:11:07,0,0,0,0,0,0,0,0,0,0,0,515,0,0,0,0,0.0000000,0.0000000,0.0000000,0.0000000,10.00,38.4063492,-110.7920990,1374.5000000,0.0,292.6,0.9,0.0,0.0,905,144,0,0,861.56,1.60,45.26,0
11:11:08,0,0,0,0,0,0,0,0,0,0,0,515,0,0,0,0,0.0000000,0.0000000,0.0000000,0.0000000,10.00,38.4063492,-110.7920990,1374.5000000,0.1,291.6,0.9,0.0,0.0,906,142,0,0,861.58,1.59,45.46,0
11:11:09,0,0,0,0,0,0,0,0,0,0,0,516,0,0,0,0,0.0000000,0.0000000,0.0000000,0.0000000,10.00,38.4063492,-110.7920990,1374.5000000,0.0,259.1,0.9,0.0,0.0,906,142,0,0,861.59,1.54,45.50,0
11:11:10,0,0,0,0,0,0,0,0,0,0,0,515,0,0,0,0,0.0000000,0.0000000,0.0000000,0.0000000,10.00,38.4063492,-110.7920990,1374.5000000,0.0,293.9,0.9,0.0,0.0,905,138,0,0,861.55,1.54,45.59,0
11:11:11,0,0,0,0,0,0,0,0,0,0,0,515,0,0,0,0,0.0000000,0.0000000,0.0000000,0.0000000,10.00,38.4063492,-110.7920990,1374.5000000,0.0,9.6,0.9,0.0,0.0,906,143,0,0,861.60,1.50,45.73,0
11:11:12,0,0,0,0,0,0,0,0,0,0,0,515,0,0,0,0,0.0000000,0.0000000,0.0000000,0.0000000,10.00,38.4063492,-110.7920990,1374.5000000,0.0,206.1,0.9,0.0,0.0,905,145,0,0,861.59,1.45,45.85,0
11:11:13,0,0,0,0,0,0,0,0,0,0,0,514,0,0,0,0,0.0000000,0.0000000,0.0000000,0.0000000,10.00,38.4063492,-110.7920990,1374.5000000,0.0,287.9,0.9,0.0,0.0,906,142,0,0,861.63,1.43,45.95,0
11:11:14,0,0,0,0,0,0,0,0,0,0,0,514,0,0,0,0,0.0000000,0.0000000,0.0000000,0.0000000,10.00,38.4063492,-110.7920990,1374.5000000,0.0,209.8,0.9,0.0,0.0,905,140,0,0,861.57,1.43,46.02,0
11:11:15,0,0,0,0,0,0,0,0,0,0,0,515,0,0,0,0,0.0000000,0.0000000,0.0000000,0.0000000,10.00,38.4063492,-110.7920990,1374.5000000,0.0,212.3,0.9,0.0,0.0,905,133,0,0,861.63,1.37,45.98,0
11:11:17,0,0,0,0,0,0,0,0,0,0,0,515,0,0,0,0,0.0000000,0.0000000,0.0000000,0.0000000,10.00,38.4063492,-110.7920990,1374.5000000,0.0,269.6,0.9,0.0,0.0,905,142,0,0,861.59,1.37,45.90,0
11:11:18,0,0,0,0,0,0,0,0,0,0,0,515,0,0,0,0,0.0000000,0.0000000,0.0000000,0.0000000,10.00,38.4063492,-110.7920990,1374.5000000,0.0,183.6,0.9,0.0,0.0,906,137,0,0,861.60,1.39,46.00,0
11:11:19,0,0,0,0,0,0,0,0,0,0,0,515,0,0,0,0,0.0000000,0.0000000,0.0000000,0.0000000,10.00,38.4063492,-110.7920990,1374.5000000,0.0,257.5,0.9,0.0,0.0,906,145,0,0,861.59,1.39,46.06,0
11:11:20,0,0,0,0,0,0,0,0,0,0,0,514,0,0,0,0,0.0000000,0.0000000,0.0000000,0.0000000,10.00,38.4063492,-110.7920990,1374.5000000,0.0,12.9,0.9,0.0,0.0,905,136,0,0,861.59,1.37,46.16,0
11:11:21,0,0,0,0,0,0,0,0,0,0,0,515,0,0,0,0,0.0000000,0.0000000,0.0000000,0.0000000,10.00,38.4063492,-110.7920990,1374.5000000,0.0,315.9,0.9,0.0,0.0,906,138,0,0,861.60,1.76,46.09,0
11:11:22,0,0,0,0,0,0,0,0,0,0,0,515,0,0,0,0,0.0000000,0.0000000,0.0000000,0.0000000,10.00,38.4063492,-110.7920990,1374.5000000,0.0,290.6,0.9,0.0,0.0,905,144,0,0,861.58,1.39,45.93,0
11:11:23,0,0,0,0,0,0,0,0,0,0,0,515,0,0,0,0,0.0000000,0.0000000,0.0000000,0.0000000,10.00,38.4063492,-110.7920990,1374.5000000,0.0,25.0,0.9,0.0,0.0,905,138,0,0,861.09,1.24,46.04,0
11:11:24,0,0,0,0,0,0,0,0,0,0,0,515,0,0,0,0,0.0000000,0.0000000,0.0000000,0.0000000,10.00,38.4063492,-110.7920990,1374.5000000,0.0,188.8,0.9,0.0,0.0,905,139,0,0,861.13,1.19,45.96,0
11:11:25,0,0,0,0,0,0,0,0,0,0,0,515,0,0,0,0,0.0000000,0.0000000,0.0000000,0.0000000,10.00,38.4063492,-110.7920990,1374.5000000,0.0,157.5,0.9,0.0,0.0,906,137,0,0,861.59,1.63,45.83,0
11:11:26,0,0,0,0,0,0,0,0,0,0,0,515,0,0,0,0,0.0000000,0.0000000,0.0000000,0.0000000,10.00,38.4063492,-110.7920990,1374.5000000,0.1,149.2,0.9,0.0,0.0,905,138,0,0,861.54,1.65,45.86,0
11:11:27,0,0,0,0,0,0,0,0,0,0,0,515,0,0,0,0,0.0000000,0.0000000,0.0000000,0.0000000,10.00,38.4063492,-110.7920990,1374.5000000,0.0,176.8,0.9,0.0,0.0,906,134,0,0,861.55,1.97,46.00,0
11:11:28,0,0,0,0,0,0,0,0,0,0,0,516,0,0,0,0,0.0000000,0.0000000,0.0000000,0.0000000,10.00,38.4063492,-110.7920990,1374.5000000,0.0,165.3,0.9,0.0,0.0,905,136,0,0,861.53,1.88,46.10,0
11:11:29,0,0,0,0,0,0,0,0,0,0,0,515,0,0,0,0,0.0000000,0.0000000,0.0000000,0.0000000,10.00,38.4063492,-110.7920990,1374.5000000,0.0,235.5,0.9,0.0,0.0,906,144,0,0,861.53,1.59,46.14,0
11:11:30,0,0,0,0,0,0,0,0,0,0,0,516,0,0,0,0,0.0000000,0.0000000,0.0000000,0.0000000,10.00,38.4063492,-110.7920990,1374.5000000,0.0,328.5,0.9,0.0,0.0,906,136,0,0,861.57,1.31,46.21,0
11:11:31,0,0,0,0,0,0,0,0,0,0,0,515,0,0,0,0,0.0000000,0.0000000,0.0000000,0.0000000,10.00,38.4063492,-110.7920990,1374.5000000,0.0,46.7,0.9,0.0,0.0,905,142,0,0,861.61,1.36,46.25,0
11:11:32,0,0,0,0,0,0,0,0,0,0,0,515,0,0,0,0,0.0000000,0.0000000,0.0000000,0.0000000,10.00,38.4063492,-110.7920990,1374.5000000,0.0,95.1,0.9,0.0,0.0,905,138,0,0,861.59,1.34,46.28,0
11:11:33,0,0,0,0,0,0,0,0,0,0,0,514,0,0,0,0,0.0000000,0.0000000,0.0000000,0.0000000,10.00,38.4063492,-110.7920990,1374.5000000,0.0,279.2,0.9,0.0,0.0,906,139,0,0,861.57,1.37,46.24,0
11:11:34,0,0,0,0,0,0,0,0,0,0,0,515,0,0,0,0,0.0000000,0.0000000,0.0000000,0.0000000,10.00,38.4063454,-110.7920990,1374.5000000,0.0,46.4,0.9,0.0,0.0,905,139,0,0,861.58,1.28,46.31,0
11:11:35,0,0,0,0,0,0,0,0,0,0,0,515,0,0,0,0,0.0000000,0.0000000,0.0000000,0.0000000,10.00,38.4063454,-110.7920990,1374.5000000,0.0,110.0,0.9,0.0,0.0,906,136,0,0,861.57,1.24,46.22,0
11:11:36,0,0,0,0,0,0,0,0,0,0,0,516,0,0,0,0,0.0000000,0.0000000,0.0000000,0.0000000,10.00,38.4063454,-110.7920990,1374.5000000,0.0,244.8,0.9,0.0,0.0,905,139,0,0,861.58,1.27,46.21,0
11:11:37,0,0,0,0,0,0,0,0,0,0,0,515,0,0,0,0,0.0000000,0.0000000,0.0000000,0.0000000,10.00,38.4063454,-110.7920990,1374.5000000,0.0,102.6,0.9,0.0,0.0,906,137,0,0,861.57,1.30,46.29,0
11:11:38,0,0,0,0,0,0,0,0,0,0,0,515,0,0,0,0,0.0000000,0.0000000,0.0000000,0.0000000,10.00,38.4063454,-110.7920990,1374.5000000,0.0,337.8,0.9,0.0,0.0,906,139,0,0,861.58,1.28,46.37,0
11:11:39,0,0,0,0,0,0,0,0,0,0,0,515,0,0,0,0,0.0000000,0.0000000,0.0000000,0.0000000,10.00,38.4063454,-110.7920990,1374.5000000,0.0,339.8,0.9,0.0,0.0,906,138,0,0,861.64,1.22,46.41,0
11:11:40,0,0,0,0,0,0,0,0,0,0,0,515,0,0,0,0,0.0000000,0.0000000,0.0000000,0.0000000,10.00,38.4063454,-110.7920990,1374.5000000,0.0,151.9,0.9,0.0,0.0,905,136,0,0,861.56,1.25,46.33,0
11:11:41,0,0,0,0,0,0,0,0,0,0,0,515,0,0,0,0,0.0000000,0.0000000,0.0000000,0.0000000,10.00,38.4063454,-110.7920990,1374.5000000,0.0,268.6,0.9,0.0,0.0,905,140,0,0,861.59,1.27,46.26,0
11:11:42,0,0,0,0,0,0,0,0,0,0,0,515,0,0,0,0,0.0000000,0.0000000,0.0000000,0.0000000,10.00,38.4063454,-110.7920990,1374.5000000,0.0,226.7,0.9,0.0,0.0,905,136,0,0,861.58,1.27,46.14,0
11:11:43,0,0,0,0,0,0,0,0,0,0,0,515,0,0,0,0,0.0000000,0.0000000,0.0000000,0.0000000,10.00,38.4063454,-110.7920990,1374.5000000,0.0,309.9,0.9,0.0,0.0,905,134,0,0,861.57,1.31,46.22,0
11:11:44,0,0,0,0,0,0,0,0,0,0,0,515,0,0,0,0,0.0000000,0.0000000,0.0000000,0.0000000,10.00,38.4063454,-110.7920990,1374.5000000,0.0,336.0,0.9,0.0,0.0,905,135,0,0,861.60,1.31,46.19,0
11:11:45,0,0,0,0,0,0,0,0,0,0,0,515,0,0,0,0,0.0000000,0.0000000,0.0000000,0.0000000,10.00,38.4063454,-110.7920990,1374.5000000,0.0,234.4,0.9,0.0,0.0,905,135,0,0,861.56,1.25,46.11,0
11:11:46,0,0,0,0,0,0,0,0,0,0,0,514,0,0,0,0,0.0000000,0.0000000,0.0000000,0.0000000,10.00,38.4063454,-110.7920990,1374.5000000,0.0,10.3,0.9,0.0,0.0,906,140,0,0,861.61,1.28,46.04,0
11:11:47,0,0,0,0,0,0,0,0,0,0,0,515,0,0,0,0,0.0000000,0.0000000,0.0000000,0.0000000,10.00,38.4063454,-110.7920990,1374.5000000,0.0,62.7,0.9,0.0,0.0,905,136,0,0,861.54,1.34,45.97,0
11:11:48,0,0,0,0,0,0,0,0,0,0,0,515,0,0,0,0,0.0000000,0.0000000,0.0000000,0.0000000,10.00,38.4063454,-110.7920990,1374.5000000,0.0,115.9,0.9,0.0,0.0,905,139,0,0,861.53,1.33,46.12,0
11:11:49,0,0,0,0,0,0,0,0,0,0,0,515,0,0,0,0,0.0000000,0.0000000,0.0000000,0.0000000,10.00,38.4063454,-110.7920990,1374.5000000,0.0,61.2,0.9,0.0,0.0,905,135,0,0,861.58,1.34,46.21,0
11:11:50,0,0,0,0,0,0,0,0,0,0,0,514,0,0,0,0,0.0000000,0.0000000,0.0000000,0.0000000,10.00,38.4063454,-110.7920990,1374.5000000,0.0,124.7,0.9,0.0,0.0,906,139,0,0,861.55,1.36,46.28,0
11:11:51,0,0,0,0,0,0,0,0,0,0,0,514,0,0,0,0,0.0000000,0.0000000,0.0000000,0.0000000,10.00,38.4063454,-110.7920990,1374.5000000,0.0,69.3,0.9,0.0,0.0,905,134,0,0,861.60,1.33,46.13,0
11:11:52,0,0,0,0,0,0,0,0,0,0,0,514,0,0,0,0,0.0000000,0.0000000,0.0000000,0.0000000,10.00,38.4063454,-110.7920990,1374.5000000,0.0,359.0,0.9,0.0,0.0,905,134,0,0,861.53,1.36,46.04,0
11:11:53,0,0,0,0,0,0,0,0,0,0,0,515,0,0,0,0,0.0000000,0.0000000,0.0000000,0.0000000,10.00,38.4063454,-110.7920990,1374.5000000,0.0,198.8,0.9,0.0,0.0,905,139,0,0,861.58,1.34,45.95,0
11:11:54,0,0,0,0,0,0,0,0,0,0,0,515,0,0,0,0,0.0000000,0.0000000,0.0000000,0.0000000,10.00,38.4063454,-110.7920990,1374.5000000,0.0,186.1,0.9,0.0,0.0,905,136,0,0,861.53,1.47,45.87,0
11:11:55,0,0,0,0,0,0,0,0,0,0,0,515,0,0,0,0,0.0000000,0.0000000,0.0000000,0.0000000,10.00,38.4063454,-110.7920990,1374.5000000,0.0,352.7,0.9,0.0,0.0,905,139,0,0,861.60,1.45,46.03,0
11:11:56,0,0,0,0,0,0,0,0,0,0,0,515,0,0,0,0,0.0000000,0.0000000,0.0000000,0.0000000,10.00,38.4063454,-110.7920990,1374.5000000,0.0,236.6,0.9,0.0,0.0,905,134,0,0,861.54,1.47,46.16,0
11:11:57,0,0,0,0,0,0,0,0,0,0,0,515,0,0,0,0,0.0000000,0.0000000,0.0000000,0.0000000,10.00,38.4063454,-110.7920990,1374.5000000,0.0,231.2,0.9,0.0,0.0,905,140,0,0,861.56,1.43,46.23,0
11:11:58,0,0,0,0,0,0,0,0,0,0,0,515,0,0,0,0,0.0000000,0.0000000,0.0000000,0.0000000,10.00,38.4063454,-110.7920990,1374.5000000,0.0,142.4,0.9,0.0,0.0,905,143,0,0,861.56,1.42,46.27,0
11:11:59,0,0,0,0,0,0,0,0,0,0,0,515,0,0,0,0,0.0000000,0.0000000,0.0000000,0.0000000,10.00,38.4063454,-110.7920990,1374.5000000,0.0,200.2,0.9,0.0,0.0,906,145,0,0,861.61,1.37,46.27,0
11:12:00,0,0,0,0,0,0,0,0,0,0,0,515,0,0,0,0,0.0000000,0.0000000,0.0000000,0.0000000,10.00,38.4063454,-110.7920990,1374.5000000,0.0,358.5,0.9,0.0,0.0,906,148,0,0,861.55,1.39,46.10,0
11:12:01,0,0,0,0,0,0,0,0,0,0,0,515,0,0,0,0,0.0000000,0.0000000,0.0000000,0.0000000,10.00,38.4063454,-110.7920990,1374.5000000,0.0,2.2,0.9,0.0,0.0,906,155,0,0,861.50,1.42,45.85,0
11:12:02,0,0,0,0,0,0,0,0,0,0,0,515,0,0,0,0,0.0000000,0.0000000,0.0000000,0.0000000,10.00,38.4063454,-110.7920990,1374.5000000,0.0,83.1,0.9,0.0,0.0,905,154,0,0,861.47,1.45,45.75,0
11:12:03,0,0,0,0,0,0,0,0,0,0,0,515,0,0,0,0,0.0000000,0.0000000,0.0000000,0.0000000,10.00,38.4063454,-110.7920990,1374.5000000,0.0,11.9,0.9,0.0,0.0,905,151,0,0,861.44,1.51,45.79,0
11:12:04,0,0,0,0,0,0,0,0,0,0,0,515,0,0,0,0,0.0000000,0.0000000,0.0000000,0.0000000,10.00,38.4063454,-110.7920990,1374.5000000,0.0,339.2,0.9,0.0,0.0,905,147,0,0,861.47,1.59,45.55,0
11:12:05,0,0,0,0,0,0,0,0,0,0,0,516,0,0,0,0,0.0000000,0.0000000,0.0000000,0.0000000,10.00,38.4063454,-110.7920990,1374.5000000,0.0,356.0,0.9,0.0,0.0,905,146,0,0,861.50,1.66,45.35,0
11:12:06,0,0,0,0,0,0,0,0,0,0,0,515,0,0,0,0,0.0000000,0.0000000,0.0000000,0.0000000,10.00,38.4063454,-110.7920990,1374.5000000,0.0,355.4,0.9,0.0,0.0,905,138,0,0,861.50,1.74,45.27,0
11:12:07,0,0,0,0,0,0,0,0,0,0,0,515,0,0,0,0,0.0000000,0.0000000,0.0000000,0.0000000,10.00,38.4063454,-110.7920990,1374.5000000,0.0,356.8,0.9,0.0,0.0,905,140,0,0,861.48,1.68,45.37,0
11:12:08,0,0,0,0,0,0,0,0,0,0,0,514,0,0,0,0,0.0000000,0.0000000,0.0000000,0.0000000,10.00,38.4063454,-110.7920990,1374.5000000,0.0,51.2,0.9,0.0,0.0,905,140,0,0,861.45,1.60,45.40,0
11:12:09,0,0,0,0,0,0,0,0,0,0,0,519,0,0,0,0,0.0000000,0.0000000,0.0000000,0.0000000,10.00,38.4063454,-110.7920990,1374.5000000,0.0,73.8,0.9,0.0,0.0,905,126,0,0,861.45,1.60,45.20,0
11:12:10,0,0,0,0,0,0,0,0,0,0,0,515,0,0,0,0,0.0000000,0.0000000,0.0000000,0.0000000,10.00,38.4063454,-110.7920990,1374.5000000,0.0,34.1,0.9,0.0,0.0,905,136,0,0,861.57,1.63,45.21,0
11:12:11,0,0,0,0,0,0,0,0,0,0,0,520,0,0,0,0,0.0000000,0.0000000,0.0000000,0.0000000,10.00,38.4063454,-110.7920990,1374.5000000,0.0,19.9,0.9,0.0,0.0,906,148,0,0,861.50,1.68,45.04,0
11:12:12,0,0,0,0,0,0,0,0,0,0,0,516,0,0,0,0,0.0000000,0.0000000,0.0000000,0.0000000,10.00,38.4063454,-110.7920990,1374.5000000,0.0,43.2,0.9,0.0,0.0,905,130,0,0,861.48,1.68,45.17,0
11:12:13,0,0,0,0,0,0,0,0,0,0,0,512,0,0,0,0,0.0000000,0.0000000,0.0000000,0.0000000,10.00,38.4063454,-110.7920990,1374.5000000,0.0,241.5,0.9,0.0,0.0,906,139,0,0,861.47,1.68,45.25,0
11:12:14,0,0,0,0,0,0,0,0,0,0,0,514,0,0,0,0,0.0000000,0.0000000,0.0000000,0.0000000,10.00,38.4063492,-110.7920990,1374.5000000,0.0,25.2,0.9,0.0,0.0,905,134,0,0,861.52,1.63,45.22,0
11:12:15,0,0,0,0,0,0,0,0,0,0,0,516,0,0,0,0,0.0000000,0.0000000,0.0000000,0.0000000,10.00,38.4063492,-110.7920990,1374.5000000,0.0,354.5,0.9,0.0,0.0,906,175,0,0,861.43,1.62,45.13,0
11:12:16,0,0,0,0,0,0,0,0,0,0,0,515,0,0,0,0,0.0000000,0.0000000,0.0000000,0.0000000,10.00,38.4063492,-110.7920990,1374.5000000,0.0,330.9,0.9,0.0,0.0,905,132,0,0,861.48,1.60,45.13,0
11:12:17,0,0,0,0,0,0,0,0,0,0,0,515,0,0,0,0,0.0000000,0.0000000,0.0000000,0.0000000,10.00,38.4063492,-110.7920990,1374.5000000,0.0,309.5,0.9,0.0,0.0,905,130,0,0,861.59,1.65,44.65,0
11:12:18,0,0,0,0,0,0,0,0,0,0,0,515,0,0,0,0,0.0000000,0.0000000,0.0000000,0.0000000,10.00,38.4063492,-110.7920990,1374.5000000,0.0,312.1,0.9,0.0,0.0,905,131,0,0,861.41,1.76,44.64,0
11:12:19,0,0,0,0,0,0,0,0,0,0,0,515,0,0,0,0,0.0000000,0.0000000,0.0000000,0.0000000,10.00,38.4063492,-110.7920990,1374.5000000,0.1,303.9,0.9,0.0,0.0,905,133,0,0,861.46,1.77,44.80,0
11:12:20,0,0,0,0,0,0,0,0,0,0,0,513,0,0,0,0,0.0000000,0.0000000,0.0000000,0.0000000,10.00,38.4063492,-110.7920990,1374.5000000,0.0,286.1,0.9,0.0,0.0,904,128,0,0,861.51,1.74,44.92,0
11:12:21,0,0,0,0,0,0,0,0,0,0,0,513,0,0,0,0,0.0000000,0.0000000,0.0000000,0.0000000,10.00,38.4063492,-110.7920990,1374.5000000,0.0,330.6,0.9,0.0,0.0,906,121,0,0,861.46,1.71,44.92,0
11:12:22,0,0,0,0,0,0,0,0,0,0,0,514,0,0,0,0,0.0000000,0.0000000,0.0000000,0.0000000,10.00,38.4063492,-110.7920990,1374.5000000,0.0,203.3,0.9,0.0,0.0,904,124,0,0,861.42,1.66,44.98,0
11:12:23,0,0,0,0,0,0,0,0,0,0,0,517,0,0,0,0,0.0000000,0.0000000,0.0000000,0.0000000,10.00,38.4063492,-110.7920990,1374.5000000,0.0,96.1,0.9,0.0,0.0,906,131,0,0,861.47,1.68,45.07,0
11:12:24,0,0,0,0,0,0,0,0,0,0,0,508,0,0,0,0,0.0000000,0.0000000,0.0000000,0.0000000,10.00,38.4063492,-110.7920990,1374.5000000,0.0,2.8,0.9,0.0,0.0,903,141,0,0,861.44,1.65,45.14,0
11:12:25,0,0,0,0,0,0,0,0,0,0,0,516,0,0,0,0,0.0000000,0.0000000,0.0000000,0.0000000,10.00,38.4063492,-110.7920990,1374.5000000,0.0,352.9,0.9,0.0,0.0,908,178,0,0,861.43,1.74,45.20,0
11:12:26,0,0,0,0,0,0,0,0,0,0,0,516,0,0,0,0,0.0000000,0.0000000,0.0000000,0.0000000,10.00,38.4063492,-110.7920990,1374.5000000,0.0,25.7,0.9,0.0,0.0,905,193,0,0,861.48,1.72,45.25,0
11:12:27,0,0,0,0,0,0,0,0,0,0,0,516,0,0,0,0,0.0000000,0.0000000,0.0000000,0.0000000,7.00,38.4063492,-110.7920990,1374.5000000,0.0,9.1,1.1,0.0,0.0,904,167,0,0,861.43,1.60,45.21,0
11:12:28,0,0,0,0,0,0,0,0,0,0,0,515,0,0,0,0,0.0000000,0.0000000,0.0000000,0.0000000,10.00,38.4063492,-110.7920990,1374.5000000,0.0,192.9,0.9,0.0,0.0,905,175,0,0,861.44,1.59,45.14,0
11:12:29,0,0,0,0,0,0,0,0,0,0,0,516,0,0,0,0,0.0000000,0.0000000,0.0000000,0.0000000,10.00,38.4063492,-110.7920990,1374.5000000,0.0,207.5,0.9,0.0,0.0,905,157,0,0,861.40,1.59,45.09,0
11:12:30,0,0,0,0,0,0,0,0,0,0,0,516,0,0,0,0,0.0000000,0.0000000,0.0000000,0.0000000,10.00,38.4063492,-110.7920990,1374.5000000,0.0,214.2,0.9,0.0,0.0,905,128,0,0,861.38,1.59,45.14,0
11:12:31,0,0,0,0,0,0,0,0,0,0,0,515,0,0,0,0,0.0000000,0.0000000,0.0000000,0.0000000,10.00,38.4063492,-110.7920990,1374.5000000,0.0,260.9,0.9,0.0,0.0,905,131,0,0,861.43,1.62,45.16,0
11:12:32,0,0,0,0,0,0,0,0,0,0,0,515,0,0,0,0,0.0000000,0.0000000,0.0000000,0.0000000,10.00,38.4063492,-110.7920990,1374.5000000,0.0,311.7,0.9,0.0,0.0,904,128,0,0,861.42,1.57,45.07,0
11:12:33,0,0,0,0,0,0,0,0,0,0,0,515,0,0,0,0,0.0000000,0.0000000,0.0000000,0.0000000,10.00,38.4063492,-110.7920990,1374.5000000,0.0,239.2,0.9,0.0,0.0,905,128,0,0,861.42,1.65,44.83,0
11:12:34,0,0,0,0,0,0,0,0,0,0,0,515,0,0,0,0,0.0000000,0.0000000,0.0000000,0.0000000,10.00,38.4063492,-110.7920990,1374.5000000,0.0,240.1,0.9,0.0,0.0,905,131,0,0,861.35,1.74,44.66,0
11:12:35,0,0,0,0,0,0,0,0,0,0,0,515,0,0,0,0,0.0000000,0.0000000,0.0000000,0.0000000,10.00,38.4063454,-110.7920990,1374.5000000,0.1,249.1,0.9,0.0,0.0,905,128,0,0,861.36,1.72,44.73,0
11:12:36,0,0,0,0,0,0,0,0,0,0,0,515,0,0,0,0,0.0000000,0.0000000,0.0000000,0.0000000,10.00,38.4063454,-110.7920990,1374.4000244,0.1,228.9,0.9,0.0,0.0,905,135,0,0,861.32,1.69,44.49,0
11:12:37,0,0,0,0,0,0,0,0,0,0,0,515,0,0,0,0,0.0000000,0.0000000,0.0000000,0.0000000,10.00,38.4063454,-110.7920990,1374.4000244,0.1,224.9,0.9,0.0,0.0,905,132,0,0,861.35,1.69,44.29,0
11:12:38,0,0,0,0,0,0,0,0,0,0,0,515,0,0,0,0,0.0000000,0.0000000,0.0000000,0.0000000,10.00,38.4063454,-110.7920990,1374.4000244,0.1,229.6,0.9,0.0,0.0,905,135,0,0,861.36,1.80,44.12,0
11:12:39,0,0,0,0,0,0,0,0,0,0,0,515,0,0,0,0,0.0000000,0.0000000,0.0000000,0.0000000,10.00,38.4063454,-110.7920990,1374.4000244,0.1,249.5,0.9,0.0,0.0,905,134,0,0,861.26,1.85,44.31,0
11:12:40,0,0,0,0,0,0,0,0,0,0,0,515,0,0,0,0,0.0000000,0.0000000,0.0000000,0.0000000,10.00,38.4063454,-110.7920990,1374.4000244,0.1,257.5,0.9,0.0,0.0,905,136,0,0,861.32,1.80,44.40,0
11:12:41,0,0,0,0,0,0,0,0,0,0,0,515,0,0,0,0,0.0000000,0.0000000,0.0000000,0.0000000,10.00,38.4063454,-110.7920990,1374.4000244,0.1,265.0,0.9,0.0,0.0,905,135,0,0,861.30,1.79,44.32,0
11:12:42,0,0,0,0,0,0,0,0,0,0,0,516,0,0,0,0,0.0000000,0.0000000,0.0000000,0.0000000,10.00,38.4063454,-110.7920990,1374.4000244,0.1,247.7,0.9,0.0,0.0,905,141,0,0,861.32,1.77,44.35,0
11:12:43,0,0,0,0,0,0,0,0,0,0,0,515,0,0,0,0,0.0000000,0.0000000,0.0000000,0.0000000,10.00,38.4063454,-110.7920990,1374.4000244,0.1,223.7,0.9,0.0,0.0,905,141,0,0,861.26,1.74,44.43,0
11:12:45,0,0,0,0,0,0,0,0,0,0,0,515,0,0,0,0,0.0000000,0.0000000,0.0000000,0.0000000,10.00,38.4063454,-110.7920990,1374.4000244,0.0,175.9,0.9,0.0,0.0,906,139,0,0,861.28,1.79,44.48,0
11:12:46,0,0,0,0,0,0,0,0,0,0,0,515,0,0,0,0,0.0000000,0.0000000,0.0000000,0.0000000,10.00,38.4063454,-110.7920990,1374.4000244,0.0,109.4,0.9,0.0,0.0,905,138,0,0,861.33,1.72,44.49,0
11:12:47,0,0,0,0,0,0,0,0,0,0,0,515,0,0,0,0,0.0000000,0.0000000,0.0000000,0.0000000,10.00,38.4063454,-110.7920990,1374.4000244,0.0,60.7,0.9,0.0,0.0,905,142,0,0,861.27,1.74,44.46,0
11:12:48,0,0,0,0,0,0,0,0,0,0,0,515,0,0,0,0,0.0000000,0.0000000,0.0000000,0.0000000,10.00,38.4063454,-110.7920990,1374.4000244,0.0,178.4,0.9,0.0,0.0,905,141,0,0,861.22,1.74,44.45,0
11:12:49,0,0,0,0,0,0,0,0,0,0,0,515,0,0,0,0,0.0000000,0.0000000,0.0000000,0.0000000,10.00,38.4063454,-110.7920990,1374.4000244,0.0,130.4,0.9,0.0,0.0,905,140,0,0,861.25,1.74,44.41,0
11:12:50,0,0,0,0,0,0,0,0,0,0,0,515,0,0,0,0,0.0000000,0.0000000,0.0000000,0.0000000,10.00,38.4063454,-110.7920990,1374.4000244,0.0,81.9,0.9,0.0,0.0,905,140,0,0,861.25,1.72,44.36,0
11:12:51,0,0,0,0,0,0,0,0,0,0,0,516,0,0,0,0,0.0000000,0.0000000,0.0000000,0.0000000,10.00,38.4063454,-110.7920990,1374.4000244,0.0,221.6,0.9,0.0,0.0,905,142,0,0,861.18,1.72,44.24,0
11:12:52,0,0,0,0,0,0,0,0,0,0,0,514,0,0,0,0,0.0000000,0.0000000,0.0000000,0.0000000,10.00,38.4063454,-110.7920990,1374.4000244,0.0,242.9,0.9,0.0,0.0,905,139,0,0,861.23,1.76,44.01,0
11:12:53,0,0,0,0,0,0,0,0,0,0,0,515,0,0,0,0,0.0000000,0.0000000,0.0000000,0.0000000,10.00,38.4063454,-110.7920990,1374.4000244,0.0,240.4,0.9,0.0,0.0,905,141,0,0,861.24,1.83,43.88,0
11:12:54,0,0,0,0,0,0,0,0,0,0,0,515,0,0,0,0,0.0000000,0.0000000,0.0000000,0.0000000,10.00,38.4063454,-110.7920990,1374.4000244,0.0,174.2,0.9,0.0,0.0,905,137,0,0,861.28,1.92,43.81,0
11:12:55,0,0,0,0,0,0,0,0,0,0,0,515,0,0,0,0,0.0000000,0.0000000,0.0000000,0.0000000,10.00,38.4063454,-110.7920990,1374.3000488,0.0,120.1,0.9,0.0,0.0,906,136,0,0,861.23,1.91,43.91,0
11:12:56,0,0,0,0,0,0,0,0,0,0,0,515,0,0,0,0,0.0000000,0.0000000,0.0000000,0.0000000,10.00,38.4063454,-110.7920990,1374.3000488,0.0,135.8,0.9,0.0,0.0,905,135,0,0,861.25,1.89,43.98,0
11:12:57,0,0,0,0,0,0,0,0,0,0,0,515,0,0,0,0,0.0000000,0.0000000,0.0000000,0.0000000,10.00,38.4063454,-110.7920990,1374.3000488,0.0,156.6,0.9,0.0,0.0,905,136,0,0,861.21,1.94,44.06,0
11:12:58,0,0,0,0,0,0,0,0,0,0,0,515,0,0,0,0,0.0000000,0.0000000,0.0000000,0.0000000,10.00,38.4063454,-110.7920990,1374.3000488,0.0,146.0,0.9,0.0,0.0,905,136,0,0,861.25,1.92,44.10,0
11:12:59,0,0,0,0,0,0,0,0,0,0,0,515,0,0,0,0,0.0000000,0.0000000,0.0000000,0.0000000,10.00,38.4063454,-110.7920990,1374.3000488,0.0,198.6,0.9,0.0,0.0,905,136,0,0,861.26,1.92,44.03,0
11:13:00,0,0,0,0,0,0,0,0,0,0,0,515,0,0,0,0,0.0000000,0.0000000,0.0000000,0.0000000,10.00,38.4063454,-110.7920990,1374.3000488,0.0,114.9,0.9,0.0,0.0,905,137,0,0,861.25,1.92,43.99,0
11:13:01,0,0,0,0,0,0,0,0,0,0,0,515,0,0,0,0,0.0000000,0.0000000,0.0000000,0.0000000,10.00,38.4063454,-110.7920990,1374.3000488,0.0,64.5,0.9,0.0,0.0,905,136,0,0,861.18,1.88,43.99,0
11:13:02,0,0,0,0,0,0,0,0,0,0,0,515,0,0,0,0,0.0000000,0.0000000,0.0000000,0.0000000,10.00,38.4063454,-110.7920990,1374.3000488,0.0,80.2,0.9,0.0,0.0,905,134,0,0,861.24,1.91,43.96,0
11:13:03,0,0,0,0,0,0,0,0,0,0,0,516,0,0,0,0,0.0000000,0.0000000,0.0000000,0.0000000,10.00,38.4063454,-110.7920990,1374.3000488,0.0,4.1,0.9,0.0,0.0,905,133,0,0,861.19,1.92,43.94,0
11:13:04,0,0,0,0,0,0,0,0,0,0,0,515,0,0,0,0,0.0000000,0.0000000,0.0000000,0.0000000,10.00,38.4063454,-110.7920990,1374.3000488,0.0,21.9,0.9,0.0,0.0,905,134,0,0,861.19,1.92,43.98,0
11:13:05,0,0,0,0,0,0,0,0,0,0,0,514,0,0,0,0,0.0000000,0.0000000,0.0000000,0.0000000,10.00,38.4063454,-110.7920990,1374.3000488,0.0,55.2,0.9,0.0,0.0,905,135,0,0,861.19,1.94,44.03,0
11:13:06,0,0,0,0,0,0,0,0,0,0,0,515,0,0,0,0,0.0000000,0.0000000,0.0000000,0.0000000,10.00,38.4063454,-110.7920990,1374.3000488,0.0,159.4,0.9,0.0,0.0,905,136,0,0,861.12,1.97,44.06,0
11:13:07,0,0,0,0,0,0,0,0,0,0,0,514,0,0,0,0,0.0000000,0.0000000,0.0000000,0.0000000,10.00,38.4063454,-110.7920990,1374.3000488,0.0,102.2,0.9,0.0,0.0,905,134,0,0,861.20,1.91,43.96,0
11:13:08,0,0,0,0,0,0,0,0,0,0,0,515,0,0,0,0,0.0000000,0.0000000,0.0000000,0.0000000,10.00,38.4063454,-110.7920990,1374.3000488,0.0,327.0,0.9,0.0,0.0,905,135,0,0,861.11,1.98,43.83,0
11:13:09,0,0,0,0,0,0,0,0,0,0,0,515,0,0,0,0,0.0000000,0.0000000,0.0000000,0.0000000,10.00,38.4063454,-110.7920990,1374.3000488,0.0,251.7,0.9,0.0,0.0,905,137,0,0,861.14,2.00,43.90,0
11:13:10,0,0,0,0,0,0,0,0,0,0,0,515,0,0,0,0,0.0000000,0.0000000,0.0000000,0.0000000,10.00,38.4063454,-110.7920990,1374.3000488,0.0,82.1,0.9,0.0,0.0,905,134,0,0,861.12,1.98,43.86,0
11:13:11,0,0,0,0,0,0,0,0,0,0,0,515,0,0,0,0,0.0000000,0.0000000,0.0000000,0.0000000,10.00,38.4063454,-110.7920990,1374.3000488,0.0,202.1,0.9,0.0,0.0,905,135,0,0,861.07,1.97,43.66,0
11:13:12,0,0,0,0,0,0,0,0,0,0,0,515,0,0,0,0,0.0000000,0.0000000,0.0000000,0.0000000,10.00,38.4063454,-110.7920990,1374.3000488,0.0,132.9,0.9,0.0,0.0,905,132,0,0,861.07,1.98,43.61,0
11:13:13,0,0,0,0,0,0,0,0,0,0,0,515,0,0,0,0,0.0000000,0.0000000,0.0000000,0.0000000,10.00,38.4063454,-110.7920990,1374.3000488,0.0,104.4,0.9,0.0,0.0,905,134,0,0,861.05,2.06,43.56,0
11:13:14,0,0,0,0,0,0,0,0,0,0,0,515,0,0,0,0,0.0000000,0.0000000,0.0000000,0.0000000,10.00,38.4063454,-110.7920990,1374.3000488,0.0,215.1,0.9,0.0,0.0,905,132,0,0,861.05,2.05,43.50,0
11:13:15,0,0,0,0,0,0,0,0,0,0,0,515,0,0,0,0,0.0000000,0.0000000,0.0000000,0.0000000,10.00,38.4063454,-110.7920990,1374.3000488,0.0,117.6,0.9,0.0,0.0,905,134,0,0,861.04,2.12,43.24,0
11:13:16,0,0,0,0,0,0,0,0,0,0,0,515,0,0,0,0,0.0000000,0.0000000,0.0000000,0.0000000,10.00,38.4063454,-110.7920990,1374.3000488,0.0,184.1,0.9,0.0,0.0,905,137,0,0,861.02,2.21,43.08,0
11:13:17,0,0,0,0,0,0,0,0,0,0,0,515,0,0,0,0,0.0000000,0.0000000,0.0000000,0.0000000,10.00,38.4063454,-110.7920990,1374.3000488,0.0,291.0,0.9,0.0,0.0,905,134,0,0,860.98,2.21,43.17,0
11:13:18,0,0,0,0,0,0,0,0,0,0,0,515,0,0,0,0,0.0000000,0.0000000,0.0000000,0.0000000,10.00,38.4063454,-110.7920990,1374.3000488,0.0,146.0,0.9,0.0,0.0,905,138,0,0,861.02,2.27,43.29,0
11:13:19,0,0,0,0,0,0,0,0,0,0,0,515,0,0,0,0,0.0000000,0.0000000,0.0000000,0.0000000,10.00,38.4063454,-110.7920990,1374.3000488,0.0,327.1,0.9,0.0,0.0,905,137,0,0,861.02,2.30,43.10,0
11:13:20,0,0,0,0,0,0,0,0,0,0,0,515,0,0,0,0,0.0000000,0.0000000,0.0000000,0.0000000,10.00,38.4063454,-110.7920990,1374.3000488,0.0,134.6,0.9,0.0,0.0,905,138,0,0,861.05,2.27,42.91,0
11:13:21,0,0,0,0,0,0,0,0,0,0,0,515,0,0,0,0,0.0000000,0.0000000,0.0000000,0.0000000,10.00,38.4063454,-110.7920990,1374.3000488,0.0,276.7,0.9,0.0,0.0,905,141,0,0,861.00,2.35,42.84,0
11:13:22,0,0,0,0,0,0,0,0,0,0,0,515,0,0,0,0,0.0000000,0.0000000,0.0000000,0.0000000,10.00,38.4063454,-110.7920990,1374.3000488,0.0,251.2,0.9,0.0,0.0,905,145,0,0,861.01,2.35,42.81,0
11:13:23,0,0,0,0,0,0,0,0,0,0,0,515,0,0,0,0,0.0000000,0.0000000,0.0000000,0.0000000,10.00,38.4063454,-110.7920990,1374.3000488,0.0,236.5,0.9,0.0,0.0,905,146,0,0,861.04,2.38,42.64,0
11:13:24,0,0,0,0,0,0,0,0,0,0,0,515,0,0,0,0,0.0000000,0.0000000,0.0000000,0.0000000,10.00,38.4063454,-110.7920990,1374.3000488,0.0,154.5,0.9,0.0,0.0,905,143,0,0,860.92,2.43,42.66,0
11:13:25,0,0,0,0,0,0,0,0,0,0,0,516,0,0,0,0,0.0000000,0.0000000,0.0000000,0.0000000,10.00,38.4063454,-110.7920990,1374.3000488,0.0,133.1,0.9,0.0,0.0,905,143,0,0,860.99,2.52,42.80,0
11:13:26,0,0,0,0,0,0,0,0,0,0,0,515,0,0,0,0,0.0000000,0.0000000,0.0000000,0.0000000,10.00,38.4063454,-110.7920990,1374.3000488,0.0,181.3,0.9,0.0,0.0,905,140,0,0,860.95,2.49,42.81,0
11:13:27,0,0,0,0,0,0,0,0,0,0,0,515,0,0,0,0,0.0000000,0.0000000,0.0000000,0.0000000,9.00,38.4063454,-110.7920990,1374.3000488,0.0,199.6,1.0,0.0,0.0,905,138,0,0,860.95,2.50,42.77,0
11:13:28,0,0,0,0,0,0,0,0,0,0,0,515,0,0,0,0,0.0000000,0.0000000,0.0000000,0.0000000,9.00,38.4063416,-110.7920990,1374.1999512,0.0,153.0,1.0,0.0,0.0,905,142,0,0,860.98,2.46,42.81,0
11:13:29,0,0,0,0,0,0,0,0,0,0,0,515,0,0,0,0,0.0000000,0.0000000,0.0000000,0.0000000,9.00,38.4063416,-110.7920990,1373.9000244,0.0,304.7,1.0,0.0,0.0,905,137,0,0,860.91,2.47,42.86,0
11:13:30,0,0,0,0,0,0,0,0,0,0,0,515,0,0,0,0,0.0000000,0.0000000,0.0000000,0.0000000,10.00,38.4063416,-110.7920990,1373.5999756,0.0,327.3,0.9,0.0,0.0,905,135,0,0,860.94,2.47,42.84,0
11:13:31,0,0,0,0,0,0,0,0,0,0,0,515,0,0,0,0,0.0000000,0.0000000,0.0000000,0.0000000,10.00,38.4063454,-110.7920990,1373.5000000,0.1,328.7,0.9,0.0,0.0,905,139,0,0,860.94,2.52,42.74,0
11:13:32,0,0,0,0,0,0,0,0,0,0,0,515,0,0,0,0,0.0000000,0.0000000,0.0000000,0.0000000,10.00,38.4063492,-110.7920990,1373.4000244,0.1,325.1,0.9,0.0,0.0,905,138,0,0,860.89,2.58,42.50,0
11:13:33,0,0,0,0,0,0,0,0,0,0,0,515,0,0,0,0,0.0000000,0.0000000,0.0000000,0.0000000,10.00,38.4063492,-110.7920990,1373.4000244,0.0,322.2,0.9,0.0,0.0,905,135,0,0,860.90,2.61,42.46,0
11:13:34,0,0,0,0,0,0,0,0,0,0,0,515,0,0,0,0,0.0000000,0.0000000,0.0000000,0.0000000,10.00,38.4063492,-110.7920990,1373.4000244,0.0,327.3,0.9,0.0,0.0,905,137,0,0,860.94,2.64,42.57,0
11:13:35,0,0,0,0,0,0,0,0,0,0,0,515,0,0,0,0,0.0000000,0.0000000,0.0000000,0.0000000,10.00,38.4063492,-110.7920990,1373.4000244,0.0,133.6,0.9,0.0,0.0,905,134,0,0,860.92,2.64,42.63,0
11:13:36,0,0,0,0,0,0,0,0,0,0,0,516,0,0,0,0,0.0000000,0.0000000,0.0000000,0.0000000,10.00,38.4063492,-110.7920990,1373.4000244,0.0,164.1,0.9,0.0,0.0,905,138,0,0,860.93,2.58,42.70,0
11:13:37,0,0,0,0,0,0,0,0,0,0,0,515,0,0,0,0,0.0000000,0.0000000,0.0000000,0.0000000,10.00,38.4063492,-110.7920990,1373.4000244,0.0,171.1,0.9,0.0,0.0,905,140,0,0,860.89,2.73,42.42,0
11:13:38,0,0,0,0,0,0,0,0,0,0,0,515,0,0,0,0,0.0000000,0.0000000,0.0000000,0.0000000,10.00,38.4063492,-110.7920990,1373.4000244,0.0,146.7,0.9,0.0,0.0,905,138,0,0,860.87,3.01,42.23,0
11:13:39,0,0,0,0,0,0,0,0,0,0,0,515,0,0,0,0,0.0000000,0.0000000,0.0000000,0.0000000,10.00,38.4063492,-110.7920990,1373.4000244,0.0,146.7,0.9,0.0,0.0,905,141,0,0,860.81,3.16,42.03,0
11:13:40,0,0,0,0,0,0,0,0,0,0,0,515,0,0,0,0,0.0000000,0.0000000,0.0000000,0.0000000,10.00,38.4063492,-110.7920990,1373.4000244,0.0,148.3,0.9,0.0,0.0,905,137,0,0,860.78,3.08,42.05,0
11:13:41,0,0,0,0,0,0,0,0,0,0,0,515,0,0,0,0,0.0000000,0.0000000,0.0000000,0.0000000,10.00,38.4063492,-110.7920990,1373.4000244,0.0,298.5,0.9,0.0,0.0,905,136,0,0,860.79,2.96,42.21,0
11:13:42,0,0,0,0,0,0,0,0,0,0,0,515,0,0,0,0,0.0000000,0.0000000,0.0000000,0.0000000,10.00,38.4063492,-110.7920990,1373.4000244,0.0,317.5,0.9,0.0,0.0,905,136,0,0,860.88,2.84,42.07,0
11:13:43,0,0,0,0,0,0,0,0,0,0,0,515,0,0,0,0,0.0000000,0.0000000,0.0000000,0.0000000,10.00,38.4063492,-110.7920990,1373.4000244,0.0,328.1,0.9,0.0,0.0,905,138,0,0,860.78,2.84,41.67,0
11:13:44,0,0,0,0,0,0,0,0,0,0,0,515,0,0,0,0,0.0000000,0.0000000,0.0000000,0.0000000,10.00,38.4063492,-110.7920990,1373.4000244,0.0,322.5,0.9,0.0,0.0,905,137,0,0,860.81,2.95,41.52,0
11:13:45,0,0,0,0,0,0,0,0,0,0,0,515,0,0,0,0,0.0000000,0.0000000,0.0000000,0.0000000,10.00,38.4063492,-110.7920990,1373.4000244,0.0,323.3,0.9,0.0,0.0,905,138,0,0,860.80,3.05,41.54,0
11:13:46,0,0,0,0,0,0,0,0,0,0,0,515,0,0,0,0,0.0000000,0.0000000,0.0000000,0.0000000,10.00,38.4063492,-110.7920990,1373.4000244,0.0,141.6,0.9,0.0,0.0,905,137,0,0,860.82,2.93,41.63,0
11:13:47,0,0,0,0,0,0,0,0,0,0,0,515,0,0,0,0,0.0000000,0.0000000,0.0000000,0.0000000,10.00,38.4063492,-110.7920990,1373.4000244,0.0,167.5,0.9,0.0,0.0,905,135,0,0,860.86,2.87,41.60,0
11:13:48,0,0,0,0,0,0,0,0,0,0,0,514,0,0,0,0,0.0000000,0.0000000,0.0000000,0.0000000,10.00,38.4063492,-110.7920990,1373.4000244,0.0,207.4,0.9,0.0,0.0,905,133,0,0,860.84,2.88,41.39,0
11:13:49,0,0,0,0,0,0,0,0,0,0,0,499,0,0,0,0,0.0000000,0.0000000,0.0000000,0.0000000,10.00,38.4063492,-110.7920990,1373.3000488,0.0,199.5,0.9,0.0,0.0,908,255,0,0,860.80,2.90,40.97,0
11:13:50,0,0,0,0,0,0,0,0,0,0,0,515,0,0,0,0,0.0000000,0.0000000,0.0000000,0.0000000,10.00,38.4063492,-110.7920990,1373.3000488,0.0,234.8,0.9,0.0,0.0,905,137,0,0,860.78,3.02,40.94,0
11:13:51,0,0,0,0,0,0,0,0,0,0,0,513,0,0,0,0,0.0000000,0.0000000,0.0000000,0.0000000,10.00,38.4063492,-110.7920990,1373.4000244,0.0,217.2,0.9,0.0,0.0,903,134,0,0,860.69,3.08,40.79,0
11:13:52,0,0,0,0,0,0,0,0,0,0,0,515,0,0,0,0,0.0000000,0.0000000,0.0000000,0.0000000,10.00,38.4063492,-110.7920990,1373.3000488,0.0,228.9,0.9,0.0,0.0,905,139,0,0,860.79,3.08,40.96,0
11:13:53,0,0,0,0,0,0,0,0,0,0,0,515,0,0,0,0,0.0000000,0.0000000,0.0000000,0.0000000,10.00,38.4063492,-110.7920990,1373.4000244,0.0,12.5,0.9,0.0,0.0,904,134,0,0,860.79,3.07,40.94,0
11:13:54,0,0,0,0,0,0,0,0,0,0,0,516,0,0,0,0,0.0000000,0.0000000,0.0000000,0.0000000,10.00,38.4063492,-110.7920990,1373.4000244,0.0,92.5,0.9,0.0,0.0,905,137,0,0,860.72,3.05,40.93,0
11:13:55,0,0,0,0,0,0,0,0,0,0,0,514,0,0,0,0,0.0000000,0.0000000,0.0000000,0.0000000,10.00,38.4063492,-110.7920990,1373.4000244,0.0,184.4,0.9,0.0,0.0,905,134,0,0,860.81,3.05,41.09,0
11:13:56,0,0,0,0,0,0,0,0,0,0,0,515,0,0,0,0,0.0000000,0.0000000,0.0000000,0.0000000,10.00,38.4063492,-110.7920990,1373.4000244,0.0,84.0,0.9,0.0,0.0,905,131,0,0,860.77,3.05,41.21,0
11:13:57,0,0,0,0,0,0,0,0,0,0,0,514,0,0,0,0,0.0000000,0.0000000,0.0000000,0.0000000,10.00,38.4063492,-110.7920990,1373.4000244,0.0,0.9,0.9,0.0,0.0,906,132,0,0,860.75,3.01,41.26,0
11:13:58,0,0,0,0,0,0,0,0,0,0,0,513,0,0,0,0,0.0000000,0.0000000,0.0000000,0.0000000,10.00,38.4063492,-110.7920990,1373.4000244,0.0,126.9,0.9,0.0,0.0,906,128,0,0,860.73,2.98,41.29,0
11:13:59,0,0,0,0,0,0,0,0,0,0,0,518,0,0,0,0,0.0000000,0.0000000,0.0000000,0.0000000,10.00,38.4063492,-110.7920990,1373.4000244,0.0,0.0,0.9,0.0,0.0,906,136,0,0,860.72,2.93,41.21,0
11:14:00,0,0,0,0,0,0,0,0,0,0,0,515,0,0,0,0,0.0000000,0.0000000,0.0000000,0.0000000,10.00,38.4063492,-110.7920990,1373.4000244,0.0,143.4,0.9,0.0,0.0,905,123,0,0,860.69,2.95,41.11,0
11:14:01,0,0,0,0,0,0,0,0,0,0,0,515,0,0,0,0,0.0000000,0.0000000,0.0000000,0.0000000,10.00,38.4063492,-110.7920990,1373.4000244,0.0,162.6,0.9,0.0,0.0,905,132,0,0,860.68,3.01,41.14,0
11:14:02,0,0,0,0,0,0,0,0,0,0,0,521,0,0,0,0,0.0000000,0.0000000,0.0000000,0.0000000,10.00,38.4063492,-110.7920990,1373.4000244,0.0,57.9,0.9,0.0,0.0,907,135,0,0,860.72,2.98,41.19,0
11:14:03,0,0,0,0,0,0,0,0,0,0,0,514,0,0,0,0,0.0000000,0.0000000,0.0000000,0.0000000,10.00,38.4063492,-110.7920990,1373.4000244,0.0,140.7,0.9,0.0,0.0,901,125,0,0,860.81,2.96,40.98,0
11:14:04,0,0,0,0,0,0,0,0,0,0,0,517,0,0,0,0,0.0000000,0.0000000,0.0000000,0.0000000,10.00,38.4063492,-110.7920990,1373.4000244,0.0,157.8,0.9,0.0,0.0,913,126,0,0,860.75,3.01,40.74,0
11:14:05,0,0,0,0,0,0,0,0,0,0,0,518,0,0,0,0,0.0000000,0.0000000,0.0000000,0.0000000,10.00,38.4063492,-110.7920990,1373.4000244,0.0,157.3,0.9,0.0,0.0,910,141,0,0,860.76,3.07,40.76,0
11:14:06,0,0,0,0,0,0,0,0,0,0,0,518,0,0,0,0,0.0000000,0.0000000,0.0000000,0.0000000,10.00,38.4063492,-110.7920990,1373.4000244,0.0,235.6,0.9,0.0,0.0,902,140,0,0,860.74,3.10,40.75,0
11:14:07,0,0,0,0,0,0,0,0,0,0,0,515,0,0,0,0,0.0000000,0.0000000,0.0000000,0.0000000,10.00,38.4063492,-110.7920990,1373.4000244,0.0,49.7,0.9,0.0,0.0,905,136,0,0,860.75,3.13,40.89,0
11:14:08,0,0,0,0,0,0,0,0,0,0,0,515,0,0,0,0,0.0000000,0.0000000,0.0000000,0.0000000,10.00,38.4063492,-110.7920990,1373.4000244,0.0,85.3,0.9,0.0,0.0,905,143,0,0,860.77,3.08,40.92,0
11:14:09,0,0,0,0,0,0,0,0,0,0,0,513,0,0,0,0,0.0000000,0.0000000,0.0000000,0.0000000,10.00,38.4063492,-110.7920990,1373.4000244,0.0,191.2,0.9,0.0,0.0,906,132,0,0,860.77,3.08,40.87,0
11:14:10,0,0,0,0,0,0,0,0,0,0,0,522,0,0,0,0,0.0000000,0.0000000,0.0000000,0.0000000,10.00,38.4063492,-110.7920990,1373.4000244,0.0,127.5,0.9,0.0,0.0,904,145,0,0,860.75,3.08,40.97,0
11:14:11,0,0,0,0,0,0,0,0,0,0,0,516,0,0,0,0,0.0000000,0.0000000,0.0000000,0.0000000,10.00,38.4063492,-110.7920990,1373.4000244,0.0,300.4,0.9,0.0,0.0,905,139,0,0,860.79,3.08,40.93,0
11:14:12,0,0,0,0,0,0,0,0,0,0,0,515,0,0,0,0,0.0000000,0.0000000,0.0000000,0.0000000,10.00,38.4063492,-110.7920990,1373.4000244,0.0,229.9,0.9,0.0,0.0,905,142,0,0,860.82,3.02,40.88,0
11:14:13,0,0,0,0,0,0,0,0,0,0,0,516,0,0,0,0,0.0000000,0.0000000,0.0000000,0.0000000,10.00,38.4063492,-110.7920990,1373.4000244,0.0,59.6,0.9,0.0,0.0,907,137,0,0,860.81,3.02,40.82,0
11:14:14,0,0,0,0,0,0,0,0,0,0,0,516,0,0,0,0,0.0000000,0.0000000,0.0000000,0.0000000,9.00,38.4063492,-110.7920990,1373.4000244,0.0,149.3,0.9,0.0,0.0,904,145,0,0,860.77,3.05,40.84,0
11:14:15,0,0,0,0,0,0,0,0,0,0,0,515,0,0,0,0,0.0000000,0.0000000,0.0000000,0.0000000,9.00,38.4063492,-110.7920990,1373.4000244,0.1,142.6,0.9,0.0,0.0,904,145,0,0,860.77,3.04,40.88,0
11:14:16,0,0,0,0,0,0,0,0,0,0,0,515,0,0,0,0,0.0000000,0.0000000,0.0000000,0.0000000,9.00,38.4063492,-110.7920990,1373.4000244,0.0,161.2,0.9,0.0,0.0,905,147,0,0,860.78,2.99,40.76,0
11:14:17,0,0,0,0,0,0,0,0,0,0,0,515,0,0,0,0,0.0000000,0.0000000,0.0000000,0.0000000,10.00,38.4063492,-110.7920990,1373.4000244,0.0,160.3,0.9,0.0,0.0,905,142,0,0,860.71,2.99,40.67,0
11:14:18,0,0,0,0,0,0,0,0,0,0,0,515,0,0,0,0,0.0000000,0.0000000,0.0000000,0.0000000,9.00,38.4063492,-110.7920990,1373.4000244,0.0,183.4,0.9,0.0,0.0,905,141,0,0,860.77,3.07,40.69,0
11:14:19,0,0,0,0,0,0,0,0,0,0,0,515,0,0,0,0,0.0000000,0.0000000,0.0000000,0.0000000,9.00,38.4063492,-110.7920990,1373.4000244,0.0,124.7,0.9,0.0,0.0,905,141,0,0,860.74,3.04,40.56,0
11:14:21,0,0,0,0,0,0,0,0,0,0,0,515,0,0,0,0,0.0000000,0.0000000,0.0000000,0.0000000,10.00,38.4063454,-110.7920990,1373.4000244,0.0,186.6,0.9,0.0,0.0,905,143,0,0,860.78,3.05,40.52,0
11:14:22,0,0,0,0,0,0,0,0,0,0,0,515,0,0,0,0,0.0000000,0.0000000,0.0000000,0.0000000,10.00,38.4063454,-110.7920990,1373.4000244,0.0,109.0,0.9,0.0,0.0,905,143,0,0,860.74,3.10,40.50,0
11:14:23,0,0,0,0,0,0,0,0,0,0,0,515,0,0,0,0,0.0000000,0.0000000,0.0000000,0.0000000,10.00,38.4063454,-110.7920990,1373.4000244,0.0,166.6,0.9,0.0,0.0,905,139,0,0,860.77,3.08,40.49,0
11:14:24,0,0,0,0,0,0,0,0,0,0,0,515,0,0,0,0,0.0000000,0.0000000,0.0000000,0.0000000,10.00,38.4063454,-110.7920990,1373.4000244,0.0,136.6,0.9,0.0,0.0,905,143,0,0,860.75,3.10,40.54,0
11:14:25,0,0,0,0,0,0,0,0,0,0,0,515,0,0,0,0,0.0000000,0.0000000,0.0000000,0.0000000,10.00,38.4063454,-110.7920990,1373.4000244,0.0,131.6,0.9,0.0,0.0,905,139,0,0,860.75,3.13,40.59,0
11:14:26,0,0,0,0,0,0,0,0,0,0,0,515,0,0,0,0,0.0000000,0.0000000,0.0000000,0.0000000,10.00,38.4063454,-110.7920990,1373.4000244,0.1,153.9,0.9,0.0,0.0,905,138,0,0,860.75,3.11,40.54,0
11:14:27,0,0,0,0,0,0,0,0,0,0,0,514,0,0,0,0,0.0000000,0.0000000,0.0000000,0.0000000,10.00,38.4063454,-110.7920990,1373.4000244,0.0,162.8,0.9,0.0,0.0,905,140,0,0,860.75,3.14,40.48,0
11:14:28,0,0,0,0,0,0,0,0,0,0,0,515,0,0,0,0,0.0000000,0.0000000,0.0000000,0.0000000,9.00,38.4063454,-110.7920990,1373.4000244,0.0,140.1,0.9,0.0,0.0,905,138,0,0,860.76,3.14,40.34,0
11:14:29,0,0,0,0,0,0,0,0,0,0,0,515,0,0,0,0,0.0000000,0.0000000,0.0000000,0.0000000,9.00,38.4063454,-110.7920990,1373.4000244,0.0,279.4,0.9,0.0,0.0,905,140,0,0,860.71,3.14,40.38,0
11:14:30,0,0,0,0,0,0,0,0,0,0,0,515,0,0,0,0,0.0000000,0.0000000,0.0000000,0.0000000,9.00,38.4063454,-110.7920990,1373.4000244,0.0,294.1,0.9,0.0,0.0,905,141,0,0,860.72,3.19,40.46,0
11:14:31,0,0,0,0,0,0,0,0,0,0,0,514,0,0,0,0,0.0000000,0.0000000,0.0000000,0.0000000,10.00,38.4063454,-110.7920990,1373.4000244,0.0,306.8,0.9,0.0,0.0,905,139,0,0,860.73,3.22,40.53,0
11:14:32,0,0,0,0,0,0,0,0,0,0,0,515,0,0,0,0,0.0000000,0.0000000,0.0000000,0.0000000,10.00,38.4063454,-110.7920990,1373.4000244,0.0,316.0,0.9,0.0,0.0,905,139,0,0,860.74,3.19,40.49,0
11:14:33,0,0,0,0,0,0,0,0,0,0,0,515,0,0,0,0,0.0000000,0.0000000,0.0000000,0.0000000,10.00,38.4063454,-110.7920990,1373.5000000,0.0,288.9,0.9,0.0,0.0,905,141,0,0,860.77,3.22,40.39,0
11:14:34,0,0,0,0,0,0,0,0,0,0,0,515,0,0,0,0,0.0000000,0.0000000,0.0000000,0.0000000,10.00,38.4063454,-110.7920990,1373.5000000,0.0,9.7,0.9,0.0,0.0,905,137,0,0,860.77,3.19,40.37,0
11:14:35,0,0,0,0,0,0,0,0,0,0,0,515,0,0,0,0,0.0000000,0.0000000,0.0000000,0.0000000,10.00,38.4063454,-110.7920990,1373.5000000,0.0,86.9,0.9,0.0,0.0,905,139,0,0,860.74,3.25,40.28,0
11:14:36,0,0,0,0,0,0,0,0,0,0,0,515,0,0,0,0,0.0000000,0.0000000,0.0000000,0.0000000,9.00,38.4063454,-110.7920990,1373.5000000,0.0,111.6,0.9,0.0,0.0,905,140,0,0,860.74,3.28,40.30,0
11:14:37,0,0,0,0,0,0,0,0,0,0,0,515,0,0,0,0,0.0000000,0.0000000,0.0000000,0.0000000,10.00,38.4063454,-110.7920990,1373.5000000,0.0,106.2,0.9,0.0,0.0,905,136,0,0,860.73,3.27,40.41,0
11:14:38,0,0,0,0,0,0,0,0,0,0,0,515,0,0,0,0,0.0000000,0.0000000,0.0000000,0.0000000,10.00,38.4063454,-110.7920990,1373.5000000,0.0,91.6,0.9,0.0,0.0,905,137,0,0,860.73,3.28,40.49,0
11:14:39,0,0,0,0,0,0,0,0,0,0,0,515,0,0,0,0,0.0000000,0.0000000,0.0000000,0.0000000,10.00,38.4063454,-110.7920990,1373.5000000,0.0,100.6,0.9,0.0,0.0,905,140,0,0,860.81,3.22,40.56,0
11:14:40,0,0,0,0,0,0,0,0,0,0,0,514,0,0,0,0,0.0000000,0.0000000,0.0000000,0.0000000,9.00,38.4063454,-110.7920990,1373.5000000,0.0,89.4,0.9,0.0,0.0,905,136,0,0,860.76,3.20,40.59,0
11:14:41,0,0,0,0,0,0,0,0,0,0,0,511,0,0,0,0,0.0000000,0.0000000,0.0000000,0.0000000,9.00,38.4063454,-110.7920990,1373.5000000,0.0,77.9,0.9,0.0,0.0,903,131,0,0,860.74,3.22,40.63,0
11:14:42,0,0,0,0,0,0,0,0,0,0,0,513,0,0,0,0,0.0000000,0.0000000,0.0000000,0.0000000,9.00,38.4063454,-110.7920990,1373.5000000,0.0,234.7,0.9,0.0,0.0,905,135,0,0,860.76,3.20,40.65,0
11:14:43,0,0,0,0,0,0,0,0,0,0,0,514,0,0,0,0,0.0000000,0.0000000,0.0000000,0.0000000,9.00,38.4063454,-110.7920990,1373.5000000,0.0,215.2,0.9,0.0,0.0,905,141,0,0,860.79,3.17,40.60,0
11:14:44,0,0,0,0,0,0,0,0,0,0,0,518,0,0,0,0,0.0000000,0.0000000,0.0000000,0.0000000,9.00,38.4063454,-110.7920990,1373.5000000,0.0,226.2,0.9,0.0,0.0,907,133,0,0,860.77,3.22,40.46,0
11:14:45,0,0,0,0,0,0,0,0,0,0,0,516,0,0,0,0,0.0000000,0.0000000,0.0000000,0.0000000,9.00,38.4063454,-110.7920990,1373.8000488,0.0,217.3,0.9,0.0,0.0,905,137,0,0,860.75,3.24,40.52,0
11:14:46,0,0,0,0,0,0,0,0,0,0,0,515,0,0,0,0,0.0000000,0.0000000,0.0000000,0.0000000,10.00,38.4063416,-110.7920990,1374.0999756,0.0,226.4,0.9,0.0,0.0,905,135,0,0,860.81,3.27,40.55,0
11:14:47,0,0,0,0,0,0,0,0,0,0,0,514,0,0,0,0,0.0000000,0.0000000,0.0000000,0.0000000,10.00,38.4063416,-110.7920990,1374.4000244,0.0,243.5,0.9,0.0,0.0,905,135,0,0,860.79,3.28,40.39,0
11:14:48,0,0,0,0,0,0,0,0,0,0,0,515,0,0,0,0,0.0000000,0.0000000,0.0000000,0.0000000,10.00,38.4063416,-110.7920990,1374.5000000,0.0,140.9,0.9,0.0,0.0,905,137,0,0,860.76,3.27,40.38,0
11:14:49,0,0,0,0,0,0,0,0,0,0,0,516,0,0,0,0,0.0000000,0.0000000,0.0000000,0.0000000,10.00,38.4063377,-110.7920990,1374.6999512,0.0,100.5,0.9,0.0,0.0,905,137,0,0,860.73,3.27,40.35,0
11:14:50,0,0,0,0,0,0,0,0,0,0,0,515,0,0,0,0,0.0000000,0.0000000,0.0000000,0.0000000,10.00,38.4063377,-110.7920990,1374.9000244,0.1,108.9,0.9,0.0,0.0,905,138,0,0,860.80,3.22,40.26,0
11:14:51,0,0,0,0,0,0,0,0,0,0,0,515,0,0,0,0,0.0000000,0.0000000,0.0000000,0.0000000,10.00,38.4063377,-110.7920990,1375.0000000,0.0,101.1,0.9,0.0,0.0,905,139,0,0,860.86,3.28,40.18,0
11:14:52,0,0,0,0,0,0,0,0,0,0,0,514,0,0,0,0,0.0000000,0.0000000,0.0000000,0.0000000,10.00,38.4063377,-110.7920990,1375.0000000,0.0,104.9,0.9,0.0,0.0,905,133,0,0,861.72,3.40,40.20,0
11:14:53,0,0,0,0,0,0,0,0,0,0,0,516,0,0,0,0,0.0000000,0.0000000,0.0000000,0.0000000,10.00,38.4063377,-110.7920990,1375.0000000,0.1,69.7,0.9,0.0,0.0,905,133,0,0,861.51,3.39,40.21,0
11:14:54,0,0,0,0,0,0,0,0,0,0,0,515,0,0,0,0,0.0000000,0.0000000,0.0000000,0.0000000,10.00,38.4063377,-110.7920990,1375.0000000,0.0,342.7,0.9,0.0,0.0,904,134,0,0,861.46,3.37,40.33,0
11:14:55,0,0,0,0,0,0,0,0,0,0,0,515,0,0,0,0,0.0000000,0.0000000,0.0000000,0.0000000,10.00,38.4063377,-110.7920990,1375.0000000,0.0,13.8,0.9,0.0,0.0,905,132,0,0,861.49,3.36,40.35,0
11:14:56,0,0,0,0,0,0,0,0,0,0,0,515,0,0,0,0,0.0000000,0.0000000,0.0000000,0.0000000,10.00,38.4063377,-110.7920990,1375.0000000,0.0,81.0,0.9,0.0,0.0,905,134,0,0,860.85,3.10,40.41,0
11:14:57,0,0,0,0,0,0,0,0,0,0,0,514,0,0,0,0,0.0000000,0.0000000,0.0000000,0.0000000,10.00,38.4063377,-110.7920990,1375.0000000,0.1,88.6,0.9,0.0,0.0,905,134,0,0,860.82,3.05,40.32,0
11:14:58,0,0,0,0,0,0,0,0,0,0,0,515,0,0,0,0,0.0000000,0.0000000,0.0000000,0.0000000,10.00,38.4063377,-110.7920990,1375.0000000,0.0,96.5,0.9,0.0,0.0,904,134,0,0,860.72,3.05,40.39,0
11:14:59,0,0,0,0,0,0,0,0,0,0,0,515,0,0,0,0,0.0000000,0.0000000,0.0000000,0.0000000,10.00,38.4063377,-110.7920914,1375.0000000,0.1,102.8,0.9,0.0,0.0,904,139,0,0,860.81,2.99,40.36,0
11:15:00,0,0,0,0,0,0,0,0,0,0,0,515,0,0,0,0,0.0000000,0.0000000,0.0000000,0.0000000,10.00,38.4063377,-110.7920914,1375.0000000,0.1,78.6,0.9,0.0,0.0,905,135,0,0,860.81,3.02,40.21,0
11:15:01,0,0,0,0,0,0,0,0,0,0,0,516,0,0,0,0,0.0000000,0.0000000,0.0000000,0.0000000,10.00,38.4063377,-110.7920914,1375.0000000,0.1,59.6,0.9,0.0,0.0,905,138,0,0,860.84,3.07,40.16,0
11:15:02,0,0,0,0,0,0,0,0,0,0,0,515,0,0,0,0,0.0000000,0.0000000,0.0000000,0.0000000,10.00,38.4063377,-110.7920914,1375.0000000,0.1,67.6,0.9,0.0,0.0,905,139,0,0,860.82,3.04,40.01,0
11:15:03,0,0,0,0,0,0,0,0,0,0,0,515,0,0,0,0,0.0000000,0.0000000,0.0000000,0.0000000,10.00,38.4063377,-110.7920914,1375.0000000,0.1,68.4,0.9,0.0,0.0,905,139,0,0,860.83,3.05,39.80,0
11:15:04,0,0,0,0,0,0,0,0,0,0,0,515,0,0,0,0,0.0000000,0.0000000,0.0000000,0.0000000,10.00,38.4063377,-110.7920914,1375.0000000,0.1,60.0,0.9,0.0,0.0,904,139,0,0,860.84,3.10,39.76,0
11:15:05,0,0,0,0,0,0,0,0,0,0,0,515,0,0,0,0,0.0000000,0.0000000,0.0000000,0.0000000,10.00,38.4063377,-110.7920914,1375.0000000,0.1,68.3,0.9,0.0,0.0,905,136,0,0,860.23,3.49,39.64,0
11:15:06,0,0,0,0,0,0,0,0,0,0,0,515,0,0,0,0,0.0000000,0.0000000,0.0000000,0.0000000,9.00,38.4063377,-110.7920914,1375.0000000,0.1,70.9,0.9,0.0,0.0,905,136,0,0,858.31,11.66,39.68,0
11:15:07,0,0,0,0,0,0,0,0,0,0,0,515,0,0,0,0,0.0000000,0.0000000,0.0000000,0.0000000,10.00,38.4063377,-110.7920914,1375.0000000,0.1,52.7,0.9,0.0,0.0,905,137,0,0,858.30,11.49,40.07,0
11:15:08,0,0,0,0,0,0,0,0,0,0,0,514,0,0,0,0,0.0000000,0.0000000,0.0000000,0.0000000,10.00,38.4063377,-110.7920914,1375.0000000,0.0,87.3,0.9,0.0,0.0,905,138,0,0,858.27,11.37,40.43,0
11:15:09,0,0,0,0,0,0,0,0,0,0,0,515,0,0,0,0,0.0000000,0.0000000,0.0000000,0.0000000,10.00,38.4063377,-110.7920914,1375.0000000,0.0,104.8,0.9,0.0,0.0,904,136,0,0,858.28,11.32,40.69,0
11:15:10,0,0,0,0,0,0,0,0,0,0,0,515,0,0,0,0,0.0000000,0.0000000,0.0000000,0.0000000,10.00,38.4063377,-110.7920914,1375.0000000,0.0,207.5,0.9,0.0,0.0,905,137,0,0,858.27,11.22,40.92,0
11:15:11,0,0,0,0,0,0,0,0,0,0,0,514,0,0,0,0,0.0000000,0.0000000,0.0000000,0.0000000,10.00,38.4063377,-110.7920914,1375.0000000,0.0,222.8,0.9,0.0,0.0,905,138,0,0,858.30,11.12,41.13,0
11:15:12,0,0,0,0,0,0,0,0,0,0,0,515,0,0,0,0,0.0000000,0.0000000,0.0000000,0.0000000,10.00,38.4063377,-110.7920914,1375.0000000,0.0,181.3,0.9,0.0,0.0,905,135,0,0,858.33,11.14,41.16,0
11:15:13,0,0,0,0,0,0,0,0,0,0,0,514,0,0,0,0,0.0000000,0.0000000,0.0000000,0.0000000,10.00,38.4063377,-110.7920914,1375.0000000,0.0,159.9,0.9,0.0,0.0,905,141,0,0,858.25,11.73,41.34,0
11:15:14,0,0,0,0,0,0,0,0,0,0,0,515,0,0,0,0,0.0000000,0.0000000,0.0000000,0.0000000,10.00,38.4063377,-110.7920914,1375.0000000,0.0,236.2,0.9,0.0,0.0,905,134,0,0,858.26,11.86,41.62,0
11:15:15,0,0,0,0,0,0,0,0,0,0,0,515,0,0,0,0,0.0000000,0.0000000,0.0000000,0.0000000,10.00,38.4063377,-110.7920914,1375.0000000,0.1,220.2,0.9,0.0,0.0,905,135,0,0,858.26,12.31,41.81,0
11:15:16,0,0,0,0,0,0,0,0,0,0,0,514,0,0,0,0,0.0000000,0.0000000,0.0000000,0.0000000,10.00,38.4063377,-110.7920914,1375.0000000,0.1,222.9,0.9,0.0,0.0,905,136,0,0,858.25,11.66,41.92,0
11:15:17,0,0,0,0,0,0,0,0,0,0,0,515,0,0,0,0,0.0000000,0.0000000,0.0000000,0.0000000,10.00,38.4063377,-110.7920914,1375.0000000,0.1,222.9,0.9,0.0,0.0,906,138,0,0,858.31,11.22,42.11,0
11:15:18,0,0,0,0,0,0,0,0,0,0,0,514,0,0,0,0,0.0000000,0.0000000,0.0000000,0.0000000,10.00,38.4063377,-110.7920914,1375.0000000,0.1,212.4,0.9,0.0,0.0,905,134,0,0,858.30,11.40,42.34,0
11:15:19,0,0,0,0,0,0,0,0,0,0,0,514,0,0,0,0,0.0000000,0.0000000,0.0000000,0.0000000,10.00,38.4063377,-110.7920914,1375.0000000,0.1,209.4,0.9,0.0,0.0,905,135,0,0,858.24,12.25,42.49,0
11:15:20,0,0,0,0,0,0,0,0,0,0,0,515,0,0,0,0,0.0000000,0.0000000,0.0000000,0.0000000,10.00,38.4063377,-110.7920914,1375.0000000,0.1,213.4,0.9,0.0,0.0,905,142,0,0,858.15,7.43,42.75,0
11:15:21,0,0,0,0,0,0,0,0,0,0,0,514,0,0,0,0,0.0000000,0.0000000,0.0000000,0.0000000,10.00,38.4063377,-110.7920914,1375.0000000,0.1,210.7,0.9,0.0,0.0,905,135,0,0,860.83,2.59,42.80,0
11:15:22,0,0,0,0,0,0,0,0,0,0,0,515,0,0,0,0,0.0000000,0.0000000,0.0000000,0.0000000,10.00,38.4063339,-110.7920990,1375.0000000,0.2,209.8,0.9,0.0,0.0,905,138,0,0,859.11,16.08,42.47,0
11:15:23,0,0,0,0,0,0,0,0,0,0,0,515,0,0,0,0,0.0000000,0.0000000,0.0000000,0.0000000,10.00,38.4063339,-110.7920990,1375.0000000,0.2,207.4,0.9,0.0,0.0,905,137,0,0,858.97,8.88,42.49,0
11:15:24,0,0,0,0,0,0,0,0,0,0,0,515,0,0,0,0,0.0000000,0.0000000,0.0000000,0.0000000,10.00,38.4063339,-110.7920990,1375.0000000,0.3,206.1,0.9,0.0,0.0,905,134,0,0,858.92,20.39,42.58,0
11:15:25,0,0,0,0,0,0,0,0,0,0,0,515,0,0,0,0,0.0000000,0.0000000,0.0000000,0.0000000,10.00,38.4063339,-110.7920990,1375.0000000,0.3,202.1,0.9,0.0,0.0,905,136,0,0,858.83,20.43,42.71,0
11:15:26,0,0,0,0,0,0,0,0,0,0,0,515,0,0,0,0,0.0000000,0.0000000,0.0000000,0.0000000,10.00,38.4063301,-110.7920990,1375.0000000,0.3,200.5,0.9,0.0,0.0,904,136,0,0,859.04,22.48,42.90,0
11:15:27,0,0,0,0,0,0,0,0,0,0,0,515,0,0,0,0,0.0000000,0.0000000,0.0000000,0.0000000,10.00,38.4063301,-110.7920990,1375.0000000,0.4,198.7,0.9,0.0,0.0,905,136,0,0,859.40,24.72,43.06,0
11:15:28,0,0,0,0,0,0,0,0,0,0,0,515,0,0,0,0,0.0000000,0.0000000,0.0000000,0.0000000,10.00,38.4063263,-110.7920990,1375.0000000,0.4,196.2,0.9,0.0,0.0,904,132,0,0,859.53,20.10,43.23,0
11:15:29,0,0,0,0,0,0,0,0,0,0,0,515,0,0,0,0,0.0000000,0.0000000,0.0000000,0.0000000,10.00,38.4063263,-110.7920990,1375.0000000,0.4,190.6,0.9,0.0,0.0,905,133,0,0,860.90,2.67,43.46,0
11:15:30,0,0,0,0,0,0,0,0,0,0,0,515,0,0,0,0,0.0000000,0.0000000,0.0000000,0.0000000,10.00,38.4063225,-110.7920990,1375.0000000,0.4,186.4,0.9,0.0,0.0,905,135,0,0,860.49,29.02,43.09,0
11:15:31,0,0,0,0,0,0,0,0,0,0,0,516,0,0,0,0,0.0000000,0.0000000,0.0000000,0.0000000,10.00,38.4063225,-110.7920990,1375.0000000,0.4,176.2,0.9,0.0,0.0,904,135,0,0,860.84,2.47,43.15,0
11:15:32,0,0,0,0,0,0,0,0,0,0,0,515,0,0,0,0,0.0000000,0.0000000,0.0000000,0.0000000,9.00,38.4063187,-110.7920990,1375.0000000,0.5,172.4,0.9,0.0,0.0,904,135,0,0,860.98,2.52,42.93,0
11:15:33,0,0,0,0,0,0,0,0,0,0,0,514,0,0,0,0,0.0000000,0.0000000,0.0000000,0.0000000,10.00,38.4063187,-110.7920990,1375.0000000,0.5,171.6,0.9,0.0,0.0,904,134,0,0,862.89,3.57,42.79,0
11:15:34,0,0,0,0,0,0,0,0,0,0,0,515,0,0,0,0,0.0000000,0.0000000,0.0000000,0.0000000,10.00,38.4063148,-110.7920990,1375.0000000,0.5,169.1,0.9,0.0,0.0,905,130,0,0,862.31,28.67,42.87,0
11:15:35,0,0,0,0,0,0,0,0,0,0,0,515,0,0,0,0,0.0000000,0.0000000,0.0000000,0.0000000,10.00,38.4063110,-110.7920990,1375.0000000,0.5,166.7,0.9,0.0,0.0,905,130,0,0,864.81,33.68,42.68,0
11:15:36,0,0,0,0,0,0,0,0,0,0,0,515,0,0,0,0,0.0000000,0.0000000,0.0000000,0.0000000,10.00,38.4063110,-110.7920990,1375.0000000,0.6,164.2,0.9,0.0,0.0,905,131,0,0,866.07,34.06,42.54,0
11:15:37,0,0,0,0,0,0,0,0,0,0,0,515,0,0,0,0,0.0000000,0.0000000,0.0000000,0.0000000,10.00,38.4063072,-110.7920990,1375.0000000,0.6,157.7,0.9,0.0,0.0,904,132,0,0,862.91,3.31,42.51,0
11:15:38,0,0,0,0,0,0,0,0,0,0,0,515,0,0,0,0,0.0000000,0.0000000,0.0000000,0.0000000,10.00,38.4063034,-110.7920990,1374.9000244,0.6,150.6,0.9,0.0,0.0,905,130,0,0,860.82,2.96,42.73,0
