Time, Motor A Speed, Motor A Dir, Motor B Speed, Motor B Dir, Servo Rail Current Sensor, Servo Pos - Arm L, Servo Pos - Arm R, Servo Pos - End, Servo Pos - Hopper, Servo Pos - Lid, Servo Pos - Extra, Servo Current, LED - Front L, LED - Front R, LED - Back L, LED - Back R, IMU Pitch, IMU Roll, IMU Yaw, Compass Heading, GPS Sats, GPS Latitude, GPS Longitude, GPS Altitude, GPS Speed, GPS Angle, GPS HDOP, GPS VDOP, GPS PDOP, Battery, Wind, Comm Xbee Latency, Comm Arduino Latency, Pressure, Humidity, Temperature, uRADMonitor
11:25:07,0,0,0,0,0,0,0,0,0,0,0,517,0,0,0,0,0.0000000,0.0000000,0.0000000,0.0000000,10.00,38.4063263,-110.7920914,1373.9000244,0.0,319.5,0.9,0.0,0.0,902,140,0,0,861.45,2.78,43.16,0
11:25:08,0,0,0,0,0,0,0,0,0,0,0,516,0,0,0,0,0.0000000,0.0000000,0.0000000,0.0000000,10.00,38.4063263,-110.7920914,1373.9000244,0.0,141.9,0.9,0.0,0.0,902,140,0,0,861.44,2.76,43.01,0
11:25:09,0,0,0,0,0,0,0,0,0,0,0,514,0,0,0,0,0.0000000,0.0000000,0.0000000,0.0000000,10.00,38.4063263,-110.7920914,1373.9000244,0.0,133.1,0.9,0.0,0.0,902,151,0,0,861.45,2.81,43.05,0
11:25:10,0,0,0,0,0,0,0,0,0,0,0,517,0,0,0,0,0.0000000,0.0000000,0.0000000,0.0000000,10.00,38.4063263,-110.7920914,1373.9000244,0.0,71.6,0.9,0.0,0.0,903,147,0,0,861.45,2.79,43.19,0
11:25:11,0,0,0,0,0,0,0,0,0,0,0,515,0,0,0,0,0.0000000,0.0000000,0.0000000,0.0000000,10.00,38.4063263,-110.7920914,1373.9000244,0.0,27.0,0.9,0.0,0.0,903,143,0,0,861.50,2.79,43.29,0
11:25:12,0,0,0,0,0,0,0,0,0,0,0,516,0,0,0,0,0.0000000,0.0000000,0.0000000,0.0000000,10.00,38.4063263,-110.7920914,1373.9000244,0.0,333.4,0.9,0.0,0.0,901,151,0,0,861.51,2.79,43.30,0
11:25:13,0,0,0,0,0,0,0,0,0,0,0,513,0,0,0,0,0.0000000,0.0000000,0.0000000,0.0000000,10.00,38.4063263,-110.7920914,1373.9000244,0.0,317.2,0.9,0.0,0.0,903,148,0,0,861.44,2.78,43.32,0
11:25:14,0,0,0,0,0,0,0,0,0,0,0,515,0,0,0,0,0.0000000,0.0000000,0.0000000,0.0000000,10.00,38.4063263,-110.7920914,1373.9000244,0.0,340.9,0.9,0.0,0.0,903,146,0,0,861.44,2.72,43.32,0
11:25:15,0,0,0,0,0,0,0,0,0,0,0,515,0,0,0,0,0.0000000,0.0000000,0.0000000,0.0000000,10.00,38.4063263,-110.7920914,1373.9000244,0.0,327.3,0.9,0.0,0.0,903,142,0,0,861.44,2.73,43.37,0
11:25:16,0,0,0,0,0,0,0,0,0,0,0,515,0,0,0,0,0.0000000,0.0000000,0.0000000,0.0000000,10.00,38.4063263,-110.7920914,1373.9000244,0.0,349.8,0.9,0.0,0.0,902,141,0,0,861.43,2.75,43.46,0
11:25:17,0,0,0,0,0,0,0,0,0,0,0,515,0,0,0,0,0.0000000,0.0000000,0.0000000,0.0000000,10.00,38.4063263,-110.7920914,1373.9000244,0.0,253.5,0.9,0.0,0.0,902,139,0,0,861.44,2.72,43.49,0
11:25:18,0,0,0,0,0,0,0,0,0,0,0,515,0,0,0,0,0.0000000,0.0000000,0.0000000,0.0000000,10.00,38.4063263,-110.7920914,1373.8000488,0.0,151.6,0.9,0.0,0.0,903,139,0,0,861.43,2.73,43.45,0
11:25:19,0,0,0,0,0,0,0,0,0,0,0,514,0,0,0,0,0.0000000,0.0000000,0.0000000,0.0000000,10.00,38.4063263,-110.7920914,1373.8000488,0.0,162.2,0.9,0.0,0.0,903,141,0,0,861.48,2.72,43.42,0
11:25:20,0,0,0,0,0,0,0,0,0,0,0,515,0,0,0,0,0.0000000,0.0000000,0.0000000,0.0000000,10.00,38.4063263,-110.7920914,1373.8000488,0.0,134.7,0.9,0.0,0.0,901,142,0,0,861.46,2.72,43.39,0
11:25:21,0,0,0,0,0,0,0,0,0,0,0,513,0,0,0,0,0.0000000,0.0000000,0.0000000,0.0000000,10.00,38.4063263,-110.7920914,1373.8000488,0.0,220.9,0.9,0.0,0.0,904,140,0,0,861.47,2.73,43.27,0
11:25:22,0,0,0,0,0,0,0,0,0,0,0,514,0,0,0,0,0.0000000,0.0000000,0.0000000,0.0000000,10.00,38.4063263,-110.7920914,1373.8000488,0.0,198.8,0.9,0.0,0.0,902,140,0,0,861.47,2.78,43.30,0
11:25:23,0,0,0,0,0,0,0,0,0,0,0,516,0,0,0,0,0.0000000,0.0000000,0.0000000,0.0000000,10.00,38.4063263,-110.7920914,1373.8000488,0.0,78.9,0.9,0.0,0.0,904,143,0,0,861.46,2.75,43.45,0
11:25:24,0,0,0,0,0,0,0,0,0,0,0,515,0,0,0,0,0.0000000,0.0000000,0.0000000,0.0000000,10.00,38.4063263,-110.7920914,1373.8000488,0.0,19.3,0.9,0.0,0.0,904,135,0,0,861.47,2.72,43.59,0
11:25:25,0,0,0,0,0,0,0,0,0,0,0,515,0,0,0,0,0.0000000,0.0000000,0.0000000,0.0000000,10.00,38.4063263,-110.7920914,1373.8000488,0.0,41.0,0.9,0.0,0.0,903,137,0,0,861.46,2.70,43.65,0
11:25:26,0,0,0,0,0,0,0,0,0,0,0,515,0,0,0,0,0.0000000,0.0000000,0.0000000,0.0000000,10.00,38.4063263,-110.7920914,1373.8000488,0.0,91.1,0.9,0.0,0.0,903,141,0,0,861.45,2.64,43.70,0
11:25:27,0,0,0,0,0,0,0,0,0,0,0,514,0,0,0,0,0.0000000,0.0000000,0.0000000,0.0000000,10.00,38.4063263,-110.7920914,1373.8000488,0.0,339.0,0.9,0.0,0.0,903,141,0,0,861.46,2.58,43.52,0
11:25:28,0,0,0,0,0,0,0,0,0,0,0,515,0,0,0,0,0.0000000,0.0000000,0.0000000,0.0000000,10.00,38.4063263,-110.7920914,1373.8000488,0.0,358.9,0.9,0.0,0.0,903,139,0,0,861.42,2.63,43.55,0
11:25:29,0,0,0,0,0,0,0,0,0,0,0,515,0,0,0,0,0.0000000,0.0000000,0.0000000,0.0000000,10.00,38.4063263,-110.7920914,1373.8000488,0.0,282.1,0.9,0.0,0.0,903,141,0,0,861.40,2.55,43.70,0
11:25:30,0,0,0,0,0,0,0,0,0,0,0,515,0,0,0,0,0.0000000,0.0000000,0.0000000,0.0000000,10.00,38.4063263,-110.7920914,1373.8000488,0.0,181.9,0.9,0.0,0.0,903,136,0,0,861.45,2.55,43.79,0
11:25:31,0,0,0,0,0,0,0,0,0,0,0,515,0,0,0,0,0.0000000,0.0000000,0.0000000,0.0000000,10.00,38.4063263,-110.7920914,1373.8000488,0.0,277.6,0.9,0.0,0.0,903,138,0,0,861.42,2.49,43.92,0
11:25:32,0,0,0,0,0,0,0,0,0,0,0,515,0,0,0,0,0.0000000,0.0000000,0.0000000,0.0000000,10.00,38.4063263,-110.7920914,1373.6999512,0.0,156.8,0.9,0.0,0.0,903,133,0,0,861.46,2.52,44.06,0
11:25:33,0,0,0,0,0,0,0,0,0,0,0,513,0,0,0,0,0.0000000,0.0000000,0.0000000,0.0000000,10.00,38.4063263,-110.7920914,1373.6999512,0.0,158.9,0.9,0.0,0.0,906,133,0,0,861.43,2.49,44.21,0
11:25:34,0,0,0,0,0,0,0,0,0,0,0,515,0,0,0,0,0.0000000,0.0000000,0.0000000,0.0000000,10.00,38.4063263,-110.7920914,1373.6999512,0.0,38.2,0.9,0.0,0.0,903,135,0,0,861.46,2.43,44.23,0
11:25:35,0,0,0,0,0,0,0,0,0,0,0,515,0,0,0,0,0.0000000,0.0000000,0.0000000,0.0000000,10.00,38.4063263,-110.7920914,1373.6999512,0.0,357.7,0.9,0.0,0.0,903,135,0,0,861.47,2.40,44.20,0
11:25:36,0,0,0,0,0,0,0,0,0,0,0,515,0,0,0,0,0.0000000,0.0000000,0.0000000,0.0000000,10.00,38.4063263,-110.7920914,1373.6999512,0.0,153.3,0.9,0.0,0.0,903,138,0,0,861.43,2.38,44.34,0
11:25:37,0,0,0,0,0,0,0,0,0,0,0,515,0,0,0,0,0.0000000,0.0000000,0.0000000,0.0000000,10.00,38.4063263,-110.7920914,1373.6999512,0.0,152.1,0.9,0.0,0.0,903,131,0,0,861.43,2.38,44.46,0
11:25:38,0,0,0,0,0,0,0,0,0,0,0,516,0,0,0,0,0.0000000,0.0000000,0.0000000,0.0000000,10.00,38.4063263,-110.7920914,1373.6999512,0.0,239.1,0.9,0.0,0.0,903,135,0,0,861.46,2.37,44.37,0
11:25:39,0,0,0,0,0,0,0,0,0,0,0,515,0,0,0,0,0.0000000,0.0000000,0.0000000,0.0000000,10.00,38.4063263,-110.7920914,1373.6999512,0.0,187.1,0.9,0.0,0.0,903,132,0,0,861.43,2.34,44.29,0
11:25:40,0,0,0,0,0,0,0,0,0,0,0,515,0,0,0,0,0.0000000,0.0000000,0.0000000,0.0000000,10.00,38.4063263,-110.7920914,1373.6999512,0.0,217.3,0.9,0.0,0.0,903,133,0,0,861.40,2.41,44.37,0
11:25:41,0,0,0,0,0,0,0,0,0,0,0,515,0,0,0,0,0.0000000,0.0000000,0.0000000,0.0000000,10.00,38.4063263,-110.7920914,1373.6999512,0.0,221.3,0.9,0.0,0.0,903,132,0,0,861.47,2.37,44.51,0
11:25:42,0,0,0,0,0,0,0,0,0,0,0,515,0,0,0,0,0.0000000,0.0000000,0.0000000,0.0000000,10.00,38.4063263,-110.7920914,1373.6999512,0.0,328.5,0.9,0.0,0.0,903,129,0,0,861.45,2.32,44.43,0
11:25:43,0,0,0,0,0,0,0,0,0,0,0,516,0,0,0,0,0.0000000,0.0000000,0.0000000,0.0000000,10.00,38.4063263,-110.7920914,1373.6999512,0.0,317.3,0.9,0.0,0.0,903,131,0,0,861.42,2.34,44.45,0
11:25:44,0,0,0,0,0,0,0,0,0,0,0,515,0,0,0,0,0.0000000,0.0000000,0.0000000,0.0000000,10.00,38.4063263,-110.7920914,1373.6999512,0.0,350.9,0.9,0.0,0.0,903,129,0,0,861.43,2.34,44.59,0
11:25:45,0,0,0,0,0,0,0,0,0,0,0,515,0,0,0,0,0.0000000,0.0000000,0.0000000,0.0000000,10.00,38.4063263,-110.7920914,1373.6999512,0.0,158.5,0.9,0.0,0.0,903,138,0,0,861.42,2.37,44.75,0
11:25:46,0,0,0,0,0,0,0,0,0,0,0,515,0,0,0,0,0.0000000,0.0000000,0.0000000,0.0000000,10.00,38.4063263,-110.7920914,1373.6999512,0.0,25.8,0.9,0.0,0.0,903,133,0,0,861.42,2.29,44.85,0
11:25:47,0,0,0,0,0,0,0,0,0,0,0,515,0,0,0,0,0.0000000,0.0000000,0.0000000,0.0000000,11.00,38.4063263,-110.7920914,1373.6999512,0.0,11.4,0.8,0.0,0.0,903,127,0,0,861.46,2.27,44.85,0
11:25:48,0,0,0,0,0,0,0,0,0,0,0,515,0,0,0,0,0.0000000,0.0000000,0.0000000,0.0000000,11.00,38.4063263,-110.7920914,1373.6999512,0.0,344.3,0.8,0.0,0.0,903,129,0,0,861.47,2.27,44.63,0
11:25:49,0,0,0,0,0,0,0,0,0,0,0,516,0,0,0,0,0.0000000,0.0000000,0.0000000,0.0000000,11.00,38.4063263,-110.7920914,1373.5999756,0.0,332.5,0.8,0.0,0.0,903,132,0,0,861.44,2.30,44.54,0
11:25:50,0,0,0,0,0,0,0,0,0,0,0,515,0,0,0,0,0.0000000,0.0000000,0.0000000,0.0000000,11.00,38.4063263,-110.7920914,1373.5999756,0.0,319.9,0.8,0.0,0.0,903,132,0,0,861.43,2.29,44.37,0
11:25:51,0,0,0,0,0,0,0,0,0,0,0,515,0,0,0,0,0.0000000,0.0000000,0.0000000,0.0000000,11.00,38.4063263,-110.7920914,1373.5999756,0.0,41.5,0.8,0.0,0.0,903,136,0,0,861.40,2.29,44.17,0
11:25:52,0,0,0,0,0,0,0,0,0,0,0,515,0,0,0,0,0.0000000,0.0000000,0.0000000,0.0000000,11.00,38.4063263,-110.7920914,1373.5999756,0.0,264.4,0.8,0.0,0.0,904,139,0,0,861.39,2.35,43.91,0
11:25:53,0,0,0,0,0,0,0,0,0,0,0,515,0,0,0,0,0.0000000,0.0000000,0.0000000,0.0000000,11.00,38.4063263,-110.7920914,1373.5999756,0.0,350.2,0.8,0.0,0.0,903,137,0,0,861.47,2.44,43.96,0
11:25:54,0,0,0,0,0,0,0,0,0,0,0,514,0,0,0,0,0.0000000,0.0000000,0.0000000,0.0000000,11.00,38.4063263,-110.7920914,1373.5999756,0.0,322.1,0.8,0.0,0.0,903,140,0,0,861.40,2.44,44.03,0
11:25:55,0,0,0,0,0,0,0,0,0,0,0,515,0,0,0,0,0.0000000,0.0000000,0.0000000,0.0000000,11.00,38.4063263,-110.7920914,1373.5999756,0.0,53.7,0.8,0.0,0.0,902,142,0,0,861.44,2.49,44.04,0
11:25:56,0,0,0,0,0,0,0,0,0,0,0,515,0,0,0,0,0.0000000,0.0000000,0.0000000,0.0000000,11.00,38.4063263,-110.7920914,1373.5999756,0.0,316.6,0.8,0.0,0.0,903,137,0,0,861.34,2.40,44.14,0
11:25:57,0,0,0,0,0,0,0,0,0,0,0,514,0,0,0,0,0.0000000,0.0000000,0.0000000,0.0000000,11.00,38.4063263,-110.7920914,1373.5999756,0.0,342.2,0.8,0.0,0.0,903,136,0,0,861.39,2.41,44.35,0
11:25:58,0,0,0,0,0,0,0,0,0,0,0,515,0,0,0,0,0.0000000,0.0000000,0.0000000,0.0000000,11.00,38.4063263,-110.7920914,1373.5999756,0.0,78.1,0.8,0.0,0.0,903,137,0,0,861.41,2.32,44.52,0
11:25:59,0,0,0,0,0,0,0,0,0,0,0,515,0,0,0,0,0.0000000,0.0000000,0.0000000,0.0000000,11.00,38.4063263,-110.7920914,1373.5999756,0.0,136.3,0.8,0.0,0.0,903,135,0,0,861.39,2.37,44.62,0
11:26:00,0,0,0,0,0,0,0,0,0,0,0,515,0,0,0,0,0.0000000,0.0000000,0.0000000,0.0000000,11.00,38.4063263,-110.7920914,1373.5999756,0.0,114.3,0.8,0.0,0.0,903,135,0,0,861.43,2.32,44.74,0
11:26:01,0,0,0,0,0,0,0,0,0,0,0,515,0,0,0,0,0.0000000,0.0000000,0.0000000,0.0000000,11.00,38.4063263,-110.7920914,1373.5999756,0.0,339.4,0.8,0.0,0.0,903,132,0,0,861.43,2.30,44.67,0
11:26:02,0,0,0,0,0,0,0,0,0,0,0,516,0,0,0,0,0.0000000,0.0000000,0.0000000,0.0000000,11.00,38.4063263,-110.7920914,1373.5999756,0.0,61.2,0.8,0.0,0.0,903,135,0,0,861.46,2.35,44.66,0
11:26:03,0,0,0,0,0,0,0,0,0,0,0,515,0,0,0,0,0.0000000,0.0000000,0.0000000,0.0000000,11.00,38.4063263,-110.7920914,1373.5999756,0.0,6.3,0.8,0.0,0.0,903,134,0,0,861.44,2.27,44.74,0
11:26:04,0,0,0,0,0,0,0,0,0,0,0,515,0,0,0,0,0.0000000,0.0000000,0.0000000,0.0000000,11.00,38.4063263,-110.7920914,1373.0000000,0.0,266.0,0.8,0.0,0.0,903,134,0,0,861.44,2.32,44.76,0
11:26:05,0,0,0,0,0,0,0,0,0,0,0,515,0,0,0,0,0.0000000,0.0000000,0.0000000,0.0000000,11.00,38.4063263,-110.7920914,1372.5999756,0.0,257.0,0.8,0.0,0.0,903,134,0,0,861.42,2.29,44.88,0
11:26:06,0,0,0,0,0,0,0,0,0,0,0,515,0,0,0,0,0.0000000,0.0000000,0.0000000,0.0000000,11.00,38.4063263,-110.7920914,1372.1999512,0.0,281.3,0.8,0.0,0.0,903,133,0,0,861.44,2.23,44.94,0
11:26:07,0,0,0,0,0,0,0,0,0,0,0,514,0,0,0,0,0.0000000,0.0000000,0.0000000,0.0000000,11.00,38.4063263,-110.7920914,1371.9000244,0.0,246.9,0.8,0.0,0.0,903,131,0,0,861.45,2.24,45.03,0
11:26:08,0,0,0,0,0,0,0,0,0,0,0,515,0,0,0,0,0.0000000,0.0000000,0.0000000,0.0000000,11.00,38.4063301,-110.7920914,1371.9000244,0.0,8.9,0.8,0.0,0.0,903,133,0,0,861.47,2.20,45.13,0
11:26:09,0,0,0,0,0,0,0,0,0,0,0,515,0,0,0,0,0.0000000,0.0000000,0.0000000,0.0000000,11.00,38.4063301,-110.7920914,1371.8000488,0.0,181.3,0.8,0.0,0.0,903,131,0,0,861.44,2.17,45.11,0
11:26:10,0,0,0,0,0,0,0,0,0,0,0,515,0,0,0,0,0.0000000,0.0000000,0.0000000,0.0000000,11.00,38.4063301,-110.7920914,1371.5999756,0.0,96.0,0.8,0.0,0.0,903,130,0,0,861.46,2.20,45.11,0
11:26:12,0,0,0,0,0,0,0,0,0,0,0,516,0,0,0,0,0.0000000,0.0000000,0.0000000,0.0000000,11.00,38.4063301,-110.7920914,1371.5999756,0.0,98.6,0.8,0.0,0.0,903,135,0,0,861.47,2.30,45.09,0
11:26:13,0,0,0,0,0,0,0,0,0,0,0,515,0,0,0,0,0.0000000,0.0000000,0.0000000,0.0000000,11.00,38.4063301,-110.7920914,1371.5999756,0.0,326.2,0.8,0.0,0.0,903,134,0,0,861.45,2.35,45.15,0
11:26:14,0,0,0,0,0,0,0,0,0,0,0,515,0,0,0,0,0.0000000,0.0000000,0.0000000,0.0000000,10.00,38.4063301,-110.7920914,1371.5999756,0.0,99.4,0.9,0.0,0.0,903,133,0,0,861.43,2.44,45.07,0
11:26:15,0,0,0,0,0,0,0,0,0,0,0,515,0,0,0,0,0.0000000,0.0000000,0.0000000,0.0000000,10.00,38.4063301,-110.7920914,1371.5999756,0.0,135.5,0.9,0.0,0.0,903,131,0,0,861.44,2.47,45.11,0
11:26:16,0,0,0,0,0,0,0,0,0,0,0,515,0,0,0,0,0.0000000,0.0000000,0.0000000,0.0000000,10.00,38.4063301,-110.7920914,1371.5999756,0.0,171.9,0.9,0.0,0.0,903,130,0,0,861.43,2.38,45.27,0
11:26:17,0,0,0,0,0,0,0,0,0,0,0,515,0,0,0,0,0.0000000,0.0000000,0.0000000,0.0000000,10.00,38.4063301,-110.7920914,1371.5999756,0.0,233.1,0.9,0.0,0.0,903,130,0,0,861.50,2.26,45.40,0
11:26:18,0,0,0,0,0,0,0,0,0,0,0,514,0,0,0,0,0.0000000,0.0000000,0.0000000,0.0000000,10.00,38.4063301,-110.7920914,1371.5999756,0.0,265.3,0.9,0.0,0.0,903,127,0,0,861.37,2.21,45.19,0
11:26:19,0,0,0,0,0,0,0,0,0,0,0,515,0,0,0,0,0.0000000,0.0000000,0.0000000,0.0000000,10.00,38.4063301,-110.7920914,1371.5999756,0.0,267.5,0.9,0.0,0.0,903,126,0,0,861.45,2.23,45.32,0
11:26:20,0,0,0,0,0,0,0,0,0,0,0,515,0,0,0,0,0.0000000,0.0000000,0.0000000,0.0000000,10.00,38.4063301,-110.7920914,1371.5999756,0.0,241.4,0.9,0.0,0.0,903,126,0,0,861.43,2.20,45.41,0
11:26:21,0,0,0,0,0,0,0,0,0,0,0,515,0,0,0,0,0.0000000,0.0000000,0.0000000,0.0000000,10.00,38.4063301,-110.7920914,1371.5999756,0.0,192.6,0.9,0.0,0.0,903,131,0,0,861.46,2.14,45.44,0
11:26:22,0,0,0,0,0,0,0,0,0,0,0,515,0,0,0,0,0.0000000,0.0000000,0.0000000,0.0000000,10.00,38.4063301,-110.7920914,1371.5999756,0.0,200.0,0.9,0.0,0.0,903,132,0,0,861.45,2.14,45.44,0
11:26:23,0,0,0,0,0,0,0,0,0,0,0,515,0,0,0,0,0.0000000,0.0000000,0.0000000,0.0000000,10.00,38.4063301,-110.7920914,1371.5999756,0.0,139.7,0.9,0.0,0.0,903,132,0,0,861.46,2.12,45.39,0
11:26:24,0,0,0,0,0,0,0,0,0,0,0,514,0,0,0,0,0.0000000,0.0000000,0.0000000,0.0000000,10.00,38.4063301,-110.7920914,1371.5999756,0.0,60.7,0.9,0.0,0.0,903,133,0,0,861.43,2.14,45.43,0
11:26:25,0,0,0,0,0,0,0,0,0,0,0,515,0,0,0,0,0.0000000,0.0000000,0.0000000,0.0000000,10.00,38.4063301,-110.7920914,1371.5999756,0.0,80.0,0.9,0.0,0.0,903,130,0,0,861.39,2.15,45.41,0
11:26:26,0,0,0,0,0,0,0,0,0,0,0,515,0,0,0,0,0.0000000,0.0000000,0.0000000,0.0000000,10.00,38.4063301,-110.7920914,1371.5999756,0.0,64.3,0.9,0.0,0.0,903,132,0,0,861.43,2.14,45.59,0
11:26:27,0,0,0,0,0,0,0,0,0,0,0,515,0,0,0,0,0.0000000,0.0000000,0.0000000,0.0000000,10.00,38.4063301,-110.7920914,1371.5999756,0.0,22.0,0.9,0.0,0.0,903,127,0,0,861.43,2.05,45.64,0
11:26:28,0,0,0,0,0,0,0,0,0,0,0,515,0,0,0,0,0.0000000,0.0000000,0.0000000,0.0000000,10.00,38.4063301,-110.7920914,1371.5999756,0.0,23.8,0.9,0.0,0.0,903,129,0,0,861.43,2.01,45.64,0
11:26:29,0,0,0,0,0,0,0,0,0,0,0,515,0,0,0,0,0.0000000,0.0000000,0.0000000,0.0000000,10.00,38.4063301,-110.7920914,1371.5999756,0.0,352.4,0.9,0.0,0.0,902,128,0,0,861.46,2.03,45.79,0
11:26:30,0,0,0,0,0,0,0,0,0,0,0,516,0,0,0,0,0.0000000,0.0000000,0.0000000,0.0000000,10.00,38.4063301,-110.7920914,1371.5999756,0.0,286.7,0.9,0.0,0.0,903,131,0,0,861.46,2.24,45.85,0
11:26:31,0,0,0,0,0,0,0,0,0,0,0,515,0,0,0,0,0.0000000,0.0000000,0.0000000,0.0000000,10.00,38.4063301,-110.7920914,1371.5999756,0.0,280.9,0.9,0.0,0.0,903,129,0,0,861.39,2.59,45.95,0
11:26:32,0,0,0,0,0,0,0,0,0,0,0,515,0,0,0,0,0.0000000,0.0000000,0.0000000,0.0000000,10.00,38.4063301,-110.7920914,1371.5999756,0.0,116.5,0.9,0.0,0.0,903,128,0,0,861.22,2.61,46.03,0
11:26:33,0,0,0,0,0,0,0,0,0,0,0,515,0,0,0,0,0.0000000,0.0000000,0.0000000,0.0000000,10.00,38.4063301,-110.7920914,1371.5999756,0.0,321.5,0.9,0.0,0.0,903,141,0,0,861.36,1.69,46.03,0
11:26:34,0,0,0,0,0,0,0,0,0,0,0,515,0,0,0,0,0.0000000,0.0000000,0.0000000,0.0000000,10.00,38.4063301,-110.7920914,1371.5999756,0.0,244.8,0.9,0.0,0.0,903,142,0,0,861.33,1.91,46.12,0
11:26:35,0,0,0,0,0,0,0,0,0,0,0,515,0,0,0,0,0.0000000,0.0000000,0.0000000,0.0000000,10.00,38.4063301,-110.7920914,1371.5999756,0.0,172.5,0.9,0.0,0.0,903,142,0,0,861.34,2.37,46.18,0
11:26:36,0,0,0,0,0,0,0,0,0,0,0,515,0,0,0,0,0.0000000,0.0000000,0.0000000,0.0000000,10.00,38.4063301,-110.7920914,1371.5999756,0.0,147.5,0.9,0.0,0.0,903,142,0,0,861.31,2.00,46.20,0
11:26:37,0,0,0,0,0,0,0,0,0,0,0,515,0,0,0,0,0.0000000,0.0000000,0.0000000,0.0000000,10.00,38.4063301,-110.7920914,1371.5999756,0.0,94.4,0.9,0.0,0.0,903,140,0,0,861.40,2.40,46.16,0
11:26:38,0,0,0,0,0,0,0,0,0,0,0,515,0,0,0,0,0.0000000,0.0000000,0.0000000,0.0000000,9.00,38.4063301,-110.7920914,1371.5999756,0.0,85.3,0.9,0.0,0.0,903,138,0,0,861.47,2.66,46.07,0
11:26:39,0,0,0,0,0,0,0,0,0,0,0,515,0,0,0,0,0.0000000,0.0000000,0.0000000,0.0000000,9.00,38.4063301,-110.7920914,1371.5000000,0.0,180.9,0.9,0.0,0.0,903,137,0,0,861.38,2.82,46.08,0
11:26:40,0,0,0,0,0,0,0,0,0,0,0,515,0,0,0,0,0.0000000,0.0000000,0.0000000,0.0000000,9.00,38.4063301,-110.7920914,1371.5000000,0.0,23.8,0.9,0.0,0.0,903,142,0,0,861.86,2.37,46.21,0
11:26:41,0,0,0,0,0,0,0,0,0,0,0,515,0,0,0,0,0.0000000,0.0000000,0.0000000,0.0000000,9.00,38.4063301,-110.7920914,1371.5000000,0.0,13.8,0.9,0.0,0.0,903,138,0,0,861.84,2.12,46.23,0
11:26:42,0,0,0,0,0,0,0,0,0,0,0,515,0,0,0,0,0.0000000,0.0000000,0.0000000,0.0000000,9.00,38.4063301,-110.7920914,1371.5000000,0.0,106.3,0.9,0.0,0.0,903,137,0,0,861.89,2.12,46.28,0
11:26:43,0,0,0,0,0,0,0,0,0,0,0,515,0,0,0,0,0.0000000,0.0000000,0.0000000,0.0000000,10.00,38.4063301,-110.7920914,1371.5000000,0.0,122.6,0.9,0.0,0.0,903,138,0,0,861.87,2.12,46.44,0
11:26:44,0,0,0,0,0,0,0,0,0,0,0,515,0,0,0,0,0.0000000,0.0000000,0.0000000,0.0000000,9.00,38.4063301,-110.7920914,1371.5000000,0.0,107.3,0.9,0.0,0.0,904,136,0,0,861.87,2.09,46.53,0
11:26:45,0,0,0,0,0,0,0,0,0,0,0,515,0,0,0,0,0.0000000,0.0000000,0.0000000,0.0000000,9.00,38.4063301,-110.7920914,1371.5000000,0.0,248.0,0.9,0.0,0.0,903,136,0,0,861.86,2.01,46.64,0
11:26:46,0,0,0,0,0,0,0,0,0,0,0,515,0,0,0,0,0.0000000,0.0000000,0.0000000,0.0000000,8.00,38.4063301,-110.7920914,1371.5000000,0.0,6.6,1.0,0.0,0.0,903,135,0,0,861.86,2.00,46.73,0
11:26:47,0,0,0,0,0,0,0,0,0,0,0,515,0,0,0,0,0.0000000,0.0000000,0.0000000,0.0000000,9.00,38.4063301,-110.7920914,1371.0999756,0.0,0.8,0.9,0.0,0.0,903,136,0,0,861.86,1.97,46.60,0
11:26:48,0,0,0,0,0,0,0,0,0,0,0,515,0,0,0,0,0.0000000,0.0000000,0.0000000,0.0000000,9.00,38.4063301,-110.7920914,1370.6999512,0.0,268.4,0.9,0.0,0.0,903,135,0,0,861.87,2.00,46.54,0
11:26:49,0,0,0,0,0,0,0,0,0,0,0,515,0,0,0,0,0.0000000,0.0000000,0.0000000,0.0000000,9.00,38.4063301,-110.7920914,1370.4000244,0.0,354.3,0.9,0.0,0.0,903,132,0,0,861.84,1.98,46.67,0
11:26:50,0,0,0,0,0,0,0,0,0,0,0,515,0,0,0,0,0.0000000,0.0000000,0.0000000,0.0000000,9.00,38.4063301,-110.7920990,1370.0000000,0.0,302.8,0.9,0.0,0.0,903,135,0,0,861.86,2.00,46.78,0
11:26:51,0,0,0,0,0,0,0,0,0,0,0,515,0,0,0,0,0.0000000,0.0000000,0.0000000,0.0000000,9.00,38.4063301,-110.7920990,1369.5999756,0.0,283.5,0.9,0.0,0.0,903,132,0,0,861.86,1.98,46.89,0
11:26:52,0,0,0,0,0,0,0,0,0,0,0,515,0,0,0,0,0.0000000,0.0000000,0.0000000,0.0000000,9.00,38.4063301,-110.7920990,1369.3000488,0.0,294.5,0.9,0.0,0.0,903,132,0,0,861.86,1.91,46.95,0
11:26:53,0,0,0,0,0,0,0,0,0,0,0,515,0,0,0,0,0.0000000,0.0000000,0.0000000,0.0000000,9.00,38.4063301,-110.7920990,1369.0000000,0.0,225.4,0.9,0.0,0.0,903,139,0,0,861.90,1.86,47.01,0
11:26:54,0,0,0,0,0,0,0,0,0,0,0,515,0,0,0,0,0.0000000,0.0000000,0.0000000,0.0000000,9.00,38.4063301,-110.7920990,1368.5999756,0.0,272.3,0.9,0.0,0.0,903,133,0,0,861.91,1.83,47.09,0
11:26:55,0,0,0,0,0,0,0,0,0,0,0,515,0,0,0,0,0.0000000,0.0000000,0.0000000,0.0000000,9.00,38.4063339,-110.7920990,1368.3000488,0.0,309.1,0.9,0.0,0.0,902,131,0,0,861.90,1.85,47.11,0
11:26:56,0,0,0,0,0,0,0,0,0,0,0,515,0,0,0,0,0.0000000,0.0000000,0.0000000,0.0000000,9.00,38.4063301,-110.7920990,1368.0999756,0.0,309.6,0.9,0.0,0.0,903,136,0,0,861.84,1.74,46.74,0
11:26:57,0,0,0,0,0,0,0,0,0,0,0,515,0,0,0,0,0.0000000,0.0000000,0.0000000,0.0000000,8.00,38.4063301,-110.7920990,1367.8000488,0.0,310.9,1.0,0.0,0.0,903,132,0,0,861.84,1.79,46.64,0
11:26:58,0,0,0,0,0,0,0,0,0,0,0,515,0,0,0,0,0.0000000,0.0000000,0.0000000,0.0000000,9.00,38.4063339,-110.7920990,1367.9000244,0.0,300.9,0.9,0.0,0.0,903,137,0,0,861.84,1.80,46.63,0
11:26:59,0,0,0,0,0,0,0,0,0,0,0,514,0,0,0,0,0.0000000,0.0000000,0.0000000,0.0000000,8.00,38.4063377,-110.7920914,1367.8000488,0.0,282.5,1.0,0.0,0.0,903,139,0,0,861.84,1.83,46.75,0
11:27:00,0,0,0,0,0,0,0,0,0,0,0,515,0,0,0,0,0.0000000,0.0000000,0.0000000,0.0000000,8.00,38.4063377,-110.7920914,1367.8000488,0.0,320.8,1.0,0.0,0.0,903,132,0,0,861.86,1.79,46.81,0
11:27:01,0,0,0,0,0,0,0,0,0,0,0,515,0,0,0,0,0.0000000,0.0000000,0.0000000,0.0000000,8.00,38.4063377,-110.7920914,1367.8000488,0.1,337.6,1.0,0.0,0.0,903,137,0,0,861.90,1.74,46.97,0
11:27:02,0,0,0,0,0,0,0,0,0,0,0,515,0,0,0,0,0.0000000,0.0000000,0.0000000,0.0000000,8.00,38.4063377,-110.7920914,1367.8000488,0.0,32.6,1.0,0.0,0.0,903,132,0,0,861.85,1.69,46.85,0
11:27:03,0,0,0,0,0,0,0,0,0,0,0,515,0,0,0,0,0.0000000,0.0000000,0.0000000,0.0000000,8.00,38.4063377,-110.7920914,1367.8000488,0.0,347.4,1.0,0.0,0.0,902,134,0,0,861.91,1.71,46.76,0
11:27:04,0,0,0,0,0,0,0,0,0,0,0,515,0,0,0,0,0.0000000,0.0000000,0.0000000,0.0000000,8.00,38.4063377,-110.7920914,1367.8000488,0.0,92.9,1.0,0.0,0.0,903,133,0,0,861.87,1.76,46.40,0
11:27:05,0,0,0,0,0,0,0,0,0,0,0,515,0,0,0,0,0.0000000,0.0000000,0.0000000,0.0000000,8.00,38.4063339,-110.7920914,1367.6999512,0.0,113.6,1.0,0.0,0.0,903,132,0,0,861.85,1.77,46.36,0
11:27:06,0,0,0,0,0,0,0,0,0,0,0,513,0,0,0,0,0.0000000,0.0000000,0.0000000,0.0000000,9.00,38.4063301,-110.7920914,1368.1999512,0.0,176.8,0.9,0.0,0.0,902,136,0,0,861.88,1.77,46.37,0
11:27:07,0,0,0,0,0,0,0,0,0,0,0,515,0,0,0,0,0.0000000,0.0000000,0.0000000,0.0000000,8.00,38.4063263,-110.7920914,1368.8000488,0.0,153.5,1.0,0.0,0.0,903,133,0,0,861.84,1.79,46.40,0
11:27:08,0,0,0,0,0,0,0,0,0,0,0,514,0,0,0,0,0.0000000,0.0000000,0.0000000,0.0000000,8.00,38.4063263,-110.7920914,1369.3000488,0.0,118.1,1.0,0.0,0.0,903,134,0,0,861.87,1.74,46.44,0
11:27:09,0,0,0,0,0,0,0,0,0,0,0,515,0,0,0,0,0.0000000,0.0000000,0.0000000,0.0000000,8.00,38.4063263,-110.7920914,1369.3000488,0.0,273.0,1.0,0.0,0.0,902,135,0,0,861.86,1.71,46.36,0
11:27:10,0,0,0,0,0,0,0,0,0,0,0,514,0,0,0,0,0.0000000,0.0000000,0.0000000,0.0000000,8.00,38.4063263,-110.7920990,1369.3000488,0.0,269.0,1.0,0.0,0.0,903,131,0,0,861.89,1.76,46.32,0
11:27:11,0,0,0,0,0,0,0,0,0,0,0,515,0,0,0,0,0.0000000,0.0000000,0.0000000,0.0000000,8.00,38.4063263,-110.7920990,1369.3000488,0.0,250.4,1.0,0.0,0.0,903,133,0,0,861.84,1.77,46.44,0
11:27:12,0,0,0,0,0,0,0,0,0,0,0,514,0,0,0,0,0.0000000,0.0000000,0.0000000,0.0000000,8.00,38.4063263,-110.7920990,1369.3000488,0.0,205.3,1.0,0.0,0.0,903,130,0,0,861.84,1.76,46.56,0
11:27:13,0,0,0,0,0,0,0,0,0,0,0,513,0,0,0,0,0.0000000,0.0000000,0.0000000,0.0000000,9.00,38.4063263,-110.7920990,1369.3000488,0.0,204.5,0.9,0.0,0.0,903,129,0,0,861.81,1.77,46.69,0
11:27:14,0,0,0,0,0,0,0,0,0,0,0,517,0,0,0,0,0.0000000,0.0000000,0.0000000,0.0000000,9.00,38.4063263,-110.7920990,1369.3000488,0.0,250.3,0.9,0.0,0.0,905,130,0,0,861.89,1.72,46.82,0
11:27:15,0,0,0,0,0,0,0,0,0,0,0,516,0,0,0,0,0.0000000,0.0000000,0.0000000,0.0000000,8.00,38.4063225,-110.7920914,1369.0999756,0.0,194.3,1.0,0.0,0.0,903,130,0,0,861.89,1.66,46.92,0
11:27:16,0,0,0,0,0,0,0,0,0,0,0,515,0,0,0,0,0.0000000,0.0000000,0.0000000,0.0000000,9.00,38.4063225,-110.7920914,1369.0000000,0.0,143.5,0.9,0.0,0.0,903,127,0,0,861.84,1.68,46.96,0
11:27:17,0,0,0,0,0,0,0,0,0,0,0,516,0,0,0,0,0.0000000,0.0000000,0.0000000,0.0000000,9.00,38.4063225,-110.7920914,1369.4000244,0.0,329.0,0.9,0.0,0.0,903,128,0,0,861.86,1.68,47.11,0
11:27:18,0,0,0,0,0,0,0,0,0,0,0,515,0,0,0,0,0.0000000,0.0000000,0.0000000,0.0000000,9.00,38.4063225,-110.7920990,1369.5999756,0.0,334.0,0.9,0.0,0.0,905,132,0,0,861.85,1.63,47.24,0
11:27:19,0,0,0,0,0,0,0,0,0,0,0,512,0,0,0,0,0.0000000,0.0000000,0.0000000,0.0000000,8.00,38.4063263,-110.7920990,1369.6999512,0.0,325.2,1.0,0.0,0.0,903,133,0,0,861.84,1.57,47.23,0
11:27:20,0,0,0,0,0,0,0,0,0,0,0,514,0,0,0,0,0.0000000,0.0000000,0.0000000,0.0000000,9.00,38.4063263,-110.7920990,1369.6999512,0.0,36.2,0.9,0.0,0.0,903,132,0,0,861.86,1.57,47.05,0
11:27:21,0,0,0,0,0,0,0,0,0,0,0,516,0,0,0,0,0.0000000,0.0000000,0.0000000,0.0000000,9.00,38.4063263,-110.7920990,1369.6999512,0.0,61.3,0.9,0.0,0.0,903,127,0,0,861.84,1.63,47.06,0
11:27:22,0,0,0,0,0,0,0,0,0,0,0,514,0,0,0,0,0.0000000,0.0000000,0.0000000,0.0000000,8.00,38.4063263,-110.7920990,1369.6999512,0.0,309.1,1.0,0.0,0.0,903,131,0,0,861.86,1.60,47.04,0
11:27:23,0,0,0,0,0,0,0,0,0,0,0,515,0,0,0,0,0.0000000,0.0000000,0.0000000,0.0000000,9.00,38.4063263,-110.7920990,1369.6999512,0.0,266.0,0.9,0.0,0.0,903,128,0,0,861.82,1.62,47.04,0
11:27:24,0,0,0,0,0,0,0,0,0,0,0,515,0,0,0,0,0.0000000,0.0000000,0.0000000,0.0000000,9.00,38.4063263,-110.7920990,1369.6999512,0.0,238.6,0.9,0.0,0.0,903,125,0,0,861.89,1.63,47.02,0
11:27:25,0,0,0,0,0,0,0,0,0,0,0,515,0,0,0,0,0.0000000,0.0000000,0.0000000,0.0000000,9.00,38.4063263,-110.7920990,1369.6999512,0.0,266.7,0.9,0.0,0.0,903,127,0,0,861.91,1.62,46.80,0
11:27:26,0,0,0,0,0,0,0,0,0,0,0,515,0,0,0,0,0.0000000,0.0000000,0.0000000,0.0000000,9.00,38.4063263,-110.7920990,1369.6999512,0.0,205.6,0.9,0.0,0.0,903,130,0,0,861.79,1.71,46.66,0
11:27:27,0,0,0,0,0,0,0,0,0,0,0,515,0,0,0,0,0.0000000,0.0000000,0.0000000,0.0000000,9.00,38.4063263,-110.7920990,1369.6999512,0.0,172.2,0.9,0.0,0.0,903,129,0,0,861.84,1.72,46.68,0
11:27:28,0,0,0,0,0,0,0,0,0,0,0,514,0,0,0,0,0.0000000,0.0000000,0.0000000,0.0000000,9.00,38.4063263,-110.7920990,1369.6999512,0.0,148.0,0.9,0.0,0.0,903,127,0,0,861.85,1.74,46.62,0
11:27:29,0,0,0,0,0,0,0,0,0,0,0,515,0,0,0,0,0.0000000,0.0000000,0.0000000,0.0000000,8.00,38.4063263,-110.7920990,1369.6999512,0.0,116.6,1.0,0.0,0.0,902,133,0,0,861.86,1.76,46.71,0
11:27:30,0,0,0,0,0,0,0,0,0,0,0,515,0,0,0,0,0.0000000,0.0000000,0.0000000,0.0000000,9.00,38.4063263,-110.7920990,1369.6999512,0.0,21.2,0.9,0.0,0.0,903,132,0,0,861.83,1.80,46.61,0
11:27:31,0,0,0,0,0,0,0,0,0,0,0,514,0,0,0,0,0.0000000,0.0000000,0.0000000,0.0000000,8.00,38.4063263,-110.7920990,1369.6999512,0.0,50.8,1.0,0.0,0.0,902,130,0,0,861.82,1.80,46.62,0
11:27:32,0,0,0,0,0,0,0,0,0,0,0,515,0,0,0,0,0.0000000,0.0000000,0.0000000,0.0000000,9.00,38.4063263,-110.7920990,1369.6999512,0.0,49.5,0.9,0.0,0.0,903,129,0,0,861.82,1.82,46.56,0
11:27:33,0,0,0,0,0,0,0,0,0,0,0,515,0,0,0,0,0.0000000,0.0000000,0.0000000,0.0000000,8.00,38.4063263,-110.7920990,1369.6999512,0.0,0.0,1.0,0.0,0.0,902,127,0,0,861.82,1.79,46.62,0
11:27:34,0,0,0,0,0,0,0,0,0,0,0,514,0,0,0,0,0.0000000,0.0000000,0.0000000,0.0000000,8.00,38.4063263,-110.7920990,1369.6999512,0.0,328.2,1.0,0.0,0.0,903,130,0,0,861.84,1.79,46.59,0
11:27:35,0,0,0,0,0,0,0,0,0,0,0,515,0,0,0,0,0.0000000,0.0000000,0.0000000,0.0000000,9.00,38.4063225,-110.7920990,1369.5000000,0.0,240.1,0.9,0.0,0.0,903,127,0,0,861.78,1.79,46.76,0
11:27:36,0,0,0,0,0,0,0,0,0,0,0,515,0,0,0,0,0.0000000,0.0000000,0.0000000,0.0000000,9.00,38.4063225,-110.7920914,1369.3000488,0.0,112.4,0.9,0.0,0.0,903,127,0,0,861.85,1.76,46.92,0
11:27:37,0,0,0,0,0,0,0,0,0,0,0,515,0,0,0,0,0.0000000,0.0000000,0.0000000,0.0000000,9.00,38.4063225,-110.7920914,1369.0000000,0.0,236.1,0.9,0.0,0.0,902,126,0,0,861.82,1.74,46.99,0
11:27:38,0,0,0,0,0,0,0,0,0,0,0,515,0,0,0,0,0.0000000,0.0000000,0.0000000,0.0000000,9.00,38.4063187,-110.7920914,1368.8000488,0.0,208.7,0.9,0.0,0.0,902,132,0,0,861.81,1.74,47.00,0
11:27:39,0,0,0,0,0,0,0,0,0,0,0,515,0,0,0,0,0.0000000,0.0000000,0.0000000,0.0000000,9.00,38.4063187,-110.7920914,1368.6999512,0.0,151.1,0.9,0.0,0.0,903,129,0,0,861.82,1.66,47.06,0
11:27:40,0,0,0,0,0,0,0,0,0,0,0,514,0,0,0,0,0.0000000,0.0000000,0.0000000,0.0000000,9.00,38.4063187,-110.7920914,1368.5000000,0.0,177.5,0.9,0.0,0.0,903,126,0,0,861.78,1.56,47.13,0
11:27:41,0,0,0,0,0,0,0,0,0,0,0,514,0,0,0,0,0.0000000,0.0000000,0.0000000,0.0000000,9.00,38.4063187,-110.7920914,1368.4000244,0.0,70.9,0.9,0.0,0.0,903,130,0,0,861.85,1.54,47.06,0
11:27:42,0,0,0,0,0,0,0,0,0,0,0,515,0,0,0,0,0.0000000,0.0000000,0.0000000,0.0000000,9.00,38.4063148,-110.7920914,1368.3000488,0.0,45.6,0.9,0.0,0.0,903,129,0,0,861.81,1.62,47.11,0
11:27:44,0,0,0,0,0,0,0,0,0,0,0,515,0,0,0,0,0.0000000,0.0000000,0.0000000,0.0000000,9.00,38.4063148,-110.7920914,1368.1999512,0.0,66.7,0.9,0.0,0.0,902,131,0,0,861.80,1.62,47.31,0
11:27:45,0,0,0,0,0,0,0,0,0,0,0,515,0,0,0,0,0.0000000,0.0000000,0.0000000,0.0000000,9.00,38.4063148,-110.7920914,1368.0999756,0.0,54.0,0.9,0.0,0.0,903,129,0,0,861.84,1.57,47.43,0
11:27:46,0,0,0,0,0,0,0,0,0,0,0,515,0,0,0,0,0.0000000,0.0000000,0.0000000,0.0000000,9.00,38.4063148,-110.7920914,1368.0000000,0.0,0.0,0.9,0.0,0.0,903,130,0,0,861.84,1.56,47.09,0
11:27:47,0,0,0,0,0,0,0,0,0,0,0,515,0,0,0,0,0.0000000,0.0000000,0.0000000,0.0000000,9.00,38.4063110,-110.7920914,1368.0000000,0.0,305.6,0.9,0.0,0.0,903,131,0,0,861.78,1.57,46.90,0
11:27:48,0,0,0,0,0,0,0,0,0,0,0,515,0,0,0,0,0.0000000,0.0000000,0.0000000,0.0000000,9.00,38.4063110,-110.7920914,1367.8000488,0.0,201.5,0.9,0.0,0.0,903,129,0,0,861.82,1.57,46.95,0
11:27:49,0,0,0,0,0,0,0,0,0,0,0,515,0,0,0,0,0.0000000,0.0000000,0.0000000,0.0000000,9.00,38.4063110,-110.7920914,1367.5999756,0.0,219.7,0.9,0.0,0.0,903,130,0,0,861.81,1.57,46.97,0
11:27:50,0,0,0,0,0,0,0,0,0,0,0,515,0,0,0,0,0.0000000,0.0000000,0.0000000,0.0000000,9.00,38.4063110,-110.7920914,1367.5000000,0.0,174.7,0.9,0.0,0.0,902,132,0,0,861.82,1.63,46.84,0
11:27:51,0,0,0,0,0,0,0,0,0,0,0,515,0,0,0,0,0.0000000,0.0000000,0.0000000,0.0000000,9.00,38.4063110,-110.7920914,1367.4000244,0.0,219.5,0.9,0.0,0.0,903,127,0,0,861.80,1.59,46.85,0
11:27:52,0,0,0,0,0,0,0,0,0,0,0,515,0,0,0,0,0.0000000,0.0000000,0.0000000,0.0000000,9.00,38.4063110,-110.7920914,1367.1999512,0.0,249.9,0.9,0.0,0.0,903,128,0,0,861.77,1.57,46.92,0
11:27:53,0,0,0,0,0,0,0,0,0,0,0,515,0,0,0,0,0.0000000,0.0000000,0.0000000,0.0000000,9.00,38.4063110,-110.7920914,1367.0999756,0.0,128.7,0.9,0.0,0.0,903,127,0,0,861.84,1.60,47.05,0
11:27:54,0,0,0,0,0,0,0,0,0,0,0,515,0,0,0,0,0.0000000,0.0000000,0.0000000,0.0000000,9.00,38.4063110,-110.7920914,1367.0000000,0.0,44.3,0.9,0.0,0.0,903,128,0,0,861.81,1.65,47.01,0
11:27:55,0,0,0,0,0,0,0,0,0,0,0,515,0,0,0,0,0.0000000,0.0000000,0.0000000,0.0000000,9.00,38.4063110,-110.7920914,1367.0000000,0.0,10.2,0.9,0.0,0.0,903,126,0,0,861.77,1.66,47.11,0
11:27:56,0,0,0,0,0,0,0,0,0,0,0,515,0,0,0,0,0.0000000,0.0000000,0.0000000,0.0000000,9.00,38.4063148,-110.7920914,1366.8000488,0.0,23.1,0.9,0.0,0.0,903,131,0,0,861.78,1.65,47.32,0
11:27:57,0,0,0,0,0,0,0,0,0,0,0,515,0,0,0,0,0.0000000,0.0000000,0.0000000,0.0000000,9.00,38.4063148,-110.7920914,1366.8000488,0.0,99.9,0.9,0.0,0.0,903,128,0,0,861.78,1.66,47.48,0
11:27:58,0,0,0,0,0,0,0,0,0,0,0,515,0,0,0,0,0.0000000,0.0000000,0.0000000,0.0000000,9.00,38.4063187,-110.7920914,1366.5999756,0.0,25.7,0.9,0.0,0.0,903,127,0,0,861.88,1.56,47.34,0
11:27:59,0,0,0,0,0,0,0,0,0,0,0,515,0,0,0,0,0.0000000,0.0000000,0.0000000,0.0000000,9.00,38.4063187,-110.7920914,1366.5000000,0.0,316.3,0.9,0.0,0.0,903,129,0,0,861.84,1.57,47.09,0
11:28:00,0,0,0,0,0,0,0,0,0,0,0,515,0,0,0,0,0.0000000,0.0000000,0.0000000,0.0000000,9.00,38.4063225,-110.7920914,1366.3000488,0.0,243.1,0.9,0.0,0.0,902,131,0,0,861.83,1.63,46.98,0
11:28:01,0,0,0,0,0,0,0,0,0,0,0,515,0,0,0,0,0.0000000,0.0000000,0.0000000,0.0000000,9.00,38.4063263,-110.7920914,1366.1999512,0.0,232.6,0.9,0.0,0.0,903,129,0,0,861.85,1.68,46.88,0
11:28:02,0,0,0,0,0,0,0,0,0,0,0,515,0,0,0,0,0.0000000,0.0000000,0.0000000,0.0000000,9.00,38.4063263,-110.7920914,1365.9000244,0.0,238.8,0.9,0.0,0.0,903,129,0,0,861.75,1.69,47.08,0
11:28:03,0,0,0,0,0,0,0,0,0,0,0,515,0,0,0,0,0.0000000,0.0000000,0.0000000,0.0000000,9.00,38.4063263,-110.7920914,1365.6999512,0.0,249.9,0.9,0.0,0.0,903,131,0,0,861.84,1.68,47.26,0
11:28:04,0,0,0,0,0,0,0,0,0,0,0,515,0,0,0,0,0.0000000,0.0000000,0.0000000,0.0000000,8.00,38.4063339,-110.7920914,1365.5999756,0.0,234.2,1.0,0.0,0.0,903,128,0,0,861.86,1.63,47.35,0
11:28:05,0,0,0,0,0,0,0,0,0,0,0,514,0,0,0,0,0.0000000,0.0000000,0.0000000,0.0000000,8.00,38.4063377,-110.7920914,1365.5999756,0.0,104.9,1.0,0.0,0.0,903,128,0,0,861.86,1.59,47.34,0
11:28:06,0,0,0,0,0,0,0,0,0,0,0,516,0,0,0,0,0.0000000,0.0000000,0.0000000,0.0000000,8.00,38.4063377,-110.7920914,1365.6999512,0.0,251.0,1.0,0.0,0.0,903,129,0,0,861.82,1.59,47.48,0
11:28:07,0,0,0,0,0,0,0,0,0,0,0,515,0,0,0,0,0.0000000,0.0000000,0.0000000,0.0000000,8.00,38.4063377,-110.7920914,1365.6999512,0.0,77.5,1.0,0.0,0.0,903,132,0,0,861.80,1.59,47.55,0
11:28:08,0,0,0,0,0,0,0,0,0,0,0,515,0,0,0,0,0.0000000,0.0000000,0.0000000,0.0000000,8.00,38.4063377,-110.7920914,1365.6999512,0.0,346.4,1.0,0.0,0.0,903,130,0,0,861.82,1.53,47.51,0
11:28:09,0,0,0,0,0,0,0,0,0,0,0,514,0,0,0,0,0.0000000,0.0000000,0.0000000,0.0000000,8.00,38.4063377,-110.7920914,1365.6999512,0.0,55.7,1.0,0.0,0.0,903,127,0,0,861.83,1.56,47.64,0
11:28:10,0,0,0,0,0,0,0,0,0,0,0,515,0,0,0,0,0.0000000,0.0000000,0.0000000,0.0000000,8.00,38.4063377,-110.7920914,1365.6999512,0.0,46.3,1.0,0.0,0.0,902,126,0,0,861.80,1.54,47.78,0
11:28:11,0,0,0,0,0,0,0,0,0,0,0,514,0,0,0,0,0.0000000,0.0000000,0.0000000,0.0000000,8.00,38.4063377,-110.7920914,1365.6999512,0.0,305.0,1.0,0.0,0.0,903,133,0,0,861.82,1.48,47.92,0
11:28:12,0,0,0,0,0,0,0,0,0,0,0,514,0,0,0,0,0.0000000,0.0000000,0.0000000,0.0000000,8.00,38.4063377,-110.7920914,1365.6999512,0.0,190.7,1.0,0.0,0.0,903,135,0,0,861.84,1.47,48.00,0
11:28:13,0,0,0,0,0,0,0,0,0,0,0,515,0,0,0,0,0.0000000,0.0000000,0.0000000,0.0000000,8.00,38.4063377,-110.7920914,1365.6999512,0.0,229.3,1.0,0.0,0.0,903,131,0,0,861.83,1.45,48.08,0
11:28:14,0,0,0,0,0,0,0,0,0,0,0,515,0,0,0,0,0.0000000,0.0000000,0.0000000,0.0000000,8.00,38.4063377,-110.7920914,1365.6999512,0.0,327.9,1.0,0.0,0.0,903,133,0,0,861.83,1.36,48.21,0
11:28:15,0,0,0,0,0,0,0,0,0,0,0,515,0,0,0,0,0.0000000,0.0000000,0.0000000,0.0000000,8.00,38.4063377,-110.7920914,1365.6999512,0.0,216.1,1.0,0.0,0.0,902,131,0,0,861.81,1.39,48.30,0
11:28:16,0,0,0,0,0,0,0,0,0,0,0,515,0,0,0,0,0.0000000,0.0000000,0.0000000,0.0000000,8.00,38.4063377,-110.7920914,1365.6999512,0.0,207.4,1.0,0.0,0.0,902,132,0,0,861.87,1.33,48.34,0
11:28:17,0,0,0,0,0,0,0,0,0,0,0,515,0,0,0,0,0.0000000,0.0000000,0.0000000,0.0000000,8.00,38.4063377,-110.7920914,1365.6999512,0.0,140.3,1.0,0.0,0.0,903,132,0,0,861.87,1.28,48.22,0
11:28:18,0,0,0,0,0,0,0,0,0,0,0,514,0,0,0,0,0.0000000,0.0000000,0.0000000,0.0000000,8.00,38.4063377,-110.7920914,1365.6999512,0.0,85.7,1.0,0.0,0.0,902,132,0,0,861.86,1.28,48.15,0
11:28:19,0,0,0,0,0,0,0,0,0,0,0,515,0,0,0,0,0.0000000,0.0000000,0.0000000,0.0000000,8.00,38.4063377,-110.7920914,1365.6999512,0.0,97.9,1.0,0.0,0.0,902,131,0,0,861.91,1.30,48.20,0
11:28:20,0,0,0,0,0,0,0,0,0,0,0,515,0,0,0,0,0.0000000,0.0000000,0.0000000,0.0000000,8.00,38.4063377,-110.7920914,1365.6999512,0.0,91.2,1.0,0.0,0.0,903,130,0,0,861.86,1.31,48.27,0
11:28:21,0,0,0,0,0,0,0,0,0,0,0,515,0,0,0,0,0.0000000,0.0000000,0.0000000,0.0000000,8.00,38.4063377,-110.7920914,1365.6999512,0.0,75.4,1.0,0.0,0.0,903,128,0,0,861.84,1.33,48.41,0
11:28:22,0,0,0,0,0,0,0,0,0,0,0,515,0,0,0,0,0.0000000,0.0000000,0.0000000,0.0000000,8.00,38.4063377,-110.7920914,1365.6999512,0.0,97.7,1.0,0.0,0.0,903,122,0,0,861.84,1.33,48.55,0
11:28:23,0,0,0,0,0,0,0,0,0,0,0,515,0,0,0,0,0.0000000,0.0000000,0.0000000,0.0000000,8.00,38.4063377,-110.7920914,1365.6999512,0.0,336.1,1.0,0.0,0.0,903,130,0,0,861.87,1.33,48.65,0
11:28:24,0,0,0,0,0,0,0,0,0,0,0,515,0,0,0,0,0.0000000,0.0000000,0.0000000,0.0000000,7.00,38.4063377,-110.7920914,1365.6999512,0.0,265.6,1.1,0.0,0.0,903,129,0,0,861.82,1.34,48.74,0
11:28:25,0,0,0,0,0,0,0,0,0,0,0,515,0,0,0,0,0.0000000,0.0000000,0.0000000,0.0000000,8.00,38.4063377,-110.7920914,1365.6999512,0.0,240.6,1.0,0.0,0.0,902,130,0,0,861.85,1.27,48.83,0
11:28:26,0,0,0,0,0,0,0,0,0,0,0,515,0,0,0,0,0.0000000,0.0000000,0.0000000,0.0000000,7.00,38.4063377,-110.7920914,1365.6999512,0.0,253.1,1.1,0.0,0.0,903,133,0,0,861.86,1.25,48.85,0
11:28:27,0,0,0,0,0,0,0,0,0,0,0,514,0,0,0,0,0.0000000,0.0000000,0.0000000,0.0000000,7.00,38.4063377,-110.7920914,1365.6999512,0.0,253.3,1.1,0.0,0.0,903,130,0,0,861.90,1.22,48.91,0
11:28:28,0,0,0,0,0,0,0,0,0,0,0,515,0,0,0,0,0.0000000,0.0000000,0.0000000,0.0000000,7.00,38.4063377,-110.7920761,1365.5999756,0.0,246.5,1.1,0.0,0.0,903,128,0,0,861.86,1.18,48.76,0
11:28:29,0,0,0,0,0,0,0,0,0,0,0,515,0,0,0,0,0.0000000,0.0000000,0.0000000,0.0000000,7.00,38.4063377,-110.7920761,1365.5000000,0.0,226.5,1.1,0.0,0.0,903,129,0,0,861.83,1.27,48.83,0
11:28:30,0,0,0,0,0,0,0,0,0,0,0,514,0,0,0,0,0.0000000,0.0000000,0.0000000,0.0000000,9.00,38.4063377,-110.7920761,1365.3000488,0.0,0.0,0.9,0.0,0.0,902,131,0,0,861.80,1.24,48.91,0
11:28:31,0,0,0,0,0,0,0,0,0,0,0,515,0,0,0,0,0.0000000,0.0000000,0.0000000,0.0000000,8.00,38.4063377,-110.7920761,1365.3000488,0.0,0.0,1.0,0.0,0.0,903,132,0,0,861.85,1.18,48.87,0
11:28:32,0,0,0,0,0,0,0,0,0,0,0,515,0,0,0,0,0.0000000,0.0000000,0.0000000,0.0000000,8.00,38.4063377,-110.7920761,1365.3000488,0.0,12.6,1.0,0.0,0.0,902,129,0,0,861.84,1.19,49.02,0
11:28:33,0,0,0,0,0,0,0,0,0,0,0,515,0,0,0,0,0.0000000,0.0000000,0.0000000,0.0000000,8.00,38.4063377,-110.7920761,1365.1999512,0.0,10.2,1.0,0.0,0.0,902,128,0,0,861.84,1.19,49.13,0
11:28:34,0,0,0,0,0,0,0,0,0,0,0,515,0,0,0,0,0.0000000,0.0000000,0.0000000,0.0000000,8.00,38.4063377,-110.7920761,1365.1999512,0.0,131.4,1.0,0.0,0.0,902,132,0,0,861.80,1.16,49.24,0
11:28:35,0,0,0,0,0,0,0,0,0,0,0,515,0,0,0,0,0.0000000,0.0000000,0.0000000,0.0000000,9.00,38.4063377,-110.7920761,1365.1999512,0.0,117.1,0.9,0.0,0.0,902,130,0,0,861.82,1.16,49.24,0
11:28:36,0,0,0,0,0,0,0,0,0,0,0,515,0,0,0,0,0.0000000,0.0000000,0.0000000,0.0000000,9.00,38.4063377,-110.7920761,1365.1999512,0.0,183.9,0.9,0.0,0.0,903,124,0,0,861.90,1.14,49.29,0
11:28:37,0,0,0,0,0,0,0,0,0,0,0,515,0,0,0,0,0.0000000,0.0000000,0.0000000,0.0000000,9.00,38.4063377,-110.7920761,1365.1999512,0.0,182.8,0.9,0.0,0.0,903,130,0,0,861.82,1.10,49.25,0
11:28:38,0,0,0,0,0,0,0,0,0,0,0,514,0,0,0,0,0.0000000,0.0000000,0.0000000,0.0000000,8.00,38.4063377,-110.7920761,1365.1999512,0.0,159.5,1.0,0.0,0.0,902,127,0,0,861.85,1.02,49.16,0
11:28:39,0,0,0,0,0,0,0,0,0,0,0,515,0,0,0,0,0.0000000,0.0000000,0.0000000,0.0000000,8.00,38.4063377,-110.7920761,1365.1999512,0.0,184.1,1.0,0.0,0.0,903,131,0,0,861.78,1.08,49.09,0
11:28:40,0,0,0,0,0,0,0,0,0,0,0,515,0,0,0,0,0.0000000,0.0000000,0.0000000,0.0000000,8.00,38.4063377,-110.7920761,1365.1999512,0.0,177.3,1.0,0.0,0.0,903,129,0,0,861.83,1.10,49.09,0
11:28:41,0,0,0,0,0,0,0,0,0,0,0,514,0,0,0,0,0.0000000,0.0000000,0.0000000,0.0000000,8.00,38.4063377,-110.7920761,1365.1999512,0.0,40.5,1.0,0.0,0.0,902,129,0,0,861.83,1.13,49.25,0
11:28:42,0,0,0,0,0,0,0,0,0,0,0,514,0,0,0,0,0.0000000,0.0000000,0.0000000,0.0000000,8.00,38.4063377,-110.7920761,1365.1999512,0.0,38.5,1.0,0.0,0.0,903,130,0,0,861.85,1.16,49.40,0
11:28:43,0,0,0,0,0,0,0,0,0,0,0,515,0,0,0,0,0.0000000,0.0000000,0.0000000,0.0000000,8.00,38.4063377,-110.7920761,1365.3000488,0.0,357.8,1.0,0.0,0.0,902,130,0,0,861.84,1.16,49.53,0
11:28:44,0,0,0,0,0,0,0,0,0,0,0,516,0,0,0,0,0.0000000,0.0000000,0.0000000,0.0000000,8.00,38.4063377,-110.7920761,1365.3000488,0.0,329.0,1.0,0.0,0.0,903,129,0,0,861.87,1.08,49.61,0
11:28:45,0,0,0,0,0,0,0,0,0,0,0,514,0,0,0,0,0.0000000,0.0000000,0.0000000,0.0000000,8.00,38.4063377,-110.7920761,1365.3000488,0.0,333.3,1.0,0.0,0.0,903,128,0,0,861.88,1.05,49.65,0
11:28:46,0,0,0,0,0,0,0,0,0,0,0,515,0,0,0,0,0.0000000,0.0000000,0.0000000,0.0000000,8.00,38.4063377,-110.7920761,1365.3000488,0.0,191.0,1.0,0.0,0.0,903,128,0,0,861.82,1.05,49.75,0
11:28:47,0,0,0,0,0,0,0,0,0,0,0,515,0,0,0,0,0.0000000,0.0000000,0.0000000,0.0000000,8.00,38.4063377,-110.7920761,1365.3000488,0.0,231.7,1.0,0.0,0.0,902,129,0,0,861.85,0.96,49.82,0
11:28:48,0,0,0,0,0,0,0,0,0,0,0,514,0,0,0,0,0.0000000,0.0000000,0.0000000,0.0000000,8.00,38.4063377,-110.7920761,1365.1999512,0.0,240.7,1.0,0.0,0.0,903,133,0,0,861.84,0.96,49.84,0
11:28:49,0,0,0,0,0,0,0,0,0,0,0,514,0,0,0,0,0.0000000,0.0000000,0.0000000,0.0000000,8.00,38.4063339,-110.7920761,1365.0999756,0.0,239.1,1.0,0.0,0.0,902,129,0,0,861.85,0.93,49.89,0
11:28:50,0,0,0,0,0,0,0,0,0,0,0,515,0,0,0,0,0.0000000,0.0000000,0.0000000,0.0000000,8.00,38.4063377,-110.7920761,1365.0999756,0.0,215.0,1.0,0.0,0.0,902,133,0,0,861.87,0.95,49.98,0
11:28:51,0,0,0,0,0,0,0,0,0,0,0,514,0,0,0,0,0.0000000,0.0000000,0.0000000,0.0000000,8.00,38.4063339,-110.7920761,1365.0000000,0.0,224.1,1.0,0.0,0.0,903,130,0,0,861.86,0.99,50.04,0
11:28:52,0,0,0,0,0,0,0,0,0,0,0,515,0,0,0,0,0.0000000,0.0000000,0.0000000,0.0000000,9.00,38.4063339,-110.7920761,1365.0000000,0.0,222.2,0.9,0.0,0.0,903,127,0,0,861.86,0.98,50.11,0
11:28:53,0,0,0,0,0,0,0,0,0,0,0,516,0,0,0,0,0.0000000,0.0000000,0.0000000,0.0000000,9.00,38.4063339,-110.7920761,1364.9000244,0.0,8.9,0.9,0.0,0.0,903,126,0,0,861.83,0.93,50.18,0
11:28:54,0,0,0,0,0,0,0,0,0,0,0,515,0,0,0,0,0.0000000,0.0000000,0.0000000,0.0000000,8.00,38.4063339,-110.7920761,1364.8000488,0.0,4.7,1.0,0.0,0.0,903,127,0,0,861.87,0.90,50.24,0
11:28:55,0,0,0,0,0,0,0,0,0,0,0,515,0,0,0,0,0.0000000,0.0000000,0.0000000,0.0000000,9.00,38.4063339,-110.7920761,1364.6999512,0.0,60.5,0.9,0.0,0.0,903,129,0,0,861.85,0.87,50.17,0
11:28:56,0,0,0,0,0,0,0,0,0,0,0,515,0,0,0,0,0.0000000,0.0000000,0.0000000,0.0000000,9.00,38.4063339,-110.7920761,1364.5000000,0.0,13.7,0.9,0.0,0.0,902,127,0,0,861.81,0.90,50.08,0
11:28:57,0,0,0,0,0,0,0,0,0,0,0,515,0,0,0,0,0.0000000,0.0000000,0.0000000,0.0000000,9.00,38.4063339,-110.7920761,1364.4000244,0.0,4.7,0.9,0.0,0.0,903,129,0,0,861.86,0.93,50.20,0
11:28:58,0,0,0,0,0,0,0,0,0,0,0,515,0,0,0,0,0.0000000,0.0000000,0.0000000,0.0000000,9.00,38.4063339,-110.7920761,1364.4000244,0.0,138.7,0.9,0.0,0.0,903,130,0,0,861.84,0.90,50.24,0
11:28:59,0,0,0,0,0,0,0,0,0,0,0,516,0,0,0,0,0.0000000,0.0000000,0.0000000,0.0000000,9.00,38.4063339,-110.7920761,1364.3000488,0.0,178.9,0.9,0.0,0.0,903,128,0,0,861.85,0.90,50.24,0
11:29:00,0,0,0,0,0,0,0,0,0,0,0,515,0,0,0,0,0.0000000,0.0000000,0.0000000,0.0000000,9.00,38.4063301,-110.7920761,1364.3000488,0.0,180.8,0.9,0.0,0.0,903,127,0,0,861.84,0.89,49.97,0
11:29:01,0,0,0,0,0,0,0,0,0,0,0,515,0,0,0,0,0.0000000,0.0000000,0.0000000,0.0000000,9.00,38.4063301,-110.7920761,1364.3000488,0.0,207.6,0.9,0.0,0.0,903,127,0,0,861.80,0.95,49.79,0
11:29:02,0,0,0,0,0,0,0,0,0,0,0,515,0,0,0,0,0.0000000,0.0000000,0.0000000,0.0000000,9.00,38.4063301,-110.7920761,1364.3000488,0.0,168.4,0.9,0.0,0.0,903,130,0,0,861.83,0.95,49.88,0
11:29:03,0,0,0,0,0,0,0,0,0,0,0,514,0,0,0,0,0.0000000,0.0000000,0.0000000,0.0000000,9.00,38.4063301,-110.7920761,1364.3000488,0.0,171.5,0.9,0.0,0.0,903,128,0,0,861.85,0.98,49.94,0
11:29:04,0,0,0,0,0,0,0,0,0,0,0,515,0,0,0,0,0.0000000,0.0000000,0.0000000,0.0000000,9.00,38.4063301,-110.7920761,1364.3000488,0.0,279.2,0.9,0.0,0.0,903,126,0,0,861.83,0.98,50.04,0
11:29:05,0,0,0,0,0,0,0,0,0,0,0,514,0,0,0,0,0.0000000,0.0000000,0.0000000,0.0000000,9.00,38.4063301,-110.7920761,1364.3000488,0.0,82.2,0.9,0.0,0.0,903,129,0,0,861.76,0.98,50.18,0
11:29:06,0,0,0,0,0,0,0,0,0,0,0,515,0,0,0,0,0.0000000,0.0000000,0.0000000,0.0000000,9.00,38.4063301,-110.7920761,1364.3000488,0.0,36.9,0.9,0.0,0.0,903,127,0,0,861.86,0.92,50.15,0
11:29:07,0,0,0,0,0,0,0,0,0,0,0,515,0,0,0,0,0.0000000,0.0000000,0.0000000,0.0000000,9.00,38.4063301,-110.7920761,1364.3000488,0.0,49.2,0.9,0.0,0.0,903,127,0,0,861.87,0.90,49.95,0
11:29:08,0,0,0,0,0,0,0,0,0,0,0,514,0,0,0,0,0.0000000,0.0000000,0.0000000,0.0000000,9.00,38.4063301,-110.7920761,1364.3000488,0.0,85.7,0.9,0.0,0.0,902,127,0,0,861.82,0.98,49.74,0
11:29:09,0,0,0,0,0,0,0,0,0,0,0,515,0,0,0,0,0.0000000,0.0000000,0.0000000,0.0000000,9.00,38.4063301,-110.7920761,1364.3000488,0.0,77.4,0.9,0.0,0.0,903,132,0,0,861.80,1.02,49.74,0
11:29:10,0,0,0,0,0,0,0,0,0,0,0,515,0,0,0,0,0.0000000,0.0000000,0.0000000,0.0000000,9.00,38.4063301,-110.7920761,1364.3000488,0.0,18.5,0.9,0.0,0.0,902,128,0,0,861.78,1.01,49.95,0
11:29:12,0,0,0,0,0,0,0,0,0,0,0,515,0,0,0,0,0.0000000,0.0000000,0.0000000,0.0000000,9.00,38.4063301,-110.7920761,1364.3000488,0.0,254.6,0.9,0.0,0.0,903,129,0,0,861.85,0.98,50.14,0
11:29:13,0,0,0,0,0,0,0,0,0,0,0,515,0,0,0,0,0.0000000,0.0000000,0.0000000,0.0000000,9.00,38.4063301,-110.7920761,1364.3000488,0.0,237.2,0.9,0.0,0.0,903,130,0,0,861.85,1.01,50.28,0
11:29:14,0,0,0,0,0,0,0,0,0,0,0,516,0,0,0,0,0.0000000,0.0000000,0.0000000,0.0000000,9.00,38.4063301,-110.7920761,1364.3000488,0.0,235.2,0.9,0.0,0.0,903,127,0,0,861.82,0.96,50.24,0
11:29:15,0,0,0,0,0,0,0,0,0,0,0,515,0,0,0,0,0.0000000,0.0000000,0.0000000,0.0000000,9.00,38.4063301,-110.7920761,1364.3000488,0.0,205.5,0.9,0.0,0.0,903,128,0,0,861.84,0.99,50.32,0
11:29:16,0,0,0,0,0,0,0,0,0,0,0,515,0,0,0,0,0.0000000,0.0000000,0.0000000,0.0000000,9.00,38.4063301,-110.7920761,1364.3000488,0.0,252.0,0.9,0.0,0.0,902,129,0,0,861.86,0.93,50.44,0
11:29:17,0,0,0,0,0,0,0,0,0,0,0,514,0,0,0,0,0.0000000,0.0000000,0.0000000,0.0000000,9.00,38.4063301,-110.7920761,1364.3000488,0.0,164.8,0.9,0.0,0.0,902,127,0,0,861.85,0.92,50.54,0
11:29:18,0,0,0,0,0,0,0,0,0,0,0,515,0,0,0,0,0.0000000,0.0000000,0.0000000,0.0000000,9.00,38.4063301,-110.7920761,1364.3000488,0.0,152.8,0.9,0.0,0.0,903,127,0,0,861.82,0.86,50.62,0
11:29:19,0,0,0,0,0,0,0,0,0,0,0,515,0,0,0,0,0.0000000,0.0000000,0.0000000,0.0000000,9.00,38.4063301,-110.7920761,1364.3000488,0.0,262.2,0.9,0.0,0.0,902,129,0,0,861.85,0.89,50.67,0
11:29:20,0,0,0,0,0,0,0,0,0,0,0,515,0,0,0,0,0.0000000,0.0000000,0.0000000,0.0000000,9.00,38.4063301,-110.7920761,1364.3000488,0.0,164.6,0.9,0.0,0.0,902,128,0,0,861.88,0.90,50.70,0
11:29:21,0,0,0,0,0,0,0,0,0,0,0,515,0,0,0,0,0.0000000,0.0000000,0.0000000,0.0000000,9.00,38.4063301,-110.7920761,1364.3000488,0.0,158.2,0.9,0.0,0.0,902,133,0,0,861.88,0.86,50.68,0
11:29:22,0,0,0,0,0,0,0,0,0,0,0,515,0,0,0,0,0.0000000,0.0000000,0.0000000,0.0000000,9.00,38.4063301,-110.7920761,1364.3000488,0.0,169.4,0.9,0.0,0.0,903,133,0,0,861.91,0.87,50.19,0
11:29:23,0,0,0,0,0,0,0,0,0,0,0,514,0,0,0,0,0.0000000,0.0000000,0.0000000,0.0000000,9.00,38.4063301,-110.7920761,1364.3000488,0.0,303.2,0.9,0.0,0.0,902,129,0,0,861.84,0.93,49.87,0
11:29:24,0,0,0,0,0,0,0,0,0,0,0,515,0,0,0,0,0.0000000,0.0000000,0.0000000,0.0000000,9.00,38.4063301,-110.7920761,1364.3000488,0.0,156.6,0.9,0.0,0.0,903,129,0,0,861.82,0.99,49.73,0
11:29:25,0,0,0,0,0,0,0,0,0,0,0,515,0,0,0,0,0.0000000,0.0000000,0.0000000,0.0000000,9.00,38.4063301,-110.7920761,1364.3000488,0.0,118.9,0.9,0.0,0.0,902,129,0,0,861.84,1.01,49.92,0
11:29:26,0,0,0,0,0,0,0,0,0,0,0,514,0,0,0,0,0.0000000,0.0000000,0.0000000,0.0000000,9.00,38.4063301,-110.7920761,1364.3000488,0.0,358.1,0.9,0.0,0.0,902,132,0,0,861.86,0.96,50.07,0
11:29:27,0,0,0,0,0,0,0,0,0,0,0,515,0,0,0,0,0.0000000,0.0000000,0.0000000,0.0000000,9.00,38.4063301,-110.7920761,1364.3000488,0.0,353.8,0.9,0.0,0.0,902,126,0,0,861.86,0.92,50.14,0
11:29:28,0,0,0,0,0,0,0,0,0,0,0,516,0,0,0,0,0.0000000,0.0000000,0.0000000,0.0000000,9.00,38.4063301,-110.7920761,1364.3000488,0.0,349.9,0.9,0.0,0.0,903,130,0,0,861.85,0.90,50.30,0
11:29:29,0,0,0,0,0,0,0,0,0,0,0,515,0,0,0,0,0.0000000,0.0000000,0.0000000,0.0000000,9.00,38.4063301,-110.7920761,1364.3000488,0.0,61.1,0.9,0.0,0.0,903,130,0,0,861.87,0.89,50.45,0
11:29:30,0,0,0,0,0,0,0,0,0,0,0,515,0,0,0,0,0.0000000,0.0000000,0.0000000,0.0000000,9.00,38.4063301,-110.7920761,1364.3000488,0.0,201.7,0.9,0.0,0.0,903,126,0,0,861.92,0.87,50.50,0
11:29:31,0,0,0,0,0,0,0,0,0,0,0,515,0,0,0,0,0.0000000,0.0000000,0.0000000,0.0000000,9.00,38.4063301,-110.7920761,1364.3000488,0.0,177.3,0.9,0.0,0.0,902,126,0,0,861.83,0.96,50.22,0
11:29:32,0,0,0,0,0,0,0,0,0,0,0,515,0,0,0,0,0.0000000,0.0000000,0.0000000,0.0000000,9.00,38.4063301,-110.7920761,1364.3000488,0.0,173.6,0.9,0.0,0.0,902,127,0,0,861.82,0.93,50.25,0
11:29:33,0,0,0,0,0,0,0,0,0,0,0,515,0,0,0,0,0.0000000,0.0000000,0.0000000,0.0000000,9.00,38.4063301,-110.7920761,1364.3000488,0.0,165.6,0.9,0.0,0.0,903,131,0,0,861.85,0.96,50.24,0
11:29:34,0,0,0,0,0,0,0,0,0,0,0,515,0,0,0,0,0.0000000,0.0000000,0.0000000,0.0000000,9.00,38.4063301,-110.7920761,1364.3000488,0.0,188.6,0.9,0.0,0.0,903,125,0,0,861.82,1.01,49.97,0
11:29:35,0,0,0,0,0,0,0,0,0,0,0,515,0,0,0,0,0.0000000,0.0000000,0.0000000,0.0000000,9.00,38.4063301,-110.7920761,1364.3000488,0.0,264.2,0.9,0.0,0.0,902,127,0,0,861.88,1.05,49.83,0
11:29:36,0,0,0,0,0,0,0,0,0,0,0,515,0,0,0,0,0.0000000,0.0000000,0.0000000,0.0000000,9.00,38.4063301,-110.7920761,1364.3000488,0.0,4.2,0.9,0.0,0.0,903,135,0,0,861.80,1.08,49.75,0
11:29:37,0,0,0,0,0,0,0,0,0,0,0,515,0,0,0,0,0.0000000,0.0000000,0.0000000,0.0000000,9.00,38.4063301,-110.7920761,1364.3000488,0.0,4.0,0.9,0.0,0.0,903,133,0,0,861.79,1.11,49.75,0
11:29:38,0,0,0,0,0,0,0,0,0,0,0,514,0,0,0,0,0.0000000,0.0000000,0.0000000,0.0000000,9.00,38.4063301,-110.7920761,1364.3000488,0.0,341.1,0.9,0.0,0.0,902,134,0,0,861.79,1.11,49.88,0
11:29:39,0,0,0,0,0,0,0,0,0,0,0,514,0,0,0,0,0.0000000,0.0000000,0.0000000,0.0000000,9.00,38.4063301,-110.7920761,1364.3000488,0.0,0.0,0.9,0.0,0.0,902,134,0,0,861.80,1.14,49.89,0
11:29:40,0,0,0,0,0,0,0,0,0,0,0,515,0,0,0,0,0.0000000,0.0000000,0.0000000,0.0000000,9.00,38.4063301,-110.7920761,1364.3000488,0.0,0.0,0.9,0.0,0.0,903,135,0,0,861.80,1.14,49.69,0
11:29:41,0,0,0,0,0,0,0,0,0,0,0,515,0,0,0,0,0.0000000,0.0000000,0.0000000,0.0000000,9.00,38.4063301,-110.7920761,1364.3000488,0.0,37.1,0.9,0.0,0.0,903,137,0,0,861.82,1.18,49.72,0
11:29:42,0,0,0,0,0,0,0,0,0,0,0,515,0,0,0,0,0.0000000,0.0000000,0.0000000,0.0000000,9.00,38.4063301,-110.7920761,1364.3000488,0.0,53.5,0.9,0.0,0.0,902,134,0,0,861.78,1.14,49.88,0
11:29:43,0,0,0,0,0,0,0,0,0,0,0,515,0,0,0,0,0.0000000,0.0000000,0.0000000,0.0000000,9.00,38.4063301,-110.7920761,1364.3000488,0.0,75.0,0.9,0.0,0.0,903,138,0,0,861.78,1.16,50.01,0
11:29:44,0,0,0,0,0,0,0,0,0,0,0,515,0,0,0,0,0.0000000,0.0000000,0.0000000,0.0000000,9.00,38.4063301,-110.7920761,1364.3000488,0.0,99.3,0.9,0.0,0.0,902,135,0,0,861.80,1.11,50.17,0
11:29:45,0,0,0,0,0,0,0,0,0,0,0,515,0,0,0,0,0.0000000,0.0000000,0.0000000,0.0000000,9.00,38.4063301,-110.7920761,1364.3000488,0.0,86.7,0.9,0.0,0.0,903,139,0,0,861.83,1.07,50.28,0
11:29:46,0,0,0,0,0,0,0,0,0,0,0,514,0,0,0,0,0.0000000,0.0000000,0.0000000,0.0000000,9.00,38.4063301,-110.7920761,1364.3000488,0.0,21.8,0.9,0.0,0.0,902,137,0,0,861.81,1.05,50.35,0
11:29:47,0,0,0,0,0,0,0,0,0,0,0,515,0,0,0,0,0.0000000,0.0000000,0.0000000,0.0000000,9.00,38.4063301,-110.7920761,1364.3000488,0.0,248.4,0.9,0.0,0.0,903,134,0,0,861.80,1.04,50.31,0
11:29:48,0,0,0,0,0,0,0,0,0,0,0,515,0,0,0,0,0.0000000,0.0000000,0.0000000,0.0000000,9.00,38.4063301,-110.7920761,1364.3000488,0.0,3.7,0.9,0.0,0.0,902,137,0,0,861.80,1.05,50.26,0
11:29:49,0,0,0,0,0,0,0,0,0,0,0,515,0,0,0,0,0.0000000,0.0000000,0.0000000,0.0000000,9.00,38.4063301,-110.7920761,1364.3000488,0.0,14.5,0.9,0.0,0.0,902,138,0,0,861.79,1.05,50.25,0
11:29:50,0,0,0,0,0,0,0,0,0,0,0,515,0,0,0,0,0.0000000,0.0000000,0.0000000,0.0000000,9.00,38.4063301,-110.7920761,1364.3000488,0.0,341.3,0.9,0.0,0.0,902,138,0,0,861.80,1.10,50.03,0
11:29:51,0,0,0,0,0,0,0,0,0,0,0,514,0,0,0,0,0.0000000,0.0000000,0.0000000,0.0000000,9.00,38.4063301,-110.7920761,1364.3000488,0.0,153.9,0.9,0.0,0.0,902,138,0,0,861.81,1.13,50.05,0
11:29:52,0,0,0,0,0,0,0,0,0,0,0,515,0,0,0,0,0.0000000,0.0000000,0.0000000,0.0000000,9.00,38.4063301,-110.7920761,1364.3000488,0.0,312.0,0.9,0.0,0.0,902,139,0,0,861.80,1.14,49.90,0
11:29:53,0,0,0,0,0,0,0,0,0,0,0,515,0,0,0,0,0.0000000,0.0000000,0.0000000,0.0000000,9.00,38.4063301,-110.7920761,1364.3000488,0.0,125.0,0.9,0.0,0.0,903,142,0,0,861.80,1.18,49.98,0
11:29:54,0,0,0,0,0,0,0,0,0,0,0,515,0,0,0,0,0.0000000,0.0000000,0.0000000,0.0000000,9.00,38.4063301,-110.7920761,1364.1999512,0.0,63.4,0.9,0.0,0.0,903,135,0,0,861.75,1.11,50.17,0
11:29:55,0,0,0,0,0,0,0,0,0,0,0,516,0,0,0,0,0.0000000,0.0000000,0.0000000,0.0000000,9.00,38.4063301,-110.7920761,1364.0999756,0.0,79.6,0.9,0.0,0.0,903,134,0,0,861.83,1.16,49.80,0
11:29:56,0,0,0,0,0,0,0,0,0,0,0,515,0,0,0,0,0.0000000,0.0000000,0.0000000,0.0000000,9.00,38.4063301,-110.7920761,1364.0999756,0.0,355.4,0.9,0.0,0.0,903,135,0,0,861.78,1.22,49.31,0
11:29:57,0,0,0,0,0,0,0,0,0,0,0,516,0,0,0,0,0.0000000,0.0000000,0.0000000,0.0000000,9.00,38.4063301,-110.7920761,1363.9000244,0.0,352.0,0.9,0.0,0.0,902,136,0,0,861.75,1.25,49.30,0
11:29:58,0,0,0,0,0,0,0,0,0,0,0,515,0,0,0,0,0.0000000,0.0000000,0.0000000,0.0000000,9.00,38.4063339,-110.7920761,1363.9000244,0.0,356.4,0.9,0.0,0.0,903,136,0,0,861.72,1.21,49.69,0
11:29:59,0,0,0,0,0,0,0,0,0,0,0,516,0,0,0,0,0.0000000,0.0000000,0.0000000,0.0000000,9.00,38.4063339,-110.7920761,1363.8000488,0.0,72.9,0.9,0.0,0.0,902,137,0,0,861.80,1.21,49.68,0
11:30:00,0,0,0,0,0,0,0,0,0,0,0,515,0,0,0,0,0.0000000,0.0000000,0.0000000,0.0000000,9.00,38.4063339,-110.7920761,1363.6999512,0.0,205.9,0.9,0.0,0.0,902,132,0,0,861.77,1.22,49.66,0
11:30:01,0,0,0,0,0,0,0,0,0,0,0,514,0,0,0,0,0.0000000,0.0000000,0.0000000,0.0000000,9.00,38.4063377,-110.7920761,1363.6999512,0.0,192.6,0.9,0.0,0.0,903,136,0,0,861.81,1.27,49.28,0
11:30:02,0,0,0,0,0,0,0,0,0,0,0,515,0,0,0,0,0.0000000,0.0000000,0.0000000,0.0000000,9.00,38.4063377,-110.7920914,1363.5999756,0.0,283.5,0.9,0.0,0.0,903,139,0,0,861.73,1.27,49.16,0
11:30:03,0,0,0,0,0,0,0,0,0,0,0,516,0,0,0,0,0.0000000,0.0000000,0.0000000,0.0000000,9.00,38.4063377,-110.7920914,1363.5000000,0.0,177.7,0.9,0.0,0.0,903,136,0,0,861.74,1.31,49.11,0
11:30:04,0,0,0,0,0,0,0,0,0,0,0,515,0,0,0,0,0.0000000,0.0000000,0.0000000,0.0000000,9.00,38.4063377,-110.7920914,1363.5000000,0.0,232.6,0.9,0.0,0.0,903,137,0,0,861.78,1.31,49.00,0
11:30:05,0,0,0,0,0,0,0,0,0,0,0,516,0,0,0,0,0.0000000,0.0000000,0.0000000,0.0000000,9.00,38.4063377,-110.7920914,1363.5000000,0.0,187.2,0.9,0.0,0.0,902,129,0,0,861.76,1.40,48.82,0
11:30:06,0,0,0,0,0,0,0,0,0,0,0,514,0,0,0,0,0.0000000,0.0000000,0.0000000,0.0000000,9.00,38.4063377,-110.7920914,1363.5000000,0.0,257.0,0.9,0.0,0.0,903,142,0,0,861.75,1.43,48.90,0
11:30:07,0,0,0,0,0,0,0,0,0,0,0,515,0,0,0,0,0.0000000,0.0000000,0.0000000,0.0000000,8.00,38.4063377,-110.7920914,1363.5000000,0.0,102.9,1.0,0.0,0.0,902,139,0,0,861.78,1.40,49.15,0
11:30:08,0,0,0,0,0,0,0,0,0,0,0,514,0,0,0,0,0.0000000,0.0000000,0.0000000,0.0000000,8.00,38.4063377,-110.7920914,1363.5000000,0.0,335.6,1.0,0.0,0.0,902,138,0,0,861.75,1.33,49.38,0
11:30:09,0,0,0,0,0,0,0,0,0,0,0,515,0,0,0,0,0.0000000,0.0000000,0.0000000,0.0000000,8.00,38.4063377,-110.7920914,1363.5000000,0.0,37.9,1.0,0.0,0.0,903,133,0,0,861.80,1.30,49.52,0
11:30:10,0,0,0,0,0,0,0,0,0,0,0,515,0,0,0,0,0.0000000,0.0000000,0.0000000,0.0000000,8.00,38.4063377,-110.7920914,1363.5000000,0.0,338.3,1.0,0.0,0.0,902,134,0,0,861.82,1.33,49.17,0
11:30:11,0,0,0,0,0,0,0,0,0,0,0,515,0,0,0,0,0.0000000,0.0000000,0.0000000,0.0000000,8.00,38.4063377,-110.7920914,1363.5000000,0.0,270.3,1.0,0.0,0.0,903,136,0,0,861.77,1.42,48.82,0
11:30:12,0,0,0,0,0,0,0,0,0,0,0,515,0,0,0,0,0.0000000,0.0000000,0.0000000,0.0000000,8.00,38.4063377,-110.7920914,1363.5000000,0.0,90.0,1.0,0.0,0.0,903,137,0,0,861.76,1.48,48.57,0
11:30:13,0,0,0,0,0,0,0,0,0,0,0,515,0,0,0,0,0.0000000,0.0000000,0.0000000,0.0000000,8.00,38.4063377,-110.7920914,1363.5000000,0.0,224.2,1.0,0.0,0.0,903,136,0,0,861.72,1.56,48.40,0
11:30:14,0,0,0,0,0,0,0,0,0,0,0,515,0,0,0,0,0.0000000,0.0000000,0.0000000,0.0000000,8.00,38.4063377,-110.7920914,1363.5000000,0.0,165.2,1.0,0.0,0.0,903,132,0,0,861.75,1.51,48.60,0
11:30:15,0,0,0,0,0,0,0,0,0,0,0,516,0,0,0,0,0.0000000,0.0000000,0.0000000,0.0000000,8.00,38.4063377,-110.7920914,1363.5000000,0.0,262.9,1.0,0.0,0.0,902,138,0,0,861.76,1.48,48.91,0
11:30:16,0,0,0,0,0,0,0,0,0,0,0,516,0,0,0,0,0.0000000,0.0000000,0.0000000,0.0000000,8.00,38.4063377,-110.7920914,1363.5000000,0.0,123.5,1.0,0.0,0.0,903,130,0,0,861.78,1.48,49.03,0
11:30:17,0,0,0,0,0,0,0,0,0,0,0,513,0,0,0,0,0.0000000,0.0000000,0.0000000,0.0000000,8.00,38.4063377,-110.7920914,1363.5000000,0.0,52.9,1.0,0.0,0.0,903,133,0,0,861.77,1.45,49.06,0
11:30:18,0,0,0,0,0,0,0,0,0,0,0,515,0,0,0,0,0.0000000,0.0000000,0.0000000,0.0000000,8.00,38.4063377,-110.7920914,1363.5000000,0.0,17.7,1.0,0.0,0.0,902,142,0,0,861.71,1.39,49.17,0
11:30:19,0,0,0,0,0,0,0,0,0,0,0,515,0,0,0,0,0.0000000,0.0000000,0.0000000,0.0000000,8.00,38.4063377,-110.7920914,1363.5000000,0.0,61.9,1.0,0.0,0.0,903,138,0,0,861.84,1.42,49.08,0
11:30:20,0,0,0,0,0,0,0,0,0,0,0,515,0,0,0,0,0.0000000,0.0000000,0.0000000,0.0000000,8.00,38.4063377,-110.7920914,1363.5000000,0.0,280.5,1.0,0.0,0.0,903,138,0,0,861.80,1.45,48.69,0
11:30:21,0,0,0,0,0,0,0,0,0,0,0,515,0,0,0,0,0.0000000,0.0000000,0.0000000,0.0000000,8.00,38.4063377,-110.7920914,1363.5000000,0.0,64.7,1.0,0.0,0.0,902,135,0,0,861.73,1.53,48.52,0
11:30:22,0,0,0,0,0,0,0,0,0,0,0,515,0,0,0,0,0.0000000,0.0000000,0.0000000,0.0000000,8.00,38.4063377,-110.7920914,1363.5000000,0.0,228.0,1.0,0.0,0.0,902,137,0,0,861.78,1.51,48.68,0
11:30:23,0,0,0,0,0,0,0,0,0,0,0,514,0,0,0,0,0.0000000,0.0000000,0.0000000,0.0000000,8.00,38.4063377,-110.7920914,1363.5000000,0.0,319.3,1.0,0.0,0.0,903,135,0,0,861.80,1.56,48.56,0
11:30:24,0,0,0,0,0,0,0,0,0,0,0,515,0,0,0,0,0.0000000,0.0000000,0.0000000,0.0000000,8.00,38.4063377,-110.7920914,1363.5000000,0.0,68.4,1.0,0.0,0.0,902,141,0,0,861.72,1.53,48.54,0
11:30:25,0,0,0,0,0,0,0,0,0,0,0,515,0,0,0,0,0.0000000,0.0000000,0.0000000,0.0000000,8.00,38.4063377,-110.7920914,1363.5000000,0.0,321.6,1.0,0.0,0.0,903,132,0,0,861.74,1.56,48.52,0
11:30:26,0,0,0,0,0,0,0,0,0,0,0,514,0,0,0,0,0.0000000,0.0000000,0.0000000,0.0000000,9.00,38.4063377,-110.7920914,1363.5000000,0.0,175.1,1.0,0.0,0.0,902,137,0,0,861.68,1.51,48.59,0
11:30:27,0,0,0,0,0,0,0,0,0,0,0,515,0,0,0,0,0.0000000,0.0000000,0.0000000,0.0000000,8.00,38.4063377,-110.7920914,1363.5000000,0.0,261.9,1.0,0.0,0.0,903,134,0,0,861.76,1.56,48.67,0
11:30:28,0,0,0,0,0,0,0,0,0,0,0,515,0,0,0,0,0.0000000,0.0000000,0.0000000,0.0000000,8.00,38.4063377,-110.7920914,1363.5000000,0.0,129.2,1.0,0.0,0.0,902,130,0,0,861.71,1.56,48.81,0
11:30:29,0,0,0,0,0,0,0,0,0,0,0,515,0,0,0,0,0.0000000,0.0000000,0.0000000,0.0000000,8.00,38.4063377,-110.7920914,1363.4000244,0.0,87.4,1.0,0.0,0.0,903,131,0,0,861.70,1.51,48.90,0
11:30:30,0,0,0,0,0,0,0,0,0,0,0,516,0,0,0,0,0.0000000,0.0000000,0.0000000,0.0000000,8.00,38.4063377,-110.7920914,1363.4000244,0.0,321.0,1.0,0.0,0.0,902,135,0,0,861.71,1.51,48.77,0
11:30:31,0,0,0,0,0,0,0,0,0,0,0,515,0,0,0,0,0.0000000,0.0000000,0.0000000,0.0000000,8.00,38.4063377,-110.7920914,1363.4000244,0.0,124.7,1.0,0.0,0.0,902,139,0,0,861.76,1.59,48.63,0
11:30:32,0,0,0,0,0,0,0,0,0,0,0,515,0,0,0,0,0.0000000,0.0000000,0.0000000,0.0000000,8.00,38.4063377,-110.7920914,1363.4000244,0.0,283.6,1.0,0.0,0.0,903,135,0,0,861.77,1.51,48.73,0
11:30:33,0,0,0,0,0,0,0,0,0,0,0,514,0,0,0,0,0.0000000,0.0000000,0.0000000,0.0000000,8.00,38.4063377,-110.7920914,1363.4000244,0.0,48.7,1.0,0.0,0.0,902,136,0,0,861.75,1.57,48.44,0
11:30:34,0,0,0,0,0,0,0,0,0,0,0,515,0,0,0,0,0.0000000,0.0000000,0.0000000,0.0000000,8.00,38.4063377,-110.7920914,1363.4000244,0.0,341.5,1.0,0.0,0.0,903,133,0,0,861.76,1.66,48.40,0
11:30:35,0,0,0,0,0,0,0,0,0,0,0,515,0,0,0,0,0.0000000,0.0000000,0.0000000,0.0000000,8.00,38.4063377,-110.7920914,1363.4000244,0.0,104.4,1.0,0.0,0.0,902,132,0,0,861.73,1.66,48.45,0
11:30:36,0,0,0,0,0,0,0,0,0,0,0,516,0,0,0,0,0.0000000,0.0000000,0.0000000,0.0000000,8.00,38.4063377,-110.7920914,1363.4000244,0.0,355.2,1.0,0.0,0.0,902,134,0,0,861.73,1.63,48.30,0
11:30:37,0,0,0,0,0,0,0,0,0,0,0,515,0,0,0,0,0.0000000,0.0000000,0.0000000,0.0000000,8.00,38.4063377,-110.7920914,1363.4000244,0.0,20.2,1.0,0.0,0.0,903,134,0,0,861.70,1.65,48.03,0
11:30:38,0,0,0,0,0,0,0,0,0,0,0,515,0,0,0,0,0.0000000,0.0000000,0.0000000,0.0000000,8.00,38.4063377,-110.7920914,1363.4000244,0.0,36.3,1.0,0.0,0.0,903,134,0,0,861.70,1.71,47.77,0
11:30:39,0,0,0,0,0,0,0,0,0,0,0,514,0,0,0,0,0.0000000,0.0000000,0.0000000,0.0000000,8.00,38.4063377,-110.7920914,1363.4000244,0.0,357.2,1.0,0.0,0.0,902,137,0,0,861.72,1.79,47.60,0
