Time, Motor A Speed, Motor A Dir, Motor B Speed, Motor B Dir, Servo Rail Current Sensor, Servo Pos - Arm L, Servo Pos - Arm R, Servo Pos - End, Servo Pos - Hopper, Servo Pos - Lid, Servo Pos - Extra, Servo Current, LED - Front L, LED - Front R, LED - Back L, LED - Back R, IMU Pitch, IMU Roll, IMU Yaw, Compass Heading, GPS Sats, GPS Latitude, GPS Longitude, GPS Altitude, GPS Speed, GPS Angle, GPS HDOP, GPS VDOP, GPS PDOP, Battery, Wind, Comm Xbee Latency, Comm Arduino Latency, Pressure, Humidity, Temperature, uRADMonitor
10:55:06,0,0,0,0,0,0,0,0,0,0,0,0,0,0,0,0,0.0000000,0.0000000,0.0000000,0.0000000,0.00,0.0000000,0.0000000,0.0000000,0.0,0.0,0.0,0.0,0.0,0,0,0,0,0.00,0.00,0.00,0
10:55:07,0,0,0,0,0,0,0,0,0,0,0,514,0,0,0,0,0.0000000,0.0000000,0.0000000,0.0000000,0.00,0.0000000,0.0000000,0.0000000,0.0,0.0,0.0,0.0,0.0,911,131,0,0,860.10,7.80,29.63,0
10:55:08,0,0,0,0,0,0,0,0,0,0,0,514,0,0,0,0,0.0000000,0.0000000,0.0000000,0.0000000,0.00,0.0000000,0.0000000,0.0000000,0.0,0.0,0.0,0.0,0.0,911,125,0,0,858.94,12.96,29.70,0
10:55:09,0,0,0,0,0,0,0,0,0,0,0,515,0,0,0,0,0.0000000,0.0000000,0.0000000,0.0000000,0.00,0.0000000,0.0000000,0.0000000,0.0,0.0,0.0,0.0,0.0,911,126,0,0,858.84,13.64,29.86,0
10:55:10,0,0,0,0,0,0,0,0,0,0,0,514,0,0,0,0,0.0000000,0.0000000,0.0000000,0.0000000,0.00,0.0000000,0.0000000,0.0000000,0.0,0.0,0.0,0.0,0.0,911,128,0,0,861.87,12.41,30.21,0
10:55:11,0,0,0,0,0,0,0,0,0,0,0,515,0,0,0,0,0.0000000,0.0000000,0.0000000,0.0000000,0.00,0.0000000,0.0000000,0.0000000,0.0,0.0,0.0,0.0,0.0,911,133,0,0,860.94,7.02,30.29,0
10:55:12,0,0,0,0,0,0,0,0,0,0,0,513,0,0,0,0,0.0000000,0.0000000,0.0000000,0.0000000,0.00,0.0000000,0.0000000,0.0000000,0.0,0.0,0.0,0.0,0.0,911,139,0,0,860.90,7.10,30.09,0
10:55:13,0,0,0,0,0,0,0,0,0,0,0,514,0,0,0,0,0.0000000,0.0000000,0.0000000,0.0000000,0.00,0.0000000,0.0000000,0.0000000,0.0,0.0,0.0,0.0,0.0,911,134,0,0,860.96,7.14,30.02,0
10:55:14,0,0,0,0,0,0,0,0,0,0,0,514,0,0,0,0,0.0000000,0.0000000,0.0000000,0.0000000,0.00,0.0000000,0.0000000,0.0000000,0.0,0.0,0.0,0.0,0.0,910,131,0,0,861.62,7.92,29.85,0
10:55:15,0,0,0,0,0,0,0,0,0,0,0,514,0,0,0,0,0.0000000,0.0000000,0.0000000,0.0000000,0.00,0.0000000,0.0000000,0.0000000,0.0,0.0,0.0,0.0,0.0,911,133,0,0,861.56,7.94,29.96,0
10:55:16,0,0,0,0,0,0,0,0,0,0,0,514,0,0,0,0,0.0000000,0.0000000,0.0000000,0.0000000,0.00,0.0000000,0.0000000,0.0000000,0.0,0.0,0.0,0.0,0.0,911,130,0,0,861.56,7.94,30.05,0
10:55:17,0,0,0,0,0,0,0,0,0,0,0,514,0,0,0,0,0.0000000,0.0000000,0.0000000,0.0000000,0.00,0.0000000,0.0000000,0.0000000,0.0,0.0,0.0,0.0,0.0,911,126,0,0,861.65,7.94,30.21,0
10:55:18,0,0,0,0,0,0,0,0,0,0,0,514,0,0,0,0,0.0000000,0.0000000,0.0000000,0.0000000,0.00,0.0000000,0.0000000,0.0000000,0.0,0.0,0.0,0.0,0.0,911,132,0,0,861.61,7.90,30.29,0
10:55:19,0,0,0,0,0,0,0,0,0,0,0,514,0,0,0,0,0.0000000,0.0000000,0.0000000,0.0000000,0.00,0.0000000,0.0000000,0.0000000,0.0,0.0,0.0,0.0,0.0,911,132,0,0,861.63,7.83,30.35,0
10:55:20,0,0,0,0,0,0,0,0,0,0,0,514,0,0,0,0,0.0000000,0.0000000,0.0000000,0.0000000,0.00,0.0000000,0.0000000,0.0000000,0.0,0.0,0.0,0.0,0.0,911,131,0,0,861.63,7.78,30.43,0
10:55:21,0,0,0,0,0,0,0,0,0,0,0,515,0,0,0,0,0.0000000,0.0000000,0.0000000,0.0000000,0.00,0.0000000,0.0000000,0.0000000,0.0,0.0,0.0,0.0,0.0,911,129,0,0,861.65,7.74,30.50,0
10:55:22,0,0,0,0,0,0,0,0,0,0,0,514,0,0,0,0,0.0000000,0.0000000,0.0000000,0.0000000,0.00,0.0000000,0.0000000,0.0000000,0.0,0.0,0.0,0.0,0.0,911,126,0,0,861.62,7.69,30.46,0
10:55:23,0,0,0,0,0,0,0,0,0,0,0,514,0,0,0,0,0.0000000,0.0000000,0.0000000,0.0000000,0.00,0.0000000,0.0000000,0.0000000,0.0,0.0,0.0,0.0,0.0,911,128,0,0,861.62,7.68,30.55,0
10:55:24,0,0,0,0,0,0,0,0,0,0,0,515,0,0,0,0,0.0000000,0.0000000,0.0000000,0.0000000,0.00,0.0000000,0.0000000,0.0000000,0.0,0.0,0.0,0.0,0.0,911,128,0,0,861.63,7.66,30.62,0
10:55:25,0,0,0,0,0,0,0,0,0,0,0,514,0,0,0,0,0.0000000,0.0000000,0.0000000,0.0000000,0.00,0.0000000,0.0000000,0.0000000,0.0,0.0,0.0,0.0,0.0,911,131,0,0,861.63,7.65,30.76,0
10:55:26,0,0,0,0,0,0,0,0,0,0,0,514,0,0,0,0,0.0000000,0.0000000,0.0000000,0.0000000,0.00,0.0000000,0.0000000,0.0000000,0.0,0.0,0.0,0.0,0.0,911,128,0,0,861.66,7.61,30.86,0
10:55:27,0,0,0,0,0,0,0,0,0,0,0,514,0,0,0,0,0.0000000,0.0000000,0.0000000,0.0000000,0.00,0.0000000,0.0000000,0.0000000,0.0,0.0,0.0,0.0,0.0,912,129,0,0,861.62,7.48,30.89,0
10:55:28,0,0,0,0,0,0,0,0,0,0,0,515,0,0,0,0,0.0000000,0.0000000,0.0000000,0.0000000,0.00,0.0000000,0.0000000,0.0000000,0.0,0.0,0.0,0.0,0.0,911,128,0,0,861.59,7.48,30.97,0
10:55:29,0,0,0,0,0,0,0,0,0,0,0,514,0,0,0,0,0.0000000,0.0000000,0.0000000,0.0000000,0.00,0.0000000,0.0000000,0.0000000,0.0,0.0,0.0,0.0,0.0,911,126,0,0,861.62,7.45,31.07,0
10:55:30,0,0,0,0,0,0,0,0,0,0,0,514,0,0,0,0,0.0000000,0.0000000,0.0000000,0.0000000,0.00,0.0000000,0.0000000,0.0000000,0.0,0.0,0.0,0.0,0.0,911,126,0,0,861.63,7.42,31.16,0
10:55:31,0,0,0,0,0,0,0,0,0,0,0,514,0,0,0,0,0.0000000,0.0000000,0.0000000,0.0000000,0.00,0.0000000,0.0000000,0.0000000,0.0,0.0,0.0,0.0,0.0,911,128,0,0,861.61,7.37,31.25,0
10:55:32,0,0,0,0,0,0,0,0,0,0,0,515,0,0,0,0,0.0000000,0.0000000,0.0000000,0.0000000,0.00,0.0000000,0.0000000,0.0000000,0.0,0.0,0.0,0.0,0.0,911,129,0,0,861.64,7.29,31.33,0
10:55:33,0,0,0,0,0,0,0,0,0,0,0,515,0,0,0,0,0.0000000,0.0000000,0.0000000,0.0000000,0.00,0.0000000,0.0000000,0.0000000,0.0,0.0,0.0,0.0,0.0,910,127,0,0,861.62,7.28,31.41,0
10:55:34,0,0,0,0,0,0,0,0,0,0,0,514,0,0,0,0,0.0000000,0.0000000,0.0000000,0.0000000,0.00,0.0000000,0.0000000,0.0000000,0.0,0.0,0.0,0.0,0.0,911,129,0,0,861.61,7.19,31.50,0
10:55:35,0,0,0,0,0,0,0,0,0,0,0,514,0,0,0,0,0.0000000,0.0000000,0.0000000,0.0000000,0.00,0.0000000,0.0000000,0.0000000,0.0,0.0,0.0,0.0,0.0,911,128,0,0,861.67,7.13,31.67,0
10:55:36,0,0,0,0,0,0,0,0,0,0,0,514,0,0,0,0,0.0000000,0.0000000,0.0000000,0.0000000,0.00,0.0000000,0.0000000,0.0000000,0.0,0.0,0.0,0.0,0.0,911,128,0,0,861.62,7.13,31.69,0
10:55:37,0,0,0,0,0,0,0,0,0,0,0,515,0,0,0,0,0.0000000,0.0000000,0.0000000,0.0000000,0.00,0.0000000,0.0000000,0.0000000,0.0,0.0,0.0,0.0,0.0,911,128,0,0,861.66,7.02,31.76,0
10:55:38,0,0,0,0,0,0,0,0,0,0,0,514,0,0,0,0,0.0000000,0.0000000,0.0000000,0.0000000,0.00,0.0000000,0.0000000,0.0000000,0.0,0.0,0.0,0.0,0.0,911,126,0,0,861.64,6.93,31.82,0
10:55:39,0,0,0,0,0,0,0,0,0,0,0,515,0,0,0,0,0.0000000,0.0000000,0.0000000,0.0000000,0.00,0.0000000,0.0000000,0.0000000,0.0,0.0,0.0,0.0,0.0,911,130,0,0,861.61,6.81,31.89,0
10:55:40,0,0,0,0,0,0,0,0,0,0,0,514,0,0,0,0,0.0000000,0.0000000,0.0000000,0.0000000,0.00,0.0000000,0.0000000,0.0000000,0.0,0.0,0.0,0.0,0.0,911,130,0,0,861.72,6.78,31.95,0
10:55:41,0,0,0,0,0,0,0,0,0,0,0,515,0,0,0,0,0.0000000,0.0000000,0.0000000,0.0000000,0.00,0.0000000,0.0000000,0.0000000,0.0,0.0,0.0,0.0,0.0,911,128,0,0,861.68,6.81,32.12,0
10:55:42,0,0,0,0,0,0,0,0,0,0,0,514,0,0,0,0,0.0000000,0.0000000,0.0000000,0.0000000,0.00,0.0000000,0.0000000,0.0000000,0.0,0.0,0.0,0.0,0.0,910,127,0,0,861.63,6.82,32.14,0
10:55:43,0,0,0,0,0,0,0,0,0,0,0,513,0,0,0,0,0.0000000,0.0000000,0.0000000,0.0000000,0.00,0.0000000,0.0000000,0.0000000,0.0,0.0,0.0,0.0,0.0,911,131,0,0,861.64,6.84,32.23,0
10:55:44,0,0,0,0,0,0,0,0,0,0,0,514,0,0,0,0,0.0000000,0.0000000,0.0000000,0.0000000,0.00,0.0000000,0.0000000,0.0000000,0.0,0.0,0.0,0.0,0.0,911,129,0,0,861.66,6.79,32.31,0
10:55:45,0,0,0,0,0,0,0,0,0,0,0,514,0,0,0,0,0.0000000,0.0000000,0.0000000,0.0000000,0.00,0.0000000,0.0000000,0.0000000,0.0,0.0,0.0,0.0,0.0,911,128,0,0,861.73,6.78,32.39,0
10:55:46,0,0,0,0,0,0,0,0,0,0,0,514,0,0,0,0,0.0000000,0.0000000,0.0000000,0.0000000,0.00,0.0000000,0.0000000,0.0000000,0.0,0.0,0.0,0.0,0.0,910,127,0,0,861.64,6.74,32.47,0
10:55:47,0,0,0,0,0,0,0,0,0,0,0,514,0,0,0,0,0.0000000,0.0000000,0.0000000,0.0000000,3.00,0.0000000,0.0000000,0.0000000,0.3,352.9,0.0,0.0,0.0,911,129,0,0,861.69,6.73,32.61,0
10:55:48,0,0,0,0,0,0,0,0,0,0,0,514,0,0,0,0,0.0000000,0.0000000,0.0000000,0.0000000,3.00,0.0000000,0.0000000,0.0000000,0.3,352.9,0.0,0.0,0.0,911,129,0,0,861.69,6.73,32.61,0
10:55:49,0,0,0,0,0,0,0,0,0,0,0,515,0,0,0,0,0.0000000,0.0000000,0.0000000,0.0000000,3.00,0.0000000,0.0000000,0.0000000,0.4,337.0,0.0,0.0,0.0,911,123,0,0,861.70,6.68,32.68,0
10:55:50,0,0,0,0,0,0,0,0,0,0,0,514,0,0,0,0,0.0000000,0.0000000,0.0000000,0.0000000,3.00,38.4091644,-110.7965469,167.0000000,0.0,172.8,4.5,0.0,0.0,910,130,0,0,861.65,6.61,32.75,0
10:55:51,0,0,0,0,0,0,0,0,0,0,0,514,0,0,0,0,0.0000000,0.0000000,0.0000000,0.0000000,3.00,38.4091530,-110.7965469,167.0000000,0.3,3.0,4.5,0.0,0.0,911,127,0,0,861.65,6.56,32.83,0
10:55:52,0,0,0,0,0,0,0,0,0,0,0,515,0,0,0,0,0.0000000,0.0000000,0.0000000,0.0000000,3.00,38.4091454,-110.7965469,167.0000000,0.1,81.5,40.6,0.0,0.0,911,128,0,0,861.65,6.47,32.89,0
10:55:53,0,0,0,0,0,0,0,0,0,0,0,514,0,0,0,0,0.0000000,0.0000000,0.0000000,0.0000000,2.00,38.4091377,-110.7965469,167.0000000,0.1,78.6,4.5,0.0,0.0,911,128,0,0,861.68,6.45,33.05,0
10:55:54,0,0,0,0,0,0,0,0,0,0,0,514,0,0,0,0,0.0000000,0.0000000,0.0000000,0.0000000,2.00,38.4091377,-110.7965469,167.0000000,0.1,78.6,4.5,0.0,0.0,911,128,0,0,861.68,6.45,33.05,0
10:55:55,0,0,0,0,0,0,0,0,0,0,0,514,0,0,0,0,0.0000000,0.0000000,0.0000000,0.0000000,4.00,38.4091377,-110.7965469,167.0000000,0.4,161.7,4.5,0.0,0.0,912,131,0,0,861.68,6.38,33.12,0
10:55:56,0,0,0,0,0,0,0,0,0,0,0,515,0,0,0,0,0.0000000,0.0000000,0.0000000,0.0000000,4.00,38.4066086,-110.7920990,1348.1999512,0.8,187.7,4.1,0.0,0.0,910,126,0,0,861.63,6.42,33.19,0
10:55:57,0,0,0,0,0,0,0,0,0,0,0,514,0,0,0,0,0.0000000,0.0000000,0.0000000,0.0000000,4.00,38.4064941,-110.7920990,1361.8000488,0.8,187.2,4.1,0.0,0.0,911,129,0,0,861.67,6.36,33.27,0
10:55:58,0,0,0,0,0,0,0,0,0,0,0,515,0,0,0,0,0.0000000,0.0000000,0.0000000,0.0000000,4.00,38.4064255,-110.7920990,1370.8000488,0.7,181.9,4.1,0.0,0.0,910,127,0,0,861.67,6.27,33.33,0
10:55:59,0,0,0,0,0,0,0,0,0,0,0,514,0,0,0,0,0.0000000,0.0000000,0.0000000,0.0000000,4.00,38.4063683,-110.7920990,1377.5999756,0.6,184.0,4.1,0.0,0.0,911,126,0,0,861.69,6.23,33.40,0
10:56:00,0,0,0,0,0,0,0,0,0,0,0,515,0,0,0,0,0.0000000,0.0000000,0.0000000,0.0000000,6.00,38.4064178,-110.7921143,1378.1999512,0.3,212.5,1.3,0.0,0.0,910,128,0,0,861.72,6.26,33.48,0
10:56:01,0,0,0,0,0,0,0,0,0,0,0,515,0,0,0,0,0.0000000,0.0000000,0.0000000,0.0000000,5.00,38.4064178,-110.7921143,1378.9000244,0.2,250.0,1.5,0.0,0.0,910,125,0,0,861.70,6.10,33.54,0
10:56:02,0,0,0,0,0,0,0,0,0,0,0,515,0,0,0,0,0.0000000,0.0000000,0.0000000,0.0000000,5.00,38.4064217,-110.7921295,1379.4000244,0.2,296.4,1.5,0.0,0.0,910,129,0,0,861.69,6.07,33.61,0
10:56:03,0,0,0,0,0,0,0,0,0,0,0,515,0,0,0,0,0.0000000,0.0000000,0.0000000,0.0000000,5.00,38.4064217,-110.7921143,1379.9000244,0.1,338.9,1.5,0.0,0.0,912,129,0,0,861.68,6.12,33.69,0
10:56:04,0,0,0,0,0,0,0,0,0,0,0,515,0,0,0,0,0.0000000,0.0000000,0.0000000,0.0000000,5.00,38.4064217,-110.7921295,1380.5000000,0.1,328.7,1.5,0.0,0.0,910,127,0,0,861.66,6.09,33.77,0
10:56:05,0,0,0,0,0,0,0,0,0,0,0,514,0,0,0,0,0.0000000,0.0000000,0.0000000,0.0000000,5.00,38.4064217,-110.7921143,1380.8000488,0.0,103.5,1.5,0.0,0.0,910,127,0,0,861.73,6.04,33.85,0
10:56:06,0,0,0,0,0,0,0,0,0,0,0,514,0,0,0,0,0.0000000,0.0000000,0.0000000,0.0000000,5.00,38.4064178,-110.7921143,1381.3000488,0.2,349.8,1.5,0.0,0.0,911,127,0,0,861.66,6.01,33.93,0
10:56:07,0,0,0,0,0,0,0,0,0,0,0,515,0,0,0,0,0.0000000,0.0000000,0.0000000,0.0000000,5.00,38.4064178,-110.7921143,1381.6999512,0.1,317.3,1.9,0.0,0.0,911,129,0,0,861.68,5.97,34.01,0
10:56:08,0,0,0,0,0,0,0,0,0,0,0,515,0,0,0,0,0.0000000,0.0000000,0.0000000,0.0000000,5.00,38.4064178,-110.7921143,1382.0999756,0.3,170.1,1.5,0.0,0.0,910,129,0,0,861.73,5.88,34.09,0
10:56:09,0,0,0,0,0,0,0,0,0,0,0,514,0,0,0,0,0.0000000,0.0000000,0.0000000,0.0000000,5.00,38.4064178,-110.7921143,1382.4000244,0.3,151.9,1.5,0.0,0.0,910,128,0,0,861.75,5.81,34.16,0
10:56:10,0,0,0,0,0,0,0,0,0,0,0,514,0,0,0,0,0.0000000,0.0000000,0.0000000,0.0000000,5.00,38.4064140,-110.7921143,1382.5000000,0.3,172.1,1.5,0.0,0.0,910,128,0,0,861.73,5.77,34.22,0
10:56:11,0,0,0,0,0,0,0,0,0,0,0,515,0,0,0,0,0.0000000,0.0000000,0.0000000,0.0000000,5.00,38.4064140,-110.7921143,1382.5999756,0.3,173.1,1.5,0.0,0.0,910,128,0,0,861.75,5.77,34.30,0
10:56:13,0,0,0,0,0,0,0,0,0,0,0,514,0,0,0,0,0.0000000,0.0000000,0.0000000,0.0000000,5.00,38.4064178,-110.7921143,1382.5999756,0.1,176.9,1.5,0.0,0.0,910,129,0,0,861.70,5.71,34.34,0
10:56:14,0,0,0,0,0,0,0,0,0,0,0,514,0,0,0,0,0.0000000,0.0000000,0.0000000,0.0000000,5.00,38.4064178,-110.7921143,1382.6999512,0.0,109.7,1.5,0.0,0.0,910,127,0,0,861.65,5.71,34.40,0
10:56:15,0,0,0,0,0,0,0,0,0,0,0,514,0,0,0,0,0.0000000,0.0000000,0.0000000,0.0000000,5.00,38.4064178,-110.7921143,1382.9000244,0.1,14.4,1.5,0.0,0.0,911,126,0,0,861.71,5.68,34.48,0
10:56:16,0,0,0,0,0,0,0,0,0,0,0,514,0,0,0,0,0.0000000,0.0000000,0.0000000,0.0000000,5.00,38.4064178,-110.7920990,1382.9000244,0.3,98.0,1.9,0.0,0.0,910,130,0,0,861.75,5.57,34.51,0
10:56:17,0,0,0,0,0,0,0,0,0,0,0,515,0,0,0,0,0.0000000,0.0000000,0.0000000,0.0000000,5.00,38.4064140,-110.7920990,1383.0000000,0.1,114.5,1.5,0.0,0.0,910,127,0,0,861.72,5.63,34.58,0
10:56:18,0,0,0,0,0,0,0,0,0,0,0,514,0,0,0,0,0.0000000,0.0000000,0.0000000,0.0000000,5.00,38.4064178,-110.7920990,1383.0999756,0.1,353.9,1.5,0.0,0.0,911,128,0,0,861.73,5.63,34.67,0
10:56:19,0,0,0,0,0,0,0,0,0,0,0,515,0,0,0,0,0.0000000,0.0000000,0.0000000,0.0000000,5.00,38.4064178,-110.7920990,1383.1999512,0.0,300.5,1.9,0.0,0.0,910,129,0,0,861.70,5.51,34.69,0
10:56:20,0,0,0,0,0,0,0,0,0,0,0,514,0,0,0,0,0.0000000,0.0000000,0.0000000,0.0000000,5.00,38.4064178,-110.7920990,1383.1999512,0.1,3.6,1.5,0.0,0.0,910,127,0,0,861.72,5.49,34.76,0
10:56:21,0,0,0,0,0,0,0,0,0,0,0,515,0,0,0,0,0.0000000,0.0000000,0.0000000,0.0000000,5.00,38.4064178,-110.7920990,1383.0999756,0.0,18.3,1.9,0.0,0.0,910,127,0,0,861.72,5.48,34.84,0
10:56:22,0,0,0,0,0,0,0,0,0,0,0,514,0,0,0,0,0.0000000,0.0000000,0.0000000,0.0000000,5.00,38.4064178,-110.7920990,1383.0000000,0.0,188.1,1.5,0.0,0.0,910,128,0,0,861.72,5.45,34.88,0
10:56:23,0,0,0,0,0,0,0,0,0,0,0,515,0,0,0,0,0.0000000,0.0000000,0.0000000,0.0000000,5.00,38.4064178,-110.7920990,1383.0000000,0.0,39.8,1.5,0.0,0.0,910,127,0,0,861.70,5.37,34.96,0
10:56:24,0,0,0,0,0,0,0,0,0,0,0,514,0,0,0,0,0.0000000,0.0000000,0.0000000,0.0000000,5.00,38.4064178,-110.7920990,1383.0999756,0.0,175.3,1.5,0.0,0.0,910,127,0,0,861.73,5.39,35.02,0
10:56:25,0,0,0,0,0,0,0,0,0,0,0,515,0,0,0,0,0.0000000,0.0000000,0.0000000,0.0000000,5.00,38.4064178,-110.7920990,1382.9000244,0.0,6.7,2.0,0.0,0.0,910,128,0,0,861.73,5.33,35.13,0
10:56:26,0,0,0,0,0,0,0,0,0,0,0,515,0,0,0,0,0.0000000,0.0000000,0.0000000,0.0000000,5.00,38.4064178,-110.7920990,1382.8000488,0.0,55.1,1.5,0.0,0.0,911,128,0,0,861.70,5.22,35.12,0
10:56:27,0,0,0,0,0,0,0,0,0,0,0,515,0,0,0,0,0.0000000,0.0000000,0.0000000,0.0000000,5.00,38.4064178,-110.7920990,1382.6999512,0.1,172.6,1.5,0.0,0.0,910,131,0,0,861.71,5.17,35.20,0
10:56:28,0,0,0,0,0,0,0,0,0,0,0,514,0,0,0,0,0.0000000,0.0000000,0.0000000,0.0000000,5.00,38.4064178,-110.7920990,1382.5000000,0.1,164.6,1.5,0.0,0.0,910,129,0,0,861.69,5.14,35.28,0
10:56:29,0,0,0,0,0,0,0,0,0,0,0,515,0,0,0,0,0.0000000,0.0000000,0.0000000,0.0000000,5.00,38.4064178,-110.7921143,1382.3000488,0.1,279.2,1.5,0.0,0.0,910,128,0,0,861.75,5.14,35.35,0
10:56:30,0,0,0,0,0,0,0,0,0,0,0,514,0,0,0,0,0.0000000,0.0000000,0.0000000,0.0000000,5.00,38.4064178,-110.7921143,1382.0999756,0.1,251.0,1.5,0.0,0.0,910,128,0,0,861.73,5.02,35.42,0
10:56:31,0,0,0,0,0,0,0,0,0,0,0,515,0,0,0,0,0.0000000,0.0000000,0.0000000,0.0000000,5.00,38.4064178,-110.7921143,1382.0000000,0.0,172.1,1.5,0.0,0.0,910,131,0,0,861.77,4.94,35.47,0
10:56:32,0,0,0,0,0,0,0,0,0,0,0,514,0,0,0,0,0.0000000,0.0000000,0.0000000,0.0000000,5.00,38.4064178,-110.7921143,1381.9000244,0.3,234.1,1.5,0.0,0.0,910,127,0,0,861.75,4.85,35.44,0
10:56:33,0,0,0,0,0,0,0,0,0,0,0,514,0,0,0,0,0.0000000,0.0000000,0.0000000,0.0000000,5.00,38.4064178,-110.7921143,1381.9000244,0.3,235.5,1.5,0.0,0.0,910,128,0,0,861.73,4.82,35.46,0
10:56:34,0,0,0,0,0,0,0,0,0,0,0,514,0,0,0,0,0.0000000,0.0000000,0.0000000,0.0000000,5.00,38.4064140,-110.7921143,1381.9000244,0.1,221.6,1.5,0.0,0.0,910,129,0,0,861.73,4.97,35.57,0
10:56:35,0,0,0,0,0,0,0,0,0,0,0,514,0,0,0,0,0.0000000,0.0000000,0.0000000,0.0000000,5.00,38.4064140,-110.7921143,1381.9000244,0.1,226.8,1.5,0.0,0.0,910,129,0,0,861.72,4.90,35.63,0
10:56:36,0,0,0,0,0,0,0,0,0,0,0,515,0,0,0,0,0.0000000,0.0000000,0.0000000,0.0000000,5.00,38.4064140,-110.7921143,1381.9000244,0.2,251.1,1.5,0.0,0.0,910,127,0,0,861.76,4.84,35.67,0
10:56:37,0,0,0,0,0,0,0,0,0,0,0,514,0,0,0,0,0.0000000,0.0000000,0.0000000,0.0000000,5.00,38.4064140,-110.7921143,1381.8000488,0.1,288.2,1.5,0.0,0.0,910,129,0,0,861.67,4.93,35.76,0
10:56:38,0,0,0,0,0,0,0,0,0,0,0,514,0,0,0,0,0.0000000,0.0000000,0.0000000,0.0000000,5.00,38.4064140,-110.7921143,1381.8000488,0.1,329.7,1.5,0.0,0.0,910,130,0,0,861.76,4.84,35.81,0
10:56:39,0,0,0,0,0,0,0,0,0,0,0,514,0,0,0,0,0.0000000,0.0000000,0.0000000,0.0000000,5.00,38.4064140,-110.7921143,1381.8000488,0.0,213.1,1.5,0.0,0.0,910,128,0,0,861.74,4.93,35.90,0
10:56:40,0,0,0,0,0,0,0,0,0,0,0,515,0,0,0,0,0.0000000,0.0000000,0.0000000,0.0000000,5.00,38.4064140,-110.7921143,1381.8000488,0.1,297.5,1.5,0.0,0.0,910,130,0,0,861.79,4.76,35.94,0
10:56:41,0,0,0,0,0,0,0,0,0,0,0,515,0,0,0,0,0.0000000,0.0000000,0.0000000,0.0000000,5.00,38.4064140,-110.7921143,1381.8000488,0.0,309.5,1.5,0.0,0.0,910,130,0,0,861.76,4.72,35.75,0
10:56:42,0,0,0,0,0,0,0,0,0,0,0,514,0,0,0,0,0.0000000,0.0000000,0.0000000,0.0000000,5.00,38.4064140,-110.7921143,1381.8000488,0.2,178.4,1.5,0.0,0.0,911,128,0,0,861.71,4.73,35.66,0
10:56:43,0,0,0,0,0,0,0,0,0,0,0,514,0,0,0,0,0.0000000,0.0000000,0.0000000,0.0000000,5.00,38.4064140,-110.7921143,1381.8000488,0.1,142.5,1.5,0.0,0.0,911,126,0,0,861.75,4.73,35.59,0
10:56:44,0,0,0,0,0,0,0,0,0,0,0,514,0,0,0,0,0.0000000,0.0000000,0.0000000,0.0000000,5.00,38.4064140,-110.7921143,1381.8000488,0.2,190.5,1.5,0.0,0.0,910,130,0,0,861.71,4.70,35.55,0
10:56:45,0,0,0,0,0,0,0,0,0,0,0,515,0,0,0,0,0.0000000,0.0000000,0.0000000,0.0000000,5.00,38.4064102,-110.7921143,1381.8000488,0.2,144.4,1.5,0.0,0.0,910,129,0,0,861.71,4.73,35.58,0
10:56:46,0,0,0,0,0,0,0,0,0,0,0,514,0,0,0,0,0.0000000,0.0000000,0.0000000,0.0000000,5.00,38.4064102,-110.7921143,1381.8000488,0.1,193.6,1.5,0.0,0.0,910,127,0,0,861.71,4.78,35.64,0
10:56:47,0,0,0,0,0,0,0,0,0,0,0,514,0,0,0,0,0.0000000,0.0000000,0.0000000,0.0000000,5.00,38.4064102,-110.7921143,1381.8000488,0.3,118.4,1.5,0.0,0.0,910,129,0,0,861.74,4.76,35.77,0
10:56:48,0,0,0,0,0,0,0,0,0,0,0,514,0,0,0,0,0.0000000,0.0000000,0.0000000,0.0000000,5.00,38.4064102,-110.7921143,1381.8000488,0.2,130.8,1.5,0.0,0.0,910,126,0,0,861.75,4.79,35.80,0
10:56:49,0,0,0,0,0,0,0,0,0,0,0,514,0,0,0,0,0.0000000,0.0000000,0.0000000,0.0000000,5.00,38.4064102,-110.7921143,1381.8000488,0.3,172.4,1.5,0.0,0.0,910,127,0,0,861.75,4.79,35.86,0
10:56:50,0,0,0,0,0,0,0,0,0,0,0,514,0,0,0,0,0.0000000,0.0000000,0.0000000,0.0000000,5.00,38.4064064,-110.7921143,1381.8000488,0.3,175.6,1.5,0.0,0.0,910,126,0,0,861.75,4.75,35.97,0
10:56:51,0,0,0,0,0,0,0,0,0,0,0,514,0,0,0,0,0.0000000,0.0000000,0.0000000,0.0000000,5.00,38.4064064,-110.7921143,1381.8000488,0.3,171.5,1.5,0.0,0.0,910,127,0,0,861.73,4.73,36.05,0
10:56:52,0,0,0,0,0,0,0,0,0,0,0,515,0,0,0,0,0.0000000,0.0000000,0.0000000,0.0000000,5.00,38.4064064,-110.7921143,1381.8000488,0.2,193.3,1.5,0.0,0.0,911,129,0,0,861.73,4.61,36.06,0
10:56:53,0,0,0,0,0,0,0,0,0,0,0,514,0,0,0,0,0.0000000,0.0000000,0.0000000,0.0000000,5.00,38.4064026,-110.7921143,1381.8000488,0.3,229.4,1.5,0.0,0.0,909,125,0,0,861.77,4.53,36.04,0
10:56:54,0,0,0,0,0,0,0,0,0,0,0,515,0,0,0,0,0.0000000,0.0000000,0.0000000,0.0000000,5.00,38.4064026,-110.7921143,1381.8000488,0.3,203.2,1.5,0.0,0.0,910,131,0,0,861.73,4.46,36.11,0
10:56:55,0,0,0,0,0,0,0,0,0,0,0,514,0,0,0,0,0.0000000,0.0000000,0.0000000,0.0000000,5.00,38.4064026,-110.7921143,1381.8000488,0.3,173.6,1.5,0.0,0.0,910,128,0,0,861.73,4.46,36.17,0
10:56:56,0,0,0,0,0,0,0,0,0,0,0,514,0,0,0,0,0.0000000,0.0000000,0.0000000,0.0000000,5.00,38.4063988,-110.7921143,1381.8000488,0.3,176.9,1.5,0.0,0.0,911,128,0,0,861.78,4.46,36.23,0
10:56:57,0,0,0,0,0,0,0,0,0,0,0,514,0,0,0,0,0.0000000,0.0000000,0.0000000,0.0000000,5.00,38.4063950,-110.7921143,1381.8000488,0.3,170.8,1.5,0.0,0.0,910,127,0,0,861.77,4.44,36.27,0
10:56:58,0,0,0,0,0,0,0,0,0,0,0,515,0,0,0,0,0.0000000,0.0000000,0.0000000,0.0000000,5.00,38.4063950,-110.7921143,1381.8000488,0.3,174.0,1.5,0.0,0.0,910,127,0,0,861.74,4.43,36.25,0
10:56:59,0,0,0,0,0,0,0,0,0,0,0,515,0,0,0,0,0.0000000,0.0000000,0.0000000,0.0000000,5.00,38.4063950,-110.7921143,1381.8000488,0.3,203.0,1.5,0.0,0.0,910,128,0,0,861.77,4.36,36.31,0
10:57:00,0,0,0,0,0,0,0,0,0,0,0,515,0,0,0,0,0.0000000,0.0000000,0.0000000,0.0000000,5.00,38.4063950,-110.7921143,1381.8000488,0.3,177.6,1.5,0.0,0.0,911,124,0,0,861.74,4.40,36.35,0
10:57:01,0,0,0,0,0,0,0,0,0,0,0,515,0,0,0,0,0.0000000,0.0000000,0.0000000,0.0000000,5.00,38.4063950,-110.7921143,1381.8000488,0.3,156.8,1.5,0.0,0.0,910,129,0,0,861.74,4.41,36.46,0
10:57:02,0,0,0,0,0,0,0,0,0,0,0,515,0,0,0,0,0.0000000,0.0000000,0.0000000,0.0000000,5.00,38.4063911,-110.7921143,1381.8000488,0.3,129.0,1.5,0.0,0.0,910,128,0,0,861.70,4.50,36.61,0
10:57:03,0,0,0,0,0,0,0,0,0,0,0,515,0,0,0,0,0.0000000,0.0000000,0.0000000,0.0000000,5.00,38.4063911,-110.7921143,1381.8000488,0.3,135.8,1.5,0.0,0.0,910,129,0,0,861.77,4.52,36.73,0
10:57:04,0,0,0,0,0,0,0,0,0,0,0,514,0,0,0,0,0.0000000,0.0000000,0.0000000,0.0000000,5.00,38.4063911,-110.7921143,1381.8000488,0.1,131.8,1.5,0.0,0.0,910,129,0,0,861.84,4.35,36.62,0
10:57:05,0,0,0,0,0,0,0,0,0,0,0,515,0,0,0,0,0.0000000,0.0000000,0.0000000,0.0000000,5.00,38.4063911,-110.7921143,1381.8000488,0.3,183.4,1.5,0.0,0.0,910,126,0,0,861.76,4.46,36.68,0
10:57:06,0,0,0,0,0,0,0,0,0,0,0,514,0,0,0,0,0.0000000,0.0000000,0.0000000,0.0000000,5.00,38.4063873,-110.7921143,1381.8000488,0.3,154.1,1.5,0.0,0.0,910,129,0,0,861.75,4.52,36.82,0
10:57:07,0,0,0,0,0,0,0,0,0,0,0,515,0,0,0,0,0.0000000,0.0000000,0.0000000,0.0000000,5.00,38.4063873,-110.7921143,1381.8000488,0.3,147.4,1.5,0.0,0.0,910,128,0,0,861.78,4.50,36.94,0
10:57:08,0,0,0,0,0,0,0,0,0,0,0,514,0,0,0,0,0.0000000,0.0000000,0.0000000,0.0000000,5.00,38.4063873,-110.7921143,1381.8000488,0.1,128.9,1.5,0.0,0.0,910,129,0,0,861.76,4.49,37.05,0
10:57:09,0,0,0,0,0,0,0,0,0,0,0,514,0,0,0,0,0.0000000,0.0000000,0.0000000,0.0000000,5.00,38.4063835,-110.7921143,1381.8000488,0.3,140.7,1.5,0.0,0.0,910,128,0,0,861.74,4.40,37.13,0
10:57:10,0,0,0,0,0,0,0,0,0,0,0,514,0,0,0,0,0.0000000,0.0000000,0.0000000,0.0000000,5.00,38.4063835,-110.7921143,1381.8000488,0.4,146.1,1.5,0.0,0.0,910,130,0,0,861.80,4.33,37.18,0
10:57:11,0,0,0,0,0,0,0,0,0,0,0,515,0,0,0,0,0.0000000,0.0000000,0.0000000,0.0000000,5.00,38.4063835,-110.7921143,1381.8000488,0.3,159.7,1.5,0.0,0.0,910,127,0,0,861.79,4.24,37.08,0
10:57:12,0,0,0,0,0,0,0,0,0,0,0,514,0,0,0,0,0.0000000,0.0000000,0.0000000,0.0000000,5.00,38.4063797,-110.7921143,1381.8000488,0.3,179.6,1.5,0.0,0.0,910,129,0,0,861.73,4.27,37.17,0
10:57:13,0,0,0,0,0,0,0,0,0,0,0,515,0,0,0,0,0.0000000,0.0000000,0.0000000,0.0000000,5.00,38.4063797,-110.7921143,1381.8000488,0.3,167.4,1.5,0.0,0.0,910,131,0,0,861.83,4.15,37.22,0
10:57:14,0,0,0,0,0,0,0,0,0,0,0,514,0,0,0,0,0.0000000,0.0000000,0.0000000,0.0000000,5.00,38.4063759,-110.7921143,1381.8000488,0.3,195.3,1.5,0.0,0.0,911,130,0,0,861.80,4.14,37.16,0
10:57:15,0,0,0,0,0,0,0,0,0,0,0,515,0,0,0,0,0.0000000,0.0000000,0.0000000,0.0000000,5.00,38.4063759,-110.7921143,1381.8000488,0.4,189.1,1.5,0.0,0.0,911,128,0,0,861.78,4.12,37.07,0
10:57:16,0,0,0,0,0,0,0,0,0,0,0,515,0,0,0,0,0.0000000,0.0000000,0.0000000,0.0000000,5.00,38.4063759,-110.7921143,1381.8000488,0.4,188.3,1.5,0.0,0.0,910,127,0,0,861.75,4.09,37.08,0
10:57:17,0,0,0,0,0,0,0,0,0,0,0,515,0,0,0,0,0.0000000,0.0000000,0.0000000,0.0000000,5.00,38.4063759,-110.7921143,1381.8000488,0.3,189.8,1.5,0.0,0.0,910,129,0,0,861.73,4.11,37.07,0
10:57:18,0,0,0,0,0,0,0,0,0,0,0,515,0,0,0,0,0.0000000,0.0000000,0.0000000,0.0000000,5.00,38.4063721,-110.7921143,1381.8000488,0.3,156.9,1.5,0.0,0.0,910,132,0,0,861.73,4.26,37.23,0
10:57:19,0,0,0,0,0,0,0,0,0,0,0,513,0,0,0,0,0.0000000,0.0000000,0.0000000,0.0000000,5.00,38.4063721,-110.7921143,1381.8000488,0.4,159.1,1.5,0.0,0.0,910,127,0,0,861.74,4.32,37.38,0
10:57:20,0,0,0,0,0,0,0,0,0,0,0,515,0,0,0,0,0.0000000,0.0000000,0.0000000,0.0000000,5.00,38.4063683,-110.7921143,1381.8000488,0.3,154.2,1.5,0.0,0.0,910,128,0,0,861.76,4.32,37.51,0
10:57:21,0,0,0,0,0,0,0,0,0,0,0,515,0,0,0,0,0.0000000,0.0000000,0.0000000,0.0000000,5.00,38.4063683,-110.7920990,1381.8000488,0.3,164.1,1.5,0.0,0.0,910,129,0,0,861.79,4.18,37.58,0
10:57:22,0,0,0,0,0,0,0,0,0,0,0,515,0,0,0,0,0.0000000,0.0000000,0.0000000,0.0000000,5.00,38.4063683,-110.7920990,1381.8000488,0.2,175.1,1.5,0.0,0.0,910,130,0,0,861.81,4.18,37.65,0
10:57:23,0,0,0,0,0,0,0,0,0,0,0,515,0,0,0,0,0.0000000,0.0000000,0.0000000,0.0000000,5.00,38.4063644,-110.7920990,1381.8000488,0.3,169.8,1.5,0.0,0.0,910,130,0,0,861.79,4.17,37.75,0
10:57:24,0,0,0,0,0,0,0,0,0,0,0,515,0,0,0,0,0.0000000,0.0000000,0.0000000,0.0000000,5.00,38.4063644,-110.7920990,1381.8000488,0.1,192.8,1.5,0.0,0.0,909,127,0,0,861.75,4.17,37.83,0
10:57:25,0,0,0,0,0,0,0,0,0,0,0,515,0,0,0,0,0.0000000,0.0000000,0.0000000,0.0000000,5.00,38.4063644,-110.7920990,1381.8000488,0.2,127.9,1.5,0.0,0.0,909,129,0,0,861.82,4.18,37.92,0
10:57:26,0,0,0,0,0,0,0,0,0,0,0,514,0,0,0,0,0.0000000,0.0000000,0.0000000,0.0000000,5.00,38.4063644,-110.7920990,1381.8000488,0.1,322.0,1.5,0.0,0.0,910,128,0,0,861.81,4.18,38.00,0
10:57:27,0,0,0,0,0,0,0,0,0,0,0,515,0,0,0,0,0.0000000,0.0000000,0.0000000,0.0000000,5.00,38.4063644,-110.7920990,1381.8000488,0.2,252.7,1.5,0.0,0.0,910,129,0,0,861.80,4.01,38.04,0
10:57:28,0,0,0,0,0,0,0,0,0,0,0,515,0,0,0,0,0.0000000,0.0000000,0.0000000,0.0000000,5.00,38.4063644,-110.7920990,1381.8000488,0.1,120.1,1.5,0.0,0.0,910,127,0,0,861.79,3.98,38.11,0
10:57:29,0,0,0,0,0,0,0,0,0,0,0,514,0,0,0,0,0.0000000,0.0000000,0.0000000,0.0000000,5.00,38.4063644,-110.7920990,1381.8000488,0.1,127.8,1.5,0.0,0.0,909,131,0,0,861.83,3.94,38.15,0
10:57:30,0,0,0,0,0,0,0,0,0,0,0,514,0,0,0,0,0.0000000,0.0000000,0.0000000,0.0000000,5.00,38.4063644,-110.7920990,1381.8000488,0.2,69.9,1.5,0.0,0.0,910,131,0,0,861.83,3.82,38.13,0
10:57:31,0,0,0,0,0,0,0,0,0,0,0,514,0,0,0,0,0.0000000,0.0000000,0.0000000,0.0000000,5.00,38.4063644,-110.7920990,1381.8000488,0.0,304.8,1.5,0.0,0.0,910,127,0,0,861.81,3.83,37.98,0
10:57:32,0,0,0,0,0,0,0,0,0,0,0,515,0,0,0,0,0.0000000,0.0000000,0.0000000,0.0000000,5.00,38.4063644,-110.7920990,1381.8000488,0.1,3.5,1.5,0.0,0.0,910,129,0,0,861.77,3.86,38.06,0
10:57:33,0,0,0,0,0,0,0,0,0,0,0,515,0,0,0,0,0.0000000,0.0000000,0.0000000,0.0000000,5.00,38.4063644,-110.7920990,1381.8000488,0.1,333.1,2.0,0.0,0.0,910,125,0,0,861.77,3.75,38.13,0
10:57:34,0,0,0,0,0,0,0,0,0,0,0,515,0,0,0,0,0.0000000,0.0000000,0.0000000,0.0000000,5.00,38.4063644,-110.7920990,1381.8000488,0.2,337.8,1.5,0.0,0.0,909,126,0,0,861.79,3.72,38.03,0
10:57:35,0,0,0,0,0,0,0,0,0,0,0,515,0,0,0,0,0.0000000,0.0000000,0.0000000,0.0000000,5.00,38.4063644,-110.7920990,1381.8000488,0.1,345.0,1.5,0.0,0.0,909,133,0,0,861.79,3.75,38.07,0
10:57:36,0,0,0,0,0,0,0,0,0,0,0,515,0,0,0,0,0.0000000,0.0000000,0.0000000,0.0000000,5.00,38.4063644,-110.7920990,1381.8000488,0.1,279.8,1.5,0.0,0.0,910,132,0,0,861.76,3.74,38.04,0
10:57:37,0,0,0,0,0,0,0,0,0,0,0,515,0,0,0,0,0.0000000,0.0000000,0.0000000,0.0000000,5.00,38.4063644,-110.7920990,1381.8000488,0.1,132.1,1.5,0.0,0.0,909,131,0,0,861.83,3.72,37.95,0
10:57:38,0,0,0,0,0,0,0,0,0,0,0,513,0,0,0,0,0.0000000,0.0000000,0.0000000,0.0000000,5.00,38.4063644,-110.7920990,1381.8000488,0.2,64.2,1.5,0.0,0.0,910,129,0,0,861.78,3.74,38.04,0
10:57:39,0,0,0,0,0,0,0,0,0,0,0,514,0,0,0,0,0.0000000,0.0000000,0.0000000,0.0000000,5.00,38.4063644,-110.7920990,1381.8000488,0.2,61.4,1.5,0.0,0.0,910,128,0,0,861.80,3.71,38.04,0
10:57:40,0,0,0,0,0,0,0,0,0,0,0,514,0,0,0,0,0.0000000,0.0000000,0.0000000,0.0000000,5.00,38.4063644,-110.7920990,1381.8000488,0.2,120.4,1.5,0.0,0.0,910,127,0,0,861.74,3.69,38.01,0
10:57:41,0,0,0,0,0,0,0,0,0,0,0,515,0,0,0,0,0.0000000,0.0000000,0.0000000,0.0000000,5.00,38.4063644,-110.7920990,1381.8000488,0.1,193.1,1.5,0.0,0.0,910,130,0,0,861.80,3.71,38.01,0
10:57:42,0,0,0,0,0,0,0,0,0,0,0,515,0,0,0,0,0.0000000,0.0000000,0.0000000,0.0000000,5.00,38.4063644,-110.7920990,1381.8000488,0.2,161.3,1.5,0.0,0.0,910,132,0,0,861.82,3.74,37.96,0
10:57:43,0,0,0,0,0,0,0,0,0,0,0,514,0,0,0,0,0.0000000,0.0000000,0.0000000,0.0000000,5.00,38.4063644,-110.7920990,1381.8000488,0.1,176.5,1.5,0.0,0.0,910,128,0,0,861.76,3.80,37.94,0
10:57:44,0,0,0,0,0,0,0,0,0,0,0,515,0,0,0,0,0.0000000,0.0000000,0.0000000,0.0000000,5.00,38.4063644,-110.7920990,1381.8000488,0.2,165.8,1.5,0.0,0.0,910,128,0,0,861.80,3.78,37.95,0
10:57:45,0,0,0,0,0,0,0,0,0,0,0,515,0,0,0,0,0.0000000,0.0000000,0.0000000,0.0000000,5.00,38.4063606,-110.7920990,1381.8000488,0.3,169.7,1.5,0.0,0.0,910,128,0,0,861.79,3.83,37.99,0
10:57:46,0,0,0,0,0,0,0,0,0,0,0,515,0,0,0,0,0.0000000,0.0000000,0.0000000,0.0000000,5.00,38.4063606,-110.7920990,1381.8000488,0.3,171.1,1.5,0.0,0.0,909,129,0,0,861.78,3.83,38.10,0
10:57:47,0,0,0,0,0,0,0,0,0,0,0,515,0,0,0,0,0.0000000,0.0000000,0.0000000,0.0000000,5.00,38.4063606,-110.7920990,1381.8000488,0.2,182.5,1.5,0.0,0.0,909,128,0,0,861.81,3.75,38.15,0
10:57:48,0,0,0,0,0,0,0,0,0,0,0,515,0,0,0,0,0.0000000,0.0000000,0.0000000,0.0000000,5.00,38.4063568,-110.7920990,1381.8000488,0.2,155.1,1.5,0.0,0.0,909,132,0,0,861.77,3.80,38.12,0
10:57:49,0,0,0,0,0,0,0,0,0,0,0,515,0,0,0,0,0.0000000,0.0000000,0.0000000,0.0000000,5.00,38.4063568,-110.7920990,1381.8000488,0.4,170.4,1.5,0.0,0.0,909,134,0,0,861.74,3.88,38.30,0
10:57:51,0,0,0,0,0,0,0,0,0,0,0,515,0,0,0,0,0.0000000,0.0000000,0.0000000,0.0000000,5.00,38.4063568,-110.7920990,1381.8000488,0.3,166.9,1.5,0.0,0.0,910,130,0,0,861.74,3.91,38.45,0
10:57:52,0,0,0,0,0,0,0,0,0,0,0,514,0,0,0,0,0.0000000,0.0000000,0.0000000,0.0000000,5.00,38.4063530,-110.7920990,1381.8000488,0.2,146.3,1.5,0.0,0.0,909,128,0,0,861.74,3.88,38.58,0
10:57:53,0,0,0,0,0,0,0,0,0,0,0,515,0,0,0,0,0.0000000,0.0000000,0.0000000,0.0000000,5.00,38.4063530,-110.7920990,1381.8000488,0.4,169.2,1.5,0.0,0.0,910,127,0,0,861.77,3.75,38.65,0
10:57:54,0,0,0,0,0,0,0,0,0,0,0,515,0,0,0,0,0.0000000,0.0000000,0.0000000,0.0000000,5.00,38.4063530,-110.7920990,1381.8000488,0.3,155.3,1.5,0.0,0.0,910,129,0,0,861.75,3.68,38.67,0
10:57:55,0,0,0,0,0,0,0,0,0,0,0,514,0,0,0,0,0.0000000,0.0000000,0.0000000,0.0000000,5.00,38.4063492,-110.7920990,1381.8000488,0.3,182.4,1.5,0.0,0.0,909,127,0,0,861.80,3.65,38.68,0
10:57:56,0,0,0,0,0,0,0,0,0,0,0,515,0,0,0,0,0.0000000,0.0000000,0.0000000,0.0000000,5.00,38.4063492,-110.7920990,1381.8000488,0.2,204.3,1.5,0.0,0.0,910,132,0,0,861.83,3.60,38.75,0
10:57:57,0,0,0,0,0,0,0,0,0,0,0,515,0,0,0,0,0.0000000,0.0000000,0.0000000,0.0000000,5.00,38.4063492,-110.7920990,1381.8000488,0.1,235.9,1.5,0.0,0.0,909,128,0,0,861.81,3.69,38.88,0
10:57:58,0,0,0,0,0,0,0,0,0,0,0,514,0,0,0,0,0.0000000,0.0000000,0.0000000,0.0000000,5.00,38.4063454,-110.7920990,1381.8000488,0.1,152.7,1.5,0.0,0.0,909,132,0,0,861.77,3.75,38.98,0
10:57:59,0,0,0,0,0,0,0,0,0,0,0,515,0,0,0,0,0.0000000,0.0000000,0.0000000,0.0000000,5.00,38.4063454,-110.7920990,1381.8000488,0.1,289.1,1.5,0.0,0.0,909,128,0,0,861.76,3.59,39.01,0
10:58:00,0,0,0,0,0,0,0,0,0,0,0,514,0,0,0,0,0.0000000,0.0000000,0.0000000,0.0000000,5.00,38.4063454,-110.7920990,1381.9000244,0.1,327.2,1.5,0.0,0.0,909,128,0,0,861.75,3.57,39.03,0
10:58:01,0,0,0,0,0,0,0,0,0,0,0,514,0,0,0,0,0.0000000,0.0000000,0.0000000,0.0000000,5.00,38.4063454,-110.7920990,1381.9000244,0.0,264.1,1.5,0.0,0.0,909,127,0,0,861.79,3.43,39.09,0
10:58:02,0,0,0,0,0,0,0,0,0,0,0,515,0,0,0,0,0.0000000,0.0000000,0.0000000,0.0000000,5.00,38.4063454,-110.7920990,1381.9000244,0.1,94.0,1.5,0.0,0.0,910,127,0,0,861.75,3.39,39.02,0
10:58:03,0,0,0,0,0,0,0,0,0,0,0,514,0,0,0,0,0.0000000,0.0000000,0.0000000,0.0000000,5.00,38.4063454,-110.7920990,1381.9000244,0.1,257.8,1.5,0.0,0.0,910,130,0,0,861.73,3.46,39.05,0
10:58:04,0,0,0,0,0,0,0,0,0,0,0,515,0,0,0,0,0.0000000,0.0000000,0.0000000,0.0000000,5.00,38.4063454,-110.7920990,1381.9000244,0.0,279.6,1.5,0.0,0.0,909,128,0,0,861.79,3.51,39.18,0
10:58:05,0,0,0,0,0,0,0,0,0,0,0,514,0,0,0,0,0.0000000,0.0000000,0.0000000,0.0000000,5.00,38.4063454,-110.7920990,1381.9000244,0.0,137.4,1.5,0.0,0.0,909,129,0,0,861.78,3.42,39.21,0
10:58:06,0,0,0,0,0,0,0,0,0,0,0,515,0,0,0,0,0.0000000,0.0000000,0.0000000,0.0000000,5.00,38.4063454,-110.7920990,1381.9000244,0.1,138.5,1.5,0.0,0.0,910,131,0,0,861.80,3.53,39.37,0
10:58:07,0,0,0,0,0,0,0,0,0,0,0,514,0,0,0,0,0.0000000,0.0000000,0.0000000,0.0000000,5.00,38.4063454,-110.7920990,1381.9000244,0.1,151.0,1.5,0.0,0.0,909,129,0,0,861.85,3.56,39.48,0
10:58:08,0,0,0,0,0,0,0,0,0,0,0,515,0,0,0,0,0.0000000,0.0000000,0.0000000,0.0000000,5.00,38.4063454,-110.7920990,1381.9000244,0.1,80.4,1.5,0.0,0.0,910,128,0,0,861.78,3.53,39.59,0
10:58:09,0,0,0,0,0,0,0,0,0,0,0,515,0,0,0,0,0.0000000,0.0000000,0.0000000,0.0000000,5.00,38.4063454,-110.7920990,1381.9000244,0.2,340.6,1.5,0.0,0.0,909,128,0,0,861.80,3.42,39.64,0
10:58:10,0,0,0,0,0,0,0,0,0,0,0,515,0,0,0,0,0.0000000,0.0000000,0.0000000,0.0000000,5.00,38.4063454,-110.7920990,1381.9000244,0.3,349.2,1.5,0.0,0.0,909,128,0,0,861.79,3.30,39.66,0
10:58:11,0,0,0,0,0,0,0,0,0,0,0,516,0,0,0,0,0.0000000,0.0000000,0.0000000,0.0000000,5.00,38.4063492,-110.7920990,1381.9000244,0.3,354.2,2.0,0.0,0.0,910,128,0,0,861.79,3.25,39.71,0
10:58:12,0,0,0,0,0,0,0,0,0,0,0,514,0,0,0,0,0.0000000,0.0000000,0.0000000,0.0000000,5.00,38.4063492,-110.7920990,1381.9000244,0.5,10.4,2.0,0.0,0.0,910,128,0,0,861.81,3.20,39.76,0
10:58:13,0,0,0,0,0,0,0,0,0,0,0,514,0,0,0,0,0.0000000,0.0000000,0.0000000,0.0000000,5.00,38.4063530,-110.7920990,1381.9000244,0.3,22.0,2.0,0.0,0.0,910,130,0,0,861.79,3.14,39.69,0
10:58:14,0,0,0,0,0,0,0,0,0,0,0,515,0,0,0,0,0.0000000,0.0000000,0.0000000,0.0000000,5.00,38.4063530,-110.7920990,1381.9000244,0.2,313.3,1.5,0.0,0.0,909,129,0,0,861.82,3.16,39.75,0
10:58:15,0,0,0,0,0,0,0,0,0,0,0,515,0,0,0,0,0.0000000,0.0000000,0.0000000,0.0000000,5.00,38.4063530,-110.7920990,1381.9000244,0.3,358.5,1.5,0.0,0.0,910,129,0,0,861.81,3.14,39.71,0
10:58:16,0,0,0,0,0,0,0,0,0,0,0,515,0,0,0,0,0.0000000,0.0000000,0.0000000,0.0000000,5.00,38.4063568,-110.7920990,1381.9000244,0.1,355.4,2.0,0.0,0.0,909,127,0,0,861.79,3.24,39.80,0
10:58:17,0,0,0,0,0,0,0,0,0,0,0,515,0,0,0,0,0.0000000,0.0000000,0.0000000,0.0000000,5.00,38.4063568,-110.7920990,1381.9000244,0.1,327.5,2.0,0.0,0.0,909,130,0,0,861.81,3.25,39.89,0
10:58:18,0,0,0,0,0,0,0,0,0,0,0,514,0,0,0,0,0.0000000,0.0000000,0.0000000,0.0000000,6.00,38.4063568,-110.7920990,1381.9000244,0.2,320.1,1.3,0.0,0.0,909,129,0,0,861.83,3.16,39.87,0
10:58:19,0,0,0,0,0,0,0,0,0,0,0,515,0,0,0,0,0.0000000,0.0000000,0.0000000,0.0000000,6.00,38.4063568,-110.7920990,1381.9000244,0.4,339.0,1.3,0.0,0.0,909,124,0,0,861.77,3.17,39.90,0
10:58:20,0,0,0,0,0,0,0,0,0,0,0,514,0,0,0,0,0.0000000,0.0000000,0.0000000,0.0000000,6.00,38.4063568,-110.7920990,1381.9000244,0.3,9.8,1.3,0.0,0.0,910,129,0,0,861.80,3.28,40.02,0
10:58:21,0,0,0,0,0,0,0,0,0,0,0,514,0,0,0,0,0.0000000,0.0000000,0.0000000,0.0000000,6.00,38.4063606,-110.7920990,1382.0000000,0.2,4.2,1.5,0.0,0.0,909,127,0,0,861.82,3.31,40.13,0
10:58:22,0,0,0,0,0,0,0,0,0,0,0,515,0,0,0,0,0.0000000,0.0000000,0.0000000,0.0000000,6.00,38.4063606,-110.7920990,1382.0000000,0.3,16.2,1.5,0.0,0.0,909,126,0,0,861.80,3.20,40.20,0
10:58:23,0,0,0,0,0,0,0,0,0,0,0,515,0,0,0,0,0.0000000,0.0000000,0.0000000,0.0000000,6.00,38.4063606,-110.7920990,1382.0000000,0.4,0.2,1.3,0.0,0.0,909,129,0,0,861.80,3.24,40.25,0
10:58:24,0,0,0,0,0,0,0,0,0,0,0,515,0,0,0,0,0.0000000,0.0000000,0.0000000,0.0000000,6.00,38.4063644,-110.7920990,1382.0000000,0.3,15.1,1.5,0.0,0.0,909,128,0,0,861.83,3.24,40.33,0
10:58:25,0,0,0,0,0,0,0,0,0,0,0,515,0,0,0,0,0.0000000,0.0000000,0.0000000,0.0000000,6.00,38.4063644,-110.7920990,1382.0000000,0.3,10.7,1.3,0.0,0.0,909,128,0,0,861.79,3.28,40.42,0
10:58:26,0,0,0,0,0,0,0,0,0,0,0,515,0,0,0,0,0.0000000,0.0000000,0.0000000,0.0000000,6.00,38.4063683,-110.7920990,1382.0000000,0.2,4.7,1.5,0.0,0.0,909,130,0,0,861.85,3.31,40.49,0
10:58:27,0,0,0,0,0,0,0,0,0,0,0,515,0,0,0,0,0.0000000,0.0000000,0.0000000,0.0000000,6.00,38.4063683,-110.7920990,1382.0000000,0.1,25.3,1.5,0.0,0.0,909,128,0,0,861.82,3.17,40.53,0
10:58:28,0,0,0,0,0,0,0,0,0,0,0,514,0,0,0,0,0.0000000,0.0000000,0.0000000,0.0000000,6.00,38.4063683,-110.7920990,1382.0000000,0.1,1.6,1.3,0.0,0.0,909,129,0,0,861.82,3.17,40.60,0
10:58:29,0,0,0,0,0,0,0,0,0,0,0,515,0,0,0,0,0.0000000,0.0000000,0.0000000,0.0000000,6.00,38.4063683,-110.7920990,1382.0000000,0.2,334.4,1.5,0.0,0.0,909,132,0,0,861.79,3.20,40.68,0
10:58:30,0,0,0,0,0,0,0,0,0,0,0,515,0,0,0,0,0.0000000,0.0000000,0.0000000,0.0000000,7.00,38.4063721,-110.7920990,1382.0000000,0.1,328.3,1.1,0.0,0.0,909,128,0,0,861.83,2.96,40.64,0
10:58:31,0,0,0,0,0,0,0,0,0,0,0,515,0,0,0,0,0.0000000,0.0000000,0.0000000,0.0000000,7.00,38.4063721,-110.7920990,1382.0000000,0.0,18.1,1.1,0.0,0.0,909,130,0,0,861.83,2.90,40.59,0
10:58:32,0,0,0,0,0,0,0,0,0,0,0,514,0,0,0,0,0.0000000,0.0000000,0.0000000,0.0000000,7.00,38.4063721,-110.7920990,1382.0000000,0.1,157.9,1.1,0.0,0.0,909,123,0,0,861.85,2.96,40.68,0
10:58:33,0,0,0,0,0,0,0,0,0,0,0,515,0,0,0,0,0.0000000,0.0000000,0.0000000,0.0000000,7.00,38.4063721,-110.7920990,1382.0000000,0.2,163.5,1.1,0.0,0.0,909,127,0,0,861.84,2.85,40.68,0
10:58:34,0,0,0,0,0,0,0,0,0,0,0,515,0,0,0,0,0.0000000,0.0000000,0.0000000,0.0000000,7.00,38.4063683,-110.7920990,1382.0000000,0.1,197.6,1.1,0.0,0.0,909,129,0,0,861.85,3.01,40.76,0
10:58:35,0,0,0,0,0,0,0,0,0,0,0,515,0,0,0,0,0.0000000,0.0000000,0.0000000,0.0000000,7.00,38.4063683,-110.7920990,1382.0000000,0.1,323.3,1.1,0.0,0.0,909,128,0,0,861.84,3.05,40.85,0
10:58:36,0,0,0,0,0,0,0,0,0,0,0,515,0,0,0,0,0.0000000,0.0000000,0.0000000,0.0000000,7.00,38.4063683,-110.7920990,1382.0000000,0.2,304.1,1.1,0.0,0.0,909,128,0,0,861.86,2.93,40.91,0
10:58:37,0,0,0,0,0,0,0,0,0,0,0,515,0,0,0,0,0.0000000,0.0000000,0.0000000,0.0000000,7.00,38.4063721,-110.7920990,1382.0000000,0.1,54.7,1.1,0.0,0.0,909,127,0,0,861.83,2.93,40.92,0
10:58:38,0,0,0,0,0,0,0,0,0,0,0,515,0,0,0,0,0.0000000,0.0000000,0.0000000,0.0000000,7.00,38.4063721,-110.7920990,1382.0000000,0.1,38.3,1.1,0.0,0.0,909,127,0,0,861.83,2.90,41.00,0
10:58:39,0,0,0,0,0,0,0,0,0,0,0,515,0,0,0,0,0.0000000,0.0000000,0.0000000,0.0000000,7.00,38.4063721,-110.7920990,1382.0000000,0.1,170.7,1.1,0.0,0.0,909,127,0,0,861.83,2.88,41.08,0
10:58:40,0,0,0,0,0,0,0,0,0,0,0,514,0,0,0,0,0.0000000,0.0000000,0.0000000,0.0000000,7.00,38.4063721,-110.7920990,1382.0000000,0.0,232.2,1.1,0.0,0.0,909,129,0,0,861.86,2.79,41.01,0
10:58:41,0,0,0,0,0,0,0,0,0,0,0,515,0,0,0,0,0.0000000,0.0000000,0.0000000,0.0000000,7.00,38.4063721,-110.7920990,1381.9000244,0.1,307.0,1.1,0.0,0.0,909,128,0,0,861.82,2.88,41.10,0
10:58:42,0,0,0,0,0,0,0,0,0,0,0,515,0,0,0,0,0.0000000,0.0000000,0.0000000,0.0000000,7.00,38.4063721,-110.7920990,1381.9000244,0.2,263.9,1.1,0.0,0.0,909,128,0,0,861.78,2.91,41.20,0
10:58:43,0,0,0,0,0,0,0,0,0,0,0,515,0,0,0,0,0.0000000,0.0000000,0.0000000,0.0000000,7.00,38.4063721,-110.7920990,1381.9000244,0.3,323.9,1.1,0.0,0.0,909,129,0,0,861.79,2.95,41.26,0
10:58:44,0,0,0,0,0,0,0,0,0,0,0,515,0,0,0,0,0.0000000,0.0000000,0.0000000,0.0000000,7.00,38.4063721,-110.7920990,1381.9000244,0.2,322.3,1.1,0.0,0.0,910,127,0,0,861.81,2.96,41.34,0
10:58:45,0,0,0,0,0,0,0,0,0,0,0,515,0,0,0,0,0.0000000,0.0000000,0.0000000,0.0000000,7.00,38.4063721,-110.7920990,1381.9000244,0.1,324.7,1.1,0.0,0.0,909,128,0,0,861.83,2.96,41.40,0
10:58:46,0,0,0,0,0,0,0,0,0,0,0,515,0,0,0,0,0.0000000,0.0000000,0.0000000,0.0000000,7.00,38.4063721,-110.7920990,1381.9000244,0.1,50.4,1.1,0.0,0.0,909,130,0,0,861.80,2.90,41.47,0
10:58:47,0,0,0,0,0,0,0,0,0,0,0,514,0,0,0,0,0.0000000,0.0000000,0.0000000,0.0000000,7.00,38.4063721,-110.7920990,1381.9000244,0.1,30.7,1.1,0.0,0.0,909,128,0,0,861.83,2.90,41.53,0
10:58:48,0,0,0,0,0,0,0,0,0,0,0,514,0,0,0,0,0.0000000,0.0000000,0.0000000,0.0000000,7.00,38.4063721,-110.7920990,1381.9000244,0.0,147.7,1.1,0.0,0.0,909,129,0,0,861.85,2.81,41.58,0
10:58:49,0,0,0,0,0,0,0,0,0,0,0,515,0,0,0,0,0.0000000,0.0000000,0.0000000,0.0000000,7.00,38.4063721,-110.7920990,1381.9000244,0.1,115.7,1.1,0.0,0.0,909,129,0,0,861.87,2.82,41.64,0
10:58:50,0,0,0,0,0,0,0,0,0,0,0,514,0,0,0,0,0.0000000,0.0000000,0.0000000,0.0000000,7.00,38.4063721,-110.7920990,1381.9000244,0.1,245.6,1.1,0.0,0.0,909,128,0,0,861.77,2.78,41.70,0
10:58:51,0,0,0,0,0,0,0,0,0,0,0,515,0,0,0,0,0.0000000,0.0000000,0.0000000,0.0000000,7.00,38.4063721,-110.7920990,1381.9000244,0.2,267.3,1.1,0.0,0.0,909,127,0,0,861.88,2.79,41.76,0
10:58:52,0,0,0,0,0,0,0,0,0,0,0,514,0,0,0,0,0.0000000,0.0000000,0.0000000,0.0000000,7.00,38.4063721,-110.7920990,1381.9000244,0.2,241.6,1.1,0.0,0.0,910,128,0,0,861.85,2.78,41.81,0
10:58:53,0,0,0,0,0,0,0,0,0,0,0,514,0,0,0,0,0.0000000,0.0000000,0.0000000,0.0000000,7.00,38.4063721,-110.7920990,1381.9000244,0.2,222.3,1.1,0.0,0.0,909,130,0,0,861.87,2.76,41.87,0
10:58:54,0,0,0,0,0,0,0,0,0,0,0,515,0,0,0,0,0.0000000,0.0000000,0.0000000,0.0000000,7.00,38.4063721,-110.7920990,1381.9000244,0.0,244.2,1.1,0.0,0.0,909,127,0,0,861.87,2.76,41.93,0
10:58:55,0,0,0,0,0,0,0,0,0,0,0,515,0,0,0,0,0.0000000,0.0000000,0.0000000,0.0000000,7.00,38.4063721,-110.7920990,1381.9000244,0.1,27.6,1.1,0.0,0.0,909,126,0,0,861.81,2.75,41.98,0
10:58:56,0,0,0,0,0,0,0,0,0,0,0,515,0,0,0,0,0.0000000,0.0000000,0.0000000,0.0000000,7.00,38.4063721,-110.7920990,1381.9000244,0.1,67.7,1.1,0.0,0.0,909,127,0,0,861.83,2.56,41.95,0
10:58:57,0,0,0,0,0,0,0,0,0,0,0,515,0,0,0,0,0.0000000,0.0000000,0.0000000,0.0000000,7.00,38.4063721,-110.7920990,1381.8000488,0.1,255.6,1.1,0.0,0.0,909,129,0,0,861.87,2.44,41.82,0
10:58:58,0,0,0,0,0,0,0,0,0,0,0,514,0,0,0,0,0.0000000,0.0000000,0.0000000,0.0000000,7.00,38.4063721,-110.7920990,1381.8000488,0.1,191.9,1.1,0.0,0.0,909,126,0,0,861.87,2.50,41.79,0
10:58:59,0,0,0,0,0,0,0,0,0,0,0,515,0,0,0,0,0.0000000,0.0000000,0.0000000,0.0000000,7.00,38.4063721,-110.7920990,1381.8000488,0.1,206.2,1.1,0.0,0.0,909,131,0,0,861.84,2.67,41.92,0
10:59:00,0,0,0,0,0,0,0,0,0,0,0,515,0,0,0,0,0.0000000,0.0000000,0.0000000,0.0000000,7.00,38.4063721,-110.7920990,1381.8000488,0.2,290.3,1.1,0.0,0.0,909,128,0,0,861.89,2.53,41.94,0
10:59:01,0,0,0,0,0,0,0,0,0,0,0,514,0,0,0,0,0.0000000,0.0000000,0.0000000,0.0000000,7.00,38.4063721,-110.7920990,1381.8000488,0.1,313.3,1.1,0.0,0.0,909,128,0,0,861.86,2.47,41.77,0
10:59:02,0,0,0,0,0,0,0,0,0,0,0,515,0,0,0,0,0.0000000,0.0000000,0.0000000,0.0000000,7.00,38.4063721,-110.7920990,1381.8000488,0.1,332.3,1.1,0.0,0.0,909,129,0,0,861.85,2.44,41.60,0
10:59:03,0,0,0,0,0,0,0,0,0,0,0,515,0,0,0,0,0.0000000,0.0000000,0.0000000,0.0000000,7.00,38.4063721,-110.7920990,1381.8000488,0.1,354.6,1.1,0.0,0.0,909,127,0,0,861.81,2.47,41.51,0
10:59:04,0,0,0,0,0,0,0,0,0,0,0,515,0,0,0,0,0.0000000,0.0000000,0.0000000,0.0000000,7.00,38.4063721,-110.7920990,1381.8000488,0.0,313.4,1.5,0.0,0.0,909,128,0,0,861.82,2.59,41.66,0
10:59:05,0,0,0,0,0,0,0,0,0,0,0,515,0,0,0,0,0.0000000,0.0000000,0.0000000,0.0000000,7.00,38.4063721,-110.7920990,1381.8000488,0.2,1.6,1.1,0.0,0.0,909,127,0,0,861.83,2.64,41.82,0
10:59:06,0,0,0,0,0,0,0,0,0,0,0,514,0,0,0,0,0.0000000,0.0000000,0.0000000,0.0000000,7.00,38.4063759,-110.7920990,1381.8000488,0.3,7.2,1.5,0.0,0.0,909,130,0,0,861.85,2.50,41.74,0
10:59:07,0,0,0,0,0,0,0,0,0,0,0,514,0,0,0,0,0.0000000,0.0000000,0.0000000,0.0000000,7.00,38.4063759,-110.7920990,1381.8000488,0.3,11.2,1.5,0.0,0.0,909,133,0,0,861.81,2.61,41.83,0
10:59:08,0,0,0,0,0,0,0,0,0,0,0,514,0,0,0,0,0.0000000,0.0000000,0.0000000,0.0000000,7.00,38.4063759,-110.7920990,1381.8000488,0.2,343.3,1.5,0.0,0.0,909,129,0,0,861.78,2.70,41.97,0
10:59:09,0,0,0,0,0,0,0,0,0,0,0,515,0,0,0,0,0.0000000,0.0000000,0.0000000,0.0000000,7.00,38.4063759,-110.7920990,1381.8000488,0.2,11.3,1.1,0.0,0.0,909,126,0,0,861.87,2.61,42.04,0
10:59:10,0,0,0,0,0,0,0,0,0,0,0,515,0,0,0,0,0.0000000,0.0000000,0.0000000,0.0000000,7.00,38.4063759,-110.7920990,1381.8000488,0.3,345.2,1.5,0.0,0.0,909,131,0,0,861.85,2.63,42.08,0
10:59:11,0,0,0,0,0,0,0,0,0,0,0,515,0,0,0,0,0.0000000,0.0000000,0.0000000,0.0000000,7.00,38.4063759,-110.7920990,1381.8000488,0.2,25.7,1.5,0.0,0.0,909,129,0,0,861.88,2.46,42.10,0
10:59:12,0,0,0,0,0,0,0,0,0,0,0,514,0,0,0,0,0.0000000,0.0000000,0.0000000,0.0000000,7.00,38.4063797,-110.7920990,1381.8000488,0.2,44.2,1.1,0.0,0.0,909,130,0,0,861.80,2.38,42.01,0
10:59:13,0,0,0,0,0,0,0,0,0,0,0,514,0,0,0,0,0.0000000,0.0000000,0.0000000,0.0000000,7.00,38.4063797,-110.7920990,1381.8000488,0.3,33.4,1.1,0.0,0.0,909,127,0,0,861.84,2.40,41.99,0
10:59:14,0,0,0,0,0,0,0,0,0,0,0,516,0,0,0,0,0.0000000,0.0000000,0.0000000,0.0000000,7.00,38.4063797,-110.7920990,1381.8000488,0.3,60.9,1.1,0.0,0.0,909,128,0,0,861.85,2.35,41.96,0
10:59:15,0,0,0,0,0,0,0,0,0,0,0,515,0,0,0,0,0.0000000,0.0000000,0.0000000,0.0000000,7.00,38.4063797,-110.7920990,1381.8000488,0.1,16.3,1.1,0.0,0.0,909,131,0,0,861.85,2.46,41.93,0
10:59:16,0,0,0,0,0,0,0,0,0,0,0,515,0,0,0,0,0.0000000,0.0000000,0.0000000,0.0000000,7.00,38.4063797,-110.7920990,1381.8000488,0.1,23.5,1.1,0.0,0.0,909,129,0,0,861.82,2.49,42.05,0
10:59:17,0,0,0,0,0,0,0,0,0,0,0,515,0,0,0,0,0.0000000,0.0000000,0.0000000,0.0000000,7.00,38.4063797,-110.7920990,1381.8000488,0.1,332.9,1.1,0.0,0.0,909,130,0,0,861.84,2.50,42.14,0
10:59:18,0,0,0,0,0,0,0,0,0,0,0,515,0,0,0,0,0.0000000,0.0000000,0.0000000,0.0000000,7.00,38.4063835,-110.7920990,1381.8000488,0.1,301.3,1.1,0.0,0.0,909,131,0,0,861.86,2.49,42.22,0
10:59:19,0,0,0,0,0,0,0,0,0,0,0,516,0,0,0,0,0.0000000,0.0000000,0.0000000,0.0000000,7.00,38.4063835,-110.7920990,1381.8000488,0.3,333.9,1.1,0.0,0.0,909,128,0,0,861.85,2.52,42.33,0
10:59:20,0,0,0,0,0,0,0,0,0,0,0,514,0,0,0,0,0.0000000,0.0000000,0.0000000,0.0000000,7.00,38.4063835,-110.7920990,1381.8000488,0.4,321.0,1.1,0.0,0.0,909,127,0,0,861.82,2.56,42.43,0
10:59:21,0,0,0,0,0,0,0,0,0,0,0,515,0,0,0,0,0.0000000,0.0000000,0.0000000,0.0000000,7.00,38.4063835,-110.7920990,1381.8000488,0.2,346.2,1.1,0.0,0.0,909,129,0,0,861.84,2.56,42.48,0
10:59:22,0,0,0,0,0,0,0,0,0,0,0,514,0,0,0,0,0.0000000,0.0000000,0.0000000,0.0000000,7.00,38.4063873,-110.7920990,1381.8000488,0.3,343.0,1.5,0.0,0.0,909,130,0,0,861.84,2.55,42.53,0
10:59:23,0,0,0,0,0,0,0,0,0,0,0,515,0,0,0,0,0.0000000,0.0000000,0.0000000,0.0000000,7.00,38.4063873,-110.7920990,1381.8000488,0.3,339.5,1.1,0.0,0.0,909,128,0,0,861.85,2.58,42.62,0
10:59:24,0,0,0,0,0,0,0,0,0,0,0,515,0,0,0,0,0.0000000,0.0000000,0.0000000,0.0000000,7.00,38.4063911,-110.7921143,1381.8000488,0.2,345.8,1.1,0.0,0.0,909,127,0,0,861.85,2.56,42.69,0
10:59:26,0,0,0,0,0,0,0,0,0,0,0,515,0,0,0,0,0.0000000,0.0000000,0.0000000,0.0000000,7.00,38.4063911,-110.7921143,1381.8000488,0.1,309.4,1.5,0.0,0.0,909,129,0,0,861.82,2.43,42.74,0
10:59:27,0,0,0,0,0,0,0,0,0,0,0,515,0,0,0,0,0.0000000,0.0000000,0.0000000,0.0000000,7.00,38.4063911,-110.7921143,1381.8000488,0.2,261.9,1.1,0.0,0.0,909,129,0,0,861.87,2.34,42.66,0
10:59:28,0,0,0,0,0,0,0,0,0,0,0,515,0,0,0,0,0.0000000,0.0000000,0.0000000,0.0000000,7.00,38.4063950,-110.7921143,1381.8000488,0.2,296.0,1.1,0.0,0.0,909,131,0,0,861.86,2.32,42.71,0
10:59:29,0,0,0,0,0,0,0,0,0,0,0,514,0,0,0,0,0.0000000,0.0000000,0.0000000,0.0000000,7.00,38.4063950,-110.7920990,1381.8000488,0.0,279.9,1.1,0.0,0.0,909,128,0,0,861.85,2.43,42.81,0
10:59:30,0,0,0,0,0,0,0,0,0,0,0,515,0,0,0,0,0.0000000,0.0000000,0.0000000,0.0000000,7.00,38.4063911,-110.7920990,1381.8000488,0.2,179.0,1.1,0.0,0.0,909,126,0,0,861.80,2.50,42.91,0
10:59:31,0,0,0,0,0,0,0,0,0,0,0,515,0,0,0,0,0.0000000,0.0000000,0.0000000,0.0000000,7.00,38.4063911,-110.7920990,1381.8000488,0.2,134.1,1.1,0.0,0.0,909,126,0,0,861.88,2.50,42.98,0
10:59:32,0,0,0,0,0,0,0,0,0,0,0,514,0,0,0,0,0.0000000,0.0000000,0.0000000,0.0000000,7.00,38.4063950,-110.7920990,1381.8000488,0.2,39.7,1.1,0.0,0.0,909,128,0,0,861.86,2.41,43.02,0
10:59:33,0,0,0,0,0,0,0,0,0,0,0,515,0,0,0,0,0.0000000,0.0000000,0.0000000,0.0000000,7.00,38.4063950,-110.7920990,1381.9000244,0.3,31.6,1.1,0.0,0.0,909,129,0,0,861.87,2.38,43.07,0
10:59:34,0,0,0,0,0,0,0,0,0,0,0,515,0,0,0,0,0.0000000,0.0000000,0.0000000,0.0000000,7.00,38.4063950,-110.7920990,1381.9000244,0.1,39.8,1.1,0.0,0.0,909,128,0,0,861.86,2.35,43.01,0
10:59:35,0,0,0,0,0,0,0,0,0,0,0,515,0,0,0,0,0.0000000,0.0000000,0.0000000,0.0000000,7.00,38.4063988,-110.7920990,1381.9000244,0.2,359.4,1.1,0.0,0.0,909,130,0,0,861.85,2.46,43.10,0
10:59:36,0,0,0,0,0,0,0,0,0,0,0,515,0,0,0,0,0.0000000,0.0000000,0.0000000,0.0000000,7.00,38.4064026,-110.7920990,1381.9000244,0.2,358.8,1.5,0.0,0.0,909,127,0,0,861.96,2.24,43.04,0
10:59:37,0,0,0,0,0,0,0,0,0,0,0,515,0,0,0,0,0.0000000,0.0000000,0.0000000,0.0000000,7.00,38.4064026,-110.7920990,1381.9000244,0.3,348.1,1.5,0.0,0.0,908,127,0,0,861.88,2.34,43.03,0
10:59:38,0,0,0,0,0,0,0,0,0,0,0,514,0,0,0,0,0.0000000,0.0000000,0.0000000,0.0000000,7.00,38.4064064,-110.7920990,1381.8000488,0.3,340.3,1.5,0.0,0.0,909,129,0,0,861.88,2.37,43.12,0
10:59:39,0,0,0,0,0,0,0,0,0,0,0,515,0,0,0,0,0.0000000,0.0000000,0.0000000,0.0000000,7.00,38.4064102,-110.7920990,1381.8000488,0.3,342.7,1.1,0.0,0.0,909,127,0,0,861.90,2.29,43.16,0
10:59:40,0,0,0,0,0,0,0,0,0,0,0,514,0,0,0,0,0.0000000,0.0000000,0.0000000,0.0000000,7.00,38.4064102,-110.7920990,1381.8000488,0.3,357.6,1.1,0.0,0.0,908,130,0,0,861.87,2.29,43.21,0
10:59:41,0,0,0,0,0,0,0,0,0,0,0,514,0,0,0,0,0.0000000,0.0000000,0.0000000,0.0000000,7.00,38.4064140,-110.7920914,1381.9000244,0.3,36.4,1.5,0.0,0.0,909,128,0,0,861.86,2.26,43.29,0
10:59:42,0,0,0,0,0,0,0,0,0,0,0,515,0,0,0,0,0.0000000,0.0000000,0.0000000,0.0000000,7.00,38.4064140,-110.7920914,1381.9000244,0.3,30.9,1.1,0.0,0.0,909,128,0,0,861.89,2.27,43.35,0
10:59:43,0,0,0,0,0,0,0,0,0,0,0,514,0,0,0,0,0.0000000,0.0000000,0.0000000,0.0000000,7.00,38.4064140,-110.7920914,1381.9000244,0.2,33.8,1.1,0.0,0.0,909,128,0,0,861.88,2.27,43.40,0
10:59:44,0,0,0,0,0,0,0,0,0,0,0,515,0,0,0,0,0.0000000,0.0000000,0.0000000,0.0000000,7.00,38.4064178,-110.7920914,1381.9000244,0.2,353.1,1.1,0.0,0.0,909,128,0,0,861.90,2.27,43.45,0
10:59:45,0,0,0,0,0,0,0,0,0,0,0,515,0,0,0,0,0.0000000,0.0000000,0.0000000,0.0000000,7.00,38.4064178,-110.7920914,1381.9000244,0.3,1.4,1.5,0.0,0.0,908,127,0,0,861.88,2.21,43.49,0
10:59:46,0,0,0,0,0,0,0,0,0,0,0,515,0,0,0,0,0.0000000,0.0000000,0.0000000,0.0000000,7.00,38.4064178,-110.7920914,1381.9000244,0.2,311.4,1.5,0.0,0.0,909,128,0,0,861.86,2.09,43.50,0
10:59:47,0,0,0,0,0,0,0,0,0,0,0,514,0,0,0,0,0.0000000,0.0000000,0.0000000,0.0000000,7.00,38.4064178,-110.7920914,1381.9000244,0.0,325.2,1.1,0.0,0.0,909,129,0,0,861.87,2.12,43.53,0
10:59:48,0,0,0,0,0,0,0,0,0,0,0,515,0,0,0,0,0.0000000,0.0000000,0.0000000,0.0000000,7.00,38.4064178,-110.7920914,1381.9000244,0.2,307.3,1.1,0.0,0.0,909,130,0,0,861.89,2.06,43.56,0
10:59:49,0,0,0,0,0,0,0,0,0,0,0,514,0,0,0,0,0.0000000,0.0000000,0.0000000,0.0000000,7.00,38.4064140,-110.7920914,1381.9000244,0.1,355.8,1.1,0.0,0.0,909,129,0,0,861.86,1.95,43.47,0
10:59:50,0,0,0,0,0,0,0,0,0,0,0,514,0,0,0,0,0.0000000,0.0000000,0.0000000,0.0000000,7.00,38.4064140,-110.7920914,1381.9000244,0.0,216.0,1.5,0.0,0.0,908,130,0,0,861.83,2.06,43.39,0
10:59:51,0,0,0,0,0,0,0,0,0,0,0,515,0,0,0,0,0.0000000,0.0000000,0.0000000,0.0000000,7.00,38.4064140,-110.7920914,1381.9000244,0.1,218.8,1.1,0.0,0.0,909,128,0,0,861.90,2.03,43.48,0
10:59:52,0,0,0,0,0,0,0,0,0,0,0,515,0,0,0,0,0.0000000,0.0000000,0.0000000,0.0000000,7.00,38.4064140,-110.7920914,1381.9000244,0.1,282.8,1.1,0.0,0.0,908,128,0,0,861.85,2.05,43.56,0
10:59:53,0,0,0,0,0,0,0,0,0,0,0,515,0,0,0,0,0.0000000,0.0000000,0.0000000,0.0000000,7.00,38.4064102,-110.7920914,1382.0000000,0.0,317.9,1.1,0.0,0.0,909,127,0,0,861.84,2.03,43.64,0
10:59:54,0,0,0,0,0,0,0,0,0,0,0,515,0,0,0,0,0.0000000,0.0000000,0.0000000,0.0000000,7.00,38.4064102,-110.7920914,1382.0000000,0.1,52.8,1.1,0.0,0.0,909,130,0,0,861.84,2.01,43.58,0
10:59:55,0,0,0,0,0,0,0,0,0,0,0,515,0,0,0,0,0.0000000,0.0000000,0.0000000,0.0000000,7.00,38.4064064,-110.7920914,1382.0000000,0.1,144.3,1.1,0.0,0.0,908,130,0,0,861.87,1.92,43.57,0
10:59:56,0,0,0,0,0,0,0,0,0,0,0,514,0,0,0,0,0.0000000,0.0000000,0.0000000,0.0000000,7.00,38.4064064,-110.7920914,1382.0000000,0.2,55.0,1.1,0.0,0.0,908,122,0,0,861.85,1.92,43.55,0
10:59:57,0,0,0,0,0,0,0,0,0,0,0,515,0,0,0,0,0.0000000,0.0000000,0.0000000,0.0000000,7.00,38.4064064,-110.7920914,1382.0000000,0.0,356.6,1.1,0.0,0.0,908,129,0,0,861.87,2.00,43.60,0
10:59:58,0,0,0,0,0,0,0,0,0,0,0,516,0,0,0,0,0.0000000,0.0000000,0.0000000,0.0000000,7.00,38.4064064,-110.7920914,1382.0999756,0.0,195.8,1.5,0.0,0.0,908,130,0,0,861.84,2.08,43.71,0
10:59:59,0,0,0,0,0,0,0,0,0,0,0,515,0,0,0,0,0.0000000,0.0000000,0.0000000,0.0000000,7.00,38.4064064,-110.7920914,1382.1999512,0.1,96.9,1.1,0.0,0.0,908,130,0,0,861.84,1.98,43.76,0
11:00:00,0,0,0,0,0,0,0,0,0,0,0,515,0,0,0,0,0.0000000,0.0000000,0.0000000,0.0000000,7.00,38.4064064,-110.7920914,1382.1999512,0.1,314.1,1.1,0.0,0.0,908,126,0,0,861.83,2.05,43.83,0
11:00:01,0,0,0,0,0,0,0,0,0,0,0,515,0,0,0,0,0.0000000,0.0000000,0.0000000,0.0000000,7.00,38.4064064,-110.7920914,1382.3000488,0.2,329.3,1.1,0.0,0.0,908,125,0,0,861.84,2.09,43.91,0
11:00:02,0,0,0,0,0,0,0,0,0,0,0,515,0,0,0,0,0.0000000,0.0000000,0.0000000,0.0000000,7.00,38.4064026,-110.7920914,1382.4000244,0.1,216.6,1.1,0.0,0.0,909,128,0,0,861.90,1.92,43.92,0
11:00:03,0,0,0,0,0,0,0,0,0,0,0,515,0,0,0,0,0.0000000,0.0000000,0.0000000,0.0000000,7.00,38.4064026,-110.7920914,1382.4000244,0.1,283.3,1.1,0.0,0.0,909,127,0,0,861.86,1.86,43.88,0
11:00:04,0,0,0,0,0,0,0,0,0,0,0,515,0,0,0,0,0.0000000,0.0000000,0.0000000,0.0000000,7.00,38.4063988,-110.7920914,1382.5999756,0.0,339.2,1.1,0.0,0.0,909,126,0,0,861.85,1.89,43.97,0
11:00:05,0,0,0,0,0,0,0,0,0,0,0,514,0,0,0,0,0.0000000,0.0000000,0.0000000,0.0000000,7.00,38.4063950,-110.7920914,1382.6999512,0.1,261.5,1.1,0.0,0.0,909,130,0,0,861.87,2.00,44.05,0
11:00:06,0,0,0,0,0,0,0,0,0,0,0,515,0,0,0,0,0.0000000,0.0000000,0.0000000,0.0000000,7.00,38.4063950,-110.7920914,1382.8000488,0.1,234.7,1.1,0.0,0.0,909,128,0,0,861.89,2.05,44.13,0
11:00:07,0,0,0,0,0,0,0,0,0,0,0,514,0,0,0,0,0.0000000,0.0000000,0.0000000,0.0000000,7.00,38.4063911,-110.7920914,1382.9000244,0.0,242.4,1.1,0.0,0.0,908,127,0,0,861.82,1.88,44.12,0
11:00:08,0,0,0,0,0,0,0,0,0,0,0,515,0,0,0,0,0.0000000,0.0000000,0.0000000,0.0000000,7.00,38.4063911,-110.7920914,1383.0000000,0.1,32.6,1.1,0.0,0.0,909,129,0,0,861.82,1.83,43.57,0
11:00:09,0,0,0,0,0,0,0,0,0,0,0,515,0,0,0,0,0.0000000,0.0000000,0.0000000,0.0000000,7.00,38.4063873,-110.7920914,1383.1999512,0.1,30.8,1.1,0.0,0.0,909,127,0,0,861.84,1.85,43.49,0
11:00:10,0,0,0,0,0,0,0,0,0,0,0,515,0,0,0,0,0.0000000,0.0000000,0.0000000,0.0000000,7.00,38.4063835,-110.7920914,1383.3000488,0.2,162.5,1.1,0.0,0.0,909,130,0,0,861.83,1.88,43.42,0
11:00:11,0,0,0,0,0,0,0,0,0,0,0,516,0,0,0,0,0.0000000,0.0000000,0.0000000,0.0000000,7.00,38.4063797,-110.7920914,1383.3000488,0.2,188.1,1.1,0.0,0.0,909,128,0,0,861.83,1.94,43.59,0
11:00:12,0,0,0,0,0,0,0,0,0,0,0,515,0,0,0,0,0.0000000,0.0000000,0.0000000,0.0000000,7.00,38.4063797,-110.7920914,1383.4000244,0.3,200.2,1.1,0.0,0.0,909,128,0,0,861.84,1.94,43.74,0
11:00:13,0,0,0,0,0,0,0,0,0,0,0,514,0,0,0,0,0.0000000,0.0000000,0.0000000,0.0000000,7.00,38.4063797,-110.7920914,1383.4000244,0.2,204.2,1.1,0.0,0.0,909,137,0,0,861.84,1.80,43.68,0
11:00:14,0,0,0,0,0,0,0,0,0,0,0,515,0,0,0,0,0.0000000,0.0000000,0.0000000,0.0000000,7.00,38.4063797,-110.7920914,1383.4000244,0.1,222.5,1.1,0.0,0.0,909,127,0,0,861.84,1.80,43.56,0
11:00:15,0,0,0,0,0,0,0,0,0,0,0,515,0,0,0,0,0.0000000,0.0000000,0.0000000,0.0000000,7.00,38.4063759,-110.7920914,1383.5000000,0.1,49.3,1.1,0.0,0.0,908,128,0,0,861.83,1.88,43.58,0
11:00:16,0,0,0,0,0,0,0,0,0,0,0,515,0,0,0,0,0.0000000,0.0000000,0.0000000,0.0000000,7.00,38.4063759,-110.7920761,1383.5999756,0.1,119.6,1.1,0.0,0.0,909,127,0,0,861.80,1.88,43.73,0
11:00:17,0,0,0,0,0,0,0,0,0,0,0,515,0,0,0,0,0.0000000,0.0000000,0.0000000,0.0000000,7.00,38.4063721,-110.7920761,1383.8000488,0.1,55.7,1.1,0.0,0.0,908,128,0,0,861.91,1.80,43.75,0
11:00:18,0,0,0,0,0,0,0,0,0,0,0,515,0,0,0,0,0.0000000,0.0000000,0.0000000,0.0000000,7.00,38.4063721,-110.7920761,1383.8000488,0.2,50.2,1.1,0.0,0.0,908,128,0,0,861.84,1.85,43.77,0
11:00:19,0,0,0,0,0,0,0,0,0,0,0,516,0,0,0,0,0.0000000,0.0000000,0.0000000,0.0000000,7.00,38.4063721,-110.7920761,1383.8000488,0.2,29.9,1.1,0.0,0.0,909,124,0,0,861.85,2.06,43.97,0
11:00:20,0,0,0,0,0,0,0,0,0,0,0,514,0,0,0,0,0.0000000,0.0000000,0.0000000,0.0000000,7.00,38.4063721,-110.7920761,1383.8000488,0.0,58.8,1.1,0.0,0.0,908,128,0,0,861.84,2.08,44.10,0
11:00:21,0,0,0,0,0,0,0,0,0,0,0,515,0,0,0,0,0.0000000,0.0000000,0.0000000,0.0000000,7.00,38.4063721,-110.7920761,1383.8000488,0.1,48.5,1.1,0.0,0.0,908,124,0,0,861.88,1.94,44.12,0
11:00:22,0,0,0,0,0,0,0,0,0,0,0,514,0,0,0,0,0.0000000,0.0000000,0.0000000,0.0000000,7.00,38.4063721,-110.7920761,1383.8000488,0.0,241.6,1.1,0.0,0.0,909,126,0,0,861.85,1.88,44.06,0
11:00:23,0,0,0,0,0,0,0,0,0,0,0,515,0,0,0,0,0.0000000,0.0000000,0.0000000,0.0000000,7.00,38.4063721,-110.7920761,1383.8000488,0.2,30.9,1.1,0.0,0.0,908,126,0,0,861.82,1.92,44.17,0
11:00:24,0,0,0,0,0,0,0,0,0,0,0,515,0,0,0,0,0.0000000,0.0000000,0.0000000,0.0000000,7.00,38.4063721,-110.7920761,1383.8000488,0.1,89.9,1.1,0.0,0.0,909,129,0,0,861.87,1.92,44.17,0
11:00:25,0,0,0,0,0,0,0,0,0,0,0,515,0,0,0,0,0.0000000,0.0000000,0.0000000,0.0000000,7.00,38.4063721,-110.7920761,1383.8000488,0.2,160.5,1.1,0.0,0.0,909,130,0,0,861.85,1.94,44.24,0
11:00:26,0,0,0,0,0,0,0,0,0,0,0,515,0,0,0,0,0.0000000,0.0000000,0.0000000,0.0000000,7.00,38.4063721,-110.7920761,1383.8000488,0.2,181.9,1.1,0.0,0.0,908,126,0,0,861.87,1.98,44.33,0
11:00:27,0,0,0,0,0,0,0,0,0,0,0,514,0,0,0,0,0.0000000,0.0000000,0.0000000,0.0000000,7.00,38.4063721,-110.7920761,1383.8000488,0.3,178.0,1.1,0.0,0.0,908,127,0,0,861.87,1.95,44.40,0
11:00:28,0,0,0,0,0,0,0,0,0,0,0,515,0,0,0,0,0.0000000,0.0000000,0.0000000,0.0000000,7.00,38.4063683,-110.7920761,1383.8000488,0.2,182.7,1.1,0.0,0.0,908,129,0,0,861.85,1.92,44.47,0
11:00:29,0,0,0,0,0,0,0,0,0,0,0,516,0,0,0,0,0.0000000,0.0000000,0.0000000,0.0000000,7.00,38.4063683,-110.7920761,1383.8000488,0.3,164.6,1.1,0.0,0.0,909,128,0,0,861.86,1.85,44.51,0
11:00:30,0,0,0,0,0,0,0,0,0,0,0,514,0,0,0,0,0.0000000,0.0000000,0.0000000,0.0000000,7.00,38.4063683,-110.7920761,1383.8000488,0.3,171.1,1.1,0.0,0.0,909,128,0,0,861.83,1.82,44.54,0
11:00:31,0,0,0,0,0,0,0,0,0,0,0,515,0,0,0,0,0.0000000,0.0000000,0.0000000,0.0000000,7.00,38.4063644,-110.7920761,1383.8000488,0.3,186.1,1.1,0.0,0.0,908,130,0,0,861.90,1.86,44.55,0
11:00:32,0,0,0,0,0,0,0,0,0,0,0,515,0,0,0,0,0.0000000,0.0000000,0.0000000,0.0000000,7.00,38.4063644,-110.7920761,1383.8000488,0.2,188.0,1.1,0.0,0.0,908,134,0,0,861.86,1.89,44.63,0
11:00:33,0,0,0,0,0,0,0,0,0,0,0,514,0,0,0,0,0.0000000,0.0000000,0.0000000,0.0000000,7.00,38.4063644,-110.7920761,1383.8000488,0.3,187.2,1.1,0.0,0.0,908,131,0,0,861.86,1.83,44.69,0
11:00:34,0,0,0,0,0,0,0,0,0,0,0,515,0,0,0,0,0.0000000,0.0000000,0.0000000,0.0000000,7.00,38.4063606,-110.7920761,1383.8000488,0.3,167.5,1.1,0.0,0.0,908,127,0,0,861.87,1.85,44.71,0
11:00:35,0,0,0,0,0,0,0,0,0,0,0,515,0,0,0,0,0.0000000,0.0000000,0.0000000,0.0000000,7.00,38.4063606,-110.7920761,1383.8000488,0.1,195.2,1.1,0.0,0.0,908,129,0,0,861.88,1.86,44.77,0
11:00:36,0,0,0,0,0,0,0,0,0,0,0,515,0,0,0,0,0.0000000,0.0000000,0.0000000,0.0000000,7.00,38.4063606,-110.7920761,1383.8000488,0.1,192.8,1.1,0.0,0.0,908,125,0,0,861.84,1.83,44.83,0
11:00:37,0,0,0,0,0,0,0,0,0,0,0,515,0,0,0,0,0.0000000,0.0000000,0.0000000,0.0000000,7.00,38.4063606,-110.7920761,1383.8000488,0.1,179.6,1.1,0.0,0.0,908,129,0,0,861.89,1.82,44.86,0
11:00:38,0,0,0,0,0,0,0,0,0,0,0,515,0,0,0,0,0.0000000,0.0000000,0.0000000,0.0000000,7.00,38.4063568,-110.7920761,1383.8000488,0.1,135.0,1.1,0.0,0.0,908,128,0,0,861.88,1.80,44.91,0
11:00:39,0,0,0,0,0,0,0,0,0,0,0,515,0,0,0,0,0.0000000,0.0000000,0.0000000,0.0000000,7.00,38.4063568,-110.7920761,1383.8000488,0.2,165.2,1.1,0.0,0.0,909,129,0,0,861.94,1.72,44.93,0
11:00:40,0,0,0,0,0,0,0,0,0,0,0,515,0,0,0,0,0.0000000,0.0000000,0.0000000,0.0000000,7.00,38.4063568,-110.7920761,1383.8000488,0.0,280.4,1.1,0.0,0.0,908,126,0,0,861.91,1.65,44.87,0
11:00:41,0,0,0,0,0,0,0,0,0,0,0,515,0,0,0,0,0.0000000,0.0000000,0.0000000,0.0000000,7.00,38.4063568,-110.7920761,1383.8000488,0.1,180.6,1.1,0.0,0.0,909,130,0,0,861.88,1.69,44.91,0
